~VERSION INFORMATION
 VERS.                2.0:   CWLS LOG ASCII STANDARD - VERSION 2.0
 WRAP.                 NO:   ONE LINE PER DEPTH STEP
~WELL INFORMATION
#MNEM.UNIT      DATA TYPE    INFORMATION
#----------   ------------   ------------------------------
 STRT.F           33.5000:   START DEPTH
 STOP.F          692.0000:   STOP DEPTH
 STEP.F            0.5000:   STEP LENGTH
 NULL.          -999.2500:   NO VALUE
 COMP. FENIX & SCISSON INC:   COMPANY
 WELL.       NPR-3 #65-34:   WELL
 FLD .  TEAPOT DOME NPR-3:   FIELD
 LOC .      S34 T39N R78W:   LOCATION
 CNTY.            NATRONA:   COUNTY
 STAT.            WYOMING:   STATE
 CTRY. UNITED STATES OF AMERICA:   COUNTRY
 SRVC.           BIRDWELL:   SERVICE COMPANY
 DATE.        14-AUG-1978:   LOGDATE
 API .       490251070400:   API NUMBER
~CURVE INFORMATION
#MNEM.UNIT       API CODE    CURVE DESCRIPTION
#----------   ------------   ------------------------------
 DEPT.F                  :   
 CALD.IN     45 280 60 00:   CALIPER
 GRD .GAPI   45 310 01 00:   GAMMA RAY FROM DENSITY LOG
 RHOB.G/C3   45 350 01 00:   BULK DENSITY
 CORR.G/C3   45 356 01 00:   DENSITY CORRECTION
 DPHI.DEC    45 890 12 00:   DENSITY POROSITY SANDSTONE
 SPR .MV     05 010 01 00:   SPONTANEOUS POTENTIAL
 SN  .OHMM   05 040 16 00:   SHORT NORMAL 16'
 ILD .OHMM   05 120 46 00:   INDUCTION LOG DEEP RESISTIVITY
~PARAMETER INFORMATION
#MNEM.UNIT          VALUE    DESCRIPTION
#----------   ------------   ------------------------------
 PD  .                 GL:   PERMANENT DATUM
 EPD .F              5083:   ELEVATION PERMANENT DATUM
 LMF .                 KB:   LOG MEASURED FROM
 DAPD.F                 4:   FEET ABOVE PERMANENT DATUM
 DMF .                 KB:   DRILLING MEASURED FROM
 EKB .F              5087:   KELLING BUSHING
 EGL .F              5083:   GROUND LEVEL
 DATE.            8-14-78:   RUN DATE
 RUN .                  1:   RUN NUMBER
 DD  .F               675:   DEPTH DRILLER
 DL  .F               682:   DEPTH LOGGER
 BLI .F               676:   BOTTOM LOG INTERVAL
 TLI .F                50:   TOP LOG INTERVAL
 CS  .IN            8.625:   CASING SIZE
 CBD .F                40:   CASING BOTTOM DRILLER
 BS  .IN            7.875:   BIT SIZE
 BSD .F               675:   BIT SIZE AT DEPTH
 DFT .                KCL:   DRILLING FLUID TYPE
 DFD .                8.7:   DRILLING FLUID DENSITY
 DFV .                 31:   DRILLING FLUID VISCOSITY
 DFPH.                  9:   DRILLING FLUID PH
 TCS .HRS               2:   TIME CURCULATED STOPPED
 LUN .               3006:   LOGGING UNIT NUMBER
 LUL .               CASP:   LOGGING UNIT LOCATION
 ENGI.             MILLER:   RECORDING ENGINEER
 WITN.           MCGINLEY:   WITNESSED BY
 CLNT.            A2DTECH:   CLIENT CODE
 ORIG.           5" PRINT:   ORIGIN OF DATA
 UWI .       490251070400:   UNIQUE WELL ID
 DICO. A2D Technologies, Inc.:   DIGITIZING COMPANY
~OTHER INFORMATION
~A   DEPT     CALD         GRD      RHOB       CORR       DPHI        SPR         SN        ILD   
# ...
  317.0000     7.9410    91.3776     2.4799     0.0437     0.1184   -22.0334     7.0338     7.9548
  317.5000     7.9530    91.4193     2.4828     0.0408     0.1162   -22.0433     7.0563     7.9548
  318.0000     7.9650    91.0163     2.4835     0.0374     0.1183   -22.0532     7.0434     7.9548
  318.5000     7.9770    90.5692     2.4796     0.0340     0.1223   -22.0631     7.0269     7.9548
  319.0000     7.9890    90.5513     2.4750     0.0306     0.1261   -22.0730     7.0105     7.9548
  319.5000     8.0010    90.8719     2.4703     0.0280     0.1258   -22.0854     6.9941     7.9548
  320.0000     8.0130    93.4565     2.4707     0.0287     0.1243   -22.0991     6.9777     7.9548
  320.5000     8.0250    96.5837     2.4722     0.0293     0.1237   -22.1129     6.9614     7.9548
  321.0000     8.0369    95.6237     2.4737     0.0300     0.1245   -22.1268     6.9449     7.9548
  321.5000     8.0489    93.8636     2.4759     0.0336     0.1218   -22.1406     6.9275     7.9548
  322.0000     8.0610    90.1848     2.4792     0.0375     0.1214   -22.1543     6.9507     7.9548
  322.5000     8.0731    91.6512     2.4796     0.0370     0.1210   -22.1681     6.9764     7.9548
  323.0000     8.0651    92.0715     2.4795     0.0360     0.1205   -22.1819     7.0023     7.9548
  323.5000     8.0522    90.4342     2.4825     0.0378     0.1199   -22.1957     7.0282     7.9548
  324.0000     8.0392    91.1773     2.4872     0.0397     0.1198   -22.2095     7.0563     7.9549
  324.5000     8.0263    94.4526     2.4887     0.0414     0.1190   -22.2233     6.9703     7.9553
  325.0000     8.0134    94.3735     2.4884     0.0431     0.1146   -22.2371     6.8779     7.9548
  325.5000     8.0005    96.1320     2.4938     0.0448     0.1102   -22.2509     6.7867     7.8856
  326.0000     7.9938    98.2843     2.4993     0.0465     0.1098   -22.2648     6.7317     7.8171
  326.5000     8.0024    99.1176     2.5073     0.0483     0.1021   -22.2779     6.7174     7.7491
  327.0000     8.0136    95.9229     2.5157     0.0498     0.0969   -22.2783     6.7031     7.6662
  327.5000     8.0250    92.5567     2.5199     0.0469     0.0953   -22.2782     6.6888     7.6670
  328.0000     8.0363    91.0002     2.5186     0.0439     0.0978   -22.2782     6.6745     7.6668
  328.5000     8.0477    96.7569     2.5174     0.0426     0.1007   -22.2782     6.6603     7.6668
  329.0000     8.0590   101.1811     2.5162     0.0448     0.1008   -22.2782     6.6460     7.6668
  329.5000     8.0703   100.7811     2.5183     0.0447     0.0994   -22.2782     6.6319     7.6668
  330.0000     8.0816    95.2735     2.5215     0.0390     0.1082   -22.2782     6.6177     7.6668
  330.5000     8.0929    92.0075     2.5059     0.0403     0.1062   -22.2782     6.5716     7.6668
  331.0000     8.0942    91.1599     2.5005     0.0436     0.1116   -22.2782     6.5193     7.6668
  331.5000     8.0942    90.8327     2.4888     0.0391     0.1207   -22.2782     6.4669     7.6669
  332.0000     8.0942    93.4398     2.4763     0.0335     0.1269   -22.2782     6.4344     7.6662
  332.5000     8.0942    97.4451     2.4674     0.0308     0.1261   -22.2782     6.4348     7.6689
  333.0000     8.0942    99.9311     2.4708     0.0330     0.1230   -22.2782     6.4348     7.5727
  333.5000     8.0942    95.9266     2.4714     0.0352     0.1249   -22.2782     6.4348     7.4823
  334.0000     8.0942    92.9858     2.4710     0.0375     0.1258   -22.2782     6.4349     7.3892
  334.5000     8.0942    96.0121     2.4704     0.0397     0.1258   -22.2782     6.4354     7.3703
  335.0000     8.0942    99.3326     2.4780     0.0419     0.1197   -22.2783     6.3864     7.3507
  335.5000     8.0942   100.8096     2.4874     0.0441     0.1134   -22.2857     6.3272     7.3311
  336.0000     8.0942   100.6300     2.4881     0.0454     0.1142   -22.2941     6.2684     7.2941
  336.5000     8.0942   100.4753     2.4871     0.0420     0.1161   -22.3024     6.2101     7.2070
  337.0000     8.0942   102.2571     2.4847     0.0387     0.1223   -22.3107     6.1524     7.1217
  337.5000     8.0942   105.3710     2.4726     0.0361     0.1300   -22.3190     6.0950     7.0175
  338.0000     8.0942   102.4689     2.4600     0.0379     0.1331   -22.3274     6.0385     6.9157
  338.5000     8.0942   100.2249     2.4595     0.0395     0.1321   -22.3357     6.0207     6.8153
  339.0000     8.0942   101.2074     2.4672     0.0453     0.1268   -22.3440     6.0077     6.7164
  339.5000     8.0942   103.8177     2.4745     0.0514     0.1212   -22.3523     5.9946     6.6714
  340.0000     8.0942   106.2435     2.4818     0.0577     0.1155   -22.3606     5.9778     6.6586
  340.5000     8.0942   105.5914     2.4885     0.0603     0.1150   -22.3689     5.9839     6.6458
  341.0000     8.0942   101.9714     2.4888     0.0610     0.1156   -22.3773     5.9936     6.6331
  341.5000     8.0942    98.3079     2.4891     0.0616     0.1162   -22.3856     6.0034     6.6153
  342.0000     8.0942    96.0449     2.4893     0.0623     0.1157   -22.3939     6.0132     6.7225
  342.5000     8.0942    96.6361     2.4904     0.0629     0.1136   -22.4022     6.0230     6.9044
  343.0000     8.0942    95.9159     2.4930     0.0636     0.1154   -22.4105     6.0328     6.9293
  343.5000     8.0942    93.1613     2.4925     0.0629     0.1095   -22.4189     6.0426     6.9322
  344.0000     8.0942    90.3753     2.4986     0.0614     0.1022   -22.4272     6.0525     6.9350
  344.5000     8.0942    88.9003     2.5047     0.0598     0.1029   -22.4355     6.0623     6.9378
  345.0000     8.0939    87.7178     2.5029     0.0546     0.1096   -22.4438     6.0722     6.9407
  345.5000     8.1027    87.4911     2.4945     0.0506     0.1150   -22.4522     6.0821     6.9435
  346.0000     8.1124    90.3819     2.4925     0.0555     0.1142   -22.4608     6.1009     6.9464
  346.5000     8.1221    93.7903     2.4940     0.0602     0.1117   -22.4683     6.1366     6.9492
  347.0000     8.1318    94.9619     2.4955     0.0650     0.1102   -22.4808     6.1724     6.9520
  347.5000     8.1415    96.3109     2.4971     0.0659     0.1100   -22.2411     6.2084     6.9549
  348.0000     8.1511    95.8148     2.4985     0.0659     0.1098   -21.8956     6.2447     6.9577
  348.5000     8.1608    93.9357     2.4988     0.0659     0.1098   -21.5378     6.2812     6.9606
  349.0000     8.1706    90.9952     2.4990     0.0659     0.1098   -21.4642     6.3173     6.9634
  349.5000     8.1717    90.8456     2.4993     0.0659     0.1098   -21.4551     6.3049     6.9663
  350.0000     8.1676    92.1132     2.4994     0.0662     0.1099   -21.4471     6.2924     6.9691
  350.5000     8.1634    93.2672     2.4988     0.0669     0.1094   -21.4384     6.2800     6.9720
  351.0000     8.1592    93.4788     2.5009     0.0676     0.1033   -21.4296     6.2677     6.9748
  351.5000     8.1550    93.7184     2.5056     0.0661     0.1058   -21.4208     6.2555     6.9777
  352.0000     8.1508    93.9583     2.5029     0.0630     0.1085   -21.4120     6.2432     6.9805
  352.5000     8.1465    94.2168     2.4966     0.0600     0.1121   -21.4032     6.2310     6.9834
  353.0000     8.1423    94.9554     2.4907     0.0599     0.1132   -21.3944     6.2188     6.9864
  353.5000     8.1381    95.7144     2.4905     0.0600     0.1130   -21.3855     6.2066     6.9893
  354.0000     8.1339    97.2090     2.4898     0.0595     0.1126   -21.3767     6.1944     6.9919
  354.5000     8.1297    98.9977     2.4839     0.0512     0.1209   -21.3679     6.1823     6.9233
  355.0000     8.1255    99.3897     2.4724     0.0429     0.1293   -21.3591     6.1702     6.8638
  355.5000     8.1213    99.7267     2.4623     0.0356     0.1296   -21.3503     6.1581     6.8048
  356.0000     8.1170    95.9436     2.4625     0.0349     0.1297   -21.3415     6.1461     6.7463
  356.5000     8.1128    92.0043     2.4626     0.0340     0.1309   -21.3327     6.1340     6.7357
  357.0000     8.1086    91.4261     2.4626     0.0356     0.1309   -21.3239     6.1220     6.7317
