~VERSION INFORMATION
 VERS.                2.0:   CWLS LOG ASCII STANDARD - VERSION 2.0
 WRAP.                 NO:   ONE LINE PER DEPTH STEP
~WELL INFORMATION
#MNEM.UNIT      DATA TYPE    INFORMATION
#----------   ------------   ------------------------------
 STRT.F           19.0000:   START DEPTH
 STOP.F         1200.0000:   STOP DEPTH
 STEP.F            0.5000:   STEP LENGTH
 NULL.          -999.2500:   NO VALUE
 COMP.       INTEX OIL CO:   COMPANY
 WELL.     NPR 3 #73 S-14:   WELL
 FLD .             TEAPOT:   FIELD
 LOC .      S14 T38N R78W:   LOCATION
 CNTY.            NATRONA:   COUNTY
 STAT.            WYOMING:   STATE
 CTRY. UNITED STATES OF AMERICA:   COUNTRY
 SRVC.       Schlumberger:   SERVICE COMPANY
 DATE.        24-AUG-1966:   LOGDATE
 API .       490250970900:   API NUMBER
~CURVE INFORMATION
#MNEM.UNIT       API CODE    CURVE DESCRIPTION
#----------   ------------   ------------------------------
 DEPT.F                  :   
 SPR .MV     05 010 01 00:   SPONTANEOUS POTENTIAL FROM RES.
 ILD .OHMM   05 120 46 00:   INDUCTION LOG DEEP
 ASN .OHMM   05 041 16 00:   AMPLIFIED SHORT NORMAL 16"
 CILD.MMHO   05 110 46 00:   CONDUCTIVITY INDUCTION LOG DEEP
 CALD.IN     45 280 60 00:   CALIPER
 GRD .GAPI   45 310 01 00:   GAMMA RAY FROM DENSITY LOG
 CORR.G/C3   45 356 01 00:   DENSITY CORRECTION
 RHOB.G/C3   45 350 01 00:   BULK DENSITY
 DPHI.DEC    45 890 12 00:   DENSITY POROSITY SANDSTONE
~PARAMETER INFORMATION
#MNEM.UNIT          VALUE    DESCRIPTION
#----------   ------------   ------------------------------
 PD  .                 GL:   PERMANENT DATUM
 EPD .F              5274:   ELEVATION PERMANENT DATUM
 LMF .                 KB:   LOG MEASURED FROM
 DAPD.F                 5:   FEET ABOVE PERMANENT DATUM
 DMF .                 KB:   DRILLING MEASURED FROM
 EKB .F              5279:   KELLING BUSHING
 EGL .F              5274:   GROUND LEVEL
 DATE.            8-24-66:   RUN DATE
 RUN .                  1:   RUN NUMBER
 DD  .F              1200:   DEPTH DRILLER
 DL  .F              1200:   DEPTH LOGGER
 BLI .F              1199:   BOTTOM LOG INTERVAL
 TLI .F                86:   TOP LOG INTERVAL
 CS  .IN            8.625:   CASING SIZE
 CBD .F                10:   CASING BOTTOM DRILLER
 BS  .IN             6.75:   BIT SIZE
 BSD .F              1200:   BIT SIZE AT DEPTH
 DFT .                GEL:   DRILLING FLUID TYPE
 DFD .               10.1:   DRILLING FLUID DENSITY
 DFV .                 60:   DRILLING FLUID VISCOSITY
 MSS .          FLOW LINE:   MUD SAMPLE SOURCE
 RMS .OHMM            1.8:   RESISTIVITY MUD SAMPLE
 MST .F                67:   MUD SAMPLE TEMPERATURE
 RMF .OHMM            1.4:   RESISTIVITY MUD FILTRATE SAMPLE
 MFST.F                77:   MUD FILTRATE SAMPLE TEMPERATURE
 MFSS.                  M:   MUD FILTRATE SAMPLE SOURCE
 RMB .OHMM            1.1:   RESISTIVITY MUD AT BHT
 BHT .F               112:   BOTTOM HOLE TEMPERATURE
 TCS .HRS               1:   TIME CURCULATED STOPPED
 MRT .F               112:   MAXIMUM RECORDED TEMPERATURE
 LUN .               4507:   LOGGING UNIT NUMBER
 LUL .               CSPR:   LOGGING UNIT LOCATION
 ENGI.            MANGOLD:   RECORDING ENGINEER
 WITN.                MAY:   WITNESSED BY
 CLNT.            A2DTECH:   CLIENT CODE
 ORIG.           5" PRINT:   ORIGIN OF DATA
 UWI .       490250970900:   UNIQUE WELL ID
 DICO. A2D Technologies, Inc.:   DIGITIZING COMPANY
~OTHER INFORMATION
~A   DEPT      SPR        ILD        ASN       CILD       CALD         GRD        CORR     RHOB       DPHI   
# ...
 1077.5000   -42.6290    10.1520    12.1460    89.9250     7.2040    75.8280     0.0400     2.4470     0.1180
 1078.0000   -42.3060    10.1390    12.1630    90.3280     7.2030    77.0130     0.0450     2.4550     0.1120
 1078.5000   -41.9680    10.1390    12.1830    90.7310     7.2020    79.3470     0.0500     2.4730     0.1050
 1079.0000   -41.6370    10.1400    12.1970    91.1330     7.2000    79.3150     0.0560     2.4860     0.1020
 1079.5000   -41.3010    10.1390    12.2200    91.5360     7.1990    79.4150     0.0580     2.4770     0.1010
 1080.0000   -40.9710    10.1400    12.2350    91.9390     7.1980    79.3750     0.0450     2.4640     0.1100
 1080.5000   -40.6360    10.1400    12.1950    92.3420     7.1980    80.1300     0.0300     2.4480     0.1180
 1081.0000   -40.2990    10.1400    12.1320    92.7440     7.1970    81.2710     0.0230     2.4510     0.1160
 1081.5000   -39.9830    10.1400    12.0770    93.1470     7.1960    83.5760     0.0260     2.4590     0.1130
 1082.0000   -39.6180    10.1400    12.0170    93.2940     7.1960    81.9490     0.0280     2.4570     0.1140
 1082.5000   -39.4000    10.1400    11.9590    92.9770     7.1950    81.0560     0.0310     2.4480     0.1170
 1083.0000   -39.4900    10.1400    11.9020    92.6590     7.1950    81.9310     0.0340     2.4590     0.1180
 1083.5000   -39.6550    10.1400    11.8420    92.3420     7.1940    79.9980     0.0360     2.4710     0.1130
 1084.0000   -39.7600    10.1400    11.7850    92.0250     7.1940    77.2580     0.0400     2.4920     0.1090
 1084.5000   -39.6870    10.1400    11.7260    91.7080     7.1930    74.4680     0.0400     2.4890     0.1070
 1085.0000   -39.4190    10.1400    11.6680    91.3900     7.1920    78.1070     0.0340     2.4740     0.1080
 1085.5000   -39.1780    10.1400    11.6490    91.0730     7.1920    86.5840     0.0250     2.4960     0.1090
 1086.0000   -38.9150    10.1400    11.6700    90.7560     7.1910    85.4130     0.0360     2.5340     0.0970
 1086.5000   -38.6750    10.1400    11.6930    90.4390     7.1910    84.2930     0.0560     2.5270     0.1000
 1087.0000   -38.7780    10.1410    11.7140    90.1210     7.1900    83.0380     0.0480     2.5160     0.1030
 1087.5000   -39.1270    10.1390    11.7360    89.8040     7.1890    79.9840     0.0460     2.5240     0.0810
 1088.0000   -39.4590    10.1420    11.7580    89.4110     7.1890    80.0940     0.0570     2.5310     0.0730
 1088.5000   -39.7980    10.1390    11.7810    89.7420     7.1880    79.6520     0.0750     2.5260     0.0740
 1089.0000   -40.1410    10.1080    11.7990    90.1780     7.1880    77.6790     0.0710     2.5230     0.0760
 1089.5000   -40.3740    10.0640    11.8260    90.6140     7.1870    75.7430     0.0620     2.5190     0.0920
 1090.0000   -40.4560    10.0240    11.8340    91.0510     7.1860    82.0720     0.0530     2.5170     0.1000
 1090.5000   -40.4790     9.9810    11.7880    91.4870     7.1860    87.9710     0.0460     2.5190     0.1010
 1091.0000   -40.5630     9.9400    11.7340    91.9230     7.1850    89.2530     0.0480     2.5220     0.1010
 1091.5000   -40.5620     9.8980    11.6930    92.3590     7.1850    88.1650     0.0520     2.5220     0.0990
 1092.0000   -40.3620     9.8560    11.6430    92.7960     7.1840    85.5120     0.0550     2.5170     0.1030
 1092.5000   -40.1490     9.8140    11.5950    93.2320     7.1840    84.8660     0.0570     2.5120     0.1000
 1093.0000   -39.9770     9.7710    11.5500    93.6680     7.1830    86.3540     0.0540     2.5070     0.0880
 1093.5000   -39.7900     9.7290    11.4980    94.1040     7.1820    86.8470     0.0490     2.5030     0.0890
 1094.0000   -39.5880     9.6830    11.4550    94.5400     7.1820    85.3090     0.0440     2.4940     0.0960
 1094.5000   -39.3860     9.6380    11.4030    94.9770     7.1810    84.7220     0.0390     2.4810     0.1020
 1095.0000   -39.3570     9.6270    11.3570    95.4130     7.1810    85.8560     0.0350     2.4770     0.1070
 1095.5000   -39.6290     9.6790    11.4100    95.8490     7.1800    86.8350     0.0300     2.4820     0.1020
 1096.0000   -40.0120     9.7580    11.5750    96.2850     7.1790    87.4130     0.0330     2.4880     0.0970
 1096.5000   -40.3860     9.8520    11.7640    96.7220     7.1790    83.2490     0.0390     2.4630     0.1040
 1097.0000   -40.8160     9.9520    11.9200    97.1580     7.1810    79.0400     0.0450     2.4670     0.1090
 1097.5000   -41.1540    10.0180    12.1110    96.4840     7.1840    76.2700     0.0510     2.4760     0.1050
 1098.0000   -41.5130    10.1560    12.2890    94.3900     7.1870    77.4300     0.0570     2.4830     0.1010
 1098.5000   -41.7830    10.4070    12.4640    92.2960     7.1900    82.0180     0.0650     2.4900     0.0950
 1099.0000   -41.3920    10.7160    12.7220    90.2020     7.1930    84.3690     0.0730     2.4940     0.0960
 1099.5000   -40.9760    10.9800    13.2020    88.1080     7.1970    83.4760     0.0820     2.4720     0.1030
 1100.0000   -41.2030    11.2350    13.6360    83.0940     7.1950    81.2810     0.0910     2.4430     0.1200
 1100.5000   -42.0110    12.1290    14.6450    76.6280     7.1600    77.9650     0.0820     2.4200     0.1410
 1101.0000   -43.8610    13.6930    15.5660    70.1630     7.1260    73.9920     0.0610     2.4300     0.1410
 1101.5000   -46.1680    15.0000    16.7450    63.6970     7.0900    69.6830     0.0640     2.4310     0.1330
 1102.0000   -47.6970    16.1160    18.0950    57.2320     7.0550    63.8790     0.0830     2.4320     0.1330
 1102.5000   -48.3260    17.4510    19.4450    51.4490     7.0210    64.7790     0.1010     2.4310     0.1330
 1103.0000   -48.0510    18.3950    20.7950    50.3530     6.9830    66.1320     0.0940     2.4620     0.1060
 1103.5000   -47.1030    18.7820    22.1450    49.3610     6.9640    64.4150     0.0750     2.5140     0.0820
 1104.0000   -45.8620    19.0150    23.4950    48.3700     7.0110    63.5340     0.0580     2.5560     0.0570
 1104.5000   -44.2960    18.8610    23.8260    47.4530     7.0550    66.3440     0.0640     2.5510     0.0580
 1105.0000   -43.2720    18.1990    23.5260    50.8950     7.0980    66.3780     0.0710     2.5180     0.0790
 1105.5000   -43.5340    17.3360    21.6060    54.0980     7.1440    71.1420     0.0660     2.4720     0.1000
 1106.0000   -44.2180    16.4490    20.1360    57.3010     7.1520    72.9330     0.0620     2.4460     0.1220
 1106.5000   -44.7510    15.5970    18.7310    60.5040     7.1330    70.8970     0.0580     2.4190     0.1430
 1107.0000   -45.1800    14.6820    18.1200    63.7070     7.1200    70.6350     0.0520     2.4150     0.1450
 1107.5000   -45.2250    13.9700    17.5340    66.9100     7.1040    71.7030     0.0550     2.4200     0.1420
 1108.0000   -44.8920    13.7660    16.9330    70.1130     7.0900    72.3300     0.0600     2.4250     0.1390
 1108.5000   -44.5680    13.6800    16.7140    70.4300     7.0740    71.4340     0.0640     2.4180     0.1370
 1109.0000   -44.6490    13.5240    16.4890    70.8700     7.0600    71.5940     0.0600     2.4100     0.1430
 1109.5000   -45.1150    13.3930    16.2640    71.4060     7.0430    73.0350     0.0510     2.4170     0.1390
 1110.0000   -45.5750    13.2480    16.0390    71.9410     7.0480    74.6750     0.0440     2.4300     0.1340
 1110.5000   -45.7890    13.1570    15.8140    72.4770     7.0720    76.3020     0.0490     2.4440     0.1280
 1111.0000   -45.6700    13.0700    15.5890    73.0130     7.0920    77.9250     0.0610     2.4570     0.1220
 1111.5000   -45.2460    12.9400    15.3350    73.5490     7.1140    79.6160     0.0680     2.4700     0.1160
 1112.0000   -44.6030    12.8350    15.1830    74.0840     7.1340    80.8090     0.0690     2.4840     0.1110
 1112.5000   -44.2100    12.7240    15.0100    74.6200     7.1560    78.3590     0.0750     2.4930     0.1070
 1113.0000   -44.3180    12.6070    14.8360    75.1560     7.1770    75.1970     0.0780     2.4830     0.1090
 1113.5000   -44.2150    12.5010    14.6610    75.6920     7.1970    74.3550     0.0720     2.4810     0.1100
