~VERSION INFORMATION
 VERS.                2.0:   CWLS LOG ASCII STANDARD - VERSION 2.0
 WRAP.                 NO:   ONE LINE PER DEPTH STEP
~WELL INFORMATION
#MNEM.UNIT      DATA TYPE    INFORMATION
#----------   ------------   ------------------------------
 STRT.F            4.0000:   START DEPTH
 STOP.F          473.0000:   STOP DEPTH
 STEP.F            0.5000:   STEP LENGTH
 NULL.          -999.2500:   NO VALUE
 COMP.       F D SERV INC:   COMPANY
 WELL.  64-5 SX-10 #64-10:   WELL
 FLD .             TEAPOT:   FIELD
 LOC .      S10 T38N R78W:   LOCATION
 CNTY.            NATRONA:   COUNTY
 STAT.            WYOMING:   STATE
 CTRY. UNITED STATES OF AMERICA:   COUNTRY
 SRVC.     Atlas Wireline:   SERVICE COMPANY
 DATE.        11-APR-1992:   LOGDATE
 API .       490252252800:   API NUMBER
~CURVE INFORMATION
#MNEM.UNIT       API CODE    CURVE DESCRIPTION
#----------   ------------   ------------------------------
 DEPT.F                  :   
 GRR .GAPI   07 310 01 00:   GAMMA RAY
 SPR .MV     07 010 01 00:   SPONTANEOUS POTENTIAL
 RILD.OHMM   07 120 46 00:   INDUCTION LOG DEEP RESISTIVITY
 RILM.OHMM   07 120 44 00:   INDUCTION LOG MEDIUM RESISTIVITY
 RFOC.OHMM   07 220 04 00:   RESISTIVITY FOCUSED LOG
~PARAMETER INFORMATION
#MNEM.UNIT          VALUE    DESCRIPTION
#----------   ------------   ------------------------------
 PD  .                 GL:   PERMANENT DATUM
 EPD .F              5189:   ELEVATION PERMANENT DATUM
 LMF .                 KB:   LOG MEASURED FROM
 DAPD.F                10:   FEET ABOVE PERMANENT DATUM
 DMF .                 KB:   DRILLING MEASURED FROM
 EKB .F              5199:   KELLING BUSHING
 EDF .F              5198:   DRILLING FLOOR
 EGL .F              5189:   GROUND LEVEL
 DATE.        11-APR-1992:   RUN DATE
 RUN .                  1:   RUN NUMBER
 DD  .F               475:   DEPTH DRILLER
 DL  .F               475:   DEPTH LOGGER
 BLI .F               473:   BOTTOM LOG INTERVAL
 CS  .IN            8.625:   CASING SIZE
 CBD .F               130:   CASING BOTTOM DRILLER
 CBL .F               140:   CASING BOTTOM LOGGER
 BS  .IN            7.875:   BIT SIZE
 BSD .F               475:   BIT SIZE AT DEPTH
 DFT .          CHEM. GEL:   DRILLING FLUID TYPE
 DFD .               13.8:   DRILLING FLUID DENSITY
 DFV .                 62:   DRILLING FLUID VISCOSITY
 DFPH.                  9:   DRILLING FLUID PH
 DFL .                6.8:   DRILLING FLUID LOSS
 MSS .            MUDTANK:   MUD SAMPLE SOURCE
 RMS .OHMM           1.85:   RESISTIVITY MUD SAMPLE
 MST .F                72:   MUD SAMPLE TEMPERATURE
 RMF .OHMM           0.96:   RESISTIVITY MUD FILTRATE SAMPLE
 MFST.F                72:   MUD FILTRATE SAMPLE TEMPERATURE
 RMC .OHMM           3.17:   RESISTIVITY MUD CAKE
 MCST.F                72:   MUD CAKE SAMPLE TEMPERATURE
 MFSS.               MEAS:   MUD FILTRATE SAMPLE SOURCE
 MCSS.               MEAS:   MUD CAKE SAMPLE SOURCE
 RMB .OHMM           1.28:   RESISTIVITY MUD AT BHT
 BHT .F               104:   BOTTOM HOLE TEMPERATURE
 TCS .HRS               2:   TIME CURCULATED STOPPED
 MRT .F               104:   MAXIMUM RECORDED TEMPERATURE
 LUN .            HL-6274:   LOGGING UNIT NUMBER
 LUL .             CASPER:   LOGGING UNIT LOCATION
 ENGI.             RAUTIO:   RECORDING ENGINEER
 WITN.        GARY STRONG:   WITNESSED BY
 CLNT.            A2DTECH:   CLIENT CODE
 ORIG.           5" PRINT:   ORIGIN OF DATA
 UWI .       490252252800:   UNIQUE WELL ID
 DICO. A2D Technologies, Inc.:   DIGITIZING COMPANY
~OTHER INFORMATION
~A    DEPT     GRR        SPR       RILD       RILM       RFOC   
# ...
  309.0000    68.8429   -40.9783    13.5482    12.8857    12.4443
  309.5000    69.7551   -40.8232    13.3614    12.7941    12.4443
  310.0000    71.2732   -40.6690    13.2692    12.6147    12.4443
  310.5000    72.7914   -40.9692    13.1779    12.3510    12.1865
  311.0000    73.7035   -40.9661    13.1790    12.3493    11.9340
  311.5000    74.9187   -41.1158    13.1799    12.5215    11.7687
  312.0000    76.1338   -40.9600    13.2731    12.6962    11.8511
  312.5000    74.6217   -40.8050    13.4606    12.8731    12.1018
  313.0000    74.3210   -40.6500    13.5558    12.9616    12.1865
  313.5000    74.9308   -40.6470    13.7472    13.0509    12.1018
  314.0000    75.8429   -40.6439    13.8445    13.1406    12.2718
  314.5000    72.8157   -41.0968    14.1383    13.1387    12.4443
  315.0000    66.4551   -41.0938    14.2383    13.1368    12.7075
  315.5000    65.2460   -41.0908    14.3390    13.1350    12.6191
  316.0000    68.5823   -40.9357    14.3400    13.1332    12.6191
  316.5000    71.3126   -40.6288    14.2410    13.0398    12.6095
  317.0000    70.7096   -40.1698    13.9472    12.8569    12.5314
  317.5000    69.4997   -39.7108    13.8510    12.7655    12.4342
  318.0000    71.3217   -39.2519    13.6602    12.4116    12.1763
  318.5000    71.6278   -39.2488    13.4716    12.0675    12.0176
  319.0000    71.0247   -39.3985    13.1020    12.0658    11.9340
  319.5000    70.7240   -39.3947    12.8314    11.9801    11.7687
  320.0000    71.0308   -39.2397    12.4791    11.9784    11.6868
  320.5000    72.5490   -39.2367    12.1365    12.0608    11.6868
  321.0000    74.6732   -38.6257    11.9691    12.1437    11.6868
  321.5000    77.4035   -38.3188    12.0538    12.2272    11.6752
  322.0000    79.8308   -38.3157    12.3958    12.3981    11.5249
  322.5000    79.5308   -38.4654    13.0172    12.6592    11.5249
  323.0000    76.2005   -38.9175    13.6697    13.0161    11.6868
  323.5000    72.5672   -39.0665    14.4555    13.4774    11.9471
  324.0000    70.4490   -39.0634    15.3934    14.9659    12.3855
  324.5000    68.0278   -39.2131    16.8562    17.8226    13.3742
  325.0000    64.6975   -39.6660    18.4580    19.9300    14.5107
  325.5000    59.2460   -39.6622    20.6395    21.0738    22.3967
  326.0000    52.2793   -39.8119    23.7321    22.1280    30.0500
  326.5000    52.5854   -40.2641    25.6271    22.4373    31.2586
  327.0000    54.1035   -41.6288    26.9117    22.7502    28.3029
  327.5000    55.9247   -42.0825    27.4829    22.4303    21.0153
  328.0000    58.3520   -42.0787    27.1039    22.2708    19.4495
  328.5000    60.4763   -42.0760    26.1765    22.2677    19.5857
  329.0000    61.3884   -41.9210    24.9304    21.9554    19.8609
  329.5000    60.4823   -41.8880    24.2459    21.7993    20.3090
  330.0000    60.1816   -41.7623    24.0790    21.6441    20.7101
  330.5000    62.3066   -41.7593    24.2493    21.6411    20.8551
  331.0000    62.9149   -42.0602    24.0823    21.7906    20.8551
  331.5000    61.4035   -42.2099    23.4211    21.7868    20.7101
  332.0000    61.7096   -42.5100    23.0978    21.4812    20.5661
  332.5000    57.4702   -42.6597    22.9391    20.8857    20.1400
  333.0000    55.6543   -42.6559    22.3093    20.3067    19.3143
  333.5000    57.1732   -42.5009    21.6968    19.8823    18.7827
  334.0000    61.1157   -42.0420    21.6983    19.7410    18.3936
  334.5000    67.1793   -41.8870    21.5485    19.7382    17.7629
  335.0000    68.6967   -41.7319    21.2514    19.4348    17.6394
  335.5000    66.2763   -41.8816    21.2533    19.1889    18.2657
  336.0000    64.4611   -41.8778    21.2547    19.2113    18.9142
  336.5000    62.0399   -41.8748    21.2562    19.3183    18.9142
  337.0000    62.6490   -41.8718    21.1098    19.1808    18.7827
  337.5000    62.9551   -41.7168    20.6740    18.9118    18.6521
  338.0000    63.8672   -41.5617    20.3889    18.7564    18.1387
  338.5000    65.3854   -41.4067    20.2485    18.2373    17.1539
  339.0000    66.6005   -40.7958    20.2500    17.7507    16.6818
  339.5000    67.8157   -40.6408    20.1105    17.6246    16.9162
  340.0000    67.8187   -40.6377    19.9721    17.8703    17.3950
  340.5000    65.0944   -40.6347    19.8346    17.8520    17.6394
  341.0000    61.7641   -40.6317    19.5612    17.6171    17.2740
  341.5000    62.9793   -40.4767    19.4265    17.6147    16.4506
  342.0000    65.1035   -40.4736    19.4278    17.7359    16.5658
  342.5000    65.7119   -40.4706    19.2941    17.4627    16.6818
  343.0000    65.1088   -40.3156    19.0280    16.8728    16.6818
  343.5000    64.8088   -40.3125    18.7657    16.6469    16.7986
  344.0000    65.7217   -40.7662    18.5069    16.4134    16.6818
  344.5000    65.1187   -41.3703    18.3795    16.2967    15.8866
  345.0000    62.3937   -41.8239    18.2529    16.2945    15.3419
  345.5000    62.7005   -41.8201    18.2542    16.4065    15.4493
  346.0000    65.4308   -41.8171    18.0025    16.4042    15.7761
  346.5000    65.4338   -41.6621    18.0038    16.4073    16.2226
  347.0000    64.2247   -41.5071    17.8798    16.5147    16.2226
  347.5000    63.9240   -41.2001    17.8811    16.5124    16.2226
  348.0000    64.2308   -41.3490    17.8823    16.3950    16.2226
  348.5000    65.4460   -41.8019    17.8836    16.2762    15.7761
  349.0000    65.7520   -41.9516    17.6370    15.9368    15.3419
  349.5000    66.3611   -41.9478    17.3938    15.7147    15.2352
  350.0000    67.3605   -41.9134    16.9162    15.3221    15.1174
  350.5000    68.4848   -41.5269    16.7946    15.1743    15.0241
  351.0000    68.4848   -41.3463    16.6744    15.0707    15.0241
  351.5000    70.6061   -41.1988    16.3256    14.9682    14.9196
  352.0000    70.3030   -40.8994    16.2096    14.7623    14.3079
  352.5000    70.0000   -40.9050    16.4340    14.5593    13.8173
  353.0000    70.9293   -41.0614    16.7775    14.8812    13.1587
  353.5000    72.4242   -40.6100    17.1288    15.3134    13.6258
  354.0000    70.9091   -40.1585    17.3659    15.7305    14.5090
  354.5000    66.3636   -39.7071    17.6165    15.8431    15.3419
  355.0000    65.1515   -39.5585    17.7259    15.8453    15.6664
  355.5000    66.0606   -39.7160    17.7214    15.7365    15.8866
  356.0000    66.3636   -40.1764    17.5946    15.5206    15.4393
  356.5000    66.0606   -40.1809    17.5910    15.4140    14.5946
  357.0000    66.0606   -40.3374    17.4651    15.3087    14.2084
  357.5000    66.0606   -40.4939    16.6291    14.9929    14.3079
  358.0000    65.1515   -40.8024    16.0557    14.8909    14.3079
  358.5000    61.8182   -40.6559    15.8299    14.8930    14.4081
  359.0000    62.4242   -40.3564    15.7166    14.6882    14.3079
  359.5000    65.4545   -40.0558    15.6042    14.4801    14.2084
  360.0000    65.4545   -39.6043    15.4925    14.1742    14.1096
  360.5000    64.5252   -39.3049    15.3815    13.8952    13.9141
  361.0000    64.2424   -39.6144    15.3783    13.7998    13.9141
  361.5000    64.5455   -39.6189    15.2676    13.8021    13.8173
  362.0000    66.0606   -39.7742    15.0529    13.7074    13.6258
  362.5000    68.7879   -39.6277    14.9452    13.7097    13.2508
  363.0000    70.3030   -39.1763    14.6326    13.5211    13.0672
  363.5000    70.9091   -39.1809    14.5279    13.3352    13.0632
  364.0000    69.0909   -39.6413    14.4239    13.2436    12.9667
  364.5000    67.8788   -39.6459    14.4210    13.1531    12.8861
  365.0000    68.4848   -39.1954    14.3177    13.1554    12.7075
  365.5000    70.3030   -38.8960    14.3148    13.1572    12.6191
  366.0000    71.2121   -38.2925    14.2124    13.1590    12.5314
  366.5000    67.8788   -37.8400    14.1106    13.0691    12.4443
  367.0000    64.5455   -37.3885    14.0095    13.0709    12.3577
  367.5000    63.6364   -37.2410    14.0061    13.0731    12.3577
  368.0000    66.7274   -37.3986    13.9058    12.9834    12.3577
  368.5000    70.0000   -37.8590    13.8063    12.9856    12.3577
  369.0000    69.3939   -38.0154    13.8035    12.8065    12.2718
  369.5000    69.3939   -37.8678    13.7047    12.7190    12.2718
