~VERSION INFORMATION
 VERS.                2.0:   CWLS LOG ASCII STANDARD - VERSION 2.0
 WRAP.                 NO:   ONE LINE PER DEPTH STEP
~WELL INFORMATION
#MNEM.UNIT      DATA TYPE    INFORMATION
#----------   ------------   ------------------------------
 STRT.F           44.0000:   START DEPTH
 STOP.F          510.0000:   STOP DEPTH
 STEP.F            0.5000:   STEP LENGTH
 NULL.          -999.2500:   NO VALUE
 COMP. FENIX & SCISSON INC:   COMPANY
 WELL. NPR-3 76-SX-3 #76-3:   WELL
 FLD . TEAPOT DOME NPR #3:   FIELD
 LOC .       S3 T38N R78W:   LOCATION
 CNTY.            NATRONA:   COUNTY
 STAT.            WYOMING:   STATE
 CTRY. UNITED STATES OF AMERICA:   COUNTRY
 SRVC.            Unknown:   SERVICE COMPANY
 DATE.        13-OCT-1978:   LOGDATE
 API .       490251072300:   API NUMBER
~CURVE INFORMATION
#MNEM.UNIT       API CODE    CURVE DESCRIPTION
#----------   ------------   ------------------------------
 DEPT.F                  :   
 CALD.IN     45 280 60 00:   CALIPER
 RHOB.G/C3   45 350 01 00:   BULK DENSITY
 CORR.G/C3   45 356 01 00:   DENSITY CORRECTION
 SPR .MV     05 010 01 00:   SPONTANEOUS POTENTIAL FROM RES.
 SN  .OHMM   05 040 16 00:   SHORT NORMAL 16"
 ILD .OHMM   05 120 46 00:   INDUCTION LOG DEEP
 DPHI.DEC    45 890 12 00:   DENSITY POROSITY SANDSTONE
~PARAMETER INFORMATION
#MNEM.UNIT          VALUE    DESCRIPTION
#----------   ------------   ------------------------------
 PD  .                 GL:   PERMANENT DATUM
 EPD .F              5151:   ELEVATION PERMANENT DATUM
 LMF .                 KB:   LOG MEASURED FROM
 DAPD.F                 4:   FEET ABOVE PERMANENT DATUM
 DMF .                 KB:   DRILLING MEASURED FROM
 EKB .F              5155:   KELLING BUSHING
 EGL .F              5151:   GROUND LEVEL
 DATE.         10-13-1978:   RUN DATE
 RUN .                  1:   RUN NUMBER
 DD  .F               515:   DEPTH DRILLER
 DL  .F               517:   DEPTH LOGGER
 BLI .F               511:   BOTTOM LOG INTERVAL
 TLI .F                50:   TOP LOG INTERVAL
 CS  .IN            8.625:   CASING SIZE
 CBD .F                40:   CASING BOTTOM DRILLER
 BS  .IN            7.875:   BIT SIZE
 BSD .F               515:   BIT SIZE AT DEPTH
 DFT .                KCL:   DRILLING FLUID TYPE
 MSS .            MUD PIT:   MUD SAMPLE SOURCE
 RMS .OHMM             .2:   RESISTIVITY MUD SAMPLE
 MST .F                54:   MUD SAMPLE TEMPERATURE
 RMF .OHMM            .19:   RESISTIVITY MUD FILTRATE SAMPLE
 MFST.F                63:   MUD FILTRATE SAMPLE TEMPERATURE
 RMC .OHMM            .26:   RESISTIVITY MUD CAKE
 MCST.F                64:   MUD CAKE SAMPLE TEMPERATURE
 MFSS.               MEAS:   MUD FILTRATE SAMPLE SOURCE
 MCSS.               MEAS:   MUD CAKE SAMPLE SOURCE
 TCS .HRS               2:   TIME CURCULATED STOPPED
 LUN .               3006:   LOGGING UNIT NUMBER
 LUL .               CASP:   LOGGING UNIT LOCATION
 ENGI.             MILLER:   RECORDING ENGINEER
 WITN.           DINSMORE:   WITNESSED BY
 CLNT.            A2DTECH:   CLIENT CODE
 ORIG.           5" PRINT:   ORIGIN OF DATA
 UWI .       490251072300:   UNIQUE WELL ID
 DICO. A2D Technologies, Inc.:   DIGITIZING COMPANY
~OTHER INFORMATION
~A   DEPT     CALD       RHOB        CORR       SPR         SN        ILD         DPHI 
# ...
  226.0000     7.8116     2.3541     0.0667   -21.0180     3.3536     2.8754     0.1725
  226.5000     7.7640     2.3865     0.0745   -20.2590     3.5136     3.0995     0.1534
  227.0000     7.7657     2.4190     0.0666   -19.9933     3.7034     3.5047     0.1368
  227.5000     7.7822     2.4514     0.0570   -19.8183     4.0425     3.9128     0.1263
  228.0000     7.7990     2.4836     0.0573   -19.6449     4.4126     4.2691     0.1167
  228.5000     7.8126     2.4980     0.0603   -19.4715     4.8167     4.6581     0.1118
  229.0000     7.8060     2.4979     0.0634   -19.3460     5.2578     5.0818     0.1078
  229.5000     7.8000     2.4983     0.0665   -19.3633     5.6910     5.5470     0.1041
  230.0000     7.7884     2.5034     0.0692   -19.3778     5.9025     5.7082     0.1014
  230.5000     7.7903     2.5067     0.0698   -19.3922     5.9041     5.7975     0.1078
  231.0000     7.8173     2.5005     0.0705   -19.4065     5.9026     5.8483     0.1118
  231.5000     7.8455     2.4944     0.0726   -19.4208     5.9024     5.7902     0.1098
  232.0000     7.8716     2.4964     0.0816   -19.4351     5.8803     5.7499     0.1063
  232.5000     7.8585     2.5011     0.0905   -19.4494     5.8329     5.6912     0.1024
  233.0000     7.8438     2.5059     0.0988   -19.4637     5.7859     5.6923     0.1036
  233.5000     7.8338     2.5086     0.1002   -19.4780     5.7392     5.2992     0.1185
  234.0000     7.8612     2.4880     0.1013   -19.4923     5.6895     5.0470     0.1334
  234.5000     7.8892     2.4658     0.1024   -19.5068     5.5449     5.0470     0.1446
  235.0000     7.8795     2.4400     0.1035   -19.5212     5.3920     5.0470     0.1378
  235.5000     7.8642     2.4486     0.1047   -19.5340     5.2364     4.8886     0.1314
  236.0000     7.8523     2.4621     0.1035   -19.4616     5.2638     4.6885     0.1249
  236.5000     7.8648     2.4757     0.1014   -19.2597     5.2927     4.7040     0.1185
  237.0000     7.8785     2.4895     0.0994   -19.0595     5.3218     4.7220     0.1126
  237.5000     7.8921     2.4929     0.0894   -18.8591     5.4496     4.8273     0.1142
  238.0000     7.9059     2.4930     0.0757   -18.6589     5.6507     5.0751     0.1102
  238.5000     7.9107     2.4971     0.0731   -18.5397     5.7130     5.3363     0.1037
  239.0000     7.9076     2.5013     0.0711   -18.5158     5.7416     5.5560     0.1047
  239.5000     7.9044     2.5035     0.0691   -18.4912     5.9881     5.7729     0.1038
  240.0000     7.9012     2.5055     0.0713   -18.4669     6.2384     5.9981     0.0992
  240.5000     7.8980     2.5106     0.0738   -18.4425     6.4984     6.2322     0.0944
  241.0000     7.8946     2.5182     0.0763   -18.4179     6.7686     6.4754     0.0897
  241.5000     7.8834     2.5257     0.0787   -18.3930     6.9668     6.6653     0.0866
  242.0000     7.8571     2.5296     0.0784   -18.3688     6.9544     6.7068     0.0861
  242.5000     7.8309     2.5233     0.0781   -18.3881     6.9449     6.7493     0.0882
  243.0000     7.8046     2.5173     0.0777   -18.6405     6.9354     6.7767     0.0910
  243.5000     7.7771     2.5141     0.0773   -18.8939     6.9259     6.7353     0.0972
  244.0000     7.8134     2.5153     0.0772   -19.1348     6.9166     6.7038     0.1034
  244.5000     7.8635     2.5101     0.0818   -19.0021     6.9068     6.6726     0.1070
  245.0000     7.9114     2.5045     0.0866   -18.8492     6.8508     6.6200     0.1057
  245.5000     7.9177     2.5040     0.0913   -18.6964     6.7598     6.5325     0.1034
  246.0000     7.9222     2.5074     0.0952   -18.5631     6.6704     6.4461     0.1012
  246.5000     7.9270     2.5108     0.0980   -18.7895     6.5821     6.3608     0.0989
  247.0000     7.9323     2.5143     0.1010   -19.0274     6.4951     6.2766     0.0986
  247.5000     7.9143     2.5177     0.1039   -19.2659     6.4092     6.1936     0.0986
  248.0000     7.8931     2.5192     0.1069   -19.3454     6.3246     6.1117     0.1021
  248.5000     7.8718     2.5114     0.1109   -19.2803     6.2407     5.9195     0.1061
  249.0000     7.8505     2.5056     0.1188   -19.1841     6.1284     5.6085     0.1052
  249.5000     7.8292     2.5046     0.1266   -19.0868     5.9407     5.3138     0.1032
  250.0000     7.8083     2.5039     0.1347   -18.9898     5.7588     4.9548     0.1069
  250.5000     7.8009     2.5003     0.1296   -18.8929     5.5824     5.0016     0.1226
  251.0000     7.8289     2.4800     0.1219   -18.7959     5.3337     5.0688     0.1330
  251.5000     7.8563     2.4576     0.1123   -18.6442     5.3914     5.1369     0.1278
  252.0000     7.8839     2.4643     0.0925   -18.4429     5.5059     5.2055     0.1205
  252.5000     7.9111     2.4777     0.0721   -18.2421     5.6208     5.2759     0.1132
  253.0000     7.8957     2.4923     0.0617   -18.0412     5.7418     5.3966     0.1072
  253.5000     7.8772     2.4981     0.0618   -17.8406     6.1225     5.7687     0.1086
  254.0000     7.8590     2.5012     0.0626   -17.6385     6.5376     6.1645     0.1031
  254.5000     7.8407     2.5082     0.0706   -17.5404     6.9666     6.5874     0.0953
  255.0000     7.8350     2.5176     0.0771   -17.5058     7.0597     6.8492     0.0875
  255.5000     7.8399     2.5271     0.0770   -17.4724     7.1626     6.8713     0.0850
  256.0000     7.8449     2.5363     0.0770   -17.4389     7.1582     6.8934     0.0872
  256.5000     7.8499     2.5337     0.0770   -17.4060     7.1523     6.9156     0.0894
  257.0000     7.8549     2.5300     0.0770   -17.3685     7.1465     6.9380     0.0916
  257.5000     7.8600     2.5263     0.0770   -17.5516     7.1407     6.9668     0.0938
  258.0000     7.8650     2.5240     0.0770   -17.8278     7.1349     6.9592     0.0929
  258.5000     7.8698     2.5268     0.0784   -18.1071     7.1291     6.9486     0.0914
  259.0000     7.8610     2.5294     0.0801   -18.3564     7.1233     6.9380     0.0900
  259.5000     7.8339     2.5321     0.0817   -18.3137     7.1175     6.9275     0.0891
  260.0000     7.8070     2.5333     0.0819   -18.2760     7.1117     6.9169     0.0887
  260.5000     7.7800     2.5342     0.0764   -18.2395     7.1060     6.9064     0.0882
  261.0000     7.7530     2.5350     0.0712   -18.2030     7.1002     6.8959     0.0878
  261.5000     7.7260     2.5349     0.0660   -18.1665     7.0944     6.8854     0.0880
  262.0000     7.6990     2.5323     0.0607   -18.1299     7.0887     6.8749     0.0882
  262.5000     7.6720     2.5302     0.0553   -18.0934     7.0829     6.8645     0.0901
  263.0000     7.6451     2.5253     0.0535   -18.0569     7.0772     6.8540     0.0927
  263.5000     7.6182     2.5205     0.0520   -18.0200     7.0714     6.8436     0.0961
  264.0000     7.5867     2.5157     0.0504   -17.9840     7.0657     6.8332     0.0994
  264.5000     7.5280     2.5109     0.0491   -17.9814     7.0599     6.8228     0.1028
  265.0000     7.5226     2.5061     0.0501   -18.1061     7.0542     6.8124     0.1061
  265.5000     7.5325     2.5013     0.0510   -18.2268     7.0485     6.8020     0.1083
  266.0000     7.5430     2.4966     0.0520   -18.3473     7.0427     6.7917     0.1098
  266.5000     7.5533     2.4933     0.0529   -18.4678     7.0370     6.7813     0.1098
  267.0000     7.5636     2.4927     0.0538   -18.5882     7.0342     6.6634     0.1098
  267.5000     7.5738     2.4922     0.0548   -18.7087     6.8952     6.4685     0.1110
  268.0000     7.5840     2.4919     0.0547   -18.8293     6.7585     6.2789     0.1170
  268.5000     7.5950     2.4807     0.0543   -18.9500     6.6246     6.0951     0.1275
  269.0000     7.6237     2.4669     0.0539   -19.0693     6.4934     5.9482     0.1358
  269.5000     7.6532     2.4562     0.0535   -19.1364     6.3647     5.9097     0.1294
  270.0000     7.6830     2.4618     0.0531   -19.0591     6.2955     5.8715     0.1230
  270.5000     7.6893     2.4709     0.0527   -18.9838     6.3460     5.8336     0.1185
  271.0000     7.6825     2.4801     0.0523   -18.9084     6.3809     5.7959     0.1144
