~VERSION INFORMATION
 VERS.                2.0:   CWLS LOG ASCII STANDARD - VERSION 2.0
 WRAP.                 NO:   ONE LINE PER DEPTH STEP
~WELL INFORMATION
#MNEM.UNIT      DATA TYPE    INFORMATION
#----------   ------------   ------------------------------
 STRT.F         1160.0000:   START DEPTH
 STOP.F         2086.0000:   STOP DEPTH
 STEP.F            0.5000:   STEP LENGTH
 NULL.          -999.2500:   NO VALUE
 COMP. LAWRENCE/ALLISON INC:   COMPANY
 WELL.      17 STX #27-27:   WELL
 FLD .             TEAPOT:   FIELD
 LOC .      S27 T39N R78W:   LOCATION
 CNTY.            NATRONA:   COUNTY
 STAT.            WYOMING:   STATE
 CTRY. UNITED STATES OF AMERICA:   COUNTRY
 SRVC.            Unknown:   SERVICE COMPANY
 DATE.        09-JUN-1991:   LOGDATE
 API .       490251118200:   API NUMBER
~CURVE INFORMATION
#MNEM.UNIT       API CODE    CURVE DESCRIPTION
#----------   ------------   ------------------------------
 DEPT.F                  :   
 ROP .MIN/FT 91 810 01 00:   RAT OF DRILLING PENETRATION
 TGAS.UNITS  91 830 01 00:   TOTAL GAS UNIT
~PARAMETER INFORMATION
#MNEM.UNIT          VALUE    DESCRIPTION
#----------   ------------   ------------------------------
 EKB .F              5078:   KELLING BUSHING
 EGL .F              5068:   GROUND LEVEL
 DATE.         9-JUN-1991:   RUN DATE
 RUN .                  1:   RUN NUMBER
 BLI .F              2120:   BOTTOM LOG INTERVAL
 TLI .F              1160:   TOP LOG INTERVAL
 CLNT.            A2DTECH:   CLIENT CODE
 ORIG.           5" PRINT:   ORIGIN OF DATA
 UWI .       490251118200:   UNIQUE WELL ID
 DICO. A2D Technologies, Inc.:   DIGITIZING COMPANY
~OTHER INFORMATION
~A  DEPT         ROP      TGAS  
# ...
 1767.5000     0.5663    33.0843
 1768.0000     0.5759    33.2419
 1768.5000     0.5760    33.3996
 1769.0000     0.5856    33.5572
 1769.5000     0.5952    33.7149
 1770.0000     0.6236    33.8725
 1770.5000     0.6426    34.0302
 1771.0000     0.6616    34.1878
 1771.5000     0.6901    34.3765
 1772.0000     0.6996    34.3933
 1772.5000     0.6998    34.4142
 1773.0000     0.6810    34.4351
 1773.5000     0.6623    34.4561
 1774.0000     0.6625    34.4770
 1774.5000     0.6532    34.4979
 1775.0000     0.6533    34.5188
 1775.5000     0.6440    34.5397
 1776.0000     0.6442    34.5607
 1776.5000     0.6443    34.5816
 1777.0000     0.6350    34.6025
 1777.5000     0.6352    34.6234
 1778.0000     0.6353    34.6444
 1778.5000     0.6260    34.6653
 1779.0000     0.6261    34.6862
 1779.5000     0.6263    34.7071
 1780.0000     0.6264    34.7280
 1780.5000     0.6360    34.7490
 1781.0000     0.6456    34.7699
 1781.5000     0.6651    34.7908
 1782.0000     0.7025    34.8117
 1782.5000     0.7120    34.8326
 1783.0000     0.7311    34.9034
 1783.5000     0.7406    34.9905
 1784.0000     0.6747    35.0775
 1784.5000     0.6277    35.1645
 1785.0000     0.5524    35.2516
 1785.5000     0.5053    35.3386
 1786.0000     0.4772    35.4257
 1786.5000     0.4773    35.5127
 1787.0000     0.4775    35.5998
 1787.5000     0.4681    35.6868
 1788.0000     0.4777    35.7738
 1788.5000     0.4779    35.8609
 1789.0000     0.4686    35.9479
 1789.5000     0.4593    36.0350
 1790.0000     0.4500    36.1220
 1790.5000     0.4407    36.2148
 1791.0000     0.4031    36.1827
 1791.5000     0.3561    36.1484
 1792.0000     0.3279    36.1140
 1792.5000     0.3658    36.0797
 1793.0000     0.4037    36.0454
 1793.5000     0.4604    36.0111
 1794.0000     0.5172    35.9767
 1794.5000     0.5645    35.9424
 1795.0000     0.6307    35.9081
 1795.5000     0.6780    35.8738
 1796.0000     0.7253    35.8394
 1796.5000     0.6783    35.8051
 1797.0000     0.6029    35.7708
 1797.5000     0.5366    35.7365
 1798.0000     0.4695    35.7021
 1798.5000     0.4430    35.6678
 1799.0000     0.4431    35.6335
 1799.5000     0.4433    35.5992
 1800.0000     0.4434    35.5649
 1800.5000     0.4436    35.6299
 1801.0000     0.4343    35.6950
 1801.5000     0.4438    35.7601
 1802.0000     0.4345    35.8251
 1802.5000     0.4347    35.8902
 1803.0000     0.4254    35.9553
 1803.5000     0.4752    36.0203
 1804.0000     0.5419    36.0854
 1804.5000     0.6101    36.1505
 1805.0000     0.6646    36.2155
 1805.5000     0.6273    36.2806
 1806.0000     0.5900    36.3457
 1806.5000     0.5339    36.4108
 1807.0000     0.4871    36.4758
 1807.5000     0.4593    36.5409
 1808.0000     0.4407    36.6060
 1808.5000     0.4412    36.6710
 1809.0000     0.4416    36.7752
 1809.5000     0.4420    36.9156
 1810.0000     0.4425    37.0559
 1810.5000     0.4429    37.1962
 1811.0000     0.4433    37.3366
 1811.5000     0.4437    37.4769
 1812.0000     0.4442    37.6173
 1812.5000     0.4541    37.7576
 1813.0000     0.4639    37.8980
 1813.5000     0.4832    38.0383
 1814.0000     0.4741    38.1787
 1814.5000     0.4369    38.3190
 1815.0000     0.4089    38.4593
 1815.5000     0.4094    38.5997
 1816.0000     0.4476    38.7400
 1816.5000     0.5140    38.8804
 1817.0000     0.5522    39.0207
 1817.5000     0.5337    39.1611
 1818.0000     0.4964    39.3014
 1818.5000     0.4685    39.4418
 1819.0000     0.4501    39.5821
 1819.5000     0.4505    39.7224
 1820.0000     0.4604    39.8628
 1820.5000     0.4514    39.9514
 1821.0000     0.4628    39.9159
 1821.5000     0.4721    39.8804
 1822.0000     0.4809    39.8449
 1822.5000     0.4719    39.8094
 1823.0000     0.4536    39.7740
 1823.5000     0.4162    39.7385
 1824.0000     0.3789    39.7030
 1824.5000     0.3793    39.6675
 1825.0000     0.4081    39.6320
 1825.5000     0.4557    39.5965
 1826.0000     0.5315    39.5610
 1826.5000     0.6263    39.5255
 1827.0000     0.5796    39.4900
 1827.5000     0.5328    39.4545
 1828.0000     0.4766    39.4190
 1828.5000     0.4959    39.3835
 1829.0000     0.5058    39.3481
 1829.5000     0.5250    39.3126
 1830.0000     0.5349    39.2771
 1830.5000     0.5353    39.2416
 1831.0000     0.5358    39.2061
 1831.5000     0.5457    39.1706
 1832.0000     0.5461    39.1351
 1832.5000     0.5465    39.0996
 1833.0000     0.5583    39.0641
 1833.5000     0.5720    39.0803
 1834.0000     0.5761    39.1299
 1834.5000     0.6048    39.1796
 1835.0000     0.6713    39.2292
 1835.5000     0.6528    39.2789
 1836.0000     0.5683    39.3285
 1836.5000     0.5027    39.3781
 1837.0000     0.4654    39.4278
 1837.5000     0.4469    39.4774
 1838.0000     0.4285    39.5271
 1838.5000     0.4289    39.5767
 1839.0000     0.4293    39.6263
 1839.5000     0.4392    39.6760
 1840.0000     0.4544    39.7256
 1840.5000     0.4683    39.7753
 1841.0000     0.4783    39.8249
 1841.5000     0.4989    39.8745
 1842.0000     0.5169    39.9242
 1842.5000     0.5267    39.9738
 1843.0000     0.5460    40.0235
 1843.5000     0.5464    40.0731
 1844.0000     0.5563    40.1227
 1844.5000     0.5567    40.1724
 1845.0000     0.5476    40.2207
 1845.5000     0.5386    40.2258
 1846.0000     0.5202    36.1264
 1846.5000     0.5206    36.3751
 1847.0000     0.5116    36.6239
 1847.5000     0.5120    36.8727
 1848.0000     0.5691    37.1215
 1848.5000     0.6452    37.3703
 1849.0000     0.7026    37.6190
 1849.5000     0.7401    37.8678
 1850.0000     0.7296    38.1166
 1850.5000     0.7032    38.3654
 1851.0000     0.6659    38.6142
 1851.5000     0.6287    38.8629
 1852.0000     0.6101    39.1117
 1852.5000     0.6201    39.2602
 1853.0000     0.6205    39.3063
 1853.5000     0.6209    39.3524
 1854.0000     0.6024    39.3985
 1854.5000     0.5556    39.4446
 1855.0000     0.4901    39.4906
 1855.5000     0.4434    39.5367
 1856.0000     0.4154    39.5828
 1856.5000     0.4442    39.6289
 1857.0000     0.4541    39.6750
 1857.5000     0.4828    39.7211
 1858.0000     0.5115    39.7671
 1858.5000     0.5218    39.8132
 1859.0000     0.5218    39.8593
 1859.5000     0.5236    39.9054
 1860.0000     0.5322    39.9515
 1860.5000     0.5326    39.9975
 1861.0000     0.5424    40.0436
 1861.5000     0.5617    40.0897
 1862.0000     0.5621    40.1358
 1862.5000     0.5814    40.1819
 1863.0000     0.6101    40.2279
 1863.5000     0.6483    40.2740
 1864.0000     0.6865    40.3201
 1864.5000     0.7340    40.3662
 1865.0000     0.7816    40.4123
 1865.5000     0.8292    40.4341
 1866.0000     0.8296    40.4393
 1866.5000     0.8112    40.4446
 1867.0000     0.7927    40.4498
 1867.5000     0.7649    40.4550
 1868.0000     0.7653    40.4602
 1868.5000     0.7563    40.4655
 1869.0000     0.7189    40.4707
 1869.5000     0.7005    40.4759
 1870.0000     0.7010    40.4812
 1870.5000     0.7014    40.4864
 1871.0000     0.7113    40.4916
 1871.5000     0.7117    40.4969
 1872.0000     0.7121    40.5021
 1872.5000     0.7030    40.5073
 1873.0000     0.6752    40.5126
 1873.5000     0.6474    40.5178
 1874.0000     0.6289    40.5230
 1874.5000     0.6198    40.5282
 1875.0000     0.6203    40.5335
 1875.5000     0.6207    40.5387
 1876.0000     0.6400    40.5439
 1876.5000     0.6593    40.5492
 1877.0000     0.7352    40.5544
 1877.5000     0.7733    40.5596
 1878.0000     0.7832    40.5649
 1878.5000     0.7836    40.5709
 1879.0000     0.7841    40.5363
 1879.5000     0.7750    40.4950
 1880.0000     0.7755    40.4537
 1880.5000     0.7760    40.4124
 1881.0000     0.7481    40.3711
 1881.5000     0.7108    40.3298
 1882.0000     0.6909    40.2885
 1882.5000     0.6738    40.2472
 1883.0000     0.6838    40.2060
 1883.5000     0.6746    40.1647
 1884.0000     0.6752    40.1234
 1884.5000     0.6660    40.0821
 1885.0000     0.6570    40.0408
 1885.5000     0.6670    39.9995
 1886.0000     0.6674    39.9582
 1886.5000     0.6678    39.9169
 1887.0000     0.6682    39.8757
 1887.5000     0.6687    39.8344
 1888.0000     0.6502    39.7931
 1888.5000     0.6223    39.7518
