~VERSION INFORMATION
 VERS.                2.0:   CWLS LOG ASCII STANDARD - VERSION 2.0
 WRAP.                 NO:   ONE LINE PER DEPTH STEP
~WELL INFORMATION
#MNEM.UNIT      DATA TYPE    INFORMATION
#----------   ------------   ------------------------------
 STRT.F            2.0000:   START DEPTH
 STOP.F          548.0000:   STOP DEPTH
 STEP.F            0.1000:   STEP LENGTH
 NULL.          -999.2500:   NO VALUE
 COMP.       F D SERV INC:   COMPANY
 WELL. NAVAL PETROLEUM RESERVE 3 SX-3 #88-10-3:   WELL
 FLD .             TEAPOT:   FIELD
 LOC .       S3 T38N R78W:   LOCATION
 CNTY.            NATRONA:   COUNTY
 STAT.            WYOMING:   STATE
 CTRY. UNITED STATES OF AMERICA:   COUNTRY
 SRVC.     Atlas Wireline:   SERVICE COMPANY
 DATE.        19-OCT-1992:   LOGDATE
 API .       490252254600:   API NUMBER
~CURVE INFORMATION
#MNEM.UNIT       API CODE    CURVE DESCRIPTION
#----------   ------------   ------------------------------
 DEPT.F                  :   
 GRR .GAPI   07 310 01 00:   GAMMA RAY
 ILD .OHMM   07 120 46 00:   INDUCTION LOG DEEP
 ILM .OHMM   07 120 44 00:   INDUCTION LOG MEDIUM
~PARAMETER INFORMATION
#MNEM.UNIT          VALUE    DESCRIPTION
#----------   ------------   ------------------------------
 PD  .                 GL:   PERMANENT DATUM
 EPD .F              5126:   ELEVATION PERMANENT DATUM
 LMF .                 KB:   LOG MEASURED FROM
 DAPD.F                10:   FEET ABOVE PERMANENT DATUM
 DMF .                 KB:   DRILLING MEASURED FROM
 EKB .F              5136:   KELLING BUSHING
 EDF .F              5135:   DRILLING FLOOR
 EGL .F              5126:   GROUND LEVEL
 DATE.        19-OCT-1992:   RUN DATE
 RUN .                  1:   RUN NUMBER
 DD  .F               566:   DEPTH DRILLER
 DL  .F               558:   DEPTH LOGGER
 BLI .F               550:   BOTTOM LOG INTERVAL
 TLI .F                98:   TOP LOG INTERVAL
 CS  .IN            8.625:   CASING SIZE
 CBD .F                85:   CASING BOTTOM DRILLER
 CBL .F                98:   CASING BOTTOM LOGGER
 BS  .IN            7.875:   BIT SIZE
 BSD .F               566:   BIT SIZE AT DEPTH
 DFT .           AIR FOAM:   DRILLING FLUID TYPE
 TCS .HRS               2:   TIME CURCULATED STOPPED
 MRT .F                73:   MAXIMUM RECORDED TEMPERATURE
 LUN .            HL-6274:   LOGGING UNIT NUMBER
 LUL .             CASPER:   LOGGING UNIT LOCATION
 ENGI.             RAUTIO:   RECORDING ENGINEER
 WITN.        GARY STRONG:   WITNESSED BY
 CLNT.            A2DTECH:   CLIENT CODE
 ORIG.           5" PRINT:   ORIGIN OF DATA
 UWI .       490252254600:   UNIQUE WELL ID
 DICO. A2D Technologies, Inc.:   DIGITIZING COMPANY
~OTHER INFORMATION
~A    DEPT     GRR        ILD        ILM   
# ...
  202.2000   123.7385     7.6986     7.5965
  202.3000   123.7380     7.6981     7.5962
  202.4000   123.4324     7.6975     7.5959
  202.5000   123.1316     7.6970     7.5956
  202.6000   123.0919     7.6680     7.5952
  202.7000   122.8278     7.6424     7.5949
  202.8000   122.8272     7.6246     7.5946
  202.9000   122.8266     7.5353     7.5768
  203.0000   122.8260     7.4932     7.5411
  203.1000   122.8837     7.4502     7.5408
  203.2000   123.1274     7.3856     7.4188
  203.3000   123.1268     7.3135     7.3230
  203.4000   123.6986     7.2715     7.2192
  203.5000   124.1674     7.2230     7.1187
  203.6000   124.5676     7.1882     7.0737
  203.7000   125.3254     7.1221     6.9329
  203.8000   126.4520     7.0256     6.9001
  203.9000   127.2914     6.9185     6.8373
  204.0000   128.1211     6.8761     6.7595
  204.1000   128.8581     6.8030     6.6826
  204.2000   129.5951     6.7256     6.6008
  204.3000   130.3824     6.6671     6.5315
  204.4000   131.0693     6.6192     6.4572
  204.5000   131.4614     6.5448     6.4009
  204.6000   131.5909     6.4997     6.3733
  204.7000   131.5312     6.4994     6.3730
  204.8000   131.2704     6.4777     6.3727
  204.9000   129.5485     6.4278     6.3436
  205.0000   128.4014     6.3589     6.3073
  205.1000   127.5522     6.3186     6.2712
  205.2000   126.9704     6.3182     6.2396
  205.3000   126.7239     6.2937     6.2393
  205.4000   126.4423     6.2419     6.2073
  205.5000   126.0202     6.1783     6.1954
  205.6000   125.6819     6.1424     6.1951
  205.7000   125.3380     6.1075     6.1872
  205.8000   124.8456     6.0724     6.1515
  205.9000   124.3213     6.0375     6.1512
  206.0000   124.3207     6.0134     6.1242
  206.1000   123.9736     6.0130     6.0891
  206.2000   123.4812     6.0125     6.0652
  206.3000   123.0487     6.0121     6.0649
  206.4000   122.7990     6.0117     6.0646
  206.5000   122.3066     6.0113     6.0644
  206.6000   122.0067     6.0170     6.0642
  206.7000   121.7602     6.0525     6.0928
  206.8000   121.4346     6.0521     6.1556
  206.9000   120.9646     6.0768     6.1917
  207.0000   120.6837     6.0937     6.1915
  207.1000   120.4716     6.1028     6.2174
  207.2000   120.3800     6.1356     6.2711
  207.3000   120.3794     6.1350     6.3322
  207.4000   120.4204     6.1923     6.3681
  207.5000   120.6807     6.2416     6.4101
  207.6000   120.6802     6.2768     6.4714
  207.7000   120.8537     6.3122     6.5225
  207.8000   120.9815     6.3508     6.5450
  207.9000   121.1024     6.3836     6.5507
  208.0000   121.5855     6.4449     6.5903
  208.1000   121.5849     6.4840     6.6607
  208.2000   121.7775     6.5009     6.7095
  208.3000   121.8862     6.5745     6.7476
  208.4000   121.9655     6.6116     6.7859
  208.5000   122.2108     6.6489     6.8243
  208.6000   122.4895     6.6864     6.8705
  208.7000   122.7014     6.7368     6.9020
  208.8000   122.9466     6.8094     6.9412
  208.9000   123.0929     6.8526     6.9663
  209.0000   123.0923     6.8522     6.9765
  209.1000   123.0916     6.8771     7.0637
  209.2000   123.0911     6.9326     7.1000
  209.3000   123.2654     7.0036     7.1126
  209.4000   123.3924     7.0443     7.1123
  209.5000   123.2688     7.0438     7.1213
  209.6000   122.7764     7.0732     7.1616
  209.7000   122.2840     7.1131     7.1613
  209.8000   121.7916     7.1532     7.1928
  209.9000   121.1619     7.1935     7.2336
  210.0000   120.6657     7.2407     7.2611
  210.1000   120.7131     7.2403     7.2650
  210.2000   121.2695     7.2650     7.3113
  210.3000   122.1218     7.3060     7.3110
  210.4000   122.9483     7.3472     7.3107
  210.5000   124.0849     7.3915     7.3104
  210.6000   125.6759     7.3910     7.3101
  210.7000   126.7128     7.3905     7.3098
  210.8000   127.8741     7.3900     7.3502
  210.9000   128.9273     7.4000     7.3604
  211.0000   129.7913     7.4407     7.3601
  211.1000   130.5283     7.4402     7.3598
  211.2000   131.2597     7.4397     7.3595
  211.3000   131.7509     7.4391     7.3591
  211.4000   132.2420     7.4386     7.3589
  211.5000   132.4569     7.4381     7.3847
  211.6000   132.4563     7.4375     7.4098
  211.7000   132.3812     7.4371     7.4095
  211.8000   131.5473     7.4365     7.4092
  211.9000   131.5467     7.4360     7.4089
  212.0000   131.5461     7.4355     7.3783
  212.1000   131.6462     7.4350     7.3567
  212.2000   131.8915     7.4345     7.3564
  212.3000   132.1494     7.4339     7.3561
  212.4000   132.3820     7.4109     7.3557
  212.5000   132.6273     7.3812     7.3555
  212.6000   132.8726     7.3807     7.3552
  212.7000   133.1811     7.3801     7.3548
  212.8000   133.6658     7.3439     7.3545
  212.9000   133.9111     7.3017     7.3542
  213.0000   133.9607     7.2763     7.3539
  213.1000   133.9601     7.2758     7.3536
  213.2000   133.7949     7.2752     7.3533
  213.3000   133.3025     7.2748     7.3530
  213.4000   132.7479     7.2742     7.3527
  213.5000   132.5325     7.2533     7.3524
  213.6000   131.9698     7.2226     7.3192
  213.7000   131.1300     7.2221     7.3006
  213.8000   130.1458     7.2215     7.3003
  213.9000   129.1140     7.2211     7.3000
  214.0000   128.1775     7.1965     7.2997
  214.1000   127.3706     7.1699     7.2627
  214.2000   126.7530     7.1583     7.2483
  214.3000   126.3885     7.0694     7.2480
  214.4000   126.3734     7.0689     7.2391
  214.5000   125.8810     7.0411     7.1969
  214.6000   125.5851     7.0188     7.1565
  214.7000   125.4784     7.0183     7.1463
  214.8000   125.4778     7.0177     7.1244
  214.9000   125.4507     6.9774     7.0959
  215.0000   125.1739     6.9680     7.0956
  215.1000   125.1734     6.9241     7.0953
  215.2000   125.0138     6.8578     7.0606
  215.3000   124.7673     6.8221     7.0454
  215.4000   124.5208     6.8216     7.0289
  215.5000   124.2632     6.7875     6.9886
  215.6000   124.2626     6.7239     6.9468
  215.7000   124.2620     6.6630     6.9089
  215.8000   124.1400     6.6247     6.8693
  215.9000   123.9582     6.5853     6.8106
  216.0000   123.9576     6.5488     6.7437
  216.1000   123.9569     6.4839     6.7031
  216.2000   124.1537     6.4287     6.6137
  216.3000   124.2584     6.3814     6.5516
  216.4000   124.2578     6.3108     6.4992
  216.5000   124.2572     6.2684     6.4347
  216.6000   124.2565     6.2385     6.3305
  216.7000   124.2560     6.1603     6.2531
  216.8000   124.2554     6.0684     6.1550
  216.9000   124.2548     5.9992     6.0505
  217.0000   124.2542     5.9258     5.9319
  217.1000   124.2535     5.8327     5.8222
  217.2000   124.0173     5.7792     5.7873
  217.3000   123.4130     5.7153     5.6891
  217.4000   122.7970     5.6337     5.6434
  217.5000   122.3046     5.6007     5.5749
  217.6000   121.8033     5.5369     5.4802
  217.7000   120.9215     5.4739     5.3906
  217.8000   120.7230     5.4290     5.3228
  217.9000   120.4765     5.3874     5.2687
  218.0000   120.0605     5.3294     5.2286
  218.1000   119.3783     5.2953     5.1857
  218.2000   119.1031     5.2683     5.1266
  218.3000   118.8853     5.2185     5.0679
  218.4000   118.6388     5.1590     5.0391
  218.5000   118.6001     5.0942     4.9885
  218.6000   118.8926     5.0059     4.9317
  218.7000   119.4027     5.0056     4.8756
  218.8000   119.6385     4.9838     4.8152
  218.9000   120.0635     4.9403     4.6920
  219.0000   120.4317     4.8924     4.6458
  219.1000   120.8097     4.8601     4.6097
  219.2000   121.5371     4.7651     4.6051
  219.3000   122.1221     4.7418     4.6312
  219.4000   122.7183     4.7146     4.6584
  219.5000   123.1709     4.6980     4.6582
  219.6000   123.5873     4.6977     4.6777
  219.7000   124.2667     4.6974     4.7181
  219.8000   124.5397     4.6971     4.7640
  219.9000   124.9753     4.6967     4.7910
  220.0000   125.3051     4.7096     4.8227
  220.1000   125.4457     4.7361     4.8688
  220.2000   125.4451     4.7638     4.9072
  220.3000   125.4445     4.8284     4.9460
