~VERSION INFORMATION
 VERS.                2.0:   CWLS LOG ASCII STANDARD - VERSION 2.0
 WRAP.                 NO:   ONE LINE PER DEPTH STEP
~WELL INFORMATION
#MNEM.UNIT      DATA TYPE    INFORMATION
#----------   ------------   ------------------------------
 STRT.F           24.0000:   START DEPTH
 STOP.F          690.0000:   STOP DEPTH
 STEP.F            0.5000:   STEP LENGTH
 NULL.          -999.2500:   NO VALUE
 COMP. DEPARTMENT OF ENERGY:   COMPANY
 WELL.     STX 2 #24-15-2:   WELL
 FLD .             TEAPOT:   FIELD
 LOC .       S2 T38N R78W:   LOCATION
 CNTY.            NATRONA:   COUNTY
 STAT.            WYOMING:   STATE
 CTRY. UNITED STATES OF AMERICA:   COUNTRY
 SRVC.           Gearhart:   SERVICE COMPANY
 DATE.        23-DEC-1987:   LOGDATE
 API .       490251116800:   API NUMBER
~CURVE INFORMATION
#MNEM.UNIT       API CODE    CURVE DESCRIPTION
#----------   ------------   ------------------------------
 DEPT.F                  :   
 GRR .GAPI   07 310 01 00:   GAMMA RAY
 RILD.OHMM   07 120 46 00:   INDUCTION LOG DEEP
 RILM.OHMM   07 120 44 00:   INDUCTION LOG MEDIUM
 RLL .OHMM   07 220 01 00:   LATEROLOG-1 RES.
~PARAMETER INFORMATION
#MNEM.UNIT          VALUE    DESCRIPTION
#----------   ------------   ------------------------------
 PD  .                 GL:   PERMANENT DATUM
 LMF .                 KB:   LOG MEASURED FROM
 DMF .                 KB:   DRILLING MEASURED FROM
 DATE.        03-SEP-1987:   RUN DATE
 RUN .                  1:   RUN NUMBER
 DL  .F               692:   DEPTH LOGGER
 BLI .F               690:   BOTTOM LOG INTERVAL
 CS  .IN            8.625:   CASING SIZE
 CBD .F                48:   CASING BOTTOM DRILLER
 CBL .F                48:   CASING BOTTOM LOGGER
 BS  .IN            7.875:   BIT SIZE
 DFT .                MUD:   DRILLING FLUID TYPE
 TCS .HRS            0600:   TIME CURCULATED STOPPED
 TLAB.HRS            0751:   TIME LOGGER AT BOTTOM
 MRT .F                80:   MAXIMUM RECORDED TEMPERATURE
 LUN .               7597:   LOGGING UNIT NUMBER
 LUL .           GILLETTE:   LOGGING UNIT LOCATION
 ENGI.         WEATHERMON:   RECORDING ENGINEER
 WITN.             STRONG:   WITNESSED BY
 CLNT.            A2DTECH:   CLIENT CODE
 ORIG.           5" PRINT:   ORIGIN OF DATA
 UWI .       490251116800:   UNIQUE WELL ID
 DICO. A2D Technologies, Inc.:   DIGITIZING COMPANY
~OTHER INFORMATION
~A   DEPT       GRR      RILD       RILM        RLL   
# ...
  170.0000    98.2463     7.1146     7.1805     7.9957
  170.5000    97.9606     7.1164     7.1558     7.9419
  171.0000    97.9894     7.1178     7.1582     7.9445
  171.5000    98.3155     7.1689     7.1601     7.9467
  172.0000    98.3394     7.2223     7.2623     8.0047
  172.5000    98.3675     7.5819     7.3659     8.1189
  173.0000    98.0818     7.7431     7.5756     8.2347
  173.5000    97.5046     7.7987     7.6854     8.4105
  174.0000    96.6186     7.8546     7.7939     8.4778
  174.5000    95.3899     7.8018     7.8504     8.5333
  175.0000    93.9432     7.8034     7.7976     8.4759
  175.5000    92.1481     7.7509     7.7456     8.3616
  176.0000    90.3531     7.7528     7.6940     8.3059
  176.5000    89.1636     7.8084     7.6433     8.1367
  177.0000    88.2384     7.8644     7.5332     7.9714
  177.5000    87.6950     7.8660     7.3861     7.9177
  178.0000    88.0269     7.8676     7.2861     7.9204
  178.5000    89.5652     7.9241     7.2376     7.9225
  179.0000    91.1034     7.8711     7.2400     7.9799
  179.5000    92.9859     7.8182     7.2649     7.9825
  180.0000    95.0948     7.7119     7.2944     7.9293
  180.5000    95.4209     7.6600     7.2969     7.9130
  181.0000    95.1352     7.6616     7.2988     7.8239
  181.5000    94.2549     7.6632     7.2497     7.7180
  182.0000    93.3293     7.6651     7.2014     7.6667
  182.5000    91.8826     7.7252     7.2038     7.6157
  183.0000    90.6936     7.7750     7.2562     7.6178
  183.5000    89.2015     7.7229     7.3596     7.6732
  184.0000    88.6182     7.7247     7.4134     7.7025
  184.5000    89.5515     7.7091     7.4792     7.7852
  185.0000    91.7008     7.7282     7.5207     7.8416
  185.5000    94.1481     7.7931     7.4193     7.8321
  186.0000    93.2621     7.9491     7.3699     7.7909
  186.5000    91.4670     8.0061     7.4003     7.7935
  187.0000    90.5414     8.0077     7.5297     7.7961
  187.5000    91.2160     7.9539     7.5950     7.8092
  188.0000    94.5724     7.9555     7.7462     7.9205
  188.5000    97.6258     8.0129     7.8023     8.0222
  189.0000    98.5778     8.1266     7.8043     8.0995
  189.5000    96.0768     8.2994     7.8065     8.1962
  190.0000    92.2463     8.3589     7.8636     8.2095
  190.5000    89.8451     8.4189     7.9452     8.2575
  191.0000    89.5594     8.3880     8.0336     8.2599
  191.5000    90.4974     8.3640     8.0918     8.3052
  192.0000    91.7737     8.4831     8.1172     8.3874
  192.5000    92.3675     8.6035     8.1248     8.5001
  193.0000    92.3906     8.7256     8.0983     8.6214
  193.5000    92.7167     8.6669     8.1010     8.6237
  194.0000    94.5580     8.6687     8.2739     8.6861
  194.5000    97.3495     8.6477     8.4505     8.6890
  195.0000   100.0645     8.6726     8.5117     8.7519
  195.5000   103.1178     8.7517     8.5140     8.8153
  196.0000   106.1712     8.8587     8.5163     8.9411
  196.5000   104.3761     8.9844     8.5191     9.0059
  197.0000   100.2182     8.9863     8.5214     9.0083
  197.5000    92.9129     8.9885     8.4641     8.9482
  198.0000    91.1121     8.9903     8.4669     8.9512
  198.5000    92.6561     8.9921     8.5283     9.0160
  199.0000    96.0125     8.9939     8.5913     9.1447
  199.5000   100.0970     9.0584     8.7132     9.2841
  200.0000   101.8163     9.1870     8.8992     9.4737
  200.5000   100.6337     9.3824     9.0892     9.6089
  201.0000    99.4453     9.4616     9.2832     9.7460
  201.5000    97.6508     9.6176     9.3484     9.8166
  202.0000    96.4623     9.7534     9.4168     9.9651
  202.5000    97.0921     9.9306     9.5493    10.1695
  203.0000    98.3279    10.1424     9.7530    10.3866
  203.5000    98.9577    10.3588    10.0300    10.6084
  204.0000    96.5091    10.5798    10.3149    10.8390
  204.5000    93.7495    10.8055    10.6819    11.0663
  205.0000    90.2468    10.9596    10.9853    11.3033
  205.5000    87.8462    11.1160    11.2974    11.4646
  206.0000    85.4457    11.2746    11.4579    11.4677
  206.5000    84.5543    11.3563    11.3802    11.3914
  207.0000    85.4930    11.2807    11.1482    11.3156
  207.5000    87.0319    11.1281    10.9403    11.1624
  208.0000    88.2677    10.9023    10.7316    10.9816
  208.5000    89.4788    10.6803    10.5065    10.7653
  209.0000    90.7475    10.3905    10.3365    10.6409
  209.5000    92.3111    10.2493    10.2257    10.4041
  210.0000    93.8229    10.0925    10.1824    10.2072
  210.5000    95.0587     9.9745    10.1289    10.0659
  211.0000    96.2945     9.9772    10.1315     9.9839
  211.5000    97.8334     9.9800    10.1335     9.9401
  212.0000    99.3722     9.9831    10.1356    10.0123
  212.5000   100.6080     9.9855    10.1376    10.0153
  213.0000   101.8438     9.9885    10.0695    10.0882
  213.5000   103.0797     9.9911    10.0716    10.0905
  214.0000   103.1033     9.9940     9.9010    10.0934
  214.5000   101.9149     9.9966     9.7994    10.0962
  215.0000   100.6869     9.9299     9.7622    10.0289
  215.5000    99.2409     9.8646     9.6685    10.0057
  216.0000    98.0525     9.8369     9.6705     9.9650
  216.5000    96.5611     9.8014     9.6723     9.8992
  217.0000    95.3726     9.7362     9.6743     9.9019
  217.5000    95.0874     9.7057     9.6764     9.8353
  218.0000    96.0261     9.6740     9.6784     9.8387
  218.5000    97.8679     9.6409     9.6803     9.7725
  219.0000    97.8916     9.6126     9.6823     9.7757
  219.5000    97.0062     9.6823     9.6173     9.7785
  220.0000    97.0303     9.6850     9.5527     9.7812
  220.5000    97.7091     9.6879     9.5550     9.7161
  221.0000    99.5075     9.6540     9.5569     9.7188
  221.5000   101.0463     9.5970     9.5589     9.6541
  222.0000   101.0700     9.5620     9.4941     9.5897
  222.5000   100.4817     9.4951     9.4303     9.5265
  223.0000    99.8993     9.3609     9.4087     9.4625
  223.5000    99.3169     9.2438     9.3044     9.3350
  224.0000    99.0376     9.1823     9.2418     9.2086
  224.5000    99.3702     9.0581     9.0534     9.0210
  225.0000   100.0000     8.8123     8.7964     8.8373
  225.5000   100.9616     8.5138     8.4973     8.5973
  226.0000   101.8715     8.3399     8.2185     8.3638
  226.5000   102.5012     8.1141     7.9951     8.2447
  227.0000   102.8280     7.9490     7.8860     8.1389
  227.5000   103.1547     7.8414     7.7252     8.0847
  228.0000   102.8753     7.8458     7.6728     8.0311
  228.5000   102.2930     8.0182     7.6748     8.0336
  229.0000   101.1045     8.2394     7.6764     8.0918
  229.5000    99.6131     8.3655     7.7854     8.2073
  230.0000    97.5155     8.5352     8.0066     8.4999
  230.5000    93.8788     8.6569     8.3525     8.7420
  231.0000    91.4667     8.7806     8.5951     8.9286
  231.5000    91.2230     8.8031     8.8308     8.9933
  232.0000    90.0405     8.8463     8.8942     8.9958
  232.5000    89.7552     8.8488     8.8957     8.9983
  233.0000    91.9060     8.8512     8.8978     8.9389
  233.5000    95.5661     8.8537     8.8380     8.8788
  234.0000    97.4080     8.7948     8.7781     8.8197
  234.5000    96.2195     8.7369     8.7191     8.8224
  235.0000    96.2432     8.6264     8.6608     8.7640
  235.5000    96.8730     8.5015     8.6026     8.7664
  236.0000    98.1091     8.4449     8.6044     8.7074
  236.5000    97.7859     8.3888     8.6662     8.7104
  237.0000    95.7378     8.2758     8.7289     8.7127
  237.5000    93.9433     8.2781     8.7915     8.7202
  238.0000    93.3550     8.3962     8.8779     8.8396
  238.5000    93.9907     8.7559     9.1062     8.9663
  239.0000    96.4387     9.1322     9.3648     9.1686
  239.5000    98.8866     9.3908     9.5641     9.4185
  240.0000   100.1224     9.5254     9.6328     9.6867
  240.5000    98.3279     9.5944     9.7020     9.8250
  241.0000    96.2304     9.5970     9.7039     9.9652
  241.5000    95.0182     9.5328     9.5719     9.8989
  242.0000    94.6384     9.3391     9.3707     9.6972
  242.5000    97.8225     9.1490     9.1101     9.4997
