~VERSION INFORMATION
 VERS.                2.0:   CWLS LOG ASCII STANDARD - VERSION 2.0
 WRAP.                 NO:   ONE LINE PER DEPTH STEP
~WELL INFORMATION
#MNEM.UNIT      DATA TYPE    INFORMATION
#----------   ------------   ------------------------------
 STRT.F           29.0000:   START DEPTH
 STOP.F          503.0000:   STOP DEPTH
 STEP.F            0.5000:   STEP LENGTH
 NULL.          -999.2500:   NO VALUE
 COMP. FENIX & SCISSON INC:   COMPANY
 WELL.      78 SX 3 #78-3:   WELL
 FLD .             TEAPOT:   FIELD
 LOC .       S3 T38N R78W:   LOCATION
 CNTY.            NATRONA:   COUNTY
 STAT.            WYOMING:   STATE
 CTRY. UNITED STATES OF AMERICA:   COUNTRY
 SRVC.            Unknown:   SERVICE COMPANY
 DATE.        17-OCT-1978:   LOGDATE
 API .       490251072400:   API NUMBER
~CURVE INFORMATION
#MNEM.UNIT       API CODE    CURVE DESCRIPTION
#----------   ------------   ------------------------------
 DEPT.F                  :   
 CALD.IN     45 280 60 00:   CALIPER
 GRD .GAPI   45 310 01 00:   GAMMA RAY FROM DENSITY LOG
 CORR.G/C3   45 356 01 00:   DENSITY CORRECTION
 RHOB.G/C3   45 350 01 00:   BULK DENSITY
 DPHI.DEC    45 890 12 00:   DENSITY POROSITY SANDSTONE
 SPR .MV     05 010 01 00:   SPONTANEOUS POTENTIAL FROM RES.
 IL  .OHMM   05 120 00 00:   INDUCTION LOG
 SN  .OHMM   05 040 16 00:   SHORT NORMAL 16"
~PARAMETER INFORMATION
#MNEM.UNIT          VALUE    DESCRIPTION
#----------   ------------   ------------------------------
 PD  .                 GL:   PERMANENT DATUM
 EPD .F              5154:   ELEVATION PERMANENT DATUM
 LMF .                 KB:   LOG MEASURED FROM
 DAPD.F                 4:   FEET ABOVE PERMANENT DATUM
 DMF .                 KB:   DRILLING MEASURED FROM
 EKB .F              5158:   KELLING BUSHING
 EGL .F              5154:   GROUND LEVEL
 DATE.           10-17-78:   RUN DATE
 RUN .                  1:   RUN NUMBER
 DD  .F               498:   DEPTH DRILLER
 DL  .F               503:   DEPTH LOGGER
 BLI .F               497:   BOTTOM LOG INTERVAL
 TLI .F                46:   TOP LOG INTERVAL
 CS  .IN            8.625:   CASING SIZE
 CBD .F                40:   CASING BOTTOM DRILLER
 BS  .IN            7.875:   BIT SIZE
 BSD .F               498:   BIT SIZE AT DEPTH
 DFT .                KCL:   DRILLING FLUID TYPE
 DFD .                8.7:   DRILLING FLUID DENSITY
 DFV .                 38:   DRILLING FLUID VISCOSITY
 DFPH.                  9:   DRILLING FLUID PH
 DFL .                9.6:   DRILLING FLUID LOSS
 MSS .          FLOW LINE:   MUD SAMPLE SOURCE
 RMS .OHMM             .2:   RESISTIVITY MUD SAMPLE
 MST .F                52:   MUD SAMPLE TEMPERATURE
 RMF .OHMM            .18:   RESISTIVITY MUD FILTRATE SAMPLE
 MFST.F                58:   MUD FILTRATE SAMPLE TEMPERATURE
 RMC .OHMM            .16:   RESISTIVITY MUD CAKE
 MCST.F                64:   MUD CAKE SAMPLE TEMPERATURE
 MFSS.               MEAS:   MUD FILTRATE SAMPLE SOURCE
 MCSS.               MEAS:   MUD CAKE SAMPLE SOURCE
 TCS .HRS               1:   TIME CURCULATED STOPPED
 MRT .F                72:   MAXIMUM RECORDED TEMPERATURE
 LUN .               2958:   LOGGING UNIT NUMBER
 LUL .               CASP:   LOGGING UNIT LOCATION
 ENGI.             MILLER:   RECORDING ENGINEER
 WITN.           DINSMORE:   WITNESSED BY
 CLNT.            A2DTECH:   CLIENT CODE
 ORIG.           5" PRINT:   ORIGIN OF DATA
 UWI .       490251072400:   UNIQUE WELL ID
 DICO. A2D Technologies, Inc.:   DIGITIZING COMPANY
~OTHER INFORMATION
~A   DEPT     CALD         GRD      CORR       RHOB       DPHI        SPR         IL         SN   
# ...
  312.5000     7.9667    84.3805     0.0276     2.3888     0.1698     2.8773    23.7939    12.7938
  313.0000     7.9623    86.4459     0.0264     2.3883     0.1711     2.8789    23.4408    12.7698
  313.5000     7.9578    88.5436     0.0267     2.3848     0.1724     2.8736    22.8871    12.7455
  314.0000     7.9540    88.8499     0.0270     2.3823     0.1735     2.5119    20.7152    12.7213
  314.5000     7.9525    88.7763     0.0272     2.3850     0.1704     2.1106    20.9935    12.6971
  315.0000     7.9510    88.7430     0.0275     2.3896     0.1671     1.7072    21.5311    12.6729
  315.5000     7.9494    87.0538     0.0277     2.3943     0.1673     1.3065    22.0825    12.6488
  316.0000     7.9479    85.0489     0.0280     2.3948     0.1687     1.2863    22.6463    12.6247
  316.5000     7.9464    83.0352     0.0282     2.3839     0.1745     1.2869    23.1298    12.6007
  317.0000     7.9448    81.0179     0.0291     2.3732     0.1805     1.2979    22.6693    12.5767
  317.5000     7.9433    79.6649     0.0335     2.3643     0.1806     1.6421    22.2791    12.5527
  318.0000     7.9418    79.1190     0.0378     2.3687     0.1790     2.0147    21.8906    12.5289
  318.5000     7.9402    79.1806     0.0421     2.3732     0.1774     2.0833    21.8906    12.5049
  319.0000     7.9387    79.2351     0.0465     2.3733     0.1746     2.0843    21.9317    12.4771
  319.5000     7.9372    79.2875     0.0508     2.3859     0.1665     2.0835    22.1360    12.4434
  320.0000     7.9356    79.4717     0.0548     2.4065     0.1583     2.0833    22.2970    12.4102
  320.5000     7.9341    79.6717     0.0570     2.4048     0.1631     2.0833    21.6535    12.3764
  321.0000     7.9326    79.8650     0.0592     2.4020     0.1621     2.0833    21.1392    12.1262
  321.5000     7.9310    80.2193     0.0613     2.4003     0.1611     2.0833    20.6372    12.0253
  322.0000     7.9295    80.5872     0.0682     2.4003     0.1620     2.0835    20.1464    12.0030
  322.5000     7.9280    80.9560     0.0817     2.4002     0.1634     2.0840    19.5990    11.9808
  323.0000     7.9264    81.3251     0.0977     2.3988     0.1642     2.0779    19.6884    11.9586
  323.5000     7.9249    81.6906     0.1136     2.3976     0.1619     1.9812    19.8701    11.9364
  324.0000     7.9234    82.0827     0.1298     2.4045     0.1577     0.6735    20.0560    11.8049
  324.5000     7.9218    80.8508     0.1318     2.4118     0.1536    -0.8887    20.1535    11.6239
  325.0000     7.9203    79.1019     0.1251     2.4167     0.1515    -1.1058    20.0004    11.4436
  325.5000     7.9188    77.3353     0.1072     2.4176     0.1556    -1.2921    19.8325    11.3586
  326.0000     7.9172    75.6689     0.0827     2.4039     0.1616    -1.4807    19.5486    11.2876
  326.5000     7.9157    74.9116     0.0578     2.3873     0.1676    -1.6852    19.2245    11.2182
  327.0000     7.9142    78.7292     0.0509     2.3765     0.1711    -2.2595    18.5834    11.0946
  327.5000     7.9127    82.2332     0.0547     2.3792     0.1714    -2.6839    17.6961    10.9245
  328.0000     7.9111    82.4516     0.0608     2.3890     0.1647    -2.4927    16.8508    10.8810
  328.5000     7.9096    82.7096     0.0682     2.3987     0.1581    -1.6708    16.0119    10.8810
  329.0000     7.9081    82.1708     0.0756     2.4087     0.1515    -0.8454    15.9865    10.8810
  329.5000     7.9065    81.1507     0.0835     2.4279     0.1449    -0.5018    15.9601    10.8810
  330.0000     7.9050    81.1155     0.0647     2.4339     0.1437    -0.4955    15.9337    10.8284
  330.5000     7.9035    81.6892     0.0410     2.4292     0.1458    -0.4949    15.9074    10.7375
  331.0000     7.9019    82.2641     0.0217     2.4241     0.1479    -0.5163    15.8819    10.6474
  331.5000     7.9004    81.5408     0.0206     2.4193     0.1481    -0.5419    15.7934    10.5580
  332.0000     7.8989    79.2671     0.0192     2.4224     0.1455    -0.5676    15.6154    10.4872
  332.5000     7.8973    77.0072     0.0178     2.4274     0.1454    -0.5932    15.4395    10.4837
  333.0000     7.8958    74.7810     0.0164     2.4272     0.1452    -0.6188    15.2655    10.4802
  333.5000     7.8943    74.7303     0.0150     2.4262     0.1446    -0.6445    15.0935    10.4766
  334.0000     7.8927    76.8316     0.0136     2.4286     0.1434    -0.6691    14.9234    10.4730
  334.5000     7.8912    79.4007     0.0132     2.4321     0.1421    -0.6863    14.7553    10.4695
  335.0000     7.8897    79.9227     0.0170     2.4327     0.1408    -0.9682    14.5890    10.4660
  335.5000     7.8881    79.9622     0.0206     2.4331     0.1396    -1.2892    14.4246    10.4624
  336.0000     7.8866    79.9881     0.0242     2.4362     0.1384    -1.6116    14.2517    10.4589
  336.5000     7.8851    80.0173     0.0279     2.4397     0.1381    -1.9336    14.0693    10.4553
  337.0000     7.8835    80.0484     0.0284     2.4402     0.1378    -2.2534    13.8893    10.4518
  337.5000     7.8820    80.0897     0.0284     2.4402     0.1371    -2.4736    13.6941    10.4483
  338.0000     7.8805    80.7474     0.0319     2.4430     0.1351    -2.4240    13.9659    10.4447
  338.5000     7.8789    82.9202     0.0485     2.4495     0.1281    -2.3802    14.2739    10.4412
  339.0000     7.8774    85.1746     0.0646     2.4596     0.1203    -2.3362    14.5887    10.4377
  339.5000     7.8759    87.4570     0.0809     2.4698     0.1184    -2.2811    14.7747    10.4341
  340.0000     7.8743    88.6083     0.0872     2.4727     0.1229    -2.8011    14.8411    10.4306
  340.5000     7.8728    88.3068     0.0895     2.4649     0.1273    -3.3135    14.9079    10.4271
  341.0000     7.8713    86.2504     0.0917     2.4571     0.1312    -3.4060    14.9749    10.4235
  341.5000     7.8697    84.2296     0.0938     2.4493     0.1348    -3.4677    15.0422    10.4200
  342.0000     7.8682    82.3443     0.1030     2.4452     0.1350    -3.4498    15.1099    10.4165
  342.5000     7.8667    80.7197     0.1158     2.4487     0.1352    -3.4336    15.1522    10.4130
  343.0000     7.8651    80.3778     0.1287     2.4566     0.1264    -3.4171    14.9463    10.4094
  343.5000     7.8636    80.1037     0.1378     2.4645     0.1156    -3.4007    14.8010    10.4059
  344.0000     7.8621    80.0983     0.1365     2.4725     0.1189    -3.3843    14.6142    10.4024
  344.5000     7.8605    80.0998     0.1130     2.4707     0.1239    -3.3679    14.3117    10.3989
  345.0000     7.8590    80.0992     0.0797     2.4614     0.1288    -3.3516    14.0126    10.3954
  345.5000     7.8575    80.1481     0.0575     2.4524     0.1330    -3.3352    13.7205    10.3920
  346.0000     7.8559    80.2190     0.0475     2.4469     0.1351    -3.3187    13.4445    10.3919
  346.5000     7.8544    80.2908     0.0375     2.4422     0.1372    -3.3023    13.3598    10.3919
  347.0000     7.8529    80.3632     0.0285     2.4375     0.1412    -3.2861    13.2786    10.3919
  347.5000     7.8513    80.4368     0.0283     2.4330     0.1470    -3.2745    13.1979    10.3919
  348.0000     7.8498    80.4849     0.0282     2.4234     0.1511    -3.2732    13.1176    10.3919
  348.5000     7.8483    80.1902     0.0358     2.4196     0.1468    -3.1955    13.0378    10.3918
  349.0000     7.8468    79.9094     0.0440     2.4222     0.1468    -2.8499    12.9585    10.3914
  349.5000     7.8452    79.6548     0.0523     2.4248     0.1436    -2.5155    12.8797    10.3901
  350.0000     7.8437    82.0202     0.0606     2.4281     0.1373    -2.1826    12.8380    10.4673
  350.5000     7.8422    85.1936     0.0689     2.4368     0.1317    -1.8667    13.0564    10.5369
  351.0000     7.8406    87.5998     0.0765     2.4459     0.1332    -1.7883    13.2247    10.6853
  351.5000     7.8391    87.7587     0.0767     2.4504     0.1344    -1.7031    13.3972    11.0119
  352.0000     7.8376    87.9103     0.0771     2.4483     0.1362    -1.6161    14.0519    11.3486
  352.5000     7.8360    87.6207     0.0774     2.4389     0.1431    -1.5307    14.9334    11.6972
