~VERSION INFORMATION
 VERS.                2.0:   CWLS LOG ASCII STANDARD - VERSION 2.0
 WRAP.                 NO:   ONE LINE PER DEPTH STEP
~WELL INFORMATION
#MNEM.UNIT      DATA TYPE    INFORMATION
#----------   ------------   ------------------------------
 STRT.F           30.0000:   START DEPTH
 STOP.F          733.0000:   STOP DEPTH
 STEP.F            0.5000:   STEP LENGTH
 NULL.          -999.2500:   NO VALUE
 COMP. FENIX & SCISSON INC:   COMPANY
 WELL.    NPR-3 #51 S -34:   WELL
 FLD .             TEAPOT:   FIELD
 LOC .      S34 T39N R78W:   LOCATION
 CNTY.            NATRONA:   COUNTY
 STAT.            WYOMING:   STATE
 CTRY. UNITED STATES OF AMERICA:   COUNTRY
 SRVC.      Dresser Atlas:   SERVICE COMPANY
 DATE.        20-MAR-1977:   LOGDATE
 API .       490251031600:   API NUMBER
~CURVE INFORMATION
#MNEM.UNIT       API CODE    CURVE DESCRIPTION
#----------   ------------   ------------------------------
 DEPT.F                  :   
 CALD.IN     45 280 60 00:   CALIPER FROM DENSITY LOG
 GRD .GAPI   45 310 01 00:   GAMMA RAY FROM DENSITY LOG
 CORR.G/C3   45 356 01 00:   DENSITY CORRECTION
 DPHI.DEC    45 890 12 00:   DENSITY POROSITY SANDSTONE
 RHOB.G/C3   45 350 01 00:   BULK DENSITY
 SPR .MV     07 010 01 00:   SPONTANEOUS POTENTIAL
 ILD .OHMM   07 120 46 00:   INDUCTION LOG DEEP
 ILM .OHMM   07 120 44 00:   INDUCTION LOG MEDIUM
 SFL .OHMM   07 220 01 00:   SHALLOW FOCUSED LOG RESISTIVITY
~PARAMETER INFORMATION
#MNEM.UNIT          VALUE    DESCRIPTION
#----------   ------------   ------------------------------
 PD  .                 GL:   PERMANENT DATUM
 EPD .F              5065:   ELEVATION PERMANENT DATUM
 LMF .                 KB:   LOG MEASURED FROM
 DAPD.F                 4:   FEET ABOVE PERMANENT DATUM
 DMF .                 KB:   DRILLING MEASURED FROM
 EKB .F              5069:   KELLING BUSHING
 EGL .F              5065:   GROUND LEVEL
 DATE.        20-MAR-1977:   RUN DATE
 RUN .                  1:   RUN NUMBER
 DD  .F               735:   DEPTH DRILLER
 DL  .F               731:   DEPTH LOGGER
 BLI .F               729:   BOTTOM LOG INTERVAL
 TLI .F                42:   TOP LOG INTERVAL
 CS  .IN            8.625:   CASING SIZE
 CBD .F                40:   CASING BOTTOM DRILLER
 CBL .F                42:   CASING BOTTOM LOGGER
 BS  .IN            7.875:   BIT SIZE
 BSD .F               735:   BIT SIZE AT DEPTH
 DFT .           CHEM GEL:   DRILLING FLUID TYPE
 DFD .                9.0:   DRILLING FLUID DENSITY
 DFV .                 38:   DRILLING FLUID VISCOSITY
 DFPH.                8.5:   DRILLING FLUID PH
 DFL .                 72:   DRILLING FLUID LOSS
 MSS .           FLOWLINE:   MUD SAMPLE SOURCE
 RMS .OHMM             .4:   RESISTIVITY MUD SAMPLE
 MST .F                51:   MUD SAMPLE TEMPERATURE
 RMF .OHMM            .72:   RESISTIVITY MUD FILTRATE SAMPLE
 MFST.F                48:   MUD FILTRATE SAMPLE TEMPERATURE
 RMC .OHMM           1.16:   RESISTIVITY MUD CAKE
 MCST.F                48:   MUD CAKE SAMPLE TEMPERATURE
 MFSS.               MEAS:   MUD FILTRATE SAMPLE SOURCE
 MCSS.               MEAS:   MUD CAKE SAMPLE SOURCE
 RMB .OHMM            .31:   RESISTIVITY MUD AT BHT
 BHT .F                66:   BOTTOM HOLE TEMPERATURE
 TCS .HRS            0300:   TIME CURCULATED STOPPED
 MRT .F                66:   MAXIMUM RECORDED TEMPERATURE
 LUN .               6145:   LOGGING UNIT NUMBER
 LUL .              GLTTE:   LOGGING UNIT LOCATION
 ENGI.              RANCK:   RECORDING ENGINEER
 WITN.              BURKE:   WITNESSED BY
 CLNT.            A2DTECH:   CLIENT CODE
 ORIG.           5" PRINT:   ORIGIN OF DATA
 UWI .       490251031600:   UNIQUE WELL ID
 DICO. A2D Technologies, Inc.:   DIGITIZING COMPANY
~OTHER INFORMATION
~A   DEPT     CALD        GRD       CORR       DPHI       RHOB        SPR        ILD        ILM        SFL   
# ...
  541.0000     7.9086    71.4422     0.0121     0.1361     2.4248   -41.3121    14.9808    15.7953    19.9643
  541.5000     7.9101    72.9541     0.0092     0.1418     2.4113   -41.1478    15.6235    15.9655    20.5351
  542.0000     7.8971    76.7081     0.0064     0.1453     2.4039   -40.8343    16.4069    18.4308    21.7155
  542.5000     7.8991    70.6033     0.0035     0.1480     2.3995   -40.6701    16.9928    22.5457    22.8052
  543.0000     7.9160    80.1798     0.0037     0.1489     2.4018   -40.3566    17.4783    23.3171    23.6202
  543.5000     7.9179    80.7963     0.0219     0.1392     2.4221   -40.0431    17.9776    22.3713    24.2955
  544.0000     7.9348    81.4127     0.0372     0.1278     2.4410   -39.8788    17.9864    19.9006    25.5147
  544.5000     7.9368    82.3277     0.0404     0.1173     2.4538   -39.7146    18.1201    18.8359    27.5477
  545.0000     7.9537    83.0934     0.0375     0.1112     2.4711   -39.6996    18.0017    18.2025    36.3579
  545.5000     7.9706    85.2023     0.0377     0.1019     2.4967   -39.6846    17.8863    17.8240    45.7150
  546.0000     7.9875    77.3113     0.0363     0.0902     2.5275   -39.6696    17.5296    18.3443    46.0495
  546.5000     8.0044    73.7438     0.0275     0.0956     2.4931   -39.6547    17.0593    19.3974    26.1140
  547.0000     8.0064    77.8527     0.0231     0.1195     2.4482   -39.4904    16.6017    20.7970    22.2799
  547.5000     8.0233    78.5597     0.0293     0.1320     2.4133   -39.4754    16.1564    21.8391    21.8325
  548.0000     8.0252    74.7744     0.0415     0.1369     2.4025   -39.3112    15.6146    22.4619    21.9949
  548.5000     8.0272    71.8812     0.0447     0.1299     2.4174   -39.4492    14.8835    22.4713    22.3126
  549.0000     8.0291    73.3932     0.0479     0.1263     2.4336   -39.7290    14.6861    22.1692    22.3235
  549.5000     8.0161    71.0465     0.0480     0.1242     2.4403   -39.7140    14.6933    21.5748    22.1802
  550.0000     8.0178    69.7007     0.0503     0.1230     2.4434   -39.6713    14.8007    21.1687    21.8832
  550.5000     7.9926    73.9966     0.0540     0.1228     2.4366   -39.6836    14.6055    21.0041    22.5127
  551.0000     7.9693    75.7573     0.0578     0.1259     2.4298   -39.6657    14.8205    20.5827    21.6041
  551.5000     7.9652    76.6254     0.0606     0.1307     2.4174   -39.8000    14.9327    19.8855    21.0326
  552.0000     7.9528    75.6835     0.0592     0.1276     2.4310   -40.0816    14.9419    18.2904    20.7506
  552.5000     7.9402    77.0262     0.0593     0.1228     2.4453   -40.3584    14.9512    17.3468    20.6188
  553.0000     7.9426    78.3867     0.0610     0.1189     2.4522   -40.4897    14.8550    17.3579    20.2142
  553.5000     7.9450    79.9866     0.0656     0.1137     2.4590   -40.4716    14.6622    17.4894    20.0777
  554.0000     7.9324    77.8975     0.0687     0.1071     2.4711   -40.4537    14.6713    17.6219    19.6759
  554.5000     7.9348    77.9358     0.0704     0.1032     2.4869   -40.4358    14.5787    17.3899    19.4277
  555.0000     7.9372    77.9547     0.0675     0.1023     2.4938   -40.4179    14.4872    17.0238    19.1724
  555.5000     7.9396    77.3771     0.0616     0.1067     2.4819   -40.2507    14.3963    16.4528    19.0520
  556.0000     7.9570    81.4299     0.0542     0.1123     2.4580   -40.2209    14.3059    15.7058    19.0642
  556.5000     7.9595    84.1480     0.0377     0.1212     2.4370   -40.0527    14.2164    15.4970    19.0761
  557.0000     7.9617    86.2706     0.0273     0.1300     2.4289   -39.7353    14.2252    15.3996    19.0880
  557.5000     7.9641    87.3196     0.0229     0.1393     2.4200   -39.5821    14.2340    15.3029    19.0999
  558.0000     7.9665    87.9353     0.0155     0.1447     2.4125   -39.5642    14.2428    15.2067    19.1113
  558.5000     7.9689    88.5388     0.0096     0.1489     2.4074   -39.7125    14.2517    15.0068    18.6007
  559.0000     7.9713    88.5578     0.0037     0.1515     2.4037   -39.8447    14.2605    14.7097    18.0818
  559.5000     7.9737    86.2746    -0.0007     0.1494     2.4016   -39.9588    14.2694    14.3167    17.8659
  560.0000     7.9761    82.7758    -0.0066     0.1551     2.3987   -39.7910    14.2782    14.1264    18.1291
  560.5000     7.9934    83.9895    -0.0110     0.1580     2.3912   -39.7731    13.9935    14.2356    18.5212
  561.0000     7.9958    80.8071    -0.0079     0.1571     2.3861   -39.9051    13.9025    14.5434    19.1857
  561.5000     8.0132    76.8488     0.0073     0.1451     2.3938   -39.8866    13.6238    14.7554    19.8740
  562.0000     8.0155    75.6826     0.0134     0.1366     2.4075   -39.8687    13.3507    14.4610    19.7491
  562.5000     8.0179    76.1629     0.0181     0.1323     2.4181   -40.0249    13.0830    14.6718    19.0889
  563.0000     8.0203    76.0267     0.0212     0.1301     2.4280   -40.2814    12.8207    15.1981    18.3233
  563.5000     8.0227    79.4886     0.0243     0.1279     2.4349   -40.4127    12.4869    15.8528    17.5885
  564.0000     8.0401    80.7005     0.0199     0.1257     2.4452   -40.5441    12.2269    16.3081    17.0005
  564.5000     8.0425    81.6139     0.0139     0.1278     2.4220   -40.8527    11.9818    16.3183    16.6613
  565.0000     8.0598    82.6741     0.0187     0.1236     2.4438   -41.1009    11.8364    16.2132    16.6717
  565.5000     8.0622    83.4391     0.0203     0.1214     2.4477   -41.5308    11.7621    16.0026    16.6821
  566.0000     8.0646    83.7552     0.0204     0.1214     2.4470   -41.8114    11.8529    15.9020    16.6924
  566.5000     8.0670    83.1770     0.0160     0.1247     2.4268   -42.0965    12.1091    16.1338    16.8189
  567.0000     8.0694    80.5105     0.0056     0.1330     2.4134   -42.3771    12.4567    16.2560    16.8293
  567.5000     8.0567    78.1418     0.0012     0.1299     2.4375   -42.6578    12.9032    16.6076    17.1933
  568.0000     8.0442    77.2636     0.0194     0.1143     2.4594   -43.0832    13.2736    17.2034    17.6872
  568.5000     8.0466    79.3747     0.0331     0.1052     2.4805   -43.3638    13.5604    18.1946    18.1953
  569.0000     8.0340    80.5882     0.0422     0.0909     2.5331   -43.6489    13.9496    19.3767    19.3775
  569.5000     8.0214    83.1449     0.0454     0.0747     2.5534   -43.9295    14.4497    20.6356    21.2161
  570.0000     8.0089    85.7017     0.0455     0.0533     2.5595   -44.3594    14.7620    21.0819    24.8948
  570.5000     7.9963    85.8703     0.0366     0.0569     2.5573   -44.9341    15.0810    21.2416    30.2405
  571.0000     7.9838    83.5017     0.0277     0.0602     2.5537   -45.5132    15.3006    20.5314    31.9830
  571.5000     7.9712    81.1331     0.0248     0.0520     2.5628   -45.6490    15.2045    19.7080    30.7004
  572.0000     7.9737    80.8540     0.0279     0.0559     2.5636   -45.6267    14.9014    18.1477    25.8360
  572.5000     7.9760    79.5301     0.0295     0.0629     2.5479   -45.4596    14.4036    16.7110    22.3531
  573.0000     7.9634    76.4152     0.0296     0.0648     2.5428   -45.2924    13.8263    15.1763    20.0211
  573.5000     7.9659    79.5789     0.0328     0.0666     2.5391   -44.9760    13.2723    13.7826    17.5636
  574.0000     7.9683    78.2448     0.0344     0.0765     2.5370   -44.8089    12.8289    12.6038    13.6945
  574.5000     7.9557    80.3541     0.0360     0.0939     2.5123   -44.6462    12.3148    11.9320    14.3859
  575.0000     7.9581    82.0153     0.0286     0.1034     2.4929   -44.7776    11.9033    11.6132    14.9020
  575.5000     7.9605    80.3930     0.0137     0.1106     2.4735   -44.7553    11.5057    11.4603    15.2243
  576.0000     7.9629    78.7706     0.0078     0.1169     2.4556   -44.7374    11.0446    11.4677    15.0242
  576.5000     7.9654    82.3721     0.0154     0.1082     2.4826   -44.7195    10.7498    11.5545    14.8245
  577.0000     7.9677    82.3915     0.0186     0.1090     2.4760   -44.7016    10.6822    11.4817    14.6319
