~VERSION INFORMATION
 VERS.                2.0:   CWLS LOG ASCII STANDARD - VERSION 2.0
 WRAP.                 NO:   ONE LINE PER DEPTH STEP
~WELL INFORMATION
#MNEM.UNIT      DATA TYPE    INFORMATION
#----------   ------------   ------------------------------
 STRT.F          717.0000:   START DEPTH
 STOP.F         2448.0000:   STOP DEPTH
 STEP.F            0.5000:   STEP LENGTH
 NULL.          -999.2500:   NO VALUE
 COMP.   FLUOR DANIEL INC:   COMPANY
 WELL. NAVAL PETROLEUM RESERVE 3X27 #34-27:   WELL
 FLD .             TEAPOT:   FIELD
 LOC .      S27 T39N R78W:   LOCATION
 CNTY.            NATRONA:   COUNTY
 STAT.            WYOMING:   STATE
 CTRY. UNITED STATES OF AMERICA:   COUNTRY
 SRVC.            Unknown:   SERVICE COMPANY
 DATE.        17-MAY-1996:   LOGDATE
 API .       490252279300:   API NUMBER
~CURVE INFORMATION
#MNEM.UNIT       API CODE    CURVE DESCRIPTION
#----------   ------------   ------------------------------
 DEPT.F                  :   
 TGAS.TC/CC  91 830 01 00:   TOTAL GAS UNIT
 ROP .FT/HR  91 810 01 00:   RAT OF DRILLING PENETRATION
~PARAMETER INFORMATION
#MNEM.UNIT          VALUE    DESCRIPTION
#----------   ------------   ------------------------------
 EPD .F              5039:   ELEVATION PERMANENT DATUM
 EKB .F              5049:   KELLING BUSHING
 EGL .F              5039:   GROUND LEVEL
 DATE.        17-MAY-1996:   RUN DATE
 RUN .                  1:   RUN NUMBER
 ENGI.     R.HUSK/C.TOWER:   RECORDING ENGINEER
 CLNT.            A2DTECH:   CLIENT CODE
 ORIG.           5" PRINT:   ORIGIN OF DATA
 UWI .       490252279300:   UNIQUE WELL ID
 DICO. A2D Technologies, Inc.:   DIGITIZING COMPANY
~OTHER INFORMATION
~A   DEPT       TGAS        ROP 
# ...
  960.0000     2.0042     0.5624
  960.5000     2.0100     0.5621
  961.0000     1.8265     0.5618
  961.5000     1.8321     0.5617
  962.0000     1.8389     0.5616
  962.5000     1.6553     0.5616
  963.0000     1.8499     0.5615
  963.5000     1.8548     0.5708
  964.0000     1.8610     0.5719
  964.5000     1.6761     0.5800
  965.0000     1.6830     0.5799
  965.5000     1.6885     0.5798
  966.0000     1.6941     0.5797
  966.5000     1.6998     0.5796
  967.0000     1.8955     0.5795
  967.5000     1.9010     0.5700
  968.0000     1.9059     0.5699
  968.5000     2.1006     0.5698
  969.0000     2.1067     0.5697
  969.5000     2.1122     0.5696
  970.0000     2.1176     0.5695
  970.5000     2.1233     0.5694
  971.0000     1.9397     0.5600
  971.5000     1.9466     0.5599
  972.0000     1.7622     0.5598
  972.5000     1.5781     0.5691
  973.0000     1.5850     0.5690
  973.5000     1.5107     0.5689
  974.0000     1.4056     0.6628
  974.5000     1.2756     0.6533
  975.0000     1.0399     0.6532
  975.5000     1.0456     0.6531
  976.0000     0.8619     0.6530
  976.5000     0.6797     0.6529
  977.0000     0.6852     0.6528
  977.5000     0.5017     0.6527
  978.0000     0.5067     0.6526
  978.5000     0.5124     0.6525
  979.0000     0.5183     0.6524
  979.5000     0.3347     0.6429
  980.0000     0.3403     0.6334
  980.5000     0.3460     0.6334
  981.0000     0.3527     0.6333
  981.5000     0.3582     0.6238
  982.0000     0.5528     0.6237
  982.5000     0.5583     0.6236
  983.0000     0.5639     0.6235
  983.5000     0.5694     0.6234
  984.0000     0.5749     0.6233
  984.5000     0.7695     0.6232
  985.0000     0.7752     0.6325
  985.5000     0.7819     0.6324
  986.0000     0.7875     0.6323
  986.5000     0.9821     0.6322
  987.0000     0.9870     0.6321
  987.5000     0.9926     0.6320
  988.0000     0.9986     0.6320
  988.5000     0.8679     0.6319
  989.0000     0.8206     0.6318
  989.5000     0.8263     0.6317
  990.0000     0.8330     0.6316
  990.5000     0.8386     0.6409
  991.0000     0.8433     0.6408
  991.5000     0.8496     0.6501
  992.0000     0.6655     0.6500
  992.5000     0.6712     0.6499
  993.0000     0.6771     0.6498
  993.5000     0.6826     0.6497
  994.0000     0.6882     0.6496
  994.5000     0.6939     0.6495
  995.0000     0.8887     0.6588
  995.5000     0.8952     0.6681
  996.0000     0.9000     0.6680
  996.5000     1.0947     0.6679
  997.0000     1.1004     0.6585
  997.5000     1.1061     0.6584
  998.0000     1.1119     0.6583
  998.5000     1.2599     0.6582
  999.0000     1.3122     0.6581
  999.5000     1.3189     0.6580
 1000.0000     1.3108     0.6579
 1000.5000     1.2006     0.6484
 1001.0000     1.2038     0.6483
 1001.5000     1.2075     0.6482
 1002.0000     1.2106     0.6481
 1002.5000     1.2137     0.6480
 1003.0000     1.0277     0.6479
 1003.5000     0.8417     0.6478
 1004.0000     0.8448     0.6477
 1004.5000     0.8479     1.0142
 1005.0000     0.8510     1.0141
 1005.5000     0.8541     1.0140
 1006.0000     0.8571     1.0139
 1006.5000     0.8603     1.1548
 1007.0000     0.8634     1.1547
 1007.5000     0.8666     1.1546
 1008.0000     0.8697     1.1545
 1008.5000     0.8733     0.8537
 1009.0000     0.8764     0.8536
 1009.5000     0.8792     0.8535
 1010.0000     0.8826     0.8534
 1010.5000     0.8857     0.8533
 1011.0000     0.8888     0.8532
 1011.5000     0.8918     0.8531
 1012.0000     0.8950     0.8530
 1012.5000     0.8981     0.8529
 1013.0000     0.9013     0.8434
 1013.5000     0.9050     0.8433
 1014.0000     0.9081     0.7868
 1014.5000     0.9112     0.7304
 1015.0000     0.9143     0.7397
 1015.5000     0.9173     0.7396
 1016.0000     0.9204     0.7395
 1016.5000     1.1126     0.7394
 1017.0000     1.1155     0.7487
 1017.5000     1.1188     0.7486
 1018.0000     1.1218     0.7579
 1018.5000     1.2274     0.7578
 1019.0000     1.3172     0.7577
 1019.5000     1.3204     0.7576
 1020.0000     1.2920     0.7763
 1020.5000     0.9490     0.8148
 1021.0000     0.9521     0.8325
 1021.5000     0.9548     0.8324
 1022.0000     0.9582     0.8323
 1022.5000     0.9613     0.8322
 1023.0000     0.9647     0.8321
 1023.5000     0.9674     0.8320
 1024.0000     0.9706     0.8320
 1024.5000     0.9737     0.8695
 1025.0000     0.9769     0.9445
 1025.5000     0.9800     0.9445
 1026.0000     0.9832     0.9443
 1026.5000     0.9868     0.9443
 1027.0000     0.9899     0.9348
 1027.5000     0.9926     0.9441
 1028.0000     0.9963     1.0192
 1028.5000     0.9989     1.0191
 1029.0000     0.8130     1.0190
 1029.5000     0.8162     1.0189
 1030.0000     0.8193     0.9154
 1030.5000     0.8225     0.9153
 1031.0000     0.8256     0.9152
 1031.5000     0.8294     0.9151
 1032.0000     0.8319     0.9150
 1032.5000     0.8351     0.9149
 1033.0000     0.8386     0.9148
 1033.5000     0.8417     0.9147
 1034.0000     0.8445     0.9147
 1034.5000     0.8477     0.9146
 1035.0000     0.8510     0.9145
 1035.5000     0.8540     0.9238
 1036.0000     0.8571     0.9143
 1036.5000     0.8681     0.9142
 1037.0000     1.0526     0.9141
 1037.5000     1.0563     0.9140
 1038.0000     0.8697     0.9045
 1038.5000     0.8733     0.8386
 1039.0000     0.8764     0.8385
 1039.5000     0.8795     0.8384
 1040.0000     0.8826     0.8383
 1040.5000     0.8857     0.8383
 1041.0000     0.8888     0.8381
 1041.5000     0.8919     0.8286
 1042.0000     0.8950     0.8286
 1042.5000     0.8981     0.8266
 1043.0000     0.7121     0.8215
 1043.5000     0.7159     0.8160
 1044.0000     0.7190     0.8158
 1044.5000     0.7221     0.8156
 1045.0000     0.5361     0.8153
 1045.5000     0.5392     0.8151
 1046.0000     0.5423     1.0780
 1046.5000     0.5454     1.0683
 1047.0000     0.5484     1.0681
 1047.5000     0.5515     1.0679
 1048.0000     0.5546     1.1146
 1048.5000     0.5578     1.1333
 1049.0000     0.7500     1.1330
 1049.5000     0.7537     1.1327
 1050.0000     0.7560     1.1325
 1050.5000     0.6984     0.8127
 1051.0000     0.6450     0.8125
 1051.5000     0.7914     0.8122
 1052.0000     0.8025     0.8120
 1052.5000     1.0027     0.7930
 1053.0000     1.0138     0.7927
 1053.5000     1.0249     0.7925
 1054.0000     0.8469     0.7923
 1054.5000     0.6689     0.8015
 1055.0000     0.4909     0.8012
 1055.5000     0.5048     0.8010
 1056.0000     0.5159     0.8102
 1056.5000     0.5270     0.8005
 1057.0000     0.5381     0.8002
 1057.5000     0.5492     0.7906
 1058.0000     0.5603     0.7904
 1058.5000     0.5710     0.7902
 1059.0000     0.5825     0.7993
 1059.5000     0.5937     0.7991
 1060.0000     0.6050     0.8083
 1060.5000     0.6185     1.0242
 1061.0000     0.6296     1.0146
 1061.5000     0.4489     1.0143
 1062.0000     0.4627     1.1739
 1062.5000     0.4738     1.1642
 1063.0000     0.4840     1.1640
 1063.5000     0.4954     1.1637
 1064.0000     0.5071     1.1541
 1064.5000     0.5182     0.9942
 1065.0000     0.3403     1.0033
 1065.5000     0.3517     0.9936
 1066.0000     0.3652     0.9934
 1066.5000     0.3763     0.8428
 1067.0000     0.3857     0.8426
 1067.5000     0.5848     0.8423
 1068.0000     0.4084     0.8421
 1068.5000     0.4197     0.8418
 1069.0000     0.4318     0.8416
 1069.5000     0.4429     0.8414
 1070.0000     0.4540     0.8412
 1070.5000     0.4651     0.8409
 1071.0000     0.6655     0.8407
 1071.5000     0.6791     0.8414
 1072.0000     0.6902     1.0470
 1072.5000     0.6996     1.0279
 1073.0000     0.8278     1.0277
 1073.5000     0.9126     1.0275
 1074.0000     0.9236     1.0272
 1074.5000     0.9347     1.0270
 1075.0000     1.1349     1.0174
 1075.5000     1.1460     1.0266
 1076.0000     1.1571     1.1861
 1076.5000     1.1685     1.1859
 1077.0000     1.1798     1.1856
 1077.5000     1.1932     1.1854
 1078.0000     1.2043     1.0065
 1078.5000     1.4044     1.0063
 1079.0000     1.2237     1.0061
 1079.5000     1.2366     0.9964
 1080.0000     1.2486     0.9962
 1080.5000     1.2592     0.9866
 1081.0000     1.2708     0.9864
