~VERSION INFORMATION
 VERS.                2.0:   CWLS LOG ASCII STANDARD - VERSION 2.0
 WRAP.                 NO:   ONE LINE PER DEPTH STEP
~WELL INFORMATION
#MNEM.UNIT      DATA TYPE    INFORMATION
#----------   ------------   ------------------------------
 STRT.F           42.0000:   START DEPTH
 STOP.F          408.0000:   STOP DEPTH
 STEP.F            0.5000:   STEP LENGTH
 NULL.          -999.2500:   NO VALUE
 COMP. FENIX & SCISSON INC:   COMPANY
 WELL.       SX 3FO #22-3:   WELL
 FLD .             TEAPOT:   FIELD
 LOC .       S3 T38N R78W:   LOCATION
 CNTY.            NATRONA:   COUNTY
 STAT.            WYOMING:   STATE
 CTRY. UNITED STATES OF AMERICA:   COUNTRY
 SRVC.              Welex:   SERVICE COMPANY
 DATE.        01-JUL-1980:   LOGDATE
 API .       490251083000:   API NUMBER
~CURVE INFORMATION
#MNEM.UNIT       API CODE    CURVE DESCRIPTION
#----------   ------------   ------------------------------
 DEPT.F                  :   
 GRD .GAPI   45 310 01 00:   GAMMA RAY FROM DENSITY LOG
 CALD.IN     45 280 60 00:   CALIPER
 RHOB.G/C3   45 350 01 00:   BULK DENSITY
 DPHI.DEC    45 890 12 00:   DENSITY POROSITY SANDSTONE
 CORR.G/C3   45 356 01 00:   DENSITY CORRECTION
~PARAMETER INFORMATION
#MNEM.UNIT          VALUE    DESCRIPTION
#----------   ------------   ------------------------------
 PD  .                 GL:   PERMANENT DATUM
 EPD .F              5152:   ELEVATION PERMANENT DATUM
 LMF .                 KB:   LOG MEASURED FROM
 DAPD.F                 5:   FEET ABOVE PERMANENT DATUM
 DMF .                 KB:   DRILLING MEASURED FROM
 EKB .F              5157:   KELLING BUSHING
 EGL .F              5152:   GROUND LEVEL
 DATE.             7-1-80:   RUN DATE
 RUN .                  1:   RUN NUMBER
 DD  .F               470:   DEPTH DRILLER
 DL  .F               410:   DEPTH LOGGER
 BLI .F               408:   BOTTOM LOG INTERVAL
 TLI .F                40:   TOP LOG INTERVAL
 BS  .IN             8.75:   BIT SIZE
 BSD .F               470:   BIT SIZE AT DEPTH
 DFT .        AIR DRILLED:   DRILLING FLUID TYPE
 BHT .F                75:   BOTTOM HOLE TEMPERATURE
 TCS .HRS             4.5:   TIME CURCULATED STOPPED
 MRT .F                75:   MAXIMUM RECORDED TEMPERATURE
 ENGI.        REIN/GLASER:   RECORDING ENGINEER
 WITN.             ROADES:   WITNESSED BY
 CLNT.            A2DTECH:   CLIENT CODE
 ORIG.           5" PRINT:   ORIGIN OF DATA
 UWI .       490251083000:   UNIQUE WELL ID
 DICO. A2D Technologies, Inc.:   DIGITIZING COMPANY
~OTHER INFORMATION
~A   DEPT       GRD        CALD       RHOB       DPHI       CORR 
# ...
  164.0000   102.7607     9.0592     2.4621     0.1372     0.0793
  164.5000   104.4808     9.0427     2.4644     0.1346     0.0790
  165.0000   106.1617     9.0265     2.4615     0.1367     0.0800
  165.5000   107.3560     9.0175     2.4580     0.1382     0.0810
  166.0000   106.6603     9.0367     2.4610     0.1362     0.0817
  166.5000   105.3553     9.0554     2.4575     0.1381     0.0825
  167.0000   104.6138     9.0728     2.4551     0.1406     0.0831
  167.5000   104.2111     9.0733     2.4613     0.1377     0.0862
  168.0000   103.6075     9.0736     2.4682     0.1306     0.0892
  168.5000   102.7276     9.0605     2.4739     0.1314     0.0923
  169.0000   101.9770     9.0455     2.4689     0.1290     0.0908
  169.5000   102.9107     9.0302     2.4629     0.1341     0.0878
  170.0000   104.3365     9.0151     2.4569     0.1387     0.0849
  170.5000   104.9517     8.9997     2.4535     0.1414     0.0896
  171.0000   103.6534     9.0018     2.4661     0.1338     0.0960
  171.5000   101.9593     9.0140     2.4769     0.1262     0.1025
  172.0000   100.5703     9.0263     2.4780     0.1258     0.1092
  172.5000   100.6143     9.0387     2.4909     0.1182     0.1093
  173.0000   100.7274     9.0511     2.4885     0.1206     0.1059
  173.5000   101.3063     9.0634     2.4925     0.1182     0.1052
  174.0000   101.8794     9.0731     2.4999     0.1138     0.1104
  174.5000   102.4488     9.0609     2.4938     0.1186     0.1123
  175.0000   103.0962     9.0484     2.4892     0.1182     0.1109
  175.5000   103.8667     9.0361     2.4974     0.1157     0.1180
  176.0000   104.6356     9.0239     2.5180     0.1050     0.1280
  176.5000   104.6268     9.0131     2.5379     0.0902     0.1381
  177.0000   103.7826     8.9976     2.5478     0.0858     0.1485
  177.5000   102.9246     8.9811     2.5461     0.0855     0.1491
  178.0000   102.6519     8.9640     2.5466     0.0858     0.1414
  178.5000   104.7504     8.9387     2.5564     0.0822     0.1486
  179.0000   106.9532     8.9665     2.5624     0.0758     0.1484
  179.5000   109.1334     9.0200     2.5501     0.0830     0.1450
  180.0000   110.7957     9.0531     2.5654     0.0763     0.1527
  180.5000   107.8294     9.0259     2.5973     0.0637     0.1613
  181.0000   103.8378     8.9976     2.5982     0.0567     0.1701
  181.5000   103.2585     8.9693     2.5816     0.0634     0.1636
  182.0000   105.5643     8.9407     2.5648     0.0694     0.1530
  182.5000   106.7804     8.9389     2.5496     0.0761     0.1418
  183.0000   106.7678     8.9635     2.5494     0.0858     0.1391
  183.5000   106.9241     8.9884     2.5649     0.0758     0.1479
  184.0000   107.1841     9.0129     2.5757     0.0711     0.1572
  184.5000   106.7535     9.0327     2.5807     0.0704     0.1643
  185.0000   104.9666     9.0216     2.5851     0.0675     0.1693
  185.5000   104.5814     9.0111     2.5676     0.0764     0.1610
  186.0000   103.8621     9.0008     2.5431     0.0882     0.1456
  186.5000   101.7580     8.9904     2.5184     0.1018     0.1261
  187.0000    99.7128     8.9800     2.4992     0.1121     0.1208
  187.5000   100.7395     8.9696     2.4872     0.1194     0.1128
  188.0000   101.9978     8.9593     2.4859     0.1218     0.1090
  188.5000    99.3485     8.9616     2.4751     0.1282     0.1114
  189.0000    99.3754     9.0108     2.4768     0.1274     0.1148
  189.5000   100.9223     9.0194     2.4646     0.1351     0.1101
  190.0000   102.6161     8.9952     2.4468     0.1466     0.1047
  190.5000   103.6760     9.0180     2.4580     0.1406     0.1021
  191.0000   100.4695     9.0439     2.4737     0.1291     0.1128
  191.5000   100.5922     9.0698     2.4895     0.1186     0.1239
  192.0000   102.3418     9.0956     2.5101     0.1134     0.1329
  192.5000   104.0483     9.1125     2.5029     0.1210     0.1392
  193.0000   105.7503     9.0750     2.4891     0.1178     0.1372
  193.5000   107.4513     9.0344     2.4746     0.1285     0.1347
  194.0000   109.1548     8.9938     2.4740     0.1289     0.1330
  194.5000   110.9094     8.9797     2.4776     0.1283     0.1387
  195.0000   111.3105     8.9894     2.4810     0.1250     0.1450
  195.5000   109.9352     8.9991     2.4845     0.1222     0.1513
  196.0000   108.3335     9.0090     2.4860     0.1244     0.1569
  196.5000   107.2568     9.0189     2.4678     0.1332     0.1566
  197.0000   105.6636     9.0288     2.4500     0.1419     0.1550
  197.5000   103.8889     9.0387     2.4369     0.1498     0.1533
  198.0000   102.0978     9.0485     2.4283     0.1549     0.1556
  198.5000   100.5777     9.0508     2.4251     0.1590     0.1590
  199.0000    99.2675     9.0279     2.4286     0.1557     0.1704
  199.5000    97.8046     9.0048     2.4503     0.1460     0.1832
  200.0000    96.2596     8.9817     2.4772     0.1333     0.1964
  200.5000    94.8802     8.9586     2.4708     0.1270     0.1904
  201.0000    96.0460     8.9355     2.4641     0.1331     0.1771
  201.5000    98.3968     8.9152     2.4714     0.1311     0.1639
  202.0000   100.7461     8.9194     2.4845     0.1209     0.1531
  202.5000   103.0889     8.9366     2.5024     0.1075     0.1572
  203.0000   105.1576     8.9531     2.5138     0.1046     0.1581
  203.5000   104.4920     8.9699     2.4781     0.1205     0.1379
  204.0000   103.2243     8.9810     2.4891     0.1270     0.1256
  204.5000   105.1094     8.9905     2.5045     0.1128     0.1230
  205.0000   107.0668     8.9999     2.4991     0.1142     0.1230
  205.5000   107.9900     9.0094     2.5129     0.1081     0.1264
  206.0000   108.6095     9.0226     2.5229     0.1008     0.1333
  206.5000   109.2076     9.0390     2.5280     0.0967     0.1403
  207.0000   109.7560     9.0539     2.5331     0.0938     0.1457
  207.5000   111.0042     9.0331     2.5380     0.0910     0.1502
  208.0000   112.3887     9.0055     2.5352     0.0953     0.1455
  208.5000   113.1465     8.9777     2.5150     0.1050     0.1333
  209.0000   113.2578     8.9500     2.5085     0.1082     0.1327
  209.5000   113.4306     8.9216     2.4925     0.1114     0.1243
  210.0000   113.7365     8.9144     2.4753     0.1220     0.1155
  210.5000   114.4261     8.9413     2.4702     0.1307     0.1130
  211.0000   115.7287     8.9768     2.4647     0.1374     0.1165
  211.5000   117.1007     9.0126     2.4629     0.1341     0.1206
  212.0000   114.8572     9.0114     2.4840     0.1278     0.1274
  212.5000   111.8835     8.9926     2.5048     0.1116     0.1405
  213.0000   108.8980     8.9736     2.5262     0.0974     0.1505
  213.5000   105.9063     8.9556     2.5349     0.0878     0.1576
  214.0000   104.5950     8.9813     2.5470     0.0946     0.1633
  214.5000   104.9794     9.0099     2.5795     0.0643     0.1816
  215.0000   106.1019     9.0377     2.6149     0.0458     0.2007
  215.5000   107.2645     9.0663     2.6302     0.0374     0.2165
  216.0000   107.9167     8.9909     2.6015     0.0499     0.2075
  216.5000   108.0793     8.8481     2.5616     0.0665     0.1864
  217.0000   108.2021     8.7998     2.5718     0.0736     0.1793
  217.5000   108.3350     8.9161     2.5884     0.0715     0.1898
  218.0000   108.4949     8.9893     2.5472     0.0806     0.1682
  218.5000   109.1739     8.8035     2.5329     0.0925     0.1432
  219.0000   109.9706     8.7953     2.5166     0.1010     0.1272
  219.5000   109.9199     8.7942     2.5041     0.1055     0.1169
  220.0000   109.5726     8.8922     2.5105     0.1104     0.1135
  220.5000   109.5596     8.9164     2.5162     0.0949     0.1207
  221.0000   110.8137     8.9502     2.5105     0.1035     0.1175
  221.5000   112.0534     8.9846     2.5063     0.1098     0.1154
  222.0000   112.3406     9.0194     2.5300     0.0943     0.1302
  222.5000   111.3390     9.0194     2.5457     0.0834     0.1449
  223.0000   110.3316     8.9964     2.5291     0.0944     0.1415
  223.5000   109.3724     8.9735     2.5129     0.1049     0.1297
  224.0000   109.3886     8.9585     2.4978     0.1162     0.1192
  224.5000   110.8955     8.9841     2.5022     0.1125     0.1209
