~VERSION INFORMATION
 VERS.                2.0:   CWLS LOG ASCII STANDARD - VERSION 2.0
 WRAP.                 NO:   ONE LINE PER DEPTH STEP
~WELL INFORMATION
#MNEM.UNIT      DATA TYPE    INFORMATION
#----------   ------------   ------------------------------
 STRT.F            0.0000:   START DEPTH
 STOP.F         4535.0000:   STOP DEPTH
 STEP.F            0.5000:   STEP LENGTH
 NULL.          -999.2500:   NO VALUE
 COMP. LAWRENCE - ALLISON & ASSOCIATES:   COMPANY
 WELL.    NPR ##3 56-X-15:   WELL
 FLD .   TEAPOT NAVAL RES:   FIELD
 LOC .      S15 T38N R78W:   LOCATION
 CNTY.            NATRONA:   COUNTY
 STAT.            WYOMING:   STATE
 CTRY. UNITED STATES OF AMERICA:   COUNTRY
 SRVC.      Dresser Atlas:   SERVICE COMPANY
 DATE.        03-MAY-1984:   LOGDATE
 API .       490251095900:   API NUMBER
~CURVE INFORMATION
#MNEM.UNIT       API CODE    CURVE DESCRIPTION
#----------   ------------   ------------------------------
 DEPT.F                  :   
 CORR.G/C3   45 356 01 00:   DENSITY CORRECTION
 DEN .G/C3   45 350 01 00:   COMPENSATED BULK DENSTIY
 PORD.DEC    45 890 12 00:   POROSITY DENSITY SANDSTONE
 CNC .DEC    42 890 03 00:   NEUTRON POROSITY SANDSTONE
 GRR .GAPI   07 310 01 00:   GAMMA RAY
 CALR.IN     07 280 01 00:   CALIPER FROM RESISTIVITY
 SPR .MV     07 010 01 00:   SPONTANEOUS POTENTIAL
 RILD.OHMM   07 120 46 00:   INDUCTION LOG DEEP RESISTIVITY
 RILM.OHMM   07 120 44 00:   INDUCTION LOG MEDIUM RESISTIVITY
 RFOC.OHMM   07 220 04 00:   RESISTIVITY FOCUSED LOG
 AC  .US/F   60 520 00 00:   ACCOUSTIC
~PARAMETER INFORMATION
#MNEM.UNIT          VALUE    DESCRIPTION
#----------   ------------   ------------------------------
 PD  .                 GL:   PERMANENT DATUM
 EPD .F              5326:   ELEVATION PERMANENT DATUM
 LMF .                 KB:   LOG MEASURED FROM
 DAPD.F                12:   FEET ABOVE PERMANENT DATUM
 DMF .                 KB:   DRILLING MEASURED FROM
 EKB .F              5338:   KELLING BUSHING
 EDF .F              5337:   DRILLING FLOOR
 EGL .F              5326:   GROUND LEVEL
 DATE.        03-MAY-1984:   RUN DATE
 RUN .                  1:   RUN NUMBER
 DD  .F              4547:   DEPTH DRILLER
 DL  .F              4539:   DEPTH LOGGER
 BLI .F              4536:   BOTTOM LOG INTERVAL
 CS  .IN            8.625:   CASING SIZE
 CBD .F              1027:   CASING BOTTOM DRILLER
 CBL .F              1021:   CASING BOTTOM LOGGER
 BS  .IN            7.875:   BIT SIZE
 BSD .F              4547:   BIT SIZE AT DEPTH
 DFT .            KCL GEL:   DRILLING FLUID TYPE
 DFD .                9.1:   DRILLING FLUID DENSITY
 DFV .                 44:   DRILLING FLUID VISCOSITY
 DFPH.                  8:   DRILLING FLUID PH
 DFL .               14.5:   DRILLING FLUID LOSS
 MSS .           MUD TANK:   MUD SAMPLE SOURCE
 RMS .OHMM           0.56:   RESISTIVITY MUD SAMPLE
 MST .F                73:   MUD SAMPLE TEMPERATURE
 RMF .OHMM           0.42:   RESISTIVITY MUD FILTRATE SAMPLE
 MFST.F                73:   MUD FILTRATE SAMPLE TEMPERATURE
 RMC .OHMM           0.71:   RESISTIVITY MUD CAKE
 MCST.F                73:   MUD CAKE SAMPLE TEMPERATURE
 MFSS.               MEAS:   MUD FILTRATE SAMPLE SOURCE
 MCSS.               CALC:   MUD CAKE SAMPLE SOURCE
 RMB .OHMM           0.29:   RESISTIVITY MUD AT BHT
 BHT .F               141:   BOTTOM HOLE TEMPERATURE
 TCS .HRS             3.5:   TIME CURCULATED STOPPED
 MRT .F               125:   MAXIMUM RECORDED TEMPERATURE
 LUN .               6302:   LOGGING UNIT NUMBER
 LUL .               CODY:   LOGGING UNIT LOCATION
 ENGI.              GETTY:   RECORDING ENGINEER
 WITN.           JENNINGS:   WITNESSED BY
 CLNT.            A2DTECH:   CLIENT CODE
 ORIG.           5" PRINT:   ORIGIN OF DATA
 UWI .       490251095900:   UNIQUE WELL ID
 DICO. A2D Technologies, Inc.:   DIGITIZING COMPANY
~OTHER INFORMATION
~A    DEPT    CORR        DEN       PORD        CNC        GRR       CALR        SPR       RILD       RILM       RFOC         AC   
# ...
 3812.5000     0.0317     2.5805     0.0432     0.2089   117.4429     8.2703   -21.1712     5.4849     5.8843     5.7962    88.2294
 3813.0000     0.0437     2.5639     0.0453     0.2046   116.2473     8.2551   -21.9219     5.7562     6.1769     6.2143    84.0862
 3813.5000     0.0738     2.5495     0.0616     0.2013   113.8473     8.2399   -22.3804     5.9576     6.4840     6.8033    80.9226
 3814.0000     0.0799     2.5434     0.0656     0.2004   111.1465     8.2397   -22.6727     6.1233     6.6199     7.1929    78.0605
 3814.5000     0.0436     2.5494     0.0619     0.2029   109.3480     8.2245   -22.9730     6.2506     6.6188     7.0923    77.7602
 3815.0000     0.0179     2.5562     0.0574     0.2047   109.0517     8.2244   -23.2933     6.2479     6.4813     6.8481    78.0635
 3815.5000     0.0179     2.5577     0.0565     0.2050   111.1645     8.2242   -23.8739     6.2026     6.4355     6.6124    78.3664
 3816.0000     0.0119     2.5373     0.0638     0.1977   114.4787     8.2241   -24.3523     6.1575     6.4346     6.4746    78.3679
 3816.5000    -0.0018     2.5229     0.0732     0.1932   116.5900     8.2089   -24.7748     6.1128     6.3892     6.5190    78.2937
 3817.0000    -0.0003     2.5198     0.0795     0.1917   113.8892     8.1937   -24.9249     6.0684     6.3440     6.6097    78.0694
 3817.5000     0.0057     2.5205     0.0789     0.1957   112.0892     8.1785   -25.0751     6.0663     6.4320     6.7486    77.9202
 3818.0000     0.0245     2.5250     0.0756     0.1990   113.9012     8.1783   -25.2252     6.0223     6.4311     6.8424    77.7706
 3818.5000     0.0529     2.5371     0.0690     0.2036   115.1102     8.1782   -25.5255     6.0622     6.4302     6.8894    77.6970
 3819.0000     0.0464     2.5461     0.0636     0.2045   115.7177     8.1780   -25.6757     6.1023     6.4744     6.8884    77.6986
 3819.5000     0.0358     2.5422     0.0642     0.2045   116.6259     8.1779   -26.1261     6.1427     6.5186     6.8875    77.7001
 3820.0000    -0.0276     2.5385     0.0675     0.2054   118.7371     8.1777   -26.4264     6.1406     6.5632     6.8897    77.7769
 3820.5000    -0.0246     2.5429     0.0667     0.2084   120.5476     8.1761   -26.7267     6.1813     6.5620     6.9338    77.8538
 3821.0000    -0.0050     2.5399     0.0652     0.2066   116.6438     8.1623   -27.0270     6.2656     6.6071     6.8789    78.0136
 3821.5000     0.0055     2.5398     0.0664     0.2033   115.4466     8.1622   -27.4775     6.3511     6.6521     6.8288    78.1809
 3822.0000     0.0100     2.5413     0.0670     0.1958   116.6558     8.1470   -27.9279     6.4372     6.6978     6.7873    78.4615
 3822.5000     0.0160     2.5518     0.0607     0.1903   117.2633     8.1468   -28.0781     6.4804     6.7906     6.8339    78.6137
 3823.0000     0.0250     2.5609     0.0538     0.1922   115.1640     8.1316   -28.2282     6.5233     6.8370     6.9775    78.5398
 3823.5000     0.0355     2.5638     0.0523     0.1979   109.4557     8.1164   -28.3784     6.5665     6.8838     7.0746    78.3152
 3824.0000     0.0491     2.5638     0.0523     0.2037   107.0438     8.1012   -28.3784     6.4731     6.9308     7.2230    78.0153
 3824.5000     0.0310     2.5622     0.0538     0.2143   109.4677     8.1010   -28.2282     6.3816     6.9780     7.3235    77.8657
 3825.0000     0.0309     2.5547     0.0568     0.2155   111.5789     8.1160   -28.0781     6.3353     6.8807     7.4254    78.0183
 3825.5000     0.0430     2.5335     0.0665     0.2128   110.0753     8.1459   -27.6276     6.2893     6.7377     7.4243    78.1705
 3826.0000     0.1033     2.5192     0.0744     0.2110   109.4857     8.1759   -27.0270     6.2436     6.5521     7.1688    78.6241
 3826.5000     0.1198     2.5153     0.0813     0.2119   112.5703     8.1908   -26.2763     6.1127     6.4160     6.5921    79.1531
 3827.0000     0.1032     2.5153     0.0819     0.2168   115.8135     8.2057   -25.5255     6.0263     6.1960     6.1469    79.6821
 3827.5000     0.0670     2.5153     0.0826     0.2186   115.8497     8.1905   -24.6246     5.9411     6.1096     6.0609    80.2865
 3828.0000     0.0488     2.5152     0.0832     0.2198   117.7763     8.1753   -24.0240     5.7764     6.1087     6.1027    80.9662
 3828.5000     0.0322     2.5235     0.0805     0.2123   119.7411     8.1751   -23.5736     5.6947     6.1079     6.2743    81.1937
 3829.0000     0.0065     2.5333     0.0742     0.2123   117.2930     8.1750   -23.2733     5.6142     6.0647     6.3616    81.3459
 3829.5000    -0.0010     2.5415     0.0663     0.2222   117.0463     8.1899   -22.8228     5.6123     6.0219     6.3608    81.4228
 3830.0000     0.0125     2.5423     0.0642     0.2293   122.7681     8.1897   -22.5225     5.6104     5.9766     6.3156    81.7257
 3830.5000     0.0609     2.5384     0.0675     0.2354   126.9846     8.1896   -22.3724     5.5696     5.8960     6.2273    82.1115
 3831.0000     0.0803     2.5210     0.0733     0.2357   130.5996     8.1894   -22.3724     5.5677     5.7735     6.0974    82.5651
 3831.5000     0.0582     2.5119     0.0854     0.2351   131.2056     8.1893   -22.2222     5.5272     5.7327     6.0121    83.0336
 3832.0000     0.0003     2.5089     0.0860     0.2348   126.1003     8.1891   -22.2222     5.4871     5.7319     6.0536    83.5406
 3832.5000    -0.0088     2.5206     0.0797     0.2399   125.2026     8.1890   -22.0721     5.4472     5.7711     6.0951    83.8435
 3833.0000    -0.0058     2.5299     0.0728     0.2378   127.3153     8.1888   -21.9219     5.3698     5.8106     6.1369    83.9204
 3833.5000     0.0002     2.5359     0.0664     0.2297   129.7273     8.1887   -21.7718     5.2939     5.7293     6.1359    84.0726
 3834.0000     0.0153     2.5510     0.0607     0.2200   131.8386     8.2036   -21.6216     5.2191     5.5329     6.0923    84.0741
 3834.5000     0.0484     2.5502     0.0613     0.2145   135.1528     8.2035   -21.4715     5.1453     5.4557     6.0491    84.1509
 3835.0000     0.0605     2.5411     0.0674     0.2197   138.4671     8.2033   -21.4715     5.0375     5.4550     5.9645    84.2278
 3835.5000     0.0499     2.5320     0.0744     0.2282   141.7813     8.2182   -21.3213     5.0357     5.4164     5.8810    84.4553
 3836.0000     0.0242     2.5229     0.0783     0.2476   140.5843     8.2331   -21.3213     4.9992     5.4157     5.6391    84.7582
 3836.5000     0.0046     2.5282     0.0720     0.2503   140.2880     8.2480   -21.1712     4.9975     5.3402     5.4450    85.4380
 3837.0000     0.0136     2.5417     0.0623     0.2491   139.6940     8.2630   -21.0210     4.9957     5.3394     5.4432    86.1177
 3837.5000     0.0118     2.5522     0.0638     0.2467   137.8955     8.2779   -21.1712     4.9940     5.3387     5.5587    86.7220
 3838.0000    -0.0046     2.5288     0.0735     0.2443   131.8864     8.2777   -21.3213     5.0275     5.3754     5.7163    87.4017
 3838.5000     0.0075     2.5235     0.0760     0.2455   128.5842     8.2776   -21.4715     5.0254     5.4121     5.8761    87.3279
 3839.0000     0.0301     2.5302     0.0676     0.2516   128.2879     8.2774   -21.4715     5.0236     5.4491     5.9165    87.1033
 3839.5000     0.0617     2.5491     0.0602     0.2471   128.5961     8.2622   -21.6216     5.0219     5.4864     5.8745    86.5773
 3840.0000     0.0481     2.5468     0.0624     0.2446   128.6021     8.2620   -21.7718     5.0202     5.4854     5.8737    85.6745
 3840.5000     0.0270     2.5429     0.0655     0.2511   128.6081     8.2468   -21.9219     4.9837     5.4467     5.9140    84.7639
 3841.0000     0.0269     2.5444     0.0637     0.2541   128.0126     8.2439   -21.9219     4.9475     5.4459     5.9209    84.2304
 3841.5000     0.0299     2.5534     0.0597     0.2501   124.7103     8.2314   -21.9219     4.8776     5.4075     5.9952    83.7724
 3842.0000     0.0374     2.5466     0.0634     0.2392   119.9042     8.2162   -21.9219     4.8087     5.2220     6.0366    83.4200
 3842.5000     0.0646     2.5336     0.0719     0.2356   119.3072     8.2161   -21.9219     4.7402     5.0781     6.0355    83.4969
