~VERSION INFORMATION
 VERS.                2.0:   CWLS LOG ASCII STANDARD - VERSION 2.0
 WRAP.                 NO:   ONE LINE PER DEPTH STEP
~WELL INFORMATION
#MNEM.UNIT      DATA TYPE    INFORMATION
#----------   ------------   ------------------------------
 STRT.F            6.0000:   START DEPTH
 STOP.F          495.0000:   STOP DEPTH
 STEP.F            0.5000:   STEP LENGTH
 NULL.          -999.2500:   NO VALUE
 COMP. FENIX & SCISSON INC:   COMPANY
 WELL. FI NPR-3 #65-25 SX3:   WELL
 FLD .  NAVAL RESERVES #3:   FIELD
 LOC .       S3 T38N R78W:   LOCATION
 CNTY.            NATRONA:   COUNTY
 STAT.            WYOMING:   STATE
 CTRY. UNITED STATES OF AMERICA:   COUNTRY
 SRVC.       Schlumberger:   SERVICE COMPANY
 DATE.        22-MAY-1980:   LOGDATE
 API .       490251080300:   API NUMBER
~CURVE INFORMATION
#MNEM.UNIT       API CODE    CURVE DESCRIPTION
#----------   ------------   ------------------------------
 DEPT.F                  :   
 SPR .MV     07 010 01 00:   SPONTANEOUS POTENTIAL
 SFL .OHMM   07 220 01 00:   SHALLOW FOCUSED LOG RESISTIVITY
 ILD .OHMM   07 120 46 00:   INDUCTION LOG DEEP RESISTIVITY
 ILM .OHMM   07 120 44 00:   INDUCTION LOG MEDIUM
 GRD .GAPI   45 310 01 00:   GAMMA RAY FROM DENSITY LOG
 CALD.IN     45 280 60 00:   CALIPER
 DPHI.DEC    45 890 12 00:   DENSITY POROSITY SANDSTONE
 RHOB.G/C3   45 350 01 00:   BULK DENSITY
 CORR.G/C3   45 356 01 00:   DENSITY CORRECTION
 NPHI.DEC    42 890 03 00:   NEUTRON POROSITY SANDSTONE
~PARAMETER INFORMATION
#MNEM.UNIT          VALUE    DESCRIPTION
#----------   ------------   ------------------------------
 PD  .                 GL:   PERMANENT DATUM
 EPD .F              5162:   ELEVATION PERMANENT DATUM
 LMF .                 KB:   LOG MEASURED FROM
 DAPD.F                 4:   FEET ABOVE PERMANENT DATUM
 DMF .                 KB:   DRILLING MEASURED FROM
 EKB .F              5166:   KELLING BUSHING
 EGL .F              5162:   GROUND LEVEL
 DATE.            5-22-80:   RUN DATE
 RUN .                  1:   RUN NUMBER
 DD  .F               500:   DEPTH DRILLER
 DL  .F               498:   DEPTH LOGGER
 BLI .F               492:   BOTTOM LOG INTERVAL
 TLI .F                10:   TOP LOG INTERVAL
 BS  .IN            9.875:   BIT SIZE
 BSD .F               500:   BIT SIZE AT DEPTH
 DFT .                KCL:   DRILLING FLUID TYPE
 DFD .                9.6:   DRILLING FLUID DENSITY
 DFV .                 45:   DRILLING FLUID VISCOSITY
 DFL .                8.9:   DRILLING FLUID LOSS
 MSS .               PITS:   MUD SAMPLE SOURCE
 RMS .OHMM            .21:   RESISTIVITY MUD SAMPLE
 MST .F                76:   MUD SAMPLE TEMPERATURE
 RMF .OHMM            .19:   RESISTIVITY MUD FILTRATE SAMPLE
 MFST.F                76:   MUD FILTRATE SAMPLE TEMPERATURE
 MFSS.               MEAS:   MUD FILTRATE SAMPLE SOURCE
 TLAB.HRS            0845:   TIME LOGGER AT BOTTOM
 LUN .               8035:   LOGGING UNIT NUMBER
 LUL .               CSPR:   LOGGING UNIT LOCATION
 ENGI.           C. DRAKE:   RECORDING ENGINEER
 WITN.              AMEND:   WITNESSED BY
 CLNT.            A2DTECH:   CLIENT CODE
 ORIG.           5" PRINT:   ORIGIN OF DATA
 UWI .       490251080300:   UNIQUE WELL ID
 DICO. A2D Technologies, Inc.:   DIGITIZING COMPANY
~OTHER INFORMATION
~A    DEPT     SPR        SFL        ILD        ILM         GRD       CALD      DPHI       RHOB       CORR        NPHI  
# ...
  274.0000   -74.6948    10.0752     7.5689     6.7452   108.8036    10.1556     0.1049     2.5024     0.0007     0.2897
  274.5000   -74.3922    10.6683     8.7590     7.1530   107.2202    10.1587     0.1060     2.5000     0.0005     0.2891
  275.0000   -74.0933    10.9836    10.1363     7.5854   105.9901    10.1617     0.1079     2.4975     0.0000     0.2887
  275.5000   -73.7880    11.2304    10.9842     7.9267   106.7092    10.1648     0.1088     2.4965    -0.0006     0.2883
  276.0000   -73.4902    11.6071    11.1887     8.0754   109.9242    10.1679     0.1081     2.4983     0.0040     0.2886
  276.5000   -73.4273    11.2985    10.9256     8.1779   114.0947    10.1709     0.1061     2.5026     0.0115     0.2958
  277.0000   -73.3707    10.9693    10.6894     7.9696   115.0162    10.1740     0.1030     2.5063     0.0143     0.3029
  277.5000   -73.3198    10.7711    10.4855     7.7333   114.7533    10.1772     0.0997     2.5127     0.0164     0.3094
  278.0000   -72.9999    10.5646    10.7308     7.9045   113.5679    10.1796     0.0954     2.5212     0.0190     0.3159
  278.5000   -72.3393    10.3931    11.4559     8.7020   109.6846    10.1497     0.0914     2.5278     0.0180     0.3236
  279.0000   -71.5918    10.4894    12.5715    10.0703   100.8494    10.1157     0.0990     2.5133     0.0122     0.3149
  279.5000   -70.8435    12.3726    13.7959    11.6537    89.9243    10.0817     0.1119     2.4956     0.0032     0.3021
  280.0000   -70.0953    15.5099    15.1674    13.4861    79.6543    10.0482     0.1207     2.4751    -0.0006     0.2627
  280.5000   -69.3480    19.4428    16.4708    15.6067    67.2002    10.0198     0.1266     2.4663     0.0056     0.2315
  281.0000   -68.5973    24.3730    18.9713    18.0712    66.0422     9.9935     0.1377     2.4483     0.0154     0.2212
  281.5000   -68.0672    29.4576    21.8514    17.5756    66.7305     9.9670     0.1602     2.4081     0.0192     0.2315
  282.0000   -67.6732    29.7305    25.1686    17.0655    68.6883     9.9397     0.1940     2.3531     0.0122     0.2521
  282.5000   -67.2837    27.8797    28.9895    16.7795    71.7813     9.9066     0.2200     2.3149     0.0044     0.2727
  283.0000   -66.8826    26.4321    30.5643    17.5148    75.3349     9.9019     0.2203     2.3070     0.0007     0.2810
  283.5000   -66.1583    25.6454    28.5710    18.2456    81.1305     9.9007     0.2155     2.3157     0.0006     0.2828
  284.0000   -65.4312    25.6538    26.3396    17.4446    86.2853     9.8994     0.2084     2.3288     0.0036     0.2842
  284.5000   -64.7063    25.6530    24.2826    16.5406    91.5129     9.8979     0.2044     2.3370     0.0040     0.2862
  285.0000   -63.9818    25.2012    23.3937    15.7407    92.9016     9.8964     0.2073     2.3346     0.0022     0.2858
  285.5000   -63.2563    24.7790    23.3937    15.5929    90.8540     9.8949     0.2154     2.3254     0.0004     0.2846
  286.0000   -62.5292    24.7242    24.7191    15.9496    86.8632     9.8934     0.2293     2.3105    -0.0014     0.2822
  286.5000   -61.9865    26.3897    26.0289    16.6996    80.3870     9.8919     0.2422     2.2777    -0.0025     0.2758
  287.0000   -61.5305    28.2399    27.4080    17.4916    77.6574     9.8904     0.2449     2.2710    -0.0023     0.2663
  287.5000   -61.3005    30.2199    28.8603    18.3228    75.8700     9.8890     0.2357     2.2831     0.0002     0.2571
  288.0000   -61.3015    32.3387    30.3895    19.0990    74.4244     9.8875     0.2233     2.3033     0.0046     0.2553
  288.5000   -61.2442    34.6060    30.9554    19.0990    73.7923     9.8860     0.2146     2.3191     0.0076     0.2539
  289.0000   -60.7668    35.8741    31.3025    18.3375    75.2086     9.8845     0.2179     2.3167     0.0005     0.2530
  289.5000   -60.2849    36.0816    31.6536    17.7781    77.1127     9.8834     0.2208     2.3100    -0.0066     0.2548
  290.0000   -59.8024    35.0916    32.0086    17.2809    76.8661     9.8834     0.2176     2.3108    -0.0104     0.2682
  290.5000   -59.3157    34.2389    32.3716    16.7863    73.1348     9.8834     0.2090     2.3257    -0.0080     0.2926
  291.0000   -59.0404    33.4069    32.6001    17.0756    73.4772     9.8834     0.2003     2.3407    -0.0027     0.2974
  291.5000   -58.7709    33.2086    32.2152    17.6128    77.3601     9.8834     0.1937     2.3532     0.0018     0.2894
  292.0000   -58.4998    33.6049    31.9299    18.1669    82.6971     9.8834     0.1937     2.3537     0.0024     0.2758
  292.5000   -58.2275    34.1294    31.6485    18.7385    85.8573     9.8834     0.2133     2.3331     0.0011     0.2636
  293.0000   -57.9480    34.6622    31.4214    19.2759    83.9770     9.8834     0.2298     2.3038    -0.0007     0.2597
  293.5000   -58.0142    36.1855    31.8860    19.3467    80.2602     9.8834     0.2468     2.2671    -0.0021     0.2517
  294.0000   -58.1595    38.0621    32.4842    19.4532    76.3929     9.8834     0.2613     2.2499    -0.0034     0.2431
  294.5000   -58.2864    39.2177    33.0937    19.0333    75.4180     9.8834     0.2684     2.2257    -0.0048     0.2373
  295.0000   -57.9969    37.0875    33.8212    18.5259    75.2187     9.8833     0.2698     2.2241    -0.0044     0.2417
  295.5000   -57.6915    34.3850    32.7943    18.0298    75.4908     9.8839     0.2596     2.2437    -0.0022     0.2573
  296.0000   -57.3867    31.9213    31.5883    17.5477    77.5844     9.8970     0.2376     2.2753    -0.0015     0.2720
  296.5000   -57.1109    29.7305    30.4200    17.0986    82.7948     9.9101     0.2146     2.3273    -0.0019     0.2806
  297.0000   -57.2372    28.7489    29.2975    16.7533    86.1197     9.9230     0.1987     2.3491    -0.0025     0.2791
  297.5000   -57.3721    27.8388    28.7315    16.4280    88.5107     9.9360     0.1909     2.3627    -0.0026     0.2733
  298.0000   -57.5143    27.3631    28.4469    16.1077    88.5497     9.9491     0.1832     2.3748     0.0014     0.2663
  298.5000   -57.8700    27.3631    28.1238    15.8768    88.4367     9.9618     0.1751     2.3869     0.0063     0.2579
  299.0000   -58.2209    27.3631    28.3785    15.7374    84.5210     9.9502     0.1731     2.3898     0.0094     0.2557
  299.5000   -58.5702    26.2608    28.8916    15.6005    80.2939     9.9370     0.1759     2.3842     0.0046     0.2627
  300.0000   -58.9221    25.0685    29.4238    15.7262    77.8662     9.9237     0.1787     2.3798    -0.0022     0.2701
  300.5000   -59.2814    24.7242    30.0136    16.3884    80.0003     9.9373     0.1784     2.3868    -0.0026     0.2701
  301.0000   -59.2423    25.3857    29.7840    16.7863    81.8640     9.9536     0.1676     2.4012     0.0025     0.2549
  301.5000   -59.1729    26.6167    29.3426    15.5821    81.9936     9.9680     0.1591     2.4117     0.0099     0.2393
  302.0000   -59.1051    25.5174    28.9119    14.5715    82.2383     9.9802     0.1610     2.4025     0.0116     0.2437
  302.5000   -59.0378    24.0774    28.4876    13.5739    84.1809     9.9923     0.1692     2.3924     0.0081     0.2605
  303.0000   -58.9695    22.7188    27.8873    13.4591    87.2655    10.0045     0.1735     2.3867     0.0046     0.2693
  303.5000   -58.9044    22.1347    26.9134    13.5788    92.0796    10.0167     0.1740     2.3859     0.0037     0.2697
  304.0000   -59.0361    21.8173    25.6962    13.4542    94.6275    10.0217     0.1735     2.3888     0.0067     0.2654
  304.5000   -59.2043    21.2613    24.5289    13.5611    93.3445    10.0217     0.1712     2.3933     0.0071     0.2633
  305.0000   -59.5191    20.8857    23.4152    13.7514    89.4164    10.0217     0.1678     2.3980     0.0068     0.2669
  305.5000   -59.8360    20.5609    22.7639    13.8315    86.7659    10.0217     0.1651     2.4027     0.0045     0.2745
  306.0000   -59.9350    20.4501    22.0695    13.0985    86.8578    10.0217     0.1647     2.4002     0.0023     0.2820
  306.5000   -59.9818    20.3386    21.3963    12.5935    87.2985    10.0217     0.1683     2.3955     0.0006     0.2898
  307.0000   -60.0269    20.2278    20.7513    12.3829    87.7665    10.0217     0.1719     2.3870    -0.0012     0.2848
