~VERSION INFORMATION
 VERS.                2.0:   CWLS LOG ASCII STANDARD - VERSION 2.0
 WRAP.                 NO:   ONE LINE PER DEPTH STEP
~WELL INFORMATION
#MNEM.UNIT      DATA TYPE    INFORMATION
#----------   ------------   ------------------------------
 STRT.F            4.0000:   START DEPTH
 STOP.F          572.0000:   STOP DEPTH
 STEP.F            0.5000:   STEP LENGTH
 NULL.          -999.2500:   NO VALUE
 COMP. FENIX & SCISSON INC:   COMPANY
 WELL.       NPR#3 #33-10:   WELL
 FLD .             TEAPOT:   FIELD
 LOC .      S10 T38N R78W:   LOCATION
 CNTY.            NATRONA:   COUNTY
 STAT.            WYOMING:   STATE
 CTRY. UNITED STATES OF AMERICA:   COUNTRY
 SRVC.              Welex:   SERVICE COMPANY
 DATE.        05-MAY-1980:   LOGDATE
 API .       490251080800:   API NUMBER
~CURVE INFORMATION
#MNEM.UNIT       API CODE    CURVE DESCRIPTION
#----------   ------------   ------------------------------
 DEPT.F                  :   
 SGRD.OHMM   07 220 05 00:   SHALLOW GUARD RESISTIVITY
 ILD .OHMM   07 120 46 00:   INDUCTION LOG DEEP RESISTIVITY
 ILM .OHMM   07 120 44 00:   INDUCTION LOG MEDIUM
 SPR .MV     07 010 01 00:   SPONTANEOUS POTENTIAL
 CALD.IN     45 280 60 00:   CALIPER
 GRD .GAPI   45 310 01 00:   GAMMA RAY FROM DENSITY LOG
 RHOB.G/C3   45 350 01 00:   BULK DENSITY
 CORR.G/C3   45 356 01 00:   DENSITY CORRECTION
 DPHI.DEC    45 890 12 00:   DENSITY POROSITY SANDSTONE
~PARAMETER INFORMATION
#MNEM.UNIT          VALUE    DESCRIPTION
#----------   ------------   ------------------------------
 PD  .                 GL:   PERMANENT DATUM
 EPD .F              5228:   ELEVATION PERMANENT DATUM
 LMF .                 KB:   LOG MEASURED FROM
 DAPD.F                 5:   FEET ABOVE PERMANENT DATUM
 DMF .                 KB:   DRILLING MEASURED FROM
 EKB .F              5233:   KELLING BUSHING
 EGL .F              5228:   GROUND LEVEL
 DATE.             5-5-80:   RUN DATE
 RUN .                  1:   RUN NUMBER
 DD  .F               572:   DEPTH DRILLER
 DL  .F               572:   DEPTH LOGGER
 BLI .F               570:   BOTTOM LOG INTERVAL
 TLI .F                30:   TOP LOG INTERVAL
 BS  .IN            7.875:   BIT SIZE
 BSD .F               572:   BIT SIZE AT DEPTH
 DFT .            KCL MUD:   DRILLING FLUID TYPE
 DFD .                8.9:   DRILLING FLUID DENSITY
 DFV .                 36:   DRILLING FLUID VISCOSITY
 DFL .               12.6:   DRILLING FLUID LOSS
 MSS .           FLOWLINE:   MUD SAMPLE SOURCE
 RMS .OHMM           1.08:   RESISTIVITY MUD SAMPLE
 MST .F                60:   MUD SAMPLE TEMPERATURE
 RMF .OHMM            .86:   RESISTIVITY MUD FILTRATE SAMPLE
 MFST.F                60:   MUD FILTRATE SAMPLE TEMPERATURE
 RMC .OHMM           1.29:   RESISTIVITY MUD CAKE
 MCST.F                60:   MUD CAKE SAMPLE TEMPERATURE
 MFSS.           MEASURED:   MUD FILTRATE SAMPLE SOURCE
 MCSS.           MEASURED:   MUD CAKE SAMPLE SOURCE
 TCS .HRS               2:   TIME CURCULATED STOPPED
 MRT .F               100:   MAXIMUM RECORDED TEMPERATURE
 LUN .               1892:   LOGGING UNIT NUMBER
 LUL .             CASPER:   LOGGING UNIT LOCATION
 ENGI.               REIN:   RECORDING ENGINEER
 WITN.              AMEND:   WITNESSED BY
 CLNT.            A2DTECH:   CLIENT CODE
 ORIG.           5" PRINT:   ORIGIN OF DATA
 UWI .       490251080800:   UNIQUE WELL ID
 DICO. A2D Technologies, Inc.:   DIGITIZING COMPANY
~OTHER INFORMATION
~A    DEPT    SGRD        ILD        ILM        SPR       CALD         GRD        RHOB       CORR     DPHI   
# ...
  296.0000     7.1904     4.3896     5.4890   -29.9772     7.8874    98.9224     2.5105    -0.0284     0.1032
  296.5000     6.8953     4.4894     5.5159   -29.9008     7.8874    98.2176     2.5378    -0.0255     0.0948
  297.0000     6.4249     4.6727     5.5429   -29.8990     7.8874    97.5304     2.5516    -0.0222     0.0882
  297.5000     7.4773     4.8655     5.5836   -30.2109     7.8874    97.4093     2.5572    -0.0189     0.0797
  298.0000     8.1028     5.0660     5.7065   -30.5148     7.8874    98.9559     2.5610    -0.0204     0.0886
  298.5000     7.9548     5.2746     5.8321   -30.8172     7.8874   100.1689     2.5393    -0.0359     0.1004
  299.0000     8.5129     5.4918     5.9605   -31.0689     7.8874    99.6638     2.5181    -0.0507     0.1076
  299.5000     8.4072     5.7180     6.0918   -31.1811     7.8874    99.1494     2.4946    -0.0545     0.1107
  300.0000     9.0508     5.9773     6.2266   -31.2934     7.8874    99.1919     2.5120    -0.0394     0.1003
  300.5000     8.9378     6.1034     6.3747   -31.4100     7.8874    99.8654     2.5310    -0.0306     0.0913
  301.0000     8.7174     6.2018     6.4172   -31.4369     7.8874   100.5242     2.5157    -0.0413     0.0982
  301.5000     8.4851     6.2018     6.4631   -31.4379     7.8874   101.2268     2.5071    -0.0441     0.1051
  302.0000     8.4851     6.2018     6.4944   -31.4374     7.8874   101.6928     2.5245    -0.0357     0.1003
  302.5000     8.4850     6.1093     6.4288   -31.4074     7.8874   100.8785     2.5378    -0.0273     0.0940
  303.0000     8.4860     6.0422     6.3709   -31.2142     7.8874   100.8206     2.5501    -0.0187     0.0876
  303.5000     8.1300     5.9759     6.3135   -31.0222     7.8874   101.6621     2.5575    -0.0139     0.0833
  304.0000     7.8725     5.9104     6.2566   -30.8307     7.8874   102.6437     2.5450    -0.0154     0.0915
  304.5000     7.8095     5.8108     6.2002   -30.6392     7.8874   102.3866     2.5268    -0.0177     0.0979
  305.0000     7.8934     5.6499     6.1444   -30.4476     7.8874   102.2272     2.5083    -0.0197     0.1042
  305.5000     7.9576     5.4936     6.0890   -30.2554     7.8874   103.3614     2.4931    -0.0220     0.1108
  306.0000     7.5427     5.3417     6.0327   -30.0635     7.8874   104.5185     2.5129    -0.0116     0.1075
  306.5000     7.1251     5.1940     6.0224   -30.0440     7.8874   103.6298     2.5260     0.0009     0.1008
  307.0000     7.3252     5.0504     6.0046   -30.1381     7.8874   102.3124     2.5061    -0.0080     0.0996
  307.5000     7.1668     4.9107     5.9869   -30.2311     7.8874   100.9501     2.4901    -0.0188     0.1131
  308.0000     6.7856     4.7751     5.9692   -30.3230     7.8874   100.8527     2.4842    -0.0274     0.1224
  308.5000     6.3302     4.6418     5.9515   -30.4130     7.8874   101.3422     2.4881    -0.0221     0.1209
  309.0000     5.5723     4.5826     5.9339   -30.6896     7.8874   101.7051     2.4927    -0.0163     0.1172
  309.5000     4.9051     4.5243     5.9164   -31.0256     7.8874   101.1561     2.5107    -0.0161     0.1059
  310.0000     4.7469     4.4903     5.8988   -31.3637     7.8874   100.7906     2.5282    -0.0191     0.0975
  310.5000     7.8818     4.6377     5.8827   -31.7492     7.8874   100.4499     2.5462    -0.0224     0.0930
  311.0000     7.8095     4.8224     5.8685   -32.3611     7.8874   100.0021     2.5451    -0.0226     0.0886
  311.5000     8.4072     5.0145     5.9736   -32.9666     7.8874   100.0329     2.5422    -0.0223     0.0868
  312.0000     8.3301     5.2142     6.0217   -33.4099     7.8874    99.9177     2.5583    -0.0154     0.0852
  312.5000     8.7231     5.4218     6.0712   -33.2327     7.8874    99.7271     2.5766     0.0024     0.0777
  313.0000     8.4308     5.6379     6.1211   -33.1011     7.8874   100.0687     2.5911     0.0187     0.0688
  313.5000     8.1779     5.8623     6.1714   -32.9743     7.8874    99.9129     2.5810     0.0163     0.0719
  314.0000     8.4076     6.0885     6.2221   -32.8481     7.8874    99.9482     2.5675     0.0099     0.0781
  314.5000     8.6819     6.1347     6.2712   -32.7216     7.8874   100.1618     2.5541     0.0055     0.0824
  315.0000     8.8901     6.1883     6.3149   -32.5270     7.8874    99.8063     2.5624     0.0182     0.0790
  315.5000     8.5595     6.2423     6.3590   -32.1743     7.8874    99.4454     2.5705     0.0316     0.0775
  316.0000     8.8860     6.2969     6.4034   -31.8236     7.8874    99.0837     2.5607     0.0191     0.0797
  316.5000     8.8475     6.3521     6.4481   -31.4724     7.8874    98.7025     2.5650     0.0075     0.0812
  317.0000     8.7738     6.4345     6.4931   -31.1227     7.8874    99.0608     2.5726     0.0101     0.0749
  317.5000     8.7220     6.4281     6.5384   -30.8270     7.8874    99.6832     2.5829     0.0192     0.0704
  318.0000     8.8829     6.4131     6.5841   -30.8107     7.8874   100.3120     2.5774     0.0234     0.0784
  318.5000     9.0295     6.3987     6.6192   -30.7891     7.8879   100.9441     2.5680     0.0096     0.0774
  319.0000     9.1785     6.3844     6.6315   -30.7666     7.8885   101.5915     2.5724     0.0140     0.0754
  319.5000     9.2205     6.3701     6.6438   -30.7442     7.8892   101.7753     2.5778     0.0229     0.0759
  320.0000     8.9153     6.3558     6.6562   -30.7217     7.8898   101.7819     2.5681     0.0251     0.0806
  320.5000     8.6412     6.3416     6.6685   -30.6992     7.8904   101.7810     2.5529     0.0077     0.0854
  321.0000     8.7435     6.3274     6.6901   -30.6768     7.8910   101.9780     2.5372    -0.0099     0.0901
  321.5000     8.8039     6.3132     6.7290   -30.6543     7.8916   102.3726     2.5277    -0.0116     0.0949
  322.0000     8.2536     6.2990     6.7681   -30.6203     7.8923   102.7659     2.5200    -0.0070     0.0992
  322.5000     8.5542     6.2849     6.8075   -30.5592     7.8929   103.1609     2.5124    -0.0174     0.1024
  323.0000     8.8854     6.2708     6.8638   -30.4984     7.8935   103.3567     2.5048    -0.0275     0.1054
  323.5000     8.8854     6.2554     6.8577   -30.4376     7.8941   103.2406     2.4973    -0.0375     0.1084
  324.0000     8.6117     6.2340     6.8471   -30.3769     7.8948   103.1151     2.4951    -0.0474     0.1113
  324.5000     8.5637     6.2126     6.8365   -30.3162     7.8954   102.9689     2.4981    -0.0546     0.1140
  325.0000     8.9677     6.1913     6.8260   -30.2555     7.8960   103.4119     2.5057    -0.0486     0.1098
  325.5000     8.7069     6.1700     6.8155   -30.1945     7.8966   103.6702     2.5116    -0.0369     0.1052
  326.0000     8.4537     6.1494     6.8048   -30.1339     7.8972   103.9501     2.5083    -0.0256     0.1020
  326.5000     8.4072     6.0790     6.7758   -30.0761     7.8979   104.2378     2.5042    -0.0257     0.1108
  327.0000     8.7844     5.9991     6.7347   -30.1907     7.8985   104.5397     2.5000    -0.0284     0.1129
  327.5000     8.9677     5.9201     6.6941   -30.5311     7.8991   104.2001     2.4965    -0.0261     0.1148
  328.0000     8.6430     5.8422     6.6538   -30.8337     7.8997   103.7620     2.5105    -0.0159     0.1072
  328.5000     6.6153     5.7534     6.6153   -30.9104     7.9003   104.0563     2.5268    -0.0036     0.0981
  329.0000     6.6153     5.6174     6.6152   -31.0147     7.9010   104.6574     2.5398     0.0074     0.0948
  329.5000     7.8818     5.4845     6.6153   -31.1496     7.9016   105.2553     2.5151    -0.0019     0.1011
  330.0000     7.5964     5.3548     6.6155   -31.5155     7.9022   105.8674     2.4911    -0.0213     0.1137
  330.5000     7.8816     5.2280     6.6153   -31.8787     7.9028   106.5893     2.4665    -0.0305     0.1262
  331.0000     8.1606     5.1045     6.5740   -32.0075     7.9035   107.2607     2.4536    -0.0369     0.1389
  331.5000     8.2536     5.0162     6.4233   -31.8375     7.9041   105.2854     2.4401    -0.0394     0.1473
  332.0000     7.0410     4.9890     6.3173   -31.6297     7.9047   103.3955     2.4328    -0.0345     0.1403
