~VERSION INFORMATION
 VERS.                2.0:   CWLS LOG ASCII STANDARD - VERSION 2.0
 WRAP.                 NO:   ONE LINE PER DEPTH STEP
~WELL INFORMATION
#MNEM.UNIT      DATA TYPE    INFORMATION
#----------   ------------   ------------------------------
 STRT.F           43.0000:   START DEPTH
 STOP.F          620.0000:   STOP DEPTH
 STEP.F            0.5000:   STEP LENGTH
 NULL.          -999.2500:   NO VALUE
 COMP. FENIX & SCISSON INC:   COMPANY
 WELL.      16 SX 2 #16-2:   WELL
 FLD .             TEAPOT:   FIELD
 LOC .       S2 T38N R78W:   LOCATION
 CNTY.            NATRONA:   COUNTY
 STAT.            WYOMING:   STATE
 CTRY. UNITED STATES OF AMERICA:   COUNTRY
 SRVC.            Unknown:   SERVICE COMPANY
 DATE.        11-OCT-1978:   LOGDATE
 API .       490251071400:   API NUMBER
~CURVE INFORMATION
#MNEM.UNIT       API CODE    CURVE DESCRIPTION
#----------   ------------   ------------------------------
 DEPT.F                  :   
 SPR .MV     05 010 01 00:   SPONTANEOUS POTENTIAL FROM RES.
 SN  .OHMM   05 040 16 00:   SHORT NORMAL 16"
 ILD .OHMM   05 120 46 00:   INDUCTION LOG DEEP
 CALD.IN     45 280 60 00:   CALIPER
 GRD .GAPI   45 310 01 00:   GAMMA RAY FROM DENSITY LOG
 DPHI.DEC    45 890 12 00:   DENSITY POROSITY SANDSTONE
 RHOB.G/C3   45 350 01 00:   BULK DENSITY
 DRHO.G/C3   45 356 01 00:   DENSITY CORRECTION
~PARAMETER INFORMATION
#MNEM.UNIT          VALUE    DESCRIPTION
#----------   ------------   ------------------------------
 PD  .                 GL:   PERMANENT DATUM
 EPD .F              5135:   ELEVATION PERMANENT DATUM
 LMF .                 KB:   LOG MEASURED FROM
 DAPD.F                 4:   FEET ABOVE PERMANENT DATUM
 DMF .                 KB:   DRILLING MEASURED FROM
 EKB .F              5139:   KELLING BUSHING
 EGL .F              5135:   GROUND LEVEL
 DATE.           10-11-78:   RUN DATE
 RUN .                  1:   RUN NUMBER
 DD  .F               620:   DEPTH DRILLER
 DL  .F               620:   DEPTH LOGGER
 BLI .F               614:   BOTTOM LOG INTERVAL
 TLI .F                40:   TOP LOG INTERVAL
 CS  .IN            8.625:   CASING SIZE
 CBD .F                40:   CASING BOTTOM DRILLER
 CBL .F                40:   CASING BOTTOM LOGGER
 BS  .IN            7.875:   BIT SIZE
 BSD .F               620:   BIT SIZE AT DEPTH
 DFT .                KCL:   DRILLING FLUID TYPE
 RMS .OHMM            .16:   RESISTIVITY MUD SAMPLE
 MST .F                66:   MUD SAMPLE TEMPERATURE
 RMF .OHMM            .16:   RESISTIVITY MUD FILTRATE SAMPLE
 MFST.F                70:   MUD FILTRATE SAMPLE TEMPERATURE
 RMC .OHMM             .2:   RESISTIVITY MUD CAKE
 MCST.F                71:   MUD CAKE SAMPLE TEMPERATURE
 TCS .HRS               1:   TIME CURCULATED STOPPED
 MRT .F                70:   MAXIMUM RECORDED TEMPERATURE
 LUN .               2958:   LOGGING UNIT NUMBER
 LUL .               CASP:   LOGGING UNIT LOCATION
 ENGI.             MILLER:   RECORDING ENGINEER
 WITN.              AMEND:   WITNESSED BY
 CLNT.            A2DTECH:   CLIENT CODE
 ORIG.           5" PRINT:   ORIGIN OF DATA
 UWI .       490251071400:   UNIQUE WELL ID
 DICO. A2D Technologies, Inc.:   DIGITIZING COMPANY
~OTHER INFORMATION
~A   DEPT      SPR         SN        ILD       CALD         GRD      DPHI       RHOB       DRHO   
# ...
  205.0000   -50.4415     8.5775    11.6390     7.8548   105.8237     0.1100     2.5043     0.0468
  205.5000   -49.0154     8.6774    11.8565     7.8995   104.5953     0.1073     2.5086     0.0829
  206.0000   -48.5308     8.7783    12.0780     7.8825   105.1837     0.1047     2.5168     0.1291
  206.5000   -48.2908     8.8805    12.3037     7.8646   109.6604     0.1018     2.5251     0.1797
  207.0000   -48.0605     8.9838    12.5336     7.8470   114.2468     0.0955     2.5334     0.2305
  207.5000   -47.8835     9.0884    12.7671     7.8085   114.1926     0.0745     2.5533     0.2815
  208.0000   -47.8207     9.1943    12.9659     7.7514   110.7335     0.0520     2.5986     0.3290
  208.5000   -47.7556     9.3009    12.7364     7.6944   107.2657     0.0295     2.6436     0.3425
  209.0000   -47.6909     9.3903    12.5414     7.6380   103.8231     0.0145     2.6651     0.2765
  209.5000   -47.6262     9.3665    12.3494     7.6017   100.4538     0.0485     2.6178     0.1843
  210.0000   -47.5614     9.3460    12.1604     7.6112    98.1421     0.0785     2.5828     0.1000
  210.5000   -47.4967     9.3254    12.0332     7.6182    95.7551     0.0969     2.5477     0.0764
  211.0000   -47.4319     9.3048    12.0023     7.5640    94.7154     0.1041     2.5182     0.0669
  211.5000   -47.3672     9.2844    11.9715     7.5044    98.9528     0.1039     2.5168     0.0569
  212.0000   -47.3024     9.2639    11.9408     7.4449   102.8156     0.1064     2.5171     0.0469
  212.5000   -47.2377     9.2435    11.7424     7.3856   104.0054     0.1106     2.5069     0.0369
  213.0000   -47.1729     9.2232    11.5057     7.3262   104.4986     0.1149     2.4979     0.0314
  213.5000   -47.1082     9.2029    11.2737     7.2670   106.1958     0.1147     2.4982     0.0295
  214.0000   -47.0434     9.1826    11.0465     7.2073   108.0052     0.1144     2.4986     0.0276
  214.5000   -46.9787     9.1624    10.7842     7.1845   108.8531     0.1141     2.4992     0.0247
  215.0000   -46.9139     9.1422    10.7915     7.1890   105.3953     0.1196     2.4921     0.0200
  215.5000   -46.8492     9.1221    10.8013     7.1940   104.4105     0.1252     2.4814     0.0152
  216.0000   -46.7844     9.1020    10.8111     7.1990   111.8520     0.1312     2.4701     0.0104
  216.5000   -46.7197     9.0820    10.8210     7.2054   108.4858     0.1373     2.4585     0.0064
  217.0000   -46.6549     9.0619    10.8308     7.2128   105.2745     0.1408     2.4547     0.0065
  217.5000   -46.5902     9.0508    10.8406     7.2201   107.5685     0.1395     2.4531     0.0072
  218.0000   -46.5254     9.0509    10.8505     7.2275   111.6070     0.1383     2.4547     0.0091
  218.5000   -46.4607     9.0499    10.8604     7.2349   115.7491     0.1364     2.4644     0.0110
  219.0000   -46.3959     9.0520    10.8700     7.2454   119.0252     0.1311     2.4740     0.0130
  219.5000   -46.3312     8.9314    10.8834     7.2718   121.4871     0.1257     2.4801     0.0149
  220.0000   -46.2664     8.8500    10.8089     7.2981   105.7834     0.1237     2.4765     0.0165
  220.5000   -46.2018     8.7694    10.6965     7.3246    94.5227     0.1267     2.4729     0.0165
  221.0000   -46.1356     8.6895    10.5853     7.3624    99.2586     0.1298     2.4692     0.0160
  221.5000   -46.1497     8.6103    10.4752     7.4201   105.6203     0.1329     2.4656     0.0133
  222.0000   -46.1986     8.5318    10.3662     7.4776   109.2311     0.1359     2.4620     0.0106
  222.5000   -46.2497     8.4541    10.2581     7.5350    94.9205     0.1390     2.4583     0.0084
  223.0000   -46.2949     8.3770    10.2032     7.5925    89.9181     0.1412     2.4560     0.0085
  223.5000   -46.6074     8.3007    10.2433     7.6500    96.4496     0.1389     2.4621     0.0090
  224.0000   -47.0140     8.2250    10.2704     7.7081   103.2593     0.1329     2.4695     0.0124
  224.5000   -47.1752     8.1501    10.2976     7.7397   110.0461     0.1274     2.4771     0.0156
  225.0000   -46.5812     8.0758    10.3249     7.7657   119.1558     0.1242     2.4822     0.0189
  225.5000   -46.0178     8.0022    10.3522     7.7915   114.9343     0.1209     2.4860     0.0221
  226.0000   -45.5075     7.9293    10.3930     7.8174   107.4800     0.1207     2.4897     0.0254
  226.5000   -45.5628     7.8570    10.3684     7.8431   100.8021     0.1205     2.4934     0.0287
  227.0000   -45.6079     7.7854    10.3190     7.8578    99.9867     0.1154     2.4969     0.0319
  227.5000   -45.6507     7.7145    10.2700     7.8551   100.2029     0.1142     2.4967     0.0351
  228.0000   -45.6935     7.6646    10.2214     7.8527    99.9915     0.1156     2.4963     0.0385
  228.5000   -45.7362     7.6578    10.1730     7.8503    98.4477     0.1169     2.4959     0.0436
  229.0000   -45.7789     7.6510    10.1248     7.8478    96.8308     0.1169     2.4955     0.0488
  229.5000   -45.8217     7.6441    10.0769     7.8454    95.2097     0.1152     2.4951     0.0540
  230.0000   -45.8644     7.6374    10.0291     7.8430    93.5620     0.1135     2.4964     0.0593
  230.5000   -45.9071     7.6306     9.9816     7.8405    93.0202     0.1119     2.4985     0.0642
  231.0000   -45.9499     7.6238     9.9344     7.8386   102.4054     0.1106     2.5007     0.0628
  231.5000   -45.9926     7.6170     9.8873     7.8386   112.0956     0.1122     2.5004     0.0550
  232.0000   -46.0354     7.6102     9.8405     7.8386   115.4714     0.1160     2.4964     0.0474
  232.5000   -46.0781     7.6036     9.7939     7.8387   109.7638     0.1198     2.4878     0.0397
  233.0000   -46.1208     7.5964     9.7476     7.8387   107.4048     0.1236     2.4792     0.0325
  233.5000   -46.1636     7.5449     9.7014     7.8387   106.4242     0.1273     2.4771     0.0292
  234.0000   -46.2063     7.4918     9.6541     7.8387   104.8341     0.1245     2.4823     0.0261
  234.5000   -46.2490     7.4391     9.5505     7.8387    99.8981     0.1217     2.4813     0.0231
  235.0000   -46.2918     7.3868     9.4450     7.8387    95.2598     0.1240     2.4773     0.0200
  235.5000   -46.3345     7.3348     9.3406     7.8387    92.5465     0.1267     2.4741     0.0169
  236.0000   -46.3772     7.2832     9.2374     7.8387    90.7001     0.1273     2.4745     0.0170
  236.5000   -46.4199     7.2320     9.1354     7.8387    94.6237     0.1273     2.4748     0.0177
  237.0000   -46.4625     7.1811     9.0345     7.8387   103.1440     0.1273     2.4747     0.0183
  237.5000   -46.5041     7.1306     8.9347     7.8387   111.6231     0.1273     2.4730     0.0190
  238.0000   -46.5982     7.0804     8.8359     7.8386   119.4308     0.1301     2.4713     0.0197
  238.5000   -46.7037     7.0306     8.7384     7.8388   119.3277     0.1321     2.4697     0.0203
  239.0000   -46.8102     6.9915     8.6430     7.8316   109.8920     0.1309     2.4681     0.0212
  239.5000   -46.9056     7.0097     8.6430     7.8211   102.2675     0.1293     2.4681     0.0220
  240.0000   -46.7868     7.0321     8.6827     7.8106    97.3904     0.1314     2.4680     0.0261
  240.5000   -46.6605     7.0546     8.7316     7.8000    96.0719     0.1309     2.4734     0.0342
  241.0000   -46.5355     7.0772     8.7807     7.7894    95.5333     0.1262     2.4812     0.0439
  241.5000   -46.4476     7.0998     8.8301     7.7788    95.2771     0.1216     2.4891     0.0557
  242.0000   -46.3676     7.1225     8.8798     7.7682    95.8830     0.1170     2.4970     0.0648
  242.5000   -46.2876     7.1452     8.9298     7.7576    98.7555     0.1124     2.4973     0.0550
  243.0000   -46.2068     7.1681     8.9679     7.7470   109.7965     0.1117     2.4938     0.0443
  243.5000   -46.1233     7.1910     8.9602     7.7365   120.4603     0.1166     2.4904     0.0335
  244.0000   -46.2456     7.2140     8.9529     7.7259   128.6098     0.1203     2.4871     0.0228
  244.5000   -46.3993     7.2371     8.9456     7.7154   117.7191     0.1241     2.4838     0.0121
  245.0000   -46.5538     7.2602     8.9383     7.7046   105.6609     0.1261     2.4805     0.0064
