~VERSION INFORMATION
 VERS.                2.0:   CWLS LOG ASCII STANDARD - VERSION 2.0
 WRAP.                 NO:   ONE LINE PER DEPTH STEP
~WELL INFORMATION
#MNEM.UNIT      DATA TYPE    INFORMATION
#----------   ------------   ------------------------------
 STRT.F            1.0000:   START DEPTH
 STOP.F          508.0000:   STOP DEPTH
 STEP.F            0.1000:   STEP LENGTH
 NULL.          -999.2500:   NO VALUE
 COMP.       F D SERV INC:   COMPANY
 WELL. NAVAL PETROLEUM RESERVE 3 SX-1 #83-4-10:   WELL
 FLD .             TEAPOT:   FIELD
 LOC .      S10 T38N R78W:   LOCATION
 CNTY.            NATRONA:   COUNTY
 STAT.            WYOMING:   STATE
 CTRY. UNITED STATES OF AMERICA:   COUNTRY
 SRVC.     Atlas Wireline:   SERVICE COMPANY
 DATE.        26-JAN-1993:   LOGDATE
 API .       490252258300:   API NUMBER
~CURVE INFORMATION
#MNEM.UNIT       API CODE    CURVE DESCRIPTION
#----------   ------------   ------------------------------
 DEPT.F                  :   
 GRR .GAPI   07 310 01 00:   GAMMA RAY
 RILD.OHMM   07 120 46 00:   INDUCTION LOG DEEP RESISTIVITY
 RILM.OHMM   07 120 44 00:   INDUCTION LOG MEDIUM RESISTIVITY
~PARAMETER INFORMATION
#MNEM.UNIT          VALUE    DESCRIPTION
#----------   ------------   ------------------------------
 PD  .                 GL:   PERMANENT DATUM
 EPD .F              5152:   ELEVATION PERMANENT DATUM
 LMF .                 KB:   LOG MEASURED FROM
 DAPD.F                10:   FEET ABOVE PERMANENT DATUM
 DMF .                 KB:   DRILLING MEASURED FROM
 EKB .F              5162:   KELLING BUSHING
 EDF .F              5161:   DRILLING FLOOR
 EGL .F              5152:   GROUND LEVEL
 DATE.        26-JAN-1993:   RUN DATE
 RUN .                  1:   RUN NUMBER
 DD  .F               515:   DEPTH DRILLER
 DL  .F               516:   DEPTH LOGGER
 BLI .F               508:   BOTTOM LOG INTERVAL
 CS  .IN            8.625:   CASING SIZE
 CBD .F                55:   CASING BOTTOM DRILLER
 CBL .F                55:   CASING BOTTOM LOGGER
 BS  .IN            7.875:   BIT SIZE
 BSD .F               515:   BIT SIZE AT DEPTH
 DFT .                AIR:   DRILLING FLUID TYPE
 MRT .F                63:   MAXIMUM RECORDED TEMPERATURE
 LUN .           HL- 6274:   LOGGING UNIT NUMBER
 LUL .             CASPER:   LOGGING UNIT LOCATION
 ENGI.       P. RASMUSSEN:   RECORDING ENGINEER
 WITN.          G. STRONG:   WITNESSED BY
 CLNT.            A2DTECH:   CLIENT CODE
 ORIG.           5" PRINT:   ORIGIN OF DATA
 UWI .       490252258300:   UNIQUE WELL ID
 DICO. A2D Technologies, Inc.:   DIGITIZING COMPANY
~OTHER INFORMATION
~A    DEPT     GRR       RILD       RILM   
# ...
  346.8000   106.5430    20.9567    20.8485
  346.9000   106.7966    20.8327    20.8089
  347.0000   107.0642    20.7218    20.7046
  347.1000   107.6345    20.7212    20.7046
  347.2000   108.0859    20.7207    20.7046
  347.3000   108.7801    20.7201    20.7046
  347.4000   109.4088    20.6484    20.7046
  347.5000   109.9197    20.5760    20.6499
  347.6000   110.4305    20.5466    20.5618
  347.7000   110.9414    20.4329    20.5495
  347.8000   111.5248    20.4322    20.4198
  347.9000   112.1837    20.4317    20.4198
  348.0000   112.5984    20.4312    20.4198
  348.1000   113.1175    20.4306    20.4198
  348.2000   113.7080    20.3851    20.4198
  348.3000   114.0064    20.2885    20.4198
  348.4000   114.5157    20.2879    20.4198
  348.5000   114.5114    20.2873    20.4198
  348.6000   114.5084    20.1847    20.4198
  348.7000   114.5048    20.1462    20.4198
  348.8000   114.3751    20.1457    20.4198
  348.9000   114.1143    20.1451    20.3773
  349.0000   113.8916    20.1446    20.2789
  349.1000   113.8879    20.1440    20.2789
  349.2000   113.5824    20.1433    20.2789
  349.3000   113.3721    20.1429    20.2789
  349.4000   113.1112    20.1423    20.2008
  349.5000   112.8504    20.1418    20.1390
  349.6000   112.6651    20.1412    20.1390
  349.7000   112.6614    20.1407    20.1390
  349.8000   112.6577    20.1401    20.1390
  349.9000   112.6542    20.1395    20.1390
  350.0000   113.0522    20.1390    20.1390
  350.1000   113.2494    20.1384    20.1390
  350.2000   113.3586    20.1379    20.1390
  350.3000   113.6123    20.1373    20.1390
  350.4000   113.8659    20.1367    20.1390
  350.5000   114.1383    20.1361    20.1390
  350.6000   114.3731    20.1356    20.2474
  350.7000   114.6267    20.1351    20.2789
  350.8000   114.8803    20.1345    20.2789
  350.9000   115.0277    20.1340    20.2789
  351.0000   115.0863    20.1334    20.2789
  351.1000   115.3219    20.1328    20.2789
  351.2000   115.3177    20.1322    20.2789
  351.3000   115.5460    20.1317    20.2789
  351.4000   115.6120    20.1312    20.2789
  351.5000   115.6084    20.1306    20.2789
  351.6000   115.6048    20.1301    20.2789
  351.7000   115.6012    20.1295    20.2789
  351.8000   115.5976    20.1289    20.2789
  351.9000   115.5935    20.1283    20.2789
  352.0000   115.5904    20.1278    20.2789
  352.1000   115.5867    20.1273    20.2789
  352.2000   115.5831    20.1267    20.2235
  352.3000   115.5795    20.1262    20.1390
  352.4000   115.5759    20.1256    20.1390
  352.5000   115.5723    20.1250    20.1390
  352.6000   115.5681    19.9855    20.1390
  352.7000   115.5651    19.8901    20.1390
  352.8000   115.5614    19.8466    20.0689
  352.9000   115.5578    19.8460    20.0000
  353.0000   115.5542    19.8117    19.9715
  353.1000   115.5506    19.7080    19.8620
  353.2000   115.5470    19.7074    19.8620
  353.3000   115.2415    19.5974    19.8620
  353.4000   115.2386    19.5703    19.8620
  353.5000   115.0673    19.5698    19.7985
  353.6000   114.9301    19.5203    19.6821
  353.7000   114.8468    19.4048    19.5888
  353.8000   114.5859    19.2990    19.5864
  353.9000   114.3167    19.2984    19.4536
  354.0000   113.8153    19.2980    19.3569
  354.1000   113.0921    19.2140    19.3193
  354.2000   112.4779    19.1004    19.3193
  354.3000   111.9598    19.0309    19.3193
  354.4000   111.5148    19.0304    19.3026
  354.5000   111.2831    19.0299    19.1860
  354.6000   111.2793    19.0293    19.1860
  354.7000   111.0335    18.9314    19.0961
  354.8000   110.9711    18.8970    19.0536
  354.9000   110.9675    18.8381    19.0536
  355.0000   110.8534    18.7655    19.0229
  355.1000   110.6590    18.7256    18.9111
  355.2000   110.6554    18.5064    18.7915
  355.3000   110.6515    18.5058    18.7915
  355.4000   110.6482    18.5054    18.7915
  355.5000   110.6446    18.4329    18.7280
  355.6000   110.3454    18.3239    18.6619
  355.7000   109.8273    18.2155    18.6370
  355.8000   109.2494    18.1077    18.5331
  355.9000   108.4741    17.9973    18.5331
  356.0000   107.6141    17.9968    18.4376
  356.1000   106.6943    17.9963    18.3292
  356.2000   105.6618    17.9297    18.2782
  356.3000   104.7705    17.8237    18.2782
  356.4000   104.0924    17.7182    18.2590
  356.5000   103.6275    17.6134    18.1516
  356.6000   103.3667    17.5022    18.0267
  356.7000   103.0706    17.5017    18.0267
  356.8000   102.8450    17.4230    17.9574
  356.9000   102.7626    17.3199    17.8518
  357.0000   102.7590    17.2175    17.7788
  357.1000   102.9912    17.1156    17.7515
  357.2000   103.6573    17.0212    17.5342
  357.3000   104.3234    17.0207    17.5342
  357.4000   104.9895    16.9305    17.3738
  357.5000   105.6556    16.8304    17.2314
  357.6000   106.3217    16.7852    17.1301
  357.7000   106.9878    16.7475    17.0037
  357.8000   107.9398    16.6484    16.8206
  357.9000   109.4021    16.5530    16.8206
  358.0000   110.4458    16.5525    16.7308
  358.1000   110.4444    16.5521    16.6325
  358.2000   110.6526    16.5516    16.5893
  358.3000   110.7434    16.5011    16.5518
  358.4000   110.7422    16.4035    16.4545
  358.5000   110.7410    16.3226    16.3611
  358.6000   110.7398    16.3221    16.3611
  358.7000   110.7385    16.3216    16.3611
  358.8000   110.4908    16.3212    16.3611
  358.9000   110.2323    16.3208    16.3611
  359.0000   110.1325    16.2745    16.3611
  359.1000   110.1313    16.2073    16.3611
  359.2000   109.9889    16.2068    16.3611
  359.3000   109.5265    16.2063    16.3611
  359.4000   109.5252    16.2059    16.2829
  359.5000   109.0442    16.2055    16.2482
  359.6000   108.9205    16.1466    16.2482
  359.7000   108.7673    16.0927    16.2206
  359.8000   108.5088    16.0923    16.1360
  359.9000   108.3145    16.0919    16.1360
  360.0000   108.3334    16.0914    16.1360
  360.1000   108.6131    16.0910    16.1360
  360.2000   108.6121    16.0905    16.1360
  360.3000   108.8002    16.0901    16.0966
  360.4000   108.9109    16.0896    16.0247
  360.5000   108.9096    16.0892    16.0184
  360.6000   109.0233    16.0887    15.9141
  360.7000   109.5097    16.0882    15.9141
  360.8000   109.5083    16.0878    15.9141
  360.9000   109.7340    16.0874    15.9141
  361.0000   109.9899    16.0869    15.9003
  361.1000   110.1072    16.0865    15.8627
  361.2000   110.2007    16.0861    15.8251
  361.3000   110.4568    16.0856    15.7876
  361.4000   110.7061    16.0851    15.7500
  361.5000   110.7047    16.0044    15.7124
  361.6000   110.9237    15.9098    15.6749
  361.7000   111.0036    15.8626    15.6373
  361.8000   110.6060    15.8622    15.5998
  361.9000   109.7449    15.8617    15.5622
  362.0000   108.7590    15.8613    15.5246
  362.1000   107.9861    15.7513    15.4871
  362.2000   107.0817    15.7509    15.4495
  362.3000   106.8672    15.6913    15.4119
  362.4000   106.6088    15.6414    15.3733
  362.5000   106.4759    15.6409    15.3723
  362.6000   106.4747    15.6405    15.3716
  362.7000   106.4735    15.6401    15.3708
  362.8000   106.4723    15.6396    15.3699
  362.9000   106.4708    15.5679    15.3691
  363.0000   106.4699    15.4758    15.3682
  363.1000   106.6315    15.4232    15.3674
  363.2000   106.8875    15.4228    15.3664
  363.3000   107.2184    15.4224    15.2923
  363.4000   107.7316    15.4219    15.2588
  363.5000   108.2710    15.3389    15.2579
  363.6000   108.7583    15.3147    15.2293
  363.7000   109.2715    15.2633    15.1510
  363.8000   109.4723    15.2082    15.1501
  363.9000   109.4711    15.2077    15.1491
  364.0000   109.4699    15.2073    15.1485
  364.1000   109.4930    15.2068    15.0900
  364.2000   109.7686    15.1282    15.0422
  364.3000   109.7675    15.0388    15.0139
  364.4000   109.7663    14.9965    14.9368
  364.5000   109.9147    14.9961    14.9359
  364.6000   110.0651    14.9795    14.9350
  364.7000   110.1255    14.8909    14.8627
  364.8000   110.3815    14.7885    14.7739
  364.9000   110.6637    14.7882    14.6857
