~VERSION INFORMATION
 VERS.                2.0:   CWLS LOG ASCII STANDARD - VERSION 2.0
 WRAP.                 NO:   ONE LINE PER DEPTH STEP
~WELL INFORMATION
#MNEM.UNIT      DATA TYPE    INFORMATION
#----------   ------------   ------------------------------
 STRT.F           34.0000:   START DEPTH
 STOP.F          582.0000:   STOP DEPTH
 STEP.F            0.5000:   STEP LENGTH
 NULL.          -999.2500:   NO VALUE
 COMP. FENIX & SCISSON INC:   COMPANY
 WELL. NPR 3 SX-33 #88-33:   WELL
 FLD .             TEAPOT:   FIELD
 LOC .      S33 T39N R78W:   LOCATION
 CNTY.            NATRONA:   COUNTY
 STAT.            WYOMING:   STATE
 CTRY. UNITED STATES OF AMERICA:   COUNTRY
 SRVC.           BIRDWELL:   SERVICE COMPANY
 DATE.        04-AUG-1978:   LOGDATE
 API .       490251068000:   API NUMBER
~CURVE INFORMATION
#MNEM.UNIT       API CODE    CURVE DESCRIPTION
#----------   ------------   ------------------------------
 DEPT.F                  :   
 SPR .MV     05 010 01 00:   SPONTANEOUS POTENTIAL FROM RES.
 ILD .OHMM   05 120 46 00:   INDUCTION LOG DEEP
 SN  .OHMM   05 040 16 00:   SHORT NORMAL 16"
 CALD.IN     45 280 60 00:   CALIPER
 GRD .GAPI   45 310 01 00:   GAMMA RAY FROM DENSITY LOG
 DEN .G/C3   45 350 01 00:   COMPENSATED BULK DENSTIY
 CORR.G/C3   45 356 01 00:   DENSITY CORRECTION
 DPHI.DEC    45 890 12 00:   DENSITY POROSITY SANDSTONE
~PARAMETER INFORMATION
#MNEM.UNIT          VALUE    DESCRIPTION
#----------   ------------   ------------------------------
 PD  .                 GL:   PERMANENT DATUM
 EPD .F              5146:   ELEVATION PERMANENT DATUM
 LMF .                 KB:   LOG MEASURED FROM
 DAPD.F                 4:   FEET ABOVE PERMANENT DATUM
 DMF .                 KB:   DRILLING MEASURED FROM
 EKB .F              5150:   KELLING BUSHING
 EGL .F              5146:   GROUND LEVEL
 DATE.             8-4-78:   RUN DATE
 RUN .                  1:   RUN NUMBER
 DD  .F               570:   DEPTH DRILLER
 DL  .F               588:   DEPTH LOGGER
 BLI .F               582:   BOTTOM LOG INTERVAL
 TLI .F                50:   TOP LOG INTERVAL
 CS  .IN            8.625:   CASING SIZE
 CBD .F                40:   CASING BOTTOM DRILLER
 BS  .IN            7.875:   BIT SIZE
 BSD .F               570:   BIT SIZE AT DEPTH
 DFT .                KCL:   DRILLING FLUID TYPE
 DFD .                8.7:   DRILLING FLUID DENSITY
 DFV .                 34:   DRILLING FLUID VISCOSITY
 DFPH.                  9:   DRILLING FLUID PH
 DFL .                9.6:   DRILLING FLUID LOSS
 MSS .          FLOW LINE:   MUD SAMPLE SOURCE
 RMS .OHMM            .24:   RESISTIVITY MUD SAMPLE
 MST .F                70:   MUD SAMPLE TEMPERATURE
 RMF .OHMM            .24:   RESISTIVITY MUD FILTRATE SAMPLE
 MFST.F                80:   MUD FILTRATE SAMPLE TEMPERATURE
 RMC .OHMM             .3:   RESISTIVITY MUD CAKE
 MCST.F                75:   MUD CAKE SAMPLE TEMPERATURE
 MFSS.               MEAS:   MUD FILTRATE SAMPLE SOURCE
 TCS .HRS               2:   TIME CURCULATED STOPPED
 LUN .               3006:   LOGGING UNIT NUMBER
 LUL .               CASP:   LOGGING UNIT LOCATION
 ENGI.             MILLER:   RECORDING ENGINEER
 WITN.           MCGINLEY:   WITNESSED BY
 CLNT.            A2DTECH:   CLIENT CODE
 ORIG.        2" 5" PRINT:   ORIGIN OF DATA
 UWI .       490251068000:   UNIQUE WELL ID
 DICO. A2D Technologies, Inc.:   DIGITIZING COMPANY
~OTHER INFORMATION
~A   DEPT      SPR        ILD         SN       CALD         GRD       DEN       CORR       DPHI   
   34.0000  -999.2500  -999.2500  -999.2500  -999.2500    47.2459  -999.2500  -999.2500  -999.2500
   34.5000  -999.2500  -999.2500  -999.2500  -999.2500    46.1000  -999.2500  -999.2500  -999.2500
   35.0000  -999.2500  -999.2500  -999.2500  -999.2500    46.1000  -999.2500  -999.2500  -999.2500
   35.5000  -999.2500  -999.2500  -999.2500  -999.2500    46.3987  -999.2500  -999.2500  -999.2500
   36.0000  -999.2500  -999.2500  -999.2500  -999.2500    47.3386  -999.2500  -999.2500  -999.2500
   36.5000  -999.2500  -999.2500  -999.2500  -999.2500    48.5265  -999.2500  -999.2500  -999.2500
   37.0000  -999.2500  -999.2500  -999.2500  -999.2500    49.5253  -999.2500  -999.2500  -999.2500
   37.5000  -999.2500  -999.2500  -999.2500  -999.2500    49.4958  -999.2500  -999.2500  -999.2500
   38.0000  -999.2500  -999.2500  -999.2500     7.4624    49.8879  -999.2500  -999.2500  -999.2500
   38.5000  -999.2500  -999.2500  -999.2500     7.4546    49.3842  -999.2500  -999.2500  -999.2500
   39.0000  -999.2500  -999.2500  -999.2500     7.4179    48.6721  -999.2500  -999.2500  -999.2500
   39.5000  -999.2500  -999.2500  -999.2500     7.3538    48.7609  -999.2500  -999.2500  -999.2500
   40.0000  -999.2500  -999.2500  -999.2500     7.2482    50.5939  -999.2500  -999.2500  -999.2500
   40.5000  -999.2500  -999.2500  -999.2500     7.0289    52.1379  -999.2500  -999.2500  -999.2500
   41.0000  -999.2500  -999.2500  -999.2500     6.8116    51.9169  -999.2500  -999.2500  -999.2500
   41.5000  -999.2500  -999.2500  -999.2500     6.6397    51.7073  -999.2500  -999.2500  -999.2500
   42.0000  -999.2500  -999.2500  -999.2500     6.4950    52.7392  -999.2500  -999.2500  -999.2500
   42.5000  -999.2500  -999.2500  -999.2500     6.4085    54.7673  -999.2500  -999.2500  -999.2500
   43.0000  -999.2500  -999.2500  -999.2500     6.4136    56.4813  -999.2500  -999.2500  -999.2500
   43.5000  -999.2500  -999.2500  -999.2500     6.4172    56.5994  -999.2500  -999.2500  -999.2500
   44.0000  -999.2500  -999.2500  -999.2500     6.4205    59.5490  -999.2500    -0.2974  -999.2500
   44.5000  -999.2500  -999.2500  -999.2500     6.4233    62.9838  -999.2500    -0.2934  -999.2500
   45.0000  -999.2500  -999.2500  -999.2500     6.4249    66.9899  -999.2500    -0.2667  -999.2500
   45.5000  -999.2500  -999.2500  -999.2500     6.4377    71.6126     2.2622    -0.1218     0.1535
   46.0000    -7.2814     1.6271  -999.2500     6.6585    79.1502     2.4202     0.0801     0.1567
   46.5000   -10.6397     1.0386    56.2416     7.1092    89.5945     2.4162     0.0934     0.1613
   47.0000   -13.4631     3.8932    15.2941     7.2498    94.7858     2.4188     0.0725     0.1613
   47.5000   -13.6457     4.6508     3.7087     7.3222    97.7770     2.4140     0.0525     0.1583
   48.0000   -14.0069     5.7710     5.1617     7.3504   101.3796     2.4194     0.0480     0.1536
   48.5000   -16.5282     5.8969     5.9376     7.3705   101.3543     2.4245     0.0583     0.1505
   49.0000   -17.6725     6.3297     6.0477     7.3678    98.9091     2.4276     0.0697     0.1536
   49.5000   -15.0531     6.5838     5.8542     7.3645    95.8723     2.4266     0.0813     0.1545
   50.0000   -18.1503     6.5113     5.6872     7.3613    95.6553     2.4265     0.0883     0.1491
   50.5000   -17.8804     6.4561     5.5256     7.3580    98.5135     2.4292     0.0973     0.1434
   51.0000   -17.6228     6.4014     5.3695     7.3548    94.6509     2.5166     0.1129     0.1397
   51.5000   -17.5585     6.3471     5.2333     7.3514    95.6472     2.5123     0.1748     0.1359
   52.0000   -17.5084     6.2884     5.4055     7.3809    97.4645     2.4560     0.1794     0.1280
   52.5000   -17.4551     6.3072     5.5661     7.4391    97.4278     2.4606     0.0853     0.1245
   53.0000   -17.7910     6.3279     5.7315     7.4977    95.4194     2.4737     0.0785     0.1160
   53.5000   -18.4964     6.3663     5.9017     7.5570    94.1270     2.4843     0.0859     0.1102
   54.0000   -19.2000     6.5445     5.9513     7.6059    95.6656     2.4843     0.0919     0.1323
   54.5000   -19.8702     6.7277     5.9513     7.5995    94.3253     2.4582     0.0768     0.1361
   55.0000   -20.1197     6.9160     5.9513     7.5987    92.5185     2.4477     0.0402     0.1370
   55.5000   -20.3835     7.1095     5.9512     7.6533    90.7738     2.4476     0.0357     0.1389
   56.0000   -20.6915     7.2913     5.9391     7.7071    90.4839     2.4476     0.0355     0.1372
   56.5000   -21.2333     7.3540     5.9159     7.7546    91.3708     2.4476     0.0353     0.1349
   57.0000   -21.7835     7.4172     5.8928     7.7732    92.8207     2.4476     0.0351     0.1379
   57.5000   -22.3296     7.4810     5.8697     7.7923    94.3970     2.4477     0.0348     0.1423
   58.0000   -22.8701     7.5453     5.8468     7.8116    95.9661     2.4439     0.0345     0.1449
   58.5000   -23.0919     7.6101     5.8239     7.8295    97.5437     2.4397     0.0341     0.1427
   59.0000   -23.2164     7.6755     5.8012     7.8265    98.4682     2.4407     0.0341     0.1361
   59.5000   -23.3355     7.7415     5.7785     7.8229    98.0403     2.4463     0.0378     0.1368
   60.0000   -23.4552     7.8081     5.7559     7.8194    97.4787     2.4516     0.0395     0.1354
   60.5000   -23.5799     7.8388     5.7367     7.8158    97.5456     2.4568     0.0428     0.1307
   61.0000   -23.5604     7.7365     5.8671     7.8132    97.8990     2.4615     0.0441     0.1302
   61.5000   -23.5006     7.6481     5.9840     7.8235    98.2488     2.4662     0.0450     0.1228
   62.0000   -23.4398     7.5561     6.1032     7.8074    97.8621     2.4714     0.0456     0.1143
   62.5000   -23.3792     7.5068     6.2248     7.8022    96.9522     2.4867     0.0524     0.1136
   63.0000   -23.3185     7.4552     6.3487     7.7971    97.1230     2.4875     0.0601     0.1234
   63.5000   -23.2579     7.4039     6.4751     7.7931    97.9027     2.4860     0.0621     0.1355
   64.0000   -23.2033     7.3508     6.6041     7.7221    96.2661     2.4623     0.0494     0.1389
   64.5000   -23.3150     7.3508     6.7356     7.5728    91.8024     2.4510     0.0401     0.1393
   65.0000   -23.4573     7.3508     6.8224     7.4087    92.4610     2.4512     0.0404     0.1370
   65.5000   -23.6002     7.3508     6.8952     7.1779    96.5784     2.4534     0.0410     0.1337
   66.0000   -23.7433     7.3508     6.9567     7.1215    95.9607     2.4554     0.0415     0.1367
   66.5000   -23.8856     7.3514     6.9027     7.0933    94.5808     2.4499     0.0413     0.1377
   67.0000   -23.9961     7.2628     6.8071     7.0717    93.1854     2.4454     0.0393     0.1404
   67.5000   -23.9214     7.1496     6.7130     7.0507    92.7415     2.4450     0.0374     0.1561
   68.0000   -23.8495     7.0382     6.6202     7.0563    94.4137     2.4269     0.0355     0.1561
   68.5000   -23.7787     6.9285     6.5288     7.0948    96.9922     2.4148     0.0340     0.1605
   69.0000   -23.7061     6.8205     6.4386     7.1329    99.5570     2.4108     0.0366     0.1715
   69.5000   -23.6409     6.7142     6.3497     7.1689   100.9610     2.3947     0.0393     0.1776
   70.0000   -22.9669     6.6092     6.2620     7.1702   100.0969     2.3871     0.0420     0.1744
   70.5000   -21.8667     6.5065     6.1739     7.1748    99.3195     2.3956     0.0447     0.1627
   71.0000   -21.3968     6.4049     6.1743     7.1990    99.2940     2.4147     0.0473     0.1493
   71.5000   -21.3450     6.5267     6.3298     7.2228    99.2949     2.4325     0.0499     0.1496
   72.0000   -21.3015     6.6849     6.4648     7.2465    99.7539     2.4357     0.0433     0.1475
   72.5000   -21.2589     6.8477     6.6026     7.2702   100.8804     2.4352     0.0336     0.1382
   73.0000   -21.2155     7.0137     6.7433     7.2940   101.8932     2.4511     0.0322     0.1328
   73.5000   -21.1721     7.1581     6.8398     7.3177   101.8461     2.4617     0.0373     0.1311
   74.0000   -21.1287     7.1875     6.8646     7.3298    99.7972     2.4620     0.0397     0.1266
