~VERSION INFORMATION
 VERS.                2.0:   CWLS LOG ASCII STANDARD - VERSION 2.0
 WRAP.                 NO:   ONE LINE PER DEPTH STEP
~WELL INFORMATION
#MNEM.UNIT      DATA TYPE    INFORMATION
#----------   ------------   ------------------------------
 STRT.F           23.0000:   START DEPTH
 STOP.F         2536.0000:   STOP DEPTH
 STEP.F            0.5000:   STEP LENGTH
 NULL.          -999.2500:   NO VALUE
 COMP. FENIX & SCISSON INC:   COMPANY
 WELL.     14 SHX 3 #14-3:   WELL
 FLD .             TEAPOT:   FIELD
 LOC .       S3 T38N R78W:   LOCATION
 CNTY.            NATRONA:   COUNTY
 STAT.            WYOMING:   STATE
 CTRY. UNITED STATES OF AMERICA:   COUNTRY
 SRVC.           BIRDWELL:   SERVICE COMPANY
 DATE.        20-MAR-1979:   LOGDATE
 API .       490251073900:   API NUMBER
~CURVE INFORMATION
#MNEM.UNIT       API CODE    CURVE DESCRIPTION
#----------   ------------   ------------------------------
 DEPT.F                  :   
 SPR .MV     07 010 01 00:   SPONTANEOUS POTENTIAL
 SN  .OHMM   07 040 16 00:   SHORT NORMAL 16'
 IL  .OHMM   07 120 00 00:   INDUCTION LOG
 GRD .GAPI   45 310 01 00:   GAMMA RAY FROM DENSITY LOG
 CALD.IN     45 280 60 00:   CALIPER
 CORR.G/C3   45 356 01 00:   DENSITY CORRECTION
 DEN .G/C3   45 350 01 00:   
 DPHI.DEC    45 890 12 00:   DENSITY POROSITY SANDSTONE
~PARAMETER INFORMATION
#MNEM.UNIT          VALUE    DESCRIPTION
#----------   ------------   ------------------------------
 PD  .                 GL:   PERMANENT DATUM
 EPD .F              5208:   ELEVATION PERMANENT DATUM
 LMF .                 KB:   LOG MEASURED FROM
 DAPD.F                10:   FEET ABOVE PERMANENT DATUM
 DMF .                 KB:   DRILLING MEASURED FROM
 EKB .F              5218:   KELLING BUSHING
 EGL .F              5208:   GROUND LEVEL
 DATE.            3-20-79:   RUN DATE
 RUN .                  1:   RUN NUMBER
 DD  .F              2580:   DEPTH DRILLER
 DL  .F              2536:   DEPTH LOGGER
 BLI .F              2536:   BOTTOM LOG INTERVAL
 TLI .F               400:   TOP LOG INTERVAL
 CS  .IN            9.625:   CASING SIZE
 CBL .F               680:   CASING BOTTOM LOGGER
 BS  .IN             8.75:   BIT SIZE
 BSD .F              2580:   BIT SIZE AT DEPTH
 DFT .                AIR:   DRILLING FLUID TYPE
 TCS .HRS               6:   TIME CURCULATED STOPPED
 LUN .               2959:   LOGGING UNIT NUMBER
 LUL .             CASPER:   LOGGING UNIT LOCATION
 ENGI.            ROLLINS:   RECORDING ENGINEER
 WITN.           DINSMORE:   WITNESSED BY
 CLNT.            A2DTECH:   CLIENT CODE
 ORIG. 1", 2", 2.5", 5" PRINT:   ORIGIN OF DATA
 UWI .       490251073900:   UNIQUE WELL ID
 DICO. A2D Technologies, Inc.:   DIGITIZING COMPANY
~OTHER INFORMATION
~A   DEPT      SPR         SN         IL        GRD       CALD       CORR        DEN       DPHI   
# ...
 1521.5000  -999.2500  -999.2500  -999.2500   155.3211     9.6976     0.1164     2.5899    -0.0162
 1522.0000  -999.2500  -999.2500  -999.2500   153.7169     9.6976     0.1234     2.5863    -0.0162
 1522.5000  -999.2500  -999.2500  -999.2500   152.7287     9.6976     0.1243     2.5696    -0.0090
 1523.0000  -999.2500  -999.2500  -999.2500   153.5094     9.6976     0.1172     2.5551    -0.0037
 1523.5000  -999.2500  -999.2500  -999.2500   154.1509     9.6976     0.1189     2.5599    -0.0049
 1524.0000  -999.2500  -999.2500  -999.2500   155.9915     9.6976     0.1290     2.5672    -0.0099
 1524.5000  -999.2500  -999.2500  -999.2500   159.8671     9.6976     0.1121     2.5680    -0.0082
 1525.0000  -999.2500  -999.2500  -999.2500   156.0697     9.6976     0.0987     2.5593    -0.0039
 1525.5000  -999.2500  -999.2500  -999.2500   153.8593     9.6976     0.0832     2.5514     0.0003
 1526.0000  -999.2500  -999.2500  -999.2500   154.2912     9.6976     0.0770     2.5426     0.0055
 1526.5000  -999.2500  -999.2500  -999.2500   152.4410     9.6976     0.0816     2.5402     0.0063
 1527.0000  -999.2500  -999.2500  -999.2500   149.7258     9.6976     0.0921     2.5465     0.0022
 1527.5000  -999.2500  -999.2500  -999.2500   147.0945     9.6976     0.1021     2.5524    -0.0018
 1528.0000  -999.2500  -999.2500  -999.2500   145.7236     9.6976     0.1095     2.5538    -0.0022
 1528.5000  -999.2500  -999.2500  -999.2500   147.0827     9.6976     0.1171     2.5492    -0.0002
 1529.0000  -999.2500  -999.2500  -999.2500   148.3290     9.6976     0.1362     2.5647    -0.0100
 1529.5000  -999.2500  -999.2500  -999.2500   149.8397     9.6976     0.1563     2.6025    -0.0236
 1530.0000  -999.2500  -999.2500  -999.2500   155.3302     9.6976     0.1555     2.5974    -0.0172
 1530.5000  -999.2500  -999.2500  -999.2500   159.9068     9.6976     0.1388     2.5787    -0.0091
 1531.0000  -999.2500  -999.2500  -999.2500   158.1606     9.6976     0.1249     2.5666    -0.0042
 1531.5000  -999.2500  -999.2500  -999.2500   154.3139     9.6976     0.1115     2.5562    -0.0034
 1532.0000  -999.2500  -999.2500  -999.2500   149.2504     9.6976     0.1204     2.5602    -0.0079
 1532.5000  -999.2500  -999.2500  -999.2500   150.1085     9.6976     0.1299     2.5759    -0.0123
 1533.0000  -999.2500  -999.2500  -999.2500   152.3579     9.6976     0.1135     2.5644     0.0005
 1533.5000  -999.2500  -999.2500  -999.2500   154.4235     9.6976     0.0790     2.5344     0.0135
 1534.0000  -999.2500  -999.2500  -999.2500   156.4245     9.6976     0.0949     2.5255     0.0038
 1534.5000  -999.2500  -999.2500  -999.2500   157.3360     9.6976     0.1256     2.5559    -0.0058
 1535.0000  -999.2500  -999.2500  -999.2500   153.2774     9.6976     0.1599     2.5787    -0.0155
 1535.5000  -999.2500  -999.2500  -999.2500   148.1333     9.6976     0.1611     2.6046    -0.0251
 1536.0000  -999.2500  -999.2500  -999.2500   145.9944     9.6976     0.1422     2.5956    -0.0174
 1536.5000  -999.2500  -999.2500  -999.2500   143.9473     9.6976     0.1233     2.5780    -0.0097
 1537.0000  -999.2500  -999.2500  -999.2500   142.3210     9.6976     0.1156     2.5680    -0.0067
 1537.5000  -999.2500  -999.2500  -999.2500   143.7273     9.6976     0.1122     2.5724    -0.0103
 1538.0000  -999.2500  -999.2500  -999.2500   145.2909     9.6977     0.1045     2.5762    -0.0109
 1538.5000  -999.2500  -999.2500  -999.2500   145.4268     9.6964     0.0948     2.5728    -0.0099
 1539.0000  -999.2500  -999.2500  -999.2500   142.2197     9.6925     0.0987     2.5744    -0.0107
 1539.5000  -999.2500  -999.2500  -999.2500   140.2844     9.6886     0.1064     2.5749    -0.0125
 1540.0000  -999.2500  -999.2500  -999.2500   142.6441     9.6847     0.1144     2.5912    -0.0180
 1540.5000  -999.2500  -999.2500  -999.2500   146.0748     9.6808     0.1179     2.5871    -0.0107
 1541.0000  -999.2500  -999.2500  -999.2500   149.5453     9.6770     0.1144     2.5672    -0.0034
 1541.5000  -999.2500  -999.2500  -999.2500   152.8999     9.6731     0.1205     2.5640    -0.0097
 1542.0000  -999.2500  -999.2500  -999.2500   154.8205     9.6692     0.1203     2.5789    -0.0139
 1542.5000  -999.2500  -999.2500  -999.2500   153.3945     9.6653     0.1072     2.5706    -0.0075
 1543.0000  -999.2500  -999.2500  -999.2500   152.6465     9.6614     0.1226     2.5760    -0.0196
 1543.5000  -999.2500  -999.2500  -999.2500   152.5183     9.6575     0.1271     2.5951    -0.0158
 1544.0000  -999.2500  -999.2500  -999.2500   151.9968     9.6536     0.1161     2.5826    -0.0076
 1544.5000  -999.2500  -999.2500  -999.2500   149.5607     9.6497     0.1055     2.5638    -0.0093
 1545.0000  -999.2500  -999.2500  -999.2500   147.4473     9.6458     0.1058     2.5743    -0.0124
 1545.5000  -999.2500  -999.2500  -999.2500   145.0688     9.6419     0.1136     2.5832    -0.0156
 1546.0000  -999.2500  -999.2500  -999.2500   143.9134     9.6381     0.1086     2.5885    -0.0151
 1546.5000  -999.2500  -999.2500  -999.2500   146.1746     9.6342     0.1066     2.5837    -0.0143
 1547.0000  -999.2500  -999.2500  -999.2500   152.0401     9.6303     0.1089     2.5810    -0.0139
 1547.5000  -999.2500  -999.2500  -999.2500   157.6069     9.6264     0.1109     2.5888    -0.0139
 1548.0000  -999.2500  -999.2500  -999.2500   162.1161     9.6225     0.1128     2.5833    -0.0139
 1548.5000  -999.2500  -999.2500  -999.2500   159.9925     9.6186     0.1204     2.5887    -0.0154
 1549.0000  -999.2500  -999.2500  -999.2500   153.1627     9.6147     0.1411     2.6050    -0.0172
 1549.5000  -999.2500  -999.2500  -999.2500   150.9443     9.6108     0.1402     2.6133    -0.0191
 1550.0000  -999.2500  -999.2500  -999.2500   156.2434     9.6069     0.1355     2.6040    -0.0209
 1550.5000  -999.2500  -999.2500  -999.2500   155.0130     9.6031     0.1345     2.5971    -0.0220
 1551.0000  -999.2500  -999.2500  -999.2500   153.6968     9.5992     0.1492     2.6054    -0.0228
 1551.5000  -999.2500  -999.2500  -999.2500   157.5616     9.5953     0.1443     2.6009    -0.0217
 1552.0000  -999.2500  -999.2500  -999.2500   155.7303     9.5914     0.1374     2.5934    -0.0191
 1552.5000  -999.2500  -999.2500  -999.2500   151.6577     9.5875     0.1285     2.5871    -0.0164
 1553.0000  -999.2500  -999.2500  -999.2500   152.1997     9.5836     0.1315     2.5899    -0.0164
 1553.5000  -999.2500  -999.2500  -999.2500   154.1484     9.5797     0.1426     2.5944    -0.0204
 1554.0000  -999.2500  -999.2500  -999.2500   156.7624     9.5768     0.1509     2.6006    -0.0188
 1554.5000  -999.2500  -999.2500  -999.2500   155.3443     9.5783     0.1543     2.5880    -0.0172
 1555.0000  -999.2500  -999.2500  -999.2500   152.5003     9.5795     0.1577     2.5912    -0.0180
 1555.5000  -999.2500  -999.2500  -999.2500   150.9446     9.5809     0.1480     2.5852    -0.0141
 1556.0000  -999.2500  -999.2500  -999.2500   151.4179     9.5822     0.1317     2.5680    -0.0083
 1556.5000  -999.2500  -999.2500  -999.2500   151.5776     9.5835     0.1357     2.5690    -0.0083
 1557.0000  -999.2500  -999.2500  -999.2500   151.8539     9.5848     0.1429     2.5757    -0.0098
 1557.5000  -999.2500  -999.2500  -999.2500   150.7972     9.5862     0.1405     2.5698    -0.0095
 1558.0000  -999.2500  -999.2500  -999.2500   149.7719     9.5875     0.1272     2.5637    -0.0072
 1558.5000  -999.2500  -999.2500  -999.2500   144.9596     9.5888     0.1365     2.5740    -0.0093
 1559.0000  -999.2500  -999.2500  -999.2500   138.5588     9.5901     0.1453     2.5807    -0.0137
 1559.5000  -999.2500  -999.2500  -999.2500   139.8737     9.5915     0.1444     2.5878    -0.0180
 1560.0000  -999.2500  -999.2500  -999.2500   145.4483     9.5928     0.1353     2.5817    -0.0137
 1560.5000  -999.2500  -999.2500  -999.2500   150.5390     9.5941     0.1205     2.5664    -0.0061
 1561.0000  -999.2500  -999.2500  -999.2500   149.7082     9.5955     0.1075     2.5523     0.0029
 1561.5000  -999.2500  -999.2500  -999.2500   149.2841     9.5968     0.0945     2.5427     0.0037
