~VERSION INFORMATION
 VERS.                2.0:   CWLS LOG ASCII STANDARD - VERSION 2.0
 WRAP.                 NO:   ONE LINE PER DEPTH STEP
~WELL INFORMATION
#MNEM.UNIT      DATA TYPE    INFORMATION
#----------   ------------   ------------------------------
 STRT.F           17.0000:   START DEPTH
 STOP.F          634.0000:   STOP DEPTH
 STEP.F            0.5000:   STEP LENGTH
 NULL.          -999.2500:   NO VALUE
 COMP. FENIX & SCISSON INC:   COMPANY
 WELL.        NPR 3 #72-3:   WELL
 FLD .             TEAPOT:   FIELD
 LOC .       S3 T38N R78W:   LOCATION
 CNTY.            NATRONA:   COUNTY
 STAT.            WYOMING:   STATE
 CTRY. UNITED STATES OF AMERICA:   COUNTRY
 SRVC.           BIRDWELL:   SERVICE COMPANY
 DATE.        24-SEP-1978:   LOGDATE
 API .       490251069100:   API NUMBER
~CURVE INFORMATION
#MNEM.UNIT       API CODE    CURVE DESCRIPTION
#----------   ------------   ------------------------------
 DEPT.F                  :   
 SPR .MV     05 010 01 00:   SPONTANEOUS POTENTIAL FROM RES.
 SN  .OHMM   05 040 16 00:   SHORT NORMAL 16"
 ILD .OHMM   05 120 46 00:   INDUCTION LOG DEEP
 GRD .GAPI   45 310 01 00:   GAMMA RAY FROM DENSITY LOG
 CALD.IN     45 280 60 00:   CALIPER
 DEN .G/C3   45 350 01 00:   COMPENSATED BULK DENSTIY
 DPHI.DEC    45 890 12 00:   DENSITY POROSITY SANDSTONE
 CORR.G/C3   45 356 01 00:   DENSITY CORRECTION
~PARAMETER INFORMATION
#MNEM.UNIT          VALUE    DESCRIPTION
#----------   ------------   ------------------------------
 PD  .                 GL:   PERMANENT DATUM
 EPD .F              5155:   ELEVATION PERMANENT DATUM
 LMF .                 KB:   LOG MEASURED FROM
 DAPD.F                 4:   FEET ABOVE PERMANENT DATUM
 DMF .                 KB:   DRILLING MEASURED FROM
 EKB .F              5159:   KELLING BUSHING
 EGL .F              5155:   GROUND LEVEL
 DATE.            9-24-78:   RUN DATE
 RUN .                  1:   RUN NUMBER
 DD  .F               635:   DEPTH DRILLER
 DL  .F               634:   DEPTH LOGGER
 BLI .F               627:   BOTTOM LOG INTERVAL
 TLI .F                30:   TOP LOG INTERVAL
 CS  .IN            8.625:   CASING SIZE
 CBD .F                34:   CASING BOTTOM DRILLER
 CBL .F                34:   CASING BOTTOM LOGGER
 BS  .IN            7.875:   BIT SIZE
 BSD .F               635:   BIT SIZE AT DEPTH
 DFT .                KCL:   DRILLING FLUID TYPE
 DFD .                8.7:   DRILLING FLUID DENSITY
 DFV .                 36:   DRILLING FLUID VISCOSITY
 DFPH.                9.5:   DRILLING FLUID PH
 DFL .                8.2:   DRILLING FLUID LOSS
 MSS .          FLOW LINE:   MUD SAMPLE SOURCE
 RMS .OHMM             .2:   RESISTIVITY MUD SAMPLE
 MST .F                68:   MUD SAMPLE TEMPERATURE
 RMF .OHMM            .18:   RESISTIVITY MUD FILTRATE SAMPLE
 MFST.F                76:   MUD FILTRATE SAMPLE TEMPERATURE
 RMC .OHMM            .32:   RESISTIVITY MUD CAKE
 MCST.F                76:   MUD CAKE SAMPLE TEMPERATURE
 MFSS.               MEAS:   MUD FILTRATE SAMPLE SOURCE
 RMB .OHMM             .2:   RESISTIVITY MUD AT BHT
 BHT .F                70:   BOTTOM HOLE TEMPERATURE
 TCS .HRS               3:   TIME CURCULATED STOPPED
 MRT .F                70:   MAXIMUM RECORDED TEMPERATURE
 LUN .               2958:   LOGGING UNIT NUMBER
 LUL .               CASP:   LOGGING UNIT LOCATION
 ENGI.           REYNOLDS:   RECORDING ENGINEER
 WITN.              AMEND:   WITNESSED BY
 CLNT.            A2DTECH:   CLIENT CODE
 ORIG.           5" PRINT:   ORIGIN OF DATA
 UWI .       490251069100:   UNIQUE WELL ID
 DICO. A2D Technologies, Inc.:   DIGITIZING COMPANY
~OTHER INFORMATION
~A   DEPT      SPR         SN        ILD         GRD      CALD        DEN       DPHI       CORR   
# ...
  584.0000   -54.4697     8.2015     9.3963   114.8016     7.7930     2.5349     0.0880     0.0389
  584.5000   -54.2932     8.3569     9.4254   114.4682     7.7790     2.5345     0.0889     0.0389
  585.0000   -54.2514     8.4846     9.5283   114.2994     7.7788     2.5338     0.0899     0.0405
  585.5000   -54.2120     8.6066     9.7219   115.0219     7.7789     2.5292     0.0917     0.0420
  586.0000   -54.1725     8.7304     9.9195   116.4736     7.7807     2.5245     0.0938     0.0436
  586.5000   -54.1329     8.8483    10.1210   117.5500     7.7842     2.5222     0.0948     0.0451
  587.0000   -54.0932     8.9641    10.3267   118.4845     7.7878     2.5232     0.0952     0.0468
  587.5000   -54.0535     9.0814    10.5365   119.4233     7.7913     2.5240     0.0956     0.0515
  588.0000   -54.0138     9.1999    10.6679   117.3781     7.7949     2.5286     0.0937     0.0564
  588.5000   -53.9742     9.3559    10.7193   114.3073     7.7986     2.5337     0.0910     0.0688
  589.0000   -53.9343     9.3539    10.7709   114.4838     7.7907     2.5344     0.0891     0.0944
  589.5000   -53.9160     9.4104    10.8228   118.3442     7.7791     2.5352     0.0888     0.1085
  590.0000   -53.9155     9.4528    10.8748   117.2400     7.7675     2.5514     0.0861     0.1065
  590.5000   -53.9154     9.4953    10.9403   115.1370     7.7559     2.5744     0.0812     0.0907
  591.0000   -53.9166     9.5381    10.9086   114.6506     7.7444     2.5703     0.0760     0.0725
  591.5000   -53.9869     9.5810    10.8665   117.9800     7.7328     2.5605     0.0791     0.0297
  592.0000   -54.1914     9.6320    10.8245   115.2350     7.7212     2.5534     0.0824     0.0110
  592.5000   -54.3921     9.7219    10.7828   113.4443     7.7096     2.5398     0.0961     0.0159
  593.0000   -54.5197     9.8125    10.7406   114.8683     7.6992     2.5151     0.1047     0.0215
  593.5000   -54.5178     9.8931    10.8231   116.2990     7.6986     2.5003     0.1068     0.0271
  594.0000   -54.5181     9.9285    10.9071   117.1657     7.7262     2.5136     0.1011     0.0304
  594.5000   -54.5173     9.9640    10.9918   116.0823     7.7644     2.5122     0.1006     0.0294
  595.0000   -54.5184     9.9887    11.1437   110.2371     7.7975     2.5092     0.1039     0.0284
  595.5000   -54.5794    10.0065    11.1291   109.5536     7.7868     2.5061     0.1052     0.0274
  596.0000   -54.8894    10.0244    11.1171   105.5232     7.7756     2.5050     0.1043     0.0266
  596.5000   -55.1124    10.0423    11.1051   103.0893     7.7645     2.5058     0.1036     0.0277
  597.0000   -55.0416    10.0602    11.0931   103.1428     7.7534     2.5069     0.1038     0.0288
  597.5000   -54.9749    10.0700    11.0811   106.3509     7.7420     2.5082     0.1039     0.0299
  598.0000   -54.9461     9.9012    11.0692   110.6532     7.7491     2.5105     0.1031     0.0303
  598.5000   -55.4577     9.7956    11.0572   113.7477     7.7632     2.5171     0.0996     0.0299
  599.0000   -55.4639     9.7762    11.0452   112.7354     7.7774     2.5235     0.0961     0.0294
  599.5000   -55.3944     9.7581    11.0445   109.3121     7.7779     2.5284     0.0925     0.0289
  600.0000   -55.3130     9.7402    10.8663   106.1595     7.7758     2.5290     0.0904     0.0287
  600.5000   -55.8331     9.7228    10.7082   106.0962     7.7738     2.5280     0.0968     0.0320
  601.0000   -56.1080     9.7050    10.5523   107.2460     7.7717     2.5196     0.1040     0.0352
  601.5000   -56.0790     9.5865    10.3988   111.2236     7.7697     2.5028     0.1092     0.0384
  602.0000   -56.0493     9.4778    10.2572   112.7597     7.7677     2.5008     0.1088     0.0403
  602.5000   -56.0186     9.4020    10.1221   110.2942     7.7656     2.5139     0.1036     0.0394
  603.0000   -55.9882     9.3430     9.9969   107.9426     7.7636     2.5271     0.0953     0.0385
  603.5000   -55.9571     9.2844     9.8955   108.0539     7.7615     2.5404     0.0871     0.0376
  604.0000   -55.9225     9.2261     9.7992   110.6416     7.7593     2.5447     0.0864     0.0367
  604.5000   -56.0971     9.1682     9.7038   113.5902     7.7650     2.5343     0.0880     0.0371
  605.0000   -56.2972     9.1107     9.6094   117.3631     7.7731     2.5338     0.0896     0.0379
  605.5000   -56.4985     8.9933     9.5158   121.4955     7.7812     2.5300     0.0925     0.0387
  606.0000   -56.6998     8.8637     9.4153   123.2753     7.7893     2.5250     0.0955     0.0395
  606.5000   -56.6957     8.7359     9.2840   122.4500     7.7975     2.5242     0.0944     0.0402
  607.0000   -56.6486     8.6099     9.1545   120.9453     7.8056     2.5277     0.0923     0.0410
  607.5000   -56.6006     8.5092     9.0269   120.2994     7.8136     2.5310     0.0903     0.0418
  608.0000   -56.5528     8.4475     8.9010   121.8386     7.8165     2.5342     0.0892     0.0425
  608.5000   -56.5052     8.3869     8.7706   123.5203     7.8101     2.5356     0.0892     0.0419
  609.0000   -56.4575     8.3271     8.6949   123.3571     7.8039     2.5347     0.0892     0.0413
  609.5000   -56.4095     8.2821     8.6159   123.1294     7.7962     2.5342     0.0892     0.0408
  610.0000   -56.3624     8.2507     8.5316   122.9074     7.7822     2.5381     0.0872     0.0362
  610.5000   -56.3490     8.2194     8.4934   123.0830     7.7683     2.5417     0.0836     0.0306
  611.0000   -56.4779     8.1882     8.4523   124.1061     7.7544     2.5422     0.0840     0.0294
  611.5000   -56.6032     8.1571     8.4114   124.7356     7.7405     2.5359     0.0887     0.0285
  612.0000   -56.7283     8.1261     8.3706   123.5373     7.7266     2.5291     0.0919     0.0285
  612.5000   -56.8535     8.0953     8.3301   122.1244     7.7126     2.5228     0.0951     0.0285
  613.0000   -56.9784     8.0645     8.2897   121.3303     7.6996     2.5244     0.0960     0.0285
  613.5000   -57.1083     8.0339     8.2495   121.5485     7.7027     2.5271     0.0960     0.0285
  614.0000   -56.9270     8.0001     8.2096   121.9788     7.7062     2.5298     0.0915     0.0285
  614.5000   -56.5956     8.0718     8.1698   123.3366     7.7097     2.5303     0.0891     0.0289
  615.0000   -56.2597     7.9695     8.1350   124.6639     7.7131     2.5257     0.0952     0.0301
  615.5000   -55.9365     7.8497     8.1065   125.9801     7.7166     2.5212     0.0952     0.0312
  616.0000   -55.9890     7.7312     8.0781   126.9456     7.7237     2.5230     0.0952     0.0324
  616.5000   -56.0601     7.6281     8.0324   124.8622     7.7443     2.5316     0.0918     0.0335
  617.0000   -56.1297     7.5771     7.9830   123.5452     7.7644     2.5350     0.0876     0.0347
  617.5000   -56.1990     7.5264     7.9339   125.0937     7.7843     2.5351     0.0876     0.0358
  618.0000   -56.2678     7.4760     7.8851   126.2662     7.7959     2.5348     0.0876     0.0370
  618.5000   -56.3167     7.4260     7.8366   127.1872     7.7818     2.5280     0.0912     0.0382
  619.0000   -56.2481     7.3763     7.7886   128.7551     7.7684     2.5228     0.0932     0.0345
  619.5000   -56.1811     7.3270     7.7402   129.6169     7.7588     2.5277     0.0919     0.0283
  620.0000   -56.1143     7.2395     7.6891   120.5985     7.7589     2.5329     0.0899     0.0220
  620.5000   -56.0476     7.0832     7.5460   124.6037     7.7590     2.5294     0.0912     0.0185
  621.0000   -55.9810     6.9303     7.4064   127.3275     7.7589     2.5213     0.0957     0.0184
  621.5000   -55.9143     6.7806     7.2694   130.2311     7.7750     2.5131     0.1015     0.0238
  622.0000   -55.8476     6.6342     7.1349   131.0709     7.8063     2.5038     0.1088     0.0315
  622.5000   -55.7809     6.5922     7.0733   131.1660     7.8372     2.4932     0.1112     0.0385
  623.0000   -55.7142     6.5922     7.0411   135.2843     7.8541     2.4824     0.1181     0.0379
  623.5000   -55.6474     6.6191     7.0310   134.8895     7.8380     2.4715     0.1268     0.0370
  624.0000   -55.5808     6.6494     7.0302   140.3800     7.8223     2.4726     0.1272     0.0372
