~VERSION INFORMATION
 VERS.                2.0:   CWLS LOG ASCII STANDARD - VERSION 2.0
 WRAP.                 NO:   ONE LINE PER DEPTH STEP
~WELL INFORMATION
#MNEM.UNIT      DATA TYPE    INFORMATION
#----------   ------------   ------------------------------
 STRT.F          598.0000:   START DEPTH
 STOP.F         2552.0000:   STOP DEPTH
 STEP.F            0.5000:   STEP LENGTH
 NULL.          -999.2500:   NO VALUE
 COMP. FENIX & SCISSON INC:   COMPANY
 WELL.     15-SHX-2 #15-2:   WELL
 FLD .             TEAPOT:   FIELD
 LOC .       S2 T38N R78W:   LOCATION
 CNTY.            NATRONA:   COUNTY
 STAT.            WYOMING:   STATE
 CTRY. UNITED STATES OF AMERICA:   COUNTRY
 SRVC.              Welex:   SERVICE COMPANY
 DATE.        03-JUN-1979:   LOGDATE
 API .       490251002100:   API NUMBER
~CURVE INFORMATION
#MNEM.UNIT       API CODE    CURVE DESCRIPTION
#----------   ------------   ------------------------------
 DEPT.F                  :   
 CALD.IN     45 280 60 00:   CALIPER
 GRD .GAPI   45 310 01 00:   GAMMA RAY FROM DENSITY LOG
 RHOB.G/C3   45 350 01 00:   BULK DENSITY
 DPHI.DEC    45 890 12 00:   DENSITY POROSITY SANDSTONE
 CORR.G/C3   45 356 01 00:   DENSITY CORRECTION
~PARAMETER INFORMATION
#MNEM.UNIT          VALUE    DESCRIPTION
#----------   ------------   ------------------------------
 PD  .                 GL:   PERMANENT DATUM
 EPD .F              5118:   ELEVATION PERMANENT DATUM
 LMF .                 KB:   LOG MEASURED FROM
 DAPD.F                10:   FEET ABOVE PERMANENT DATUM
 DMF .                 KB:   DRILLING MEASURED FROM
 EKB .F              5128:   KELLING BUSHING
 EGL .F              5118:   GROUND LEVEL
 DATE.             6-3-79:   RUN DATE
 RUN .                  1:   RUN NUMBER
 DD  .F              2569:   DEPTH DRILLER
 DL  .F              2554:   DEPTH LOGGER
 BLI .F              2552:   BOTTOM LOG INTERVAL
 TLI .F               622:   TOP LOG INTERVAL
 CS  .IN            9.625:   CASING SIZE
 CBD .F               622:   CASING BOTTOM DRILLER
 BS  .IN             8.75:   BIT SIZE
 BSD .F              2569:   BIT SIZE AT DEPTH
 DFT .        AIR DRILLED:   DRILLING FLUID TYPE
 TCS .HRS             2.5:   TIME CURCULATED STOPPED
 MRT .F               124:   MAXIMUM RECORDED TEMPERATURE
 ENGI.               REIN:   RECORDING ENGINEER
 WITN.              AMEND:   WITNESSED BY
 CLNT.            A2DTECH:   CLIENT CODE
 ORIG.           5" PRINT:   ORIGIN OF DATA
 UWI .       490251002100:   UNIQUE WELL ID
 DICO. A2D Technologies, Inc.:   DIGITIZING COMPANY
~OTHER INFORMATION
~A   DEPT     CALD         GRD      RHOB       DPHI       CORR   
# ...
 2367.0000     8.7851   110.2610     2.4684     0.0549     0.0070
 2367.5000     8.7858   111.9702     2.4762     0.0521     0.0070
 2368.0000     8.7866   112.3549     2.4850     0.0479     0.0070
 2368.5000     8.7873   110.7666     2.4938     0.0410     0.0071
 2369.0000     8.7880   108.4294     2.5022     0.0341     0.0088
 2369.5000     8.7888   106.0762     2.5093     0.0272     0.0091
 2370.0000     8.7895   103.7268     2.5165     0.0247     0.0076
 2370.5000     8.7902   101.3788     2.5201     0.0240     0.0069
 2371.0000     8.7910    99.1319     2.5147     0.0231     0.0062
 2371.5000     8.7917    97.2513     2.5035     0.0294     0.0054
 2372.0000     8.7924    95.1076     2.4922     0.0363     0.0046
 2372.5000     8.7932    91.9943     2.4890     0.0412     0.0038
 2373.0000     8.7939    88.9257     2.4918     0.0396     0.0031
 2373.5000     8.7946    89.0361     2.4951     0.0375     0.0030
 2374.0000     8.7954    89.4087     2.4951     0.0355     0.0024
 2374.5000     8.7961    88.7142     2.4933     0.0366     0.0017
 2375.0000     8.7968    87.9979     2.4915     0.0391     0.0012
 2375.5000     8.7976    87.2824     2.4942     0.0389    -0.0010
 2376.0000     8.7983    86.5615     2.5019     0.0367    -0.0010
 2376.5000     8.7963    87.3956     2.5096     0.0284     0.0008
 2377.0000     8.7874    88.6589     2.5185     0.0217     0.0044
 2377.5000     8.7786    89.6223     2.5303     0.0149     0.0075
 2378.0000     8.7698    88.0990     2.5417     0.0067     0.0090
 2378.5000     8.7610    86.5393     2.5375     0.0108     0.0106
 2379.0000     8.7522    84.9868     2.5196     0.0191     0.0110
 2379.5000     8.7434    83.4362     2.5188     0.0212     0.0124
 2380.0000     8.7394    81.8488     2.5205     0.0203     0.0144
 2380.5000     8.7400    82.4101     2.5220     0.0194     0.0164
 2381.0000     8.7406    83.7911     2.5241     0.0188     0.0180
 2381.5000     8.7412    85.2064     2.5203     0.0197     0.0190
 2382.0000     8.7418    85.0813     2.5128     0.0239     0.0176
 2382.5000     8.7424    84.0424     2.5038     0.0303     0.0146
 2383.0000     8.7431    83.8096     2.4933     0.0375     0.0117
 2383.5000     8.7437    84.3421     2.4822     0.0453     0.0088
 2384.0000     8.7443    82.2358     2.4728     0.0532     0.0058
 2384.5000     8.7449    79.9374     2.4734     0.0521     0.0049
 2385.0000     8.7455    78.0308     2.4784     0.0494     0.0075
 2385.5000     8.7462    78.0717     2.4852     0.0483     0.0092
 2386.0000     8.7468    80.3925     2.4920     0.0466     0.0108
 2386.5000     8.7474    83.4127     2.4979     0.0372     0.0125
 2387.0000     8.7480    88.0295     2.4930     0.0370     0.0142
 2387.5000     8.7486    88.8913     2.4875     0.0408     0.0150
 2388.0000     8.7493    90.1807     2.4890     0.0407     0.0130
 2388.5000     8.7499    92.7401     2.4920     0.0393     0.0101
 2389.0000     8.7505    95.3305     2.4949     0.0379     0.0072
 2389.5000     8.7511    96.0572     2.4906     0.0383     0.0043
 2390.0000     8.7517    96.0522     2.4790     0.0479     0.0013
 2390.5000     8.7523    97.0090     2.4672     0.0586    -0.0016
 2391.0000     8.7530    98.3524     2.4653     0.0552    -0.0020
 2391.5000     8.7536    97.9943     2.4773     0.0488     0.0069
 2392.0000     8.7542   103.0840     2.4863     0.0435     0.0147
 2392.5000     8.7548   108.9220     2.4700     0.0476     0.0128
 2393.0000     8.7554   114.7725     2.4556     0.0516     0.0106
 2393.5000     8.7561   120.5628     2.4451     0.0522     0.0074
 2394.0000     8.7567   121.5323     2.4469     0.0520     0.0070
 2394.5000     8.7573   122.2161     2.4573     0.0520     0.0077
 2395.0000     8.7579   123.0381     2.4677     0.0520     0.0104
 2395.5000     8.7585   118.6711     2.4776     0.0511     0.0130
 2396.0000     8.7590   117.6046     2.4843     0.0466     0.0156
 2396.5000     8.7590   126.9874     2.4910     0.0420     0.0182
 2397.0000     8.7590   133.6172     2.4971     0.0377     0.0207
 2397.5000     8.7590   137.5929     2.4979     0.0371     0.0213
 2398.0000     8.7590   141.9705     2.4945     0.0380     0.0223
 2398.5000     8.7590   147.2646     2.4895     0.0409     0.0230
 2399.0000     8.7590   161.8320     2.4845     0.0437     0.0230
 2399.5000     8.7590   160.9329     2.4810     0.0452     0.0230
 2400.0000     8.7590   154.5241     2.4843     0.0413     0.0230
 2400.5000     8.7590   135.4928     2.4962     0.0358     0.0230
 2401.0000     8.7573   130.8720     2.5078     0.0303     0.0230
 2401.5000     8.7550   125.4100     2.5146     0.0243     0.0230
 2402.0000     8.7527   119.5943     2.5076     0.0251     0.0217
 2402.5000     8.7504   113.6140     2.4959     0.0353     0.0173
 2403.0000     8.7481   111.2842     2.4839     0.0435     0.0130
 2403.5000     8.7458   112.1717     2.4819     0.0428     0.0087
 2404.0000     8.7435   113.9408     2.4870     0.0414     0.0044
 2404.5000     8.7412   112.6330     2.4818     0.0437     0.0001
 2405.0000     8.7389   110.4281     2.4868     0.0430    -0.0041
 2405.5000     8.7366   108.9814     2.4957     0.0364    -0.0071
 2406.0000     8.7343   108.6736     2.5046     0.0366    -0.0055
 2406.5000     8.7319   107.0174     2.5047     0.0367    -0.0035
 2407.0000     8.7296   105.3711     2.5103     0.0290    -0.0015
 2407.5000     8.7273   103.8751     2.5185     0.0230     0.0005
 2408.0000     8.7250   104.3842     2.5267     0.0183     0.0025
 2408.5000     8.7227   106.3614     2.5277     0.0168     0.0045
 2409.0000     8.7204   108.0708     2.5286     0.0151     0.0065
 2409.5000     8.7181   106.9113     2.5290     0.0147     0.0086
 2410.0000     8.7158   107.9497     2.5351     0.0121     0.0105
 2410.5000     8.7135   108.9345     2.5455     0.0062     0.0157
 2411.0000     8.7112   109.1190     2.5554     0.0003     0.0225
 2411.5000     8.7089   109.4801     2.5617    -0.0055     0.0295
 2412.0000     8.7066   108.3218     2.5682    -0.0114     0.0365
 2412.5000     8.7043   106.8188     2.5747    -0.0161     0.0321
 2413.0000     8.7021   105.2624     2.5809    -0.0157     0.0270
 2413.5000     8.6984   106.3369     2.5750    -0.0133     0.0220
 2414.0000     8.7282   107.9439     2.5533     0.0012     0.0169
 2414.5000     8.7463   108.7759     2.5319     0.0166     0.0119
 2415.0000     8.7657   109.0655     2.5113     0.0269     0.0069
 2415.5000     8.7851   110.1011     2.5045     0.0302     0.0029
 2416.0000     8.8045   109.3446     2.5012     0.0300     0.0035
 2416.5000     8.8238   108.9100     2.5085     0.0335     0.0047
 2417.0000     8.8386   110.4760     2.5159     0.0249     0.0059
 2417.5000     8.8361   111.8233     2.5233     0.0207     0.0070
 2418.0000     8.8340   110.9598     2.5155     0.0256     0.0072
 2418.5000     8.8319   112.6331     2.5025     0.0337     0.0078
 2419.0000     8.8298   114.5596     2.4893     0.0419     0.0084
 2419.5000     8.8277   116.4994     2.4773     0.0496     0.0089
 2420.0000     8.8257   116.6420     2.4822     0.0496     0.0093
 2420.5000     8.8236   115.0733     2.4939     0.0399     0.0098
 2421.0000     8.8215   115.2533     2.5055     0.0307     0.0103
 2421.5000     8.8194   114.6881     2.5171     0.0215     0.0108
 2422.0000     8.8173   112.3229     2.5285     0.0159     0.0110
 2422.5000     8.8152   109.9906     2.5288     0.0143     0.0110
 2423.0000     8.8132   108.6588     2.5235     0.0189     0.0110
 2423.5000     8.8111   111.8479     2.5147     0.0241     0.0110
 2424.0000     8.8090   114.8553     2.5030     0.0293     0.0110
 2424.5000     8.8069   117.0250     2.5080     0.0312     0.0110
 2425.0000     8.8048   116.9830     2.5152     0.0279     0.0135
 2425.5000     8.8027   118.1516     2.5227     0.0220     0.0182
 2426.0000     8.8007   120.5754     2.5273     0.0154     0.0257
 2426.5000     8.7986   121.4343     2.5288     0.0142     0.0269
 2427.0000     8.7965   119.9107     2.5293     0.0165     0.0270
 2427.5000     8.7944   118.1914     2.5278     0.0163     0.0270
