~VERSION INFORMATION
 VERS.                2.0:   CWLS LOG ASCII STANDARD - VERSION 2.0
 WRAP.                 NO:   ONE LINE PER DEPTH STEP
~WELL INFORMATION
#MNEM.UNIT      DATA TYPE    INFORMATION
#----------   ------------   ------------------------------
 STRT.F           46.0000:   START DEPTH
 STOP.F          522.0000:   STOP DEPTH
 STEP.F            0.5000:   STEP LENGTH
 NULL.          -999.2500:   NO VALUE
 COMP.       F D SERV INC:   COMPANY
 WELL.  82-4 SX 10 #82-10:   WELL
 FLD .             TEAPOT:   FIELD
 LOC .      S10 T38N R78W:   LOCATION
 CNTY.            NATRONA:   COUNTY
 STAT.            WYOMING:   STATE
 CTRY. UNITED STATES OF AMERICA:   COUNTRY
 SRVC.     Atlas Wireline:   SERVICE COMPANY
 DATE.        04-FEB-1993:   LOGDATE
 API .       490252257900:   API NUMBER
~CURVE INFORMATION
#MNEM.UNIT       API CODE    CURVE DESCRIPTION
#----------   ------------   ------------------------------
 DEPT.F                  :   
 C13 .IN     45 280 13 00:   CALIPER FROM DENSITY LOG
 GRD .GAPI   45 310 01 00:   GAMMA RAY FROM DENSITY LOG
 PORS.DEC    42 890 03 00:   NEUTRON POROSITY SANDSTONE
 PORZ.DEC    45 890 12 00:   DENSITY POROSITY SANDSTONE
 ZCOR.G/C3   45 356 01 00:   DENSITY CORRECTION
 ZDEN.G/C3   45 350 01 00:   BULK DENSITY
 RILD.OHMM   07 120 46 00:   INDUCTION LOG DEEP RESISTIVITY
 RILM.OHMM   07 120 44 00:   INDUCTION LOG MEDIUM RESISTIVITY
~PARAMETER INFORMATION
#MNEM.UNIT          VALUE    DESCRIPTION
#----------   ------------   ------------------------------
 PD  .                 GL:   PERMANENT DATUM
 EPD .F              5145:   ELEVATION PERMANENT DATUM
 LMF .                 KB:   LOG MEASURED FROM
 DAPD.F                10:   FEET ABOVE PERMANENT DATUM
 DMF .                 KB:   DRILLING MEASURED FROM
 EKB .F              5155:   KELLING BUSHING
 EDF .F              5154:   DRILLING FLOOR
 EGL .F              5145:   GROUND LEVEL
 DATE.        04-FEB-1993:   RUN DATE
 RUN .                  1:   RUN NUMBER
 DD  .F               525:   DEPTH DRILLER
 DL  .F               525:   DEPTH LOGGER
 BLI .F               517:   BOTTOM LOG INTERVAL
 TLI .F                81:   TOP LOG INTERVAL
 CS  .IN            8.625:   CASING SIZE
 CBD .F                45:   CASING BOTTOM DRILLER
 CBL .F                81:   CASING BOTTOM LOGGER
 BS  .IN            7.875:   BIT SIZE
 BSD .F               525:   BIT SIZE AT DEPTH
 DFT .                AIR:   DRILLING FLUID TYPE
 MRT .F                58:   MAXIMUM RECORDED TEMPERATURE
 LUN .            HL 6274:   LOGGING UNIT NUMBER
 LUL .             CASPER:   LOGGING UNIT LOCATION
 ENGI.          V. RAUTIO:   RECORDING ENGINEER
 WITN.          G. STRONG:   WITNESSED BY
 CLNT.            A2DTECH:   CLIENT CODE
 ORIG.           5" PRINT:   ORIGIN OF DATA
 UWI .       490252257900:   UNIQUE WELL ID
 DICO. A2D Technologies, Inc.:   DIGITIZING COMPANY
~OTHER INFORMATION
~A   DEPT      C13         GRD      PORS       PORZ       ZCOR       ZDEN       RILD       RILM   
# ...
  370.0000     8.3609   116.5864     0.2306     0.2414     0.0382     2.2654    30.5784    28.6145
  370.5000     8.3609   113.6250     0.2279     0.2038     0.0442     2.3043    31.8763    29.4217
  371.0000     8.3910   114.5371     0.2307     0.1863     0.0172     2.3490    32.3223    29.4256
  371.5000     8.4060   123.8830     0.2383     0.1833    -0.0007     2.3422    33.0019    29.4294
  372.0000     8.4211   128.7349     0.2649     0.1920    -0.0022     2.3309    33.2331    29.4332
  372.5000     8.4361   130.2274     0.2686     0.2034     0.0037     2.3166    33.2357    29.4380
  373.0000     8.4511   130.5372     0.2677     0.2079     0.0037     2.3061    33.0083    29.4418
  373.5000     8.4511   129.3409     0.2662     0.2114     0.0082     2.2970    32.5576    29.2418
  374.0000     8.4511   126.3333     0.2644     0.2176     0.0202     2.2858    31.4014    28.6461
  374.5000     8.4511   124.2395     0.2617     0.2215     0.0187     2.2812    29.7630    28.0626
  375.0000     8.4361   123.6456     0.2602     0.2251     0.0187     2.2805    28.1631    27.8719
  375.5000     8.4361   123.6542     0.2596     0.2234     0.0187     2.2873    27.2078    26.3763
  376.0000     8.4211   125.7711     0.2613     0.2142     0.0187     2.3046    25.9240    23.6169
  376.5000     8.4211   129.9986     0.2649     0.2003     0.0097     2.3287    25.0450    22.3488
  377.0000     8.4060   133.6216     0.2680     0.1874     0.0019     2.3417    24.3634    22.1977
  377.5000     8.3910   135.7386     0.2695     0.1840     0.0067     2.3445    23.8593    22.0476
  378.0000     8.3609   135.4459     0.2686     0.1862     0.0142     2.3370    23.2152    22.1011
  378.5000     8.3459   133.6493     0.2674     0.1889     0.0142     2.3333    23.0567    22.1466
  379.0000     8.3308   133.0554     0.2656     0.1916     0.0187     2.3303    23.0586    22.1921
  379.5000     8.3308   132.7606     0.2638     0.1934     0.0172     2.3273    23.0804    22.2139
  380.0000     8.3308   134.2773     0.2632     0.1957     0.0110     2.3235    23.2220    22.3709
  380.5000     8.3459   134.8903     0.2632     0.1972     0.0082     2.3182    23.2235    22.3738
  381.0000     8.3459   134.2964     0.2650     0.1987     0.0127     2.3197    23.2250    22.3774
  381.5000     8.3459   134.3049     0.2656     0.2011     0.0158     2.3228    23.3880    22.5357
  382.0000     8.3459   134.3134     0.2647     0.2002     0.0142     2.3288    23.3895    22.3825
  382.5000     8.3459   134.6235     0.2644     0.1948     0.0067     2.3273    23.5533    22.2319
  383.0000     8.3308   134.9350     0.2644     0.1942     0.0022     2.3235    23.5549    21.7790
  383.5000     8.3158   135.5460     0.2644     0.1969     0.0007     2.3243    23.3941    21.7819
  384.0000     8.3008   136.4581     0.2656     0.1993     0.0022     2.3258    23.2344    21.7847
  384.5000     8.3008   137.4076     0.2680     0.1980     0.0037     2.3258    23.0761    21.7875
  385.0000     8.2857   138.5857     0.2704     0.1956     0.0082     2.3197    22.9186    21.7911
  385.5000     8.2857   139.1966     0.2713     0.1947     0.0112     2.3168    22.6053    21.7939
  386.0000     8.2857   139.8075     0.2716     0.1983     0.0142     2.3198    22.4510    21.4967
  386.5000     8.3008   136.7460     0.2710     0.2016     0.0127     2.3274    22.1444    20.6265
  387.0000     8.3008   134.1038     0.2707     0.2031     0.0082     2.3469    21.6916    20.0664
  387.5000     8.3008   133.8090     0.2711     0.1968     0.0082     2.3590    21.3950    19.7934
  388.0000     8.3008   137.4341     0.2708     0.1886     0.0052     2.3650    21.1022    19.7966
  388.5000     8.3008   140.8192     0.2705     0.1802     0.0052     2.3665    20.8074    19.7992
  389.0000     8.3008   144.9834     0.2696     0.1717     0.0142     2.3666    20.2479    19.8024
  389.5000     8.3158   147.1003     0.2687     0.1705     0.0217     2.3681    20.1094    19.8050
  390.0000     8.3308   148.0125     0.2669     0.1705     0.0157     2.3775    19.8347    19.5355
  390.5000     8.3308   140.7270     0.2614     0.1702     0.0127     2.3899    19.6804    19.5380
  391.0000     8.3347   136.2847     0.2548     0.1627     0.0142     2.3952    19.4301    19.2722
  391.5000     8.3459   141.1125     0.2533     0.1563     0.0202     2.3967    19.1645    18.7495
  392.0000     8.3459   145.6390     0.2542     0.1527     0.0247     2.3960    19.1660    18.2404
  392.5000     8.3459   144.7389     0.2597     0.1539     0.0232     2.3952    18.7740    17.9922
  393.0000     8.3459   144.1500     0.2672     0.1536     0.0202     2.3952    18.3895    17.6257
  393.5000     8.3459   148.0764     0.2717     0.1536     0.0157     2.3945    18.1381    17.5060
  394.0000     8.3459   152.6030     0.2724     0.1533     0.0142     2.3787    17.8904    17.2678
  394.5000     8.3308   151.4067     0.2708     0.1584     0.0262     2.3742    17.7683    17.0334
  395.0000     8.3308   150.5116     0.2693     0.1671     0.0292     2.3810    17.6470    16.9188
  395.5000     8.3308   149.6165     0.2690     0.1674     0.0187     2.3923    17.6484    16.8044
  396.0000     8.3308   148.4223     0.2687     0.1614     0.0157     2.3998    17.6499    16.8066
  396.5000     8.3308   147.2260     0.2693     0.1508     0.0187     2.4028    17.6510    16.8088
  397.0000     8.3158   143.0198     0.2693     0.1493     0.0202     2.4036    17.6522    16.8115
  397.5000     8.3158   140.6186     0.2693     0.1490     0.0217     2.4036    17.6533    16.9303
  398.0000     8.3158   141.2296     0.2687     0.1508     0.0187     2.4020    17.6547    16.9326
  398.5000     8.3158   141.2381     0.2675     0.1559     0.0142     2.3923    17.6559    17.0523
  399.0000     8.3158   140.6463     0.2657     0.1598     0.0097     2.3833    17.4145    17.0550
  399.5000     8.3158   140.0524     0.2639     0.1634     0.0082     2.3818    17.4085    16.9397
  400.0000     8.3308   139.4585     0.2627     0.1594     0.0232     2.3901    17.1776    16.8246
  400.5000     8.3307   133.4430     0.2621     0.1539     0.0397     2.3976    17.1790    16.5963
  401.0000     8.3305   134.0560     0.2618     0.1483     0.0382     2.4006    16.9441    16.4846
  401.5000     8.3304   139.6737     0.2612     0.1471     0.0292     2.4044    16.7128    16.3726
  402.0000     8.3302   140.8787     0.2603     0.1504     0.0202     2.4044    16.4843    16.2619
  402.5000     8.3301   141.4853     0.2597     0.1534     0.0142     2.3983    16.2589    16.1524
  403.0000     8.3299   142.0906     0.2594     0.1561     0.0187     2.3938    16.1479    15.9332
  403.5000     8.3147   142.9957     0.2609     0.1573     0.0179     2.3923    15.8177    15.8250
  404.0000     8.2823   143.3025     0.2612     0.1528     0.0127     2.3970    15.6012    15.7180
  404.5000     8.2092   142.0948     0.2612     0.1472     0.0082     2.4044    15.3879    15.5046
  405.0000     8.1940   140.5890     0.2612     0.1428     0.0112     2.4104    15.0663    15.1888
  405.5000     8.1938   139.6552     0.2609     0.1395     0.0172     2.4164    14.8674    14.8789
  406.0000     8.2087   141.4543     0.2609     0.1350     0.0202     2.4209    14.6642    14.7783
  406.5000     8.2085   143.8531     0.2608     0.1281     0.0247     2.4300    14.5641    14.5772
  407.0000     8.2084   146.8516     0.2596     0.1247     0.0262     2.4367    14.3652    14.4786
  407.5000     8.2083   148.0809     0.2584     0.1223     0.0157     2.4435    14.5510    14.5815
  408.0000     8.1931   148.6507     0.2559     0.1217     0.0112     2.4465    14.7536    14.6845
  408.5000     8.2080   147.4513     0.2522     0.1211     0.0082     2.4473    14.7536    14.8910
  409.0000     8.2078   141.4543     0.2475     0.1199     0.0082     2.4480    14.8560    15.1008
  409.5000     8.2077   137.5562     0.2463     0.1169     0.0202     2.4511    14.8560    15.1028
  410.0000     8.1925   136.0570     0.2466     0.1144     0.0322     2.4556    14.8560    15.1047
