~VERSION INFORMATION
 VERS.                2.0:   CWLS LOG ASCII STANDARD - VERSION 2.0
 WRAP.                 NO:   ONE LINE PER DEPTH STEP
~WELL INFORMATION
#MNEM.UNIT      DATA TYPE    INFORMATION
#----------   ------------   ------------------------------
 STRT.F         1304.0000:   START DEPTH
 STOP.F         2900.0000:   STOP DEPTH
 STEP.F            0.5000:   STEP LENGTH
 NULL.          -999.2500:   NO VALUE
 COMP.   FLUOR DANIEL INC:   COMPANY
 WELL. NAVAL PETROLEUM RESERVE 3 SHX- #18-14:   WELL
 FLD .             TEAPOT:   FIELD
 LOC .      S14 T38N R78W:   LOCATION
 CNTY.            NATRONA:   COUNTY
 STAT.            WYOMING:   STATE
 CTRY. UNITED STATES OF AMERICA:   COUNTRY
 SRVC.            Unknown:   SERVICE COMPANY
 DATE.        17-APR-1995:   LOGDATE
 API .       490252270800:   API NUMBER
~CURVE INFORMATION
#MNEM.UNIT       API CODE    CURVE DESCRIPTION
#----------   ------------   ------------------------------
 DEPT.F                  :   
 ROP .FT/HR  91 810 01 00:   RAT OF DRILLING PENETRATION
 TGAS.TC/CC  91 830 01 00:   TOTAL GAS UNIT
~PARAMETER INFORMATION
#MNEM.UNIT          VALUE    DESCRIPTION
#----------   ------------   ------------------------------
 EKB .F              5271:   KELLING BUSHING
 EGL .F              5281:   GROUND LEVEL
 DATE.        17-APR-1995:   RUN DATE
 RUN .                  1:   RUN NUMBER
 BLI .F              2900:   BOTTOM LOG INTERVAL
 TLI .F              1310:   TOP LOG INTERVAL
 WITN.     C.TOWER/R.HUSK:   WITNESSED BY
 CLNT.            A2DTECH:   CLIENT CODE
 ORIG.           5" PRINT:   ORIGIN OF DATA
 UWI .       490252270800:   UNIQUE WELL ID
 DICO. A2D Technologies, Inc.:   DIGITIZING COMPANY
~OTHER INFORMATION
~A  DEPT         ROP     TGAS   
# ...
 2762.0000     0.8925    29.1022
 2762.5000     0.8907    29.1040
 2763.0000     0.8889    29.1058
 2763.5000     0.8871    29.1077
 2764.0000     0.8854    29.1095
 2764.5000     0.8836    29.1113
 2765.0000     0.8818    29.1132
 2765.5000     0.8800    29.1151
 2766.0000     0.8783    29.1173
 2766.5000     0.7665    29.1192
 2767.0000     0.7084    29.1210
 2767.5000     0.7089    29.1229
 2768.0000     0.7094    29.1247
 2768.5000     0.7099    29.1266
 2769.0000     0.7103    29.1284
 2769.5000     0.7108    29.1302
 2770.0000     0.7113    29.1321
 2770.5000     0.7118    29.1340
 2771.0000     0.7123    29.1362
 2771.5000     0.7128    29.1381
 2772.0000     0.7133    29.1396
 2772.5000     0.7137    29.1417
 2773.0000     0.7142    29.1434
 2773.5000     0.7147    29.1454
 2774.0000     0.6511    29.1473
 2774.5000     0.6114    28.9604
 2775.0000     0.6119    28.9623
 2775.5000     0.6123    28.9641
 2776.0000     0.6128    28.9664
 2776.5000     0.6132    29.1569
 2777.0000     0.6137    29.1588
 2777.5000     0.6141    29.1604
 2778.0000     0.6146    29.1624
 2778.5000     0.6150    29.1643
 2779.0000     0.6155    29.1660
 2779.5000     0.6159    29.1679
 2780.0000     0.6164    29.1698
 2780.5000     0.6168    29.1717
 2781.0000     0.6173    29.5513
 2781.5000     0.6178    29.5532
 2782.0000     0.6834    29.5550
 2782.5000     0.7490    29.5568
 2783.0000     0.7583    29.5587
 2783.5000     0.7769    29.5605
 2784.0000     0.7767    29.5624
 2784.5000     0.7765    29.5642
 2785.0000     0.7575    29.5660
 2785.5000     0.7479    29.5679
 2786.0000     0.7101    29.5702
 2786.5000     0.6911    29.5717
 2787.0000     0.6816    29.5736
 2787.5000     0.6720    29.5757
 2788.0000     0.6624    29.5775
 2788.5000     0.6434    29.5792
 2789.0000     0.6338    29.5812
 2789.5000     0.6430    29.5831
 2790.0000     0.6335    29.5849
 2790.5000     0.6427    29.5868
 2791.0000     0.6425    29.5890
 2791.5000     0.6423    29.5909
 2792.0000     0.6515    29.5927
 2792.5000     0.6419    29.5946
 2793.0000     0.6323    29.5964
 2793.5000     0.6321    29.5983
 2794.0000     0.6414    29.6001
 2794.5000     0.6412    29.6019
 2795.0000     0.6409    29.6038
 2795.5000     0.6408    29.6057
 2796.0000     0.6406    29.6079
 2796.5000     0.6404    29.6098
 2797.0000     0.6402    29.8003
 2797.5000     0.6495    29.8021
 2798.0000     0.6398    29.9926
 2798.5000     0.6399    29.9945
 2799.0000     0.6400    29.9963
 2799.5000     0.6402    30.1868
 2800.0000     0.6403    30.3774
 2800.5000     0.6404    30.1998
 2801.0000     0.6405    30.0223
 2801.5000     0.6407    29.8447
 2802.0000     0.6408    29.7962
 2802.5000     0.6409    29.6038
 2803.0000     0.6411    29.2219
 2803.5000     0.6412    29.2182
 2804.0000     0.6413    29.0259
 2804.5000     0.6414    28.8335
 2805.0000     0.6416    28.6411
 2805.5000     0.6417    28.4488
 2806.0000     0.6418    28.4451
 2806.5000     0.6420    28.4414
 2807.0000     0.6421    28.6264
 2807.5000     0.6422    28.6226
 2808.0000     0.6424    28.4302
 2808.5000     0.6425    28.6153
 2809.0000     0.6426    28.4226
 2809.5000     0.6427    28.4184
 2810.0000     0.6429    28.4147
 2810.5000     0.7134    28.4110
 2811.0000     0.7756    28.6416
 2811.5000     0.7779    28.7811
 2812.0000     0.7803    28.5886
 2812.5000     0.7826    28.3962
 2813.0000     0.7849    28.3925
 2813.5000     0.7873    28.5766
 2814.0000     0.7896    28.5729
 2814.5000     0.7919    28.7588
 2815.0000     0.7943    28.7547
 2815.5000     0.7966    28.9392
 2816.0000     0.7989    28.9355
 2816.5000     0.8013    29.1214
 2817.0000     0.8036    29.0376
 2817.5000     0.8060    28.9245
 2818.0000     0.8083    29.1095
 2818.5000     0.8106    28.9170
 2819.0000     0.8130    29.1021
 2819.5000     0.8156    29.0975
 2820.0000     0.7218    28.9051
 2820.5000     0.7220    28.9019
 2821.0000     0.7127    28.8981
 2821.5000     0.7036    28.8940
 2822.0000     0.7038    28.8904
 2822.5000     0.6851    28.8868
 2823.0000     0.6665    29.0717
 2823.5000     0.6668    29.0679
 2824.0000     0.6673    29.0641
 2824.5000     0.6729    29.4380
 2825.0000     0.6784    29.4340
 2825.5000     0.6840    29.4297
 2826.0000     0.6896    29.4264
 2826.5000     0.6951    29.4223
 2827.0000     0.7007    29.4189
 2827.5000     0.8098    29.4151
 2828.0000     1.3653    29.4113
 2828.5000     1.3678    29.4075
 2829.0000     1.3703    29.4038
 2829.5000     1.3728    29.5888
 2830.0000     1.3754    29.5842
 2830.5000     1.3779    29.3919
 2831.0000     1.3804    29.3887
 2831.5000     1.3829    29.3845
 2832.0000     1.2609    29.3808
 2832.5000     1.1946    29.1881
 2833.0000     1.1923    29.2629
 2833.5000     1.1900    29.3698
 2834.0000     1.1878    29.3660
 2834.5000     1.1855    29.3623
 2835.0000     1.1832    29.3578
 2835.5000     1.1809    29.3541
 2836.0000     0.6151    29.3504
 2836.5000     0.6150    29.3467
 2837.0000     0.6150    29.3430
 2837.5000     0.6149    29.3396
 2838.0000     0.6149    29.3356
 2838.5000     0.6149    29.3319
 2839.0000     0.6148    29.3283
 2839.5000     0.6148    29.3245
 2840.0000     0.6147    29.3208
 2840.5000     0.6147    29.3163
 2841.0000     0.6146    29.3132
 2841.5000     0.6146    29.3094
 2842.0000     0.6146    29.3057
 2842.5000     0.6145    29.1128
 2843.0000     0.6145    28.9205
 2843.5000     0.6144    28.9168
 2844.0000     0.6144    28.7244
 2844.5000     0.6143    28.7207
 2845.0000     0.6143    28.5283
 2845.5000     0.6143    28.3358
 2846.0000     0.6142    28.1427
 2846.5000     0.6142    28.1390
 2847.0000     0.6141    28.3249
 2847.5000     0.6141    28.3203
 2848.0000     0.6140    28.5062
 2848.5000     0.6140    28.5016
 2849.0000     0.6139    28.4979
 2849.5000     0.6139    28.4943
 2850.0000     0.6139    28.4906
 2850.5000     0.6138    28.4868
 2851.0000     0.6138    28.4830
 2851.5000     0.6137    28.4792
 2852.0000     0.6137    28.4755
 2852.5000     0.6136    28.4710
 2853.0000     0.6136    28.4673
 2853.5000     0.6136    28.4636
 2854.0000     0.6135    28.4599
 2854.5000     0.6135    28.2676
 2855.0000     0.6134    28.0761
 2855.5000     0.6134    28.2604
 2856.0000     0.6133    28.0679
 2856.5000     0.6130    28.4416
 2857.0000     0.6115    28.4377
 2857.5000     0.6100    28.4340
 2858.0000     0.6085    28.4296
 2858.5000     0.6070    28.4259
 2859.0000     0.6055    28.4223
 2859.5000     0.6040    28.4186
 2860.0000     0.6025    28.4151
 2860.5000     0.6010    28.4113
 2861.0000     0.5995    28.4075
 2861.5000     0.5980    28.5396
 2862.0000     0.5965    28.7776
 2862.5000     0.5950    28.7736
 2863.0000     0.5935    28.7693
 2863.5000     0.5920    28.7656
 2864.0000     0.5906    28.9515
 2864.5000     0.5891    28.7583
 2865.0000     0.5876    28.9434
 2865.5000     0.5861    28.7509
 2866.0000     0.5846    28.7472
 2866.5000     0.5831    28.9313
 2867.0000     0.5816    28.7390
 2867.5000     0.5801    28.5466
 2868.0000     0.7579    28.3547
 2868.5000     0.7573    28.3506
 2869.0000     0.7568    28.1582
 2869.5000     0.7562    27.9660
 2870.0000     0.7556    27.9623
 2870.5000     0.7551    27.9585
 2871.0000     0.7545    27.9547
 2871.5000     0.7539    27.9509
 2872.0000     0.7534    27.9466
 2872.5000     0.7528    27.9429
 2873.0000     0.7522    27.9392
 2873.5000     0.7516    27.9356
 2874.0000     0.7511    27.9319
 2874.5000     0.7505    27.9282
 2875.0000     0.7499    28.1132
 2875.5000     0.7494    28.2982
 2876.0000     0.7488    28.2743
 2876.5000     0.7482    28.0396
 2877.0000     0.7477    27.9089
 2877.5000     0.7471    27.9057
 2878.0000     0.6338    27.9016
 2878.5000     0.6341    27.8979
 2879.0000     0.6344    27.7055
 2879.5000     0.6347    27.7019
 2880.0000     0.6350    27.8868
 2880.5000     0.6353    27.8830
 2881.0000     0.6357    27.8786
 2881.5000     0.6360    27.8749
 2882.0000     0.6363    28.0608
 2882.5000     0.6366    27.8676
 2883.0000     0.6369    27.8639
