~VERSION INFORMATION
 VERS.                2.0:   CWLS LOG ASCII STANDARD - VERSION 2.0
 WRAP.                 NO:   ONE LINE PER DEPTH STEP
~WELL INFORMATION
#MNEM.UNIT      DATA TYPE    INFORMATION
#----------   ------------   ------------------------------
 STRT.F            0.0000:   START DEPTH
 STOP.F          533.0000:   STOP DEPTH
 STEP.F            0.1000:   STEP LENGTH
 NULL.          -999.2500:   NO VALUE
 COMP.   FLUOR DANIEL INC:   COMPANY
 WELL.   84-4 X 10 #81-10:   WELL
 FLD .             TEAPOT:   FIELD
 LOC .      S10 T38N R78W:   LOCATION
 CNTY.            NATRONA:   COUNTY
 STAT.            WYOMING:   STATE
 CTRY. UNITED STATES OF AMERICA:   COUNTRY
 SRVC.     Atlas Wireline:   SERVICE COMPANY
 DATE.        25-SEP-1994:   LOGDATE
 API .       490252264000:   API NUMBER
~CURVE INFORMATION
#MNEM.UNIT       API CODE    CURVE DESCRIPTION
#----------   ------------   ------------------------------
 DEPT.F                  :   
 GRR .GAPI   07 310 01 00:   GAMMA RAY
 RILD.OHMM   07 120 46 00:   INDUCTION LOG DEEP RESISTIVITY
 RILM.OHMM   07 120 44 00:   INDUCTION LOG MEDIUM RESISTIVITY
~PARAMETER INFORMATION
#MNEM.UNIT          VALUE    DESCRIPTION
#----------   ------------   ------------------------------
 PD  .                 GL:   PERMANENT DATUM
 EPD .F              5150:   ELEVATION PERMANENT DATUM
 LMF .                 KB:   LOG MEASURED FROM
 DAPD.F                10:   FEET ABOVE PERMANENT DATUM
 DMF .                 KB:   DRILLING MEASURED FROM
 EKB .F              5160:   KELLING BUSHING
 EDF .F              5159:   DRILLING FLOOR
 EGL .F              5150:   GROUND LEVEL
 DATE.        25-SEP-1994:   RUN DATE
 RUN .                  1:   RUN NUMBER
 DD  .F               545:   DEPTH DRILLER
 DL  .F               541:   DEPTH LOGGER
 BLI .F               533:   BOTTOM LOG INTERVAL
 CS  .IN            9.625:   CASING SIZE
 CBD .F                76:   CASING BOTTOM DRILLER
 CBL .F                76:   CASING BOTTOM LOGGER
 BS  .IN             8.75:   BIT SIZE
 BSD .F               545:   BIT SIZE AT DEPTH
 DFT .                AIR:   DRILLING FLUID TYPE
 MRT .F                85:   MAXIMUM RECORDED TEMPERATURE
 LUN .            HL 6401:   LOGGING UNIT NUMBER
 LUL .         FT. MORGAN:   LOGGING UNIT LOCATION
 ENGI.    DAVE FREDERICKS:   RECORDING ENGINEER
 WITN.        GARY STRONG:   WITNESSED BY
 CLNT.            A2DTECH:   CLIENT CODE
 ORIG.           5' PRINT:   ORIGIN OF DATA
 UWI .       490252264000:   UNIQUE WELL ID
 DICO. A2D Technologies, Inc.:   DIGITIZING COMPANY
~OTHER INFORMATION
~A    DEPT      GRR      RILD       RILM   
# ...
  182.0000   139.8267     8.9743     9.2228
  182.1000   138.5593     8.9745     9.2229
  182.2000   137.3003     8.9748     9.2230
  182.3000   136.1285     8.9750     9.2232
  182.4000   135.4877     8.9753     9.2233
  182.5000   134.5620     8.9755     9.2234
  182.6000   133.6665     8.9758     9.2235
  182.7000   132.8371     8.9760     9.2237
  182.8000   131.8453     8.9763     9.2238
  182.9000   131.0069     8.9765     9.2239
  183.0000   130.0987     8.9768     9.2241
  183.1000   129.2647     8.9770     9.2242
  183.2000   128.7678     8.9773     9.2243
  183.3000   128.6826     8.9775     9.2244
  183.4000   128.9740     8.9778     9.2246
  183.5000   129.5107     8.9780     9.2247
  183.6000   130.4766     8.9783     9.1734
  183.7000   131.6877     8.9785     9.1613
  183.8000   133.1046     8.9788     9.1615
  183.9000   134.4379     8.9790     9.1616
  184.0000   135.4078     8.9793     9.1617
  184.1000   136.1721     8.9795     9.1618
  184.2000   137.0808     8.9798     9.1620
  184.3000   137.4948     8.9800     9.1621
  184.4000   138.0052     8.9803     9.1265
  184.5000   138.2961     8.9805     9.0992
  184.6000   138.2985     8.9808     9.0993
  184.7000   138.3009     8.9810     9.0994
  184.8000   138.3036     8.9578     9.0995
  184.9000   138.0864     8.9195     9.0502
  185.0000   137.8349     8.9198     9.0370
  185.1000   137.4602     8.9200     9.0372
  185.2000   136.9547     8.9203     9.0172
  185.3000   136.4491     8.9205     8.9751
  185.4000   135.9011     8.9208     8.9745
  185.5000   136.1360     8.9210     8.9135
  185.6000   136.5768     8.9212     8.9136
  185.7000   137.2235     8.9215     8.9137
  185.8000   137.8115     8.9217     8.9138
  185.9000   138.1080     8.9220     8.8995
  186.0000   138.6345     8.9222     8.8526
  186.1000   139.1287     8.9009     8.8527
  186.2000   139.4413     8.8612     8.8528
  186.3000   139.9969     8.8614     8.8342
  186.4000   140.5583     8.8617     8.8086
  186.5000   140.8681     8.8619     8.7922
  186.6000   141.3784     8.8272     8.7923
  186.7000   141.9750     8.8012     8.7924
  186.8000   142.1881     8.8015     8.7925
  186.9000   142.4445     8.7955     8.7926
  187.0000   142.7009     8.7412     8.7928
  187.1000   142.8906     8.7414     8.7929
  187.2000   142.8746     8.7417     8.8062
  187.3000   142.5936     8.7419     8.8542
  187.4000   142.5958     8.7422     8.8543
  187.5000   142.0695     8.7424     8.8544
  187.6000   141.5662     8.7427     8.8546
  187.7000   141.2346     8.7429     8.8547
  187.8000   140.7609     8.7431     8.8548
  187.9000   140.4932     8.7434     8.8549
  188.0000   140.0202     8.7436     8.8550
  188.1000   139.7041     8.7439     8.8552
  188.2000   139.5940     8.7441     8.8553
  188.3000   139.5031     8.7444     8.8554
  188.4000   139.2962     8.7446     8.8772
  188.5000   139.2991     8.7448     8.9172
  188.6000   139.3015     8.7451     8.9173
  188.7000   139.3039     8.7453     8.9174
  188.8000   139.4610     8.7456     8.9175
  188.9000   139.6109     8.7458     8.9176
  189.0000   139.6133     8.7460     8.9178
  189.1000   139.6260     8.7871     8.9179
  189.2000   139.9206     8.8073     8.9180
  189.3000   139.7065     8.8076     8.9181
  189.4000   139.6230     8.8078     8.9183
  189.5000   139.5055     8.8080     8.9184
  189.6000   139.1823     8.8083     8.9185
  189.7000   138.6768     8.8085     8.9186
  189.8000   138.1223     8.8088     8.9188
  189.9000   137.4363     8.8090     8.9189
  190.0000   136.8580     8.8256     8.9190
  190.1000   136.2193     8.8707     8.9191
  190.2000   135.4598     8.8710     8.9192
  190.3000   134.6633     8.8712     8.9194
  190.4000   133.6049     8.8715     8.9195
  190.5000   132.6366     8.8717     8.9196
  190.6000   131.8176     8.8720     8.9198
  190.7000   131.2045     8.8722     8.9199
  190.8000   130.7972     8.8724     8.9200
  190.9000   130.5953     8.8727     8.9201
  191.0000   131.5126     8.9165     8.9202
  191.1000   132.7159     8.9348     8.9106
  191.2000   133.5493     8.9351     8.8590
  191.3000   134.8870     8.9353     8.8591
  191.4000   136.1900     8.9305     8.8592
  191.5000   137.2084     8.8742     8.8593
  191.6000   138.2114     8.8744     8.8362
  191.7000   139.0746     8.8747     8.7985
  191.8000   140.1825     8.8749     8.7943
  191.9000   141.2818     8.8752     8.7381
  192.0000   142.1752     8.8754     8.7382
  192.1000   142.8629     8.8756     8.7019
  192.2000   143.3732     8.8759     8.6782
  192.3000   143.9228     8.8761     8.6783
  192.4000   144.3939     8.8764     8.6701
  192.5000   145.0906     8.8766     8.6187
  192.6000   145.5787     8.8769     8.5696
  192.7000   145.8351     8.8771     8.5595
  192.8000   146.0495     8.8774     8.5291
  192.9000   146.0520     8.8776     8.4795
  193.0000   146.3021     8.8779     8.4422
  193.1000   146.3589     8.8781     8.4423
  193.2000   146.5128     8.8615     8.4424
  193.3000   146.6659     8.8101     8.3994
  193.4000   146.6683     8.7567     8.3844
  193.5000   146.6636     8.7570     8.3597
  193.6000   146.3714     8.7572     8.3268
  193.7000   146.1605     8.7574     8.3270
  193.8000   145.7442     8.7372     8.3271
  193.9000   145.3553     8.6975     8.3272
  194.0000   145.1722     8.6977     8.3273
  194.1000   145.1340     8.6980     8.3274
  194.2000   144.5731     8.6553     8.3275
  194.3000   144.1228     8.6384     8.3276
  194.4000   143.6173     8.6387     8.3278
  194.5000   143.2417     8.6242     8.3279
  194.6000   142.9901     8.5795     8.3697
  194.7000   142.7386     8.5798     8.3859
  194.8000   142.4726     8.5800     8.3860
  194.9000   142.4749     8.5434     8.4010
  195.0000   142.6687     8.5213     8.4445
  195.1000   142.7819     8.5215     8.4446
  195.2000   142.7843     8.5217     8.4447
  195.3000   142.8336     8.5220     8.4449
  195.4000   143.0912     8.5222     8.4450
  195.5000   143.0941     8.5224     8.4451
  195.6000   143.0961     8.5227     8.4452
  195.7000   142.9420     8.5229     8.4453
  195.8000   142.6904     8.5103     8.4455
  195.9000   142.3787     8.4645     8.4456
  196.0000   141.8731     8.4648     8.4457
  196.1000   141.2958     8.4650     8.4458
  196.2000   140.8620     8.4653     8.4459
  196.3000   140.5263     8.4655     8.4460
  196.4000   140.1530     8.4492     8.4462
  196.5000   139.5740     8.4075     8.4014
  196.6000   138.8399     8.4078     8.3881
  196.7000   138.2890     8.4080     8.3883
  196.8000   137.8288     8.3700     8.3884
  196.9000   137.5063     8.3504     8.3799
  197.0000   137.3897     8.3307     8.3308
  197.1000   137.3053     8.2933     8.3309
  197.2000   137.0921     8.2915     8.2528
  197.3000   137.3971     8.2365     8.2166
  197.4000   137.3994     8.1957     8.1956
  197.5000   137.4018     8.1481     8.1480
  197.6000   137.4042     8.1009     8.0972
  197.7000   137.4066     8.0680     7.9927
  197.8000   137.3571     8.0628     7.9515
  197.9000   137.1055     8.0128     7.9052
  198.0000   136.8101     7.9695     7.8355
  198.1000   136.6024     7.8889     7.7597
  198.2000   136.0278     7.8487     7.7077
  198.3000   135.2683     7.8317     7.6154
  198.4000   134.3131     7.7862     7.5298
  198.5000   132.7915     7.7407     7.4766
  198.6000   131.0843     7.6352     7.4072
  198.7000   129.5255     7.6353     7.3212
  198.8000   128.2746     7.6072     7.2460
  198.9000   127.5146     7.5432     7.2038
  199.0000   127.0876     7.4673     7.1563
  199.1000   126.8662     7.4239     7.0845
  199.2000   127.1712     7.3765     7.0301
  199.3000   127.6459     7.3381     6.9892
  199.4000   128.1563     7.2653     6.9486
  199.5000   128.6667     7.2032     6.9134
  199.6000   129.2690     7.1614     6.9135
  199.7000   130.0333     7.1133     6.8755
  199.8000   130.8109     7.0286     6.8355
  199.9000   131.5619     6.9493     6.7958
  200.0000   132.3262     6.8688     6.7718
  200.1000   133.0906     6.8131     6.7722
