~VERSION INFORMATION
 VERS.                2.0:   CWLS LOG ASCII STANDARD - VERSION 2.0
 WRAP.                 NO:   ONE LINE PER DEPTH STEP
~WELL INFORMATION
#MNEM.UNIT      DATA TYPE    INFORMATION
#----------   ------------   ------------------------------
 STRT.F            0.0000:   START DEPTH
 STOP.F          524.0000:   STOP DEPTH
 STEP.F            0.5000:   STEP LENGTH
 NULL.          -999.2500:   NO VALUE
 COMP.       F D SERV INC:   COMPANY
 WELL. NAVAL PETROLEUM RESERVE 3 SX-1 #83-2-10:   WELL
 FLD .             TEAPOT:   FIELD
 LOC .      S10 T38N R78W:   LOCATION
 CNTY.            NATRONA:   COUNTY
 STAT.            WYOMING:   STATE
 CTRY. UNITED STATES OF AMERICA:   COUNTRY
 SRVC.     Atlas Wireline:   SERVICE COMPANY
 DATE.        10-FEB-1993:   LOGDATE
 API .       490252258100:   API NUMBER
~CURVE INFORMATION
#MNEM.UNIT       API CODE    CURVE DESCRIPTION
#----------   ------------   ------------------------------
 DEPT.F                  :   
 RILM.OHMM   07 120 44 00:   RESITIVITY LONG MEDIUM
 RILD.OHMM   07 120 46 00:   INDUCTION LOG DEEP RESISTIVITY
 GRR .GAPI   07 310 01 00:   GAMMA RAY
 PORZ.DEC    45 890 12 00:   DENSITY POROSITY
 ZCOR.G/C3   45 356 01 00:   DENSITY CORRECTION
 ZDEN.G/C3   45 350 01 00:   BULK DENSITY
 NPHI.DEC    42 890 03 00:   NEUTRON POROSITY SANDSTONE
 C13 .IN     45 280 13 00:   CALIPER X
~PARAMETER INFORMATION
#MNEM.UNIT          VALUE    DESCRIPTION
#----------   ------------   ------------------------------
 PD  .                 GL:   PERMANENT DATUM
 EPD .F              5156:   ELEVATION PERMANENT DATUM
 LMF .                 KB:   LOG MEASURED FROM
 DAPD.F                10:   FEET ABOVE PERMANENT DATUM
 DMF .                 KB:   DRILLING MEASURED FROM
 EKB .F              5166:   KELLING BUSHING
 EDF .F              5165:   DRILLING FLOOR
 EGL .F              5156:   GROUND LEVEL
 DATE.        10-FEB-1993:   RUN DATE
 RUN .                  1:   RUN NUMBER
 DD  .F               525:   DEPTH DRILLER
 DL  .F               526:   DEPTH LOGGER
 BLI .F               518:   BOTTOM LOG INTERVAL
 CS  .IN            8.625:   CASING SIZE
 CBD .F                80:   CASING BOTTOM DRILLER
 CBL .F                81:   CASING BOTTOM LOGGER
 BS  .IN            7.875:   BIT SIZE
 BSD .F               525:   BIT SIZE AT DEPTH
 DFT .                AIR:   DRILLING FLUID TYPE
 MRT .F                70:   MAXIMUM RECORDED TEMPERATURE
 LUN .            HL 6274:   LOGGING UNIT NUMBER
 LUL .             CASPER:   LOGGING UNIT LOCATION
 ENGI.          V. RAUTIO:   RECORDING ENGINEER
 WITN.          G. STRONG:   WITNESSED BY
 CLNT.            A2DTECH:   CLIENT CODE
 ORIG.           5" PRINT:   ORIGIN OF DATA
 UWI .       490252258100:   UNIQUE WELL ID
 DICO. A2D Technologies, Inc.:   DIGITIZING COMPANY
~OTHER INFORMATION
~A    DEPT    RILM       RILD         GRR      PORZ       ZCOR       ZDEN       NPHI        C13   
# ...
  324.0000    28.6812    28.8764    80.4219     0.1921     0.0271     2.3223     0.2735     8.2825
  324.5000    28.6793    29.4789    83.7227     0.2032     0.0361     2.3006     0.2726     8.2520
  325.0000    28.8764    29.6798    85.5186     0.2138     0.0450     2.2848     0.2702     8.2063
  325.5000    28.8746    29.6750    84.9013     0.2210     0.0495     2.2780     0.2665     8.1908
  326.0000    28.8727    29.6712    84.5531     0.2258     0.0495     2.2750     0.2615     8.1602
  326.5000    28.2763    29.6673    83.9647     0.2255     0.0404     2.2727     0.2546     8.1296
  327.0000    26.9356    29.6626    84.8557     0.2292     0.0359     2.2712     0.2498     8.1141
  327.5000    26.1975    29.6588    88.4915     0.2250     0.0389     2.2818     0.2453     8.1137
  328.0000    26.5786    29.4503    96.8905     0.2171     0.0449     2.3021     0.2486     8.1133
  328.5000    27.3058    29.2423    99.2933     0.2072     0.0523     2.3111     0.2573     8.1279
  329.0000    27.6851    28.8364    96.2592     0.2042     0.0478     2.3036     0.2612     8.1425
  329.5000    27.6834    28.0450    90.5101     0.2093     0.0268     2.2840     0.2606     8.1420
  330.0000    27.1115    27.2751    90.1980     0.2274     0.0282     2.2539     0.2549     8.1416
  330.5000    27.1098    27.8442    93.8003     0.2392     0.0402     2.2719     0.2456     8.1562
  331.0000    27.1080    28.4242    98.9110     0.2298     0.0537     2.2990     0.2388     8.1709
  331.5000    27.1059    28.6180    99.8055     0.2178     0.0386     2.3306     0.2318     8.1703
  332.0000    27.2930    28.6134    98.5813     0.1994     0.0191     2.3283     0.2366     8.1698
  332.5000    27.8642    28.6097    96.7271     0.1898     0.0266     2.2975     0.2399     8.1543
  333.0000    28.4477    28.6060    93.4216     0.2067     0.0386     2.2854     0.2387     8.1539
  333.5000    29.2450    29.0003    92.5026     0.2202     0.0370     2.3017     0.2363     8.1535
  334.0000    30.4847    30.2268    92.7902     0.2190     0.0265     2.3208     0.2351     8.1379
  334.5000    31.7770    31.5051    93.9828     0.2043     0.0174     2.3245     0.2348     8.1375
  335.0000    33.5858    32.8602    91.8537     0.1968     0.0159     2.3060     0.2342     8.1370
  335.5000    34.5277    33.9889    84.9015     0.1998     0.0234     2.2523     0.2336     8.1365
  336.0000    34.7661    33.9845    77.6442     0.2177     0.0354     2.2327     0.2327     8.1361
  336.5000    34.7632    34.2163    76.7252     0.2489     0.0564     2.2464     0.2306     8.1357
  337.0000    34.2820    34.6890    77.0128     0.2441     0.0759     2.3298     0.2195     8.1503
  337.5000    32.8836    34.6834    82.9310     0.2212     0.0788     2.4058     0.1993     8.1498
  338.0000    31.5423    34.6790    92.6675     0.1842     0.0352     2.4690     0.1852     8.1494
  338.5000    31.7596    34.4341    98.0834     0.1132    -0.0173     2.4765     0.1751     8.1339
  339.0000    31.7570    33.4890   100.1810     0.1036    -0.0249     2.4584     0.1741     8.1333
  339.5000    31.7549    32.1219    95.9402     0.1138    -0.0039     2.4185     0.2063     8.1481
  340.0000    31.4756    30.5699    89.2897     0.1520     0.0141     2.2981     0.2288     8.1476
  340.5000    29.0149    30.1722    88.3419     0.1972     0.0381     2.2898     0.2391     8.1471
  341.0000    28.4161    30.1683    94.9897     0.2162     0.0317     2.3026     0.2388     8.1466
  341.5000    28.0231    29.7496    97.6906     0.2130     0.0170     2.3214     0.2403     8.1614
  342.0000    27.6351    28.9321    97.6766     0.1993     0.0020     2.3259     0.2457     8.1459
  342.5000    27.0648    27.9439    96.1187     0.1951     0.0065     2.3297     0.2527     8.1604
  343.0000    26.5062    26.9894    95.2318     0.1939     0.0124     2.3334     0.2539     8.1599
  343.5000    25.0746    26.0667    94.9161     0.1909     0.0154     2.3357     0.2518     8.1595
  344.0000    24.0518    25.1763    96.4263     0.1894     0.0184     2.3364     0.2503     8.1590
  344.5000    22.9113    24.4853   100.6161     0.1888     0.0214     2.3424     0.2497     8.1585
  345.0000    22.4281    23.8078   105.4286     0.1855     0.0228     2.3552     0.2488     8.1581
  345.5000    22.1278    22.9992   108.4312     0.1714     0.0212     2.3785     0.2482     8.1577
  346.0000    21.6711    22.6799   111.1286     0.1609     0.0137     2.3931     0.2470     8.1572
  346.5000    21.5200    22.2107   110.8129     0.1513     0.0092     2.4004     0.2458     8.1417
  347.0000    21.0755    21.7505   108.6872     0.1498     0.0062     2.4019     0.2452     8.1412
  347.5000    20.9286    21.1536   102.3349     0.1519     0.0016     2.4010     0.2464     8.1559
  348.0000    20.6392    21.0049   100.2092     0.1549     0.0061     2.3973     0.2488     8.1553
  348.5000    20.6551    21.1481   100.7985     0.1582     0.0061     2.3920     0.2503     8.1549
  349.0000    20.7801    21.2924   105.0798     0.1615     0.0061     2.3815     0.2500     8.1394
  349.5000    20.7784    21.2889   108.3120     0.1615     0.0045     2.3815     0.2491     8.1089
  350.0000    20.9215    21.2862   105.5800     0.1619     0.0015     2.3815     0.2483     8.1384
  350.5000    21.0641    21.5816   104.6663     0.1649    -0.0015     2.3747     0.2461     8.1530
  351.0000    21.2086    21.7301   104.6576     0.1715    -0.0031     2.3623     0.2455     8.1220
  351.5000    21.3523    22.0314   104.9507     0.1787    -0.0061     2.3513     0.2453     8.1212
  352.0000    21.4972    22.1830   104.9398     0.1809     0.0031     2.3520     0.2453     8.1356
  352.5000    21.4944    22.1815   104.6295     0.1772     0.0194     2.3558     0.2459     8.1347
  353.0000    21.6417    22.1862   103.7158     0.1745     0.0238     2.3632     0.2468     8.1340
  353.5000    21.6381    22.3327   103.4055     0.1727     0.0148     2.3632     0.2480     8.1333
  354.0000    21.7857    22.6423   104.9291     0.1766     0.0028     2.3542     0.2492     8.1324
  354.5000    21.7821    22.7985   105.4998     0.1809    -0.0003     2.3496     0.2498     8.1317
  355.0000    21.6287    22.7966   104.5840     0.1812     0.0012     2.3511     0.2475     8.1310
  355.5000    21.4765    22.7951   103.3687     0.1782     0.0012     2.3563     0.2426     8.1453
  356.0000    21.1781    22.3249   104.2650     0.1758     0.0026     2.3593     0.2442     8.1444
  356.5000    20.8838    22.0160   105.1614     0.1797     0.0041     2.3525     0.2469     8.1437
  357.0000    20.5936    21.7118   104.5490     0.1797     0.0086     2.3532     0.2502     8.1280
  357.5000    20.3067    21.4117   105.7451     0.1788     0.0148     2.3577     0.2529     8.0971
  358.0000    20.0246    20.9701   107.5464     0.1767     0.0175     2.3599     0.2559     8.0661
  358.5000    19.7463    20.3958   105.4261     0.1755     0.0175     2.3561     0.2617     8.0504
  359.0000    19.6073    19.9751   103.0042     0.1803     0.0175     2.3508     0.2722     8.0346
  359.5000    19.3348    19.5628   102.0905     0.1788     0.0174     2.3629     0.2822     8.0339
  360.0000    19.3233    19.4265   108.1129     0.1740     0.0174     2.3756     0.2795     8.0330
  360.5000    19.1956    19.1580   109.3130     0.1668     0.0159     2.3831     0.2683     8.0323
  361.0000    19.0605    19.1568   111.7155     0.1593     0.0144     2.3891     0.2626     8.0316
  361.5000    19.0579    19.2886   114.1201     0.1569     0.0098     2.3913     0.2654     8.0309
  362.0000    18.7931    19.2873   117.7313     0.1563     0.0038     2.3928     0.2681     8.0450
  362.5000    18.6608    19.2857   116.1890     0.1557     0.0083     2.3965     0.2684     8.0443
  363.0000    18.7881    19.2844   114.6952     0.1533     0.0112     2.4003     0.2678     8.0286
  363.5000    18.9163    19.2832   114.0832     0.1512     0.0022     2.4025     0.2675     8.0278
  364.0000    18.9131    19.2819   113.1696     0.1494     0.0022     2.3882     0.2699     8.0271
