~VERSION INFORMATION
 VERS.                2.0:   CWLS LOG ASCII STANDARD - VERSION 2.0
 WRAP.                 NO:   ONE LINE PER DEPTH STEP
~WELL INFORMATION
#MNEM.UNIT      DATA TYPE    INFORMATION
#----------   ------------   ------------------------------
 STRT.F          502.0000:   START DEPTH
 STOP.F         5661.0000:   STOP DEPTH
 STEP.F            0.5000:   STEP LENGTH
 NULL.          -999.2500:   NO VALUE
 COMP. FENIX & SCISSON INC:   COMPANY
 WELL.   NPR 3 #32DX22-22:   WELL
 FLD .             TEAPOT:   FIELD
 LOC .      S22 T38N R78W:   LOCATION
 CNTY.            NATRONA:   COUNTY
 STAT.            WYOMING:   STATE
 CTRY. UNITED STATES OF AMERICA:   COUNTRY
 SRVC.       Schlumberger:   SERVICE COMPANY
 DATE.        29-NOV-1978:   LOGDATE
 API .       490251073100:   API NUMBER
~CURVE INFORMATION
#MNEM.UNIT       API CODE    CURVE DESCRIPTION
#----------   ------------   ------------------------------
 DEPT.F                  :   
 SPR .MV     07 010 01 00:   SPONTANEOUS POTENTIAL
 GRR .GAPI   07 310 01 00:   GAMMA RAY FROM RES. LOG.
 SFL .OHMM   07 220 01 00:   SHALLOW FOCUSED LOG RESISTIVITY
 ILD .OHMM   07 120 46 00:   INDUCTION LOG DEEP
 ILM .OHMM   07 120 44 00:   INDUCTION LOG MEDIUM
 NPHI.DEC    42 890 03 00:   NEUTRON POROSITY SANDSTONE
 DPHI.DEC    45 890 12 00:   DENSITY POROSITY SANDSTONE
 RHOB.G/C3   45 350 01 00:   BULK DENSITY
 CORR.G/C3   45 356 01 00:   DENSITY CORRECTION
 CALD.IN     45 280 60 00:   CALIPER
~PARAMETER INFORMATION
#MNEM.UNIT          VALUE    DESCRIPTION
#----------   ------------   ------------------------------
 PD  .                 GL:   PERMANENT DATUM
 EPD .F              5514:   ELEVATION PERMANENT DATUM
 LMF .                 KB:   LOG MEASURED FROM
 DAPD.F                10:   FEET ABOVE PERMANENT DATUM
 DMF .                 KB:   DRILLING MEASURED FROM
 EKB .F              5524:   KELLING BUSHING
 EGL .F              5514:   GROUND LEVEL
 DATE.           11-29-78:   RUN DATE
 RUN .                  1:   RUN NUMBER
 DD  .F              5680:   DEPTH DRILLER
 DL  .F              5667:   DEPTH LOGGER
 BLI .F              5661:   BOTTOM LOG INTERVAL
 TLI .F               530:   TOP LOG INTERVAL
 CS  .IN            8.625:   CASING SIZE
 CBD .F               513:   CASING BOTTOM DRILLER
 CBL .F               530:   CASING BOTTOM LOGGER
 BS  .IN            7.875:   BIT SIZE
 BSD .F              5680:   BIT SIZE AT DEPTH
 DFT .                FGM:   DRILLING FLUID TYPE
 DFD .                9.2:   DRILLING FLUID DENSITY
 DFV .                 50:   DRILLING FLUID VISCOSITY
 DFPH.               11.5:   DRILLING FLUID PH
 DFL .                6.8:   DRILLING FLUID LOSS
 MSS .               TANK:   MUD SAMPLE SOURCE
 RMS .OHMM           1.45:   RESISTIVITY MUD SAMPLE
 MST .F                56:   MUD SAMPLE TEMPERATURE
 RMF .OHMM           1.16:   RESISTIVITY MUD FILTRATE SAMPLE
 MFST.F                56:   MUD FILTRATE SAMPLE TEMPERATURE
 MFSS.               MEAS:   MUD FILTRATE SAMPLE SOURCE
 RMB .OHMM            .62:   RESISTIVITY MUD AT BHT
 BHT .F               132:   BOTTOM HOLE TEMPERATURE
 TCS .HRS            0700:   TIME CURCULATED STOPPED
 TLAB.HRS            1200:   TIME LOGGER AT BOTTOM
 MRT .F               132:   MAXIMUM RECORDED TEMPERATURE
 LUN .               8039:   LOGGING UNIT NUMBER
 LUL .               CSPR:   LOGGING UNIT LOCATION
 ENGI.           STADULIS:   RECORDING ENGINEER
 WITN.           DINSMORE:   WITNESSED BY
 CLNT.            A2DTECH:   CLIENT CODE
 ORIG.       2", 5" PRINT:   ORIGIN OF DATA
 UWI .       490251073100:   UNIQUE WELL ID
 DICO. A2D Technologies, Inc.:   DIGITIZING COMPANY
~OTHER INFORMATION
~A   DEPT      SPR         GRR       SFL        ILD        ILM       NPHI       DPHI       RHOB       CORR       CALD   
# ...
 4622.5000   -37.2810   115.2748     7.5194     6.0196     6.1560     0.2159     0.0135     2.5939     0.2530    10.1010
 4623.0000   -37.4403   117.6877     6.8967     5.8640     5.9955     0.2275     0.0447     2.5126     0.2524    10.1863
 4623.5000   -37.6072   119.3090     6.3255     5.6326     5.7895     0.2395     0.0858     2.4292     0.2527    10.1867
 4624.0000   -37.5545   119.4055     5.8677     5.6895     5.8526     0.2485     0.1269     2.4106     0.2072    10.0327
 4624.5000   -37.3444   119.5634     5.7895     5.7783     5.9471     0.2496     0.1452     2.4590     0.1451     9.8188
 4625.0000   -37.1316   118.5358     6.0622     5.8674     6.0430     0.2325     0.1178     2.5484     0.1544     9.7982
 4625.5000   -36.9187   116.9898     6.7893     5.9577     6.1406     0.2218     0.0777     2.5721     0.1710     9.7801
 4626.0000   -36.7052   113.9824     7.6988     6.0062     6.2161     0.2205     0.0476     2.5626     0.1618     9.7446
 4626.5000   -36.4893   109.7004     7.6990     6.0009     6.2804     0.2259     0.0517     2.5425     0.1434     9.7036
 4627.0000   -36.5717   105.9624     7.5156     6.1515     6.3464     0.2303     0.0635     2.5129     0.1109     9.6628
 4627.5000   -36.6963   106.5444     7.3256     6.3059     6.4727     0.2307     0.0766     2.4937     0.0763     9.6330
 4628.0000   -36.8260   110.0420     7.1410     6.4642     6.6035     0.2307     0.0897     2.4884     0.0415     9.6336
 4628.5000   -36.6406   111.6052     7.0194     6.6262     6.7369     0.2303     0.0990     2.5019     0.0206     9.6336
 4629.0000   -36.2959   109.9837     7.1856     6.8317     6.8724     0.2277     0.0954     2.5223     0.0146     9.6336
 4629.5000   -36.1478   106.1698     7.5066     6.8319     7.0599     0.2222     0.0832     2.5392     0.0119     9.6336
 4630.0000   -36.4158   102.4035     8.0564     6.8277     7.3291     0.2127     0.0701     2.5523     0.0112     9.6336
 4630.5000   -36.6906   101.2368     8.7891     7.2241     7.6475     0.1997     0.0592     2.5495     0.0112     9.6336
 4631.0000   -37.3261   103.3872     9.5884     7.5135     7.9997     0.1898     0.0585     2.5369     0.0102     9.6336
 4631.5000   -37.9634   102.8296    10.1986     7.7487     8.5142     0.1841     0.0670     2.5267     0.0049     9.6336
 4632.0000   -38.0809   100.5086    10.6433     7.8905     8.4604     0.1799     0.0730     2.5264     0.0044     9.6335
 4632.5000   -38.0836    99.6142    10.7113     7.9843     8.3738     0.1757     0.0754     2.5319     0.0096     9.6337
 4633.0000   -38.2242   103.3083    10.3243     7.8947     8.2828     0.1773     0.0720     2.5422     0.0377     9.6458
 4633.5000   -38.7023   107.2717     9.9527     7.7200     8.0283     0.1857     0.0673     2.5590     0.0717     9.6836
 4634.0000   -39.1761   109.0264     9.3456     7.5110     7.7657     0.1994     0.0560     2.5727     0.1030     9.8249
 4634.5000   -39.6463   107.0443     8.5117     7.3077     7.5118     0.2134     0.0473     2.5524     0.0861     9.9908
 4635.0000   -39.6997   106.9958     7.7075     7.0482     7.2661     0.2249     0.0643     2.5239     0.0598    10.1378
 4635.5000   -39.6951   110.3943     6.9567     6.7898     7.0285     0.2275     0.0783     2.5164     0.0526    10.1157
 4636.0000   -39.5142   114.0121     7.0656     6.5408     6.7987     0.2239     0.0797     2.5465     0.0815    10.0930
 4636.5000   -39.0731   114.3469     7.2085     6.3410     6.5763     0.2230     0.0464     2.5754     0.1310    10.1087
 4637.0000   -38.6363   113.7647     7.2836     6.0885     6.3130     0.2243     0.0396     2.5826     0.1483    10.1859
 4637.5000   -38.2742   116.4363     7.1492     5.8461     6.0107     0.2247     0.0432     2.5762     0.1598    10.3064
 4638.0000   -38.3130   124.6951     6.7716     5.5058     5.7228     0.2295     0.0513     2.5456     0.1617    10.5647
 4638.5000   -38.3452   129.8328     6.2495     5.1781     5.4488     0.2404     0.0796     2.5030     0.1485    10.8039
 4639.0000   -38.3766   131.4231     5.7683     4.9461     5.1879     0.2510     0.1050     2.4765     0.1445    11.0384
 4639.5000   -38.4077   129.7578     5.2948     4.7245     4.9394     0.2591     0.0889     2.5043     0.1873    11.1159
 4640.0000   -38.4371   127.0006     4.8485     4.5128     4.7029     0.2611     0.0596     2.5368     0.2354    10.9838
 4640.5000   -38.4679   124.2229     4.5276     4.3155     4.4777     0.2632     0.0716     2.5446     0.2524    10.8549
 4641.0000   -38.6057   121.4126     4.3499     4.1832     4.1982     0.2650     0.1080     2.4772     0.2529    10.8860
 4641.5000   -39.4437   118.9316     4.1982     4.0468     4.2291     0.2668     0.1443     2.4020     0.2530    10.9521
 4642.0000   -40.2775   116.4672     4.2236     4.1449     4.2760     0.2673     0.1714     2.3722     0.2533    10.7528
 4642.5000   -41.1104   114.5917     4.3890     4.3328     4.4406     0.2644     0.1752     2.3630     0.2534    10.4331
 4643.0000   -41.9624   114.3629     4.6157     4.5299     4.6796     0.2488     0.1592     2.3748     0.2408    10.2766
 4643.5000   -42.1648   114.0525     5.1550     4.7358     4.9506     0.2341     0.1404     2.4057     0.1921    10.0326
 4644.0000   -42.2726   112.7788     6.1612     4.9509     5.3772     0.2194     0.1102     2.4557     0.1687     9.7970
 4644.5000   -42.3768   111.4802     7.3452     5.1758     5.8102     0.1990     0.0715     2.5054     0.1984     9.6960
 4645.0000   -42.4818   110.1829     9.0005     5.4110     5.8969     0.2082     0.0636     2.5448     0.2529     9.7264
 4645.5000   -42.6966   108.9543     8.9142     5.6567     5.8320     0.2233     0.0827     2.5454     0.2536     9.7767
 4646.0000   -42.9790   108.7589     7.7596     5.6842     5.7921     0.2385     0.1074     2.4945     0.2542     9.9340
 4646.5000   -43.2754   109.2310     6.7792     5.6842     5.7525     0.2537     0.1012     2.4748     0.2161    10.0594
 4647.0000   -43.1630   111.2201     5.9226     5.6597     5.7132     0.2689     0.0978     2.4887     0.2102    10.0463
 4647.5000   -42.9365   111.8865     5.6187     5.5996     5.6741     0.2763     0.1176     2.4879     0.1988    10.0675
 4648.0000   -42.7072   111.7797     5.4291     5.5401     5.6322     0.2769     0.1387     2.4379     0.1464    10.1873
 4648.5000   -42.4791   111.7025     5.6789     5.4792     5.7287     0.2657     0.1468     2.4081     0.0750    10.2477
 4649.0000   -42.2538   113.6149     6.1220     5.4387     5.8355     0.2542     0.0966     2.4674     0.0628    10.0168
 4649.5000   -42.1834   114.6872     6.7392     5.3867     5.8969     0.2456     0.0457     2.5676     0.1430     9.8793
 4650.0000   -42.3350   112.4569     7.1538     5.3303     5.8430     0.2404     0.0187     2.6070     0.2053     9.8746
 4650.5000   -42.4925   109.9955     7.1537     5.2183     5.5998     0.2353     0.0482     2.5808     0.2460    10.0020
 4651.0000   -42.3951   113.8644     6.7615     5.0911     5.3427     0.2326     0.0714     2.5295     0.1983    10.1621
 4651.5000   -42.2168   119.5465     6.3013     4.9075     5.0974     0.2351     0.0946     2.4777     0.1834    10.4852
 4652.0000   -42.0354   123.8842     5.8740     4.6779     4.8633     0.2611     0.1409     2.3992     0.1831    10.8025
 4652.5000   -41.8569   125.3639     5.2259     4.4531     4.6400     0.2869     0.2012     2.2547     0.1713    11.0635
 4653.0000   -41.7933   125.5207     4.6002     4.2391     4.4270     0.3252     0.2898     2.1723     0.1089    11.0751
 4653.5000   -42.2172   125.7586     4.0435     4.0098     4.2369     0.3335     0.2765     2.1758     0.0630    10.4810
 4654.0000   -42.5320   127.8254     4.0426     4.1349     4.3518     0.3153     0.2323     2.3771     0.0645    10.2120
 4654.5000   -42.5257   130.3974     4.4643     4.2833     4.4623     0.2933     0.1364     2.4645     0.0895    10.0922
 4655.0000   -42.5249   128.9511     4.9521     4.4370     4.5860     0.2764     0.1065     2.4735     0.0983     9.9355
 4655.5000   -42.5244   125.7643     5.4291     4.5944     4.7818     0.2757     0.1196     2.4378     0.0744     9.7794
