~VERSION INFORMATION
 VERS.                2.0:   CWLS LOG ASCII STANDARD - VERSION 2.0
 WRAP.                 NO:   ONE LINE PER DEPTH STEP
~WELL INFORMATION
#MNEM.UNIT      DATA TYPE    INFORMATION
#----------   ------------   ------------------------------
 STRT.F           12.0000:   START DEPTH
 STOP.F          551.0000:   STOP DEPTH
 STEP.F            0.5000:   STEP LENGTH
 NULL.          -999.2500:   NO VALUE
 COMP. LAWRENCE-ALLISON &AS:   COMPANY
 WELL. NPR 3 #58-46SX3LP4:   WELL
 FLD .             TEAPOT:   FIELD
 LOC .       S3 T38N R78W:   LOCATION
 CNTY.            NATRONA:   COUNTY
 STAT.            WYOMING:   STATE
 CTRY. UNITED STATES OF AMERICA:   COUNTRY
 SRVC.      Dresser Atlas:   SERVICE COMPANY
 DATE.        14-DEC-1984:   LOGDATE
 API .       490251099900:   API NUMBER
~CURVE INFORMATION
#MNEM.UNIT       API CODE    CURVE DESCRIPTION
#----------   ------------   ------------------------------
 DEPT.F                  :   
 RD  .OHMM   11 220 10 00:   RESISTIVITY DEEP
 RS  .OHMM   11 220 09 00:   RESISTIVITY SHALLOW
 SPR .MV     11 010 01 00:   SPONTANEOUS POTENTIAL FROM RES.
 AC  .US/F   60 520 00 00:   ACOUSTIC SONIC
 CALD.IN     45 280 60 00:   CALIPER FROM DENSITY
 CORR.G/C3   45 356 01 00:   DENSITY CORRECTION
 DEN .G/C3   45 350 01 00:   COMPENSATED BULK DENSTIY
 GRD .GAPI   45 310 01 00:   GAMMA RAY FROM DENSITY LOG
 PORD.DEC    45 890 12 00:   POROSITY DENSITY SANDSTONE
 CNC .DEC    42 890 03 00:   NEUTRON POROSITY SANDSTONE
~PARAMETER INFORMATION
#MNEM.UNIT          VALUE    DESCRIPTION
#----------   ------------   ------------------------------
 PD  .                 GL:   PERMANENT DATUM
 EPD .F              5201:   ELEVATION PERMANENT DATUM
 LMF .                 GL:   LOG MEASURED FROM
 DMF .                 GL:   DRILLING MEASURED FROM
 EGL .F              5201:   GROUND LEVEL
 DATE.        14-DEC-1984:   RUN DATE
 RUN .                  1:   RUN NUMBER
 DD  .F               552:   DEPTH DRILLER
 DL  .F               552:   DEPTH LOGGER
 BLI .F               550:   BOTTOM LOG INTERVAL
 TLI .F                20:   TOP LOG INTERVAL
 CS  .IN            8.625:   CASING SIZE
 CBD .F                20:   CASING BOTTOM DRILLER
 CBL .F                20:   CASING BOTTOM LOGGER
 BS  .IN            7.875:   BIT SIZE
 BSD .F               552:   BIT SIZE AT DEPTH
 DFT .          KCL WATER:   DRILLING FLUID TYPE
 MSS .            MUDTANK:   MUD SAMPLE SOURCE
 RMS .OHMM          0.152:   RESISTIVITY MUD SAMPLE
 MST .F                76:   MUD SAMPLE TEMPERATURE
 RMF .OHMM           0.11:   RESISTIVITY MUD FILTRATE SAMPLE
 MFST.F                76:   MUD FILTRATE SAMPLE TEMPERATURE
 RMC .OHMM           0.19:   RESISTIVITY MUD CAKE
 MCST.F                76:   MUD CAKE SAMPLE TEMPERATURE
 MFSS.               CALC:   MUD FILTRATE SAMPLE SOURCE
 MCSS.               CALC:   MUD CAKE SAMPLE SOURCE
 TCS .HRS               5:   TIME CURCULATED STOPPED
 MRT .F               100:   MAXIMUM RECORDED TEMPERATURE
 LUN .               6270:   LOGGING UNIT NUMBER
 ENGI.            LEBSOCK:   RECORDING ENGINEER
 WITN.        GREG GROOMS:   WITNESSED BY
 CLNT.            A2DTECH:   CLIENT CODE
 ORIG.           5" PRINT:   ORIGIN OF DATA
 UWI .       490251099900:   UNIQUE WELL ID
 DICO. A2D Technologies, Inc.:   DIGITIZING COMPANY
~OTHER INFORMATION
~A   DEPT       RD         RS        SPR         AC       CALD       CORR        DEN        GRD       PORD          CNC 
# ...
   79.0000   312.2245    20.5915   -68.9813   107.6575     7.6929     0.0018     2.4567   105.0013     0.1314     0.2854
   79.5000   308.1766    20.6073   -68.8227   107.7281     7.6931    -0.0043     2.4553   104.8464     0.1329     0.2809
   80.0000   306.1960    20.6200   -68.9607   107.9539     7.7083     0.0107     2.4545   105.5938     0.1332     0.2803
   80.5000   306.4317    20.6326   -68.8021   108.0947     7.7084     0.0695     2.4485   107.3939     0.1341     0.2827
   81.0000   304.4623    20.7886   -68.4951   108.0902     7.6935     0.0483     2.4432   108.2917     0.1396     0.2888
   81.5000   304.6967    20.8013   -68.3364   108.0105     7.6937     0.0120     2.4409   108.4376     0.1408     0.2939
   82.0000   304.8844    20.9586   -68.0294   108.0060     7.7089     0.0075     2.4484   108.2827     0.1403     0.3016
   82.5000   305.0721    20.9714   -67.2773   107.7009     7.7241     0.0164     2.4492   108.1203     0.1366     0.3235
   83.0000   307.3765    21.1299   -67.2670   107.1704     7.7242     0.0375     2.4469   107.1950     0.1373     0.3254
   83.5000   314.0078    21.1429   -67.4051   106.4146     7.7093     0.0465     2.4484   105.0186     0.1364     0.3193
   84.0000   320.7820    21.3027   -67.5432   104.9074     7.6944     0.0374     2.4544   101.8767     0.1337     0.3087
   84.5000   325.4460    21.3158   -67.5326   104.3018     7.6946     0.0252     2.4612   100.2893     0.1291     0.3023
   85.0000   332.4670    21.3289   -67.5223   104.4476     7.6797     0.0357     2.4725   100.1356     0.1246     0.2907
   85.5000   339.6395    21.3420   -67.3635   104.7435     7.6648     0.0539     2.4816   100.8819     0.1173     0.2792
   86.0000   344.5776    21.3552   -67.2027   104.7390     7.6951     0.0703     2.4906   100.7271     0.1122     0.2677
   86.5000   349.5876    21.5166   -66.7473   104.5842     7.6952     0.0639     2.4853   101.4745     0.1132     0.2587
   87.0000   352.2282    21.5349   -66.5887   104.0537     7.6954     0.0547     2.4838   102.8234     0.1141     0.2541
   87.5000   354.8888    21.7053   -66.4300   103.2228     7.6955     0.0425     2.4845   104.4730     0.1147     0.2536
   88.0000   357.5716    21.8771   -66.1230   101.9410     7.6957     0.0233     2.4845   104.3182     0.1147     0.2611
   88.5000   360.2748    22.0503   -66.1127   100.3587     7.6958     0.0368     2.4860   101.7573     0.1138     0.2732
   89.0000   363.3005    22.1915   -65.9541    99.3774     7.6960     0.0473     2.4882    96.6401     0.1114     0.2750
   89.5000   373.8173    22.3592   -65.9438    98.3211     7.7111     0.0548     2.4958    94.0792     0.1069     0.2759
   90.0000   386.8166    22.3729   -65.9335    97.4149     7.7263     0.0487     2.5048    91.5183     0.1018     0.2766
   90.5000   395.1616    22.6984   -66.0742    96.8094     7.7265     0.0411     2.5094    91.8146     0.1003     0.2644
   91.0000   406.4855    22.7124   -66.0613    96.2789     7.7116     0.0305     2.5093    94.8177     0.1015     0.2455
   91.5000   418.1340    22.7246   -66.2020    95.8236     7.6967     0.0244     2.5009    95.5662     0.1058     0.2418
   92.0000   427.1547    22.7387   -66.4884    95.2180     7.6969     0.0213     2.4933    93.7561     0.1109     0.2476
   92.5000   436.3699    22.7555   -66.6265    94.9881     7.6970     0.0182     2.4927    92.2479     0.1079     0.2491
   93.0000   439.6661    22.6091   -66.1686    95.6597     7.7122     0.0106     2.4979    92.0662     0.1076     0.2434
   93.5000   427.9444    22.4671   -65.7132    96.5567     7.7274     0.0030     2.4994    95.0961     0.1113     0.2392
   94.0000   410.8187    22.3260   -65.2578    97.1532     7.7275     0.0000     2.4843    95.8436     0.1231     0.2404
   94.5000   408.1784    22.1858   -64.8024    97.6746     7.7277     0.0195     2.4684    93.8841     0.1231     0.2501
   95.0000   405.6175    22.0465   -65.2372    97.9706     7.7128     0.0481     2.4752    92.5263     0.1219     0.2564
   95.5000   405.9298    21.9114   -65.3754    98.1163     7.6979     0.0450     2.4813    92.9729     0.1189     0.2676
   96.0000   406.1798    21.9248   -65.6637    98.3372     7.6980     0.0405     2.4858    92.6556     0.1168     0.2724
   96.5000   407.0770    21.9383   -65.7998    98.5870     7.6982     0.0510     2.4865    90.3383     0.1162     0.2727
   97.0000   407.4296    22.1041   -65.9379    99.1916     7.6983     0.0509     2.4827    88.2807     0.1175     0.2688
   97.5000   407.9005    22.4257   -66.2244   100.1578     7.6985     0.0448     2.4751    88.9398     0.1232     0.2649
   98.0000   410.9717    22.7520   -66.3877   101.0488     7.6986     0.0357     2.4691    89.8205     0.1305     0.2616
   98.5000   414.2581    23.0830   -66.6489   101.8527     7.6988     0.0266     2.4464    89.9386     0.1372     0.2580
   99.0000   420.3261    23.2575   -66.9328   102.0677     7.6990     0.0280     2.4404    89.0308     0.1412     0.2544
   99.5000   426.5573    23.2718   -66.9225   101.8357     7.6991     0.0596     2.4464    87.9736     0.1394     0.2526
  100.0000   429.8934    22.9662   -67.0632   101.4576     7.6998     0.0505     2.4554    87.0520     0.1355     0.2719
  100.5000   427.2964    22.5093   -67.0504   101.0003     7.7071     0.0226     2.4524    85.0842     0.1333     0.2882
  101.0000   415.9841    21.9074   -66.7418   100.3932     7.7155     0.0044     2.4493    84.3459     0.1364     0.2864
  101.5000   402.1757    21.4696   -66.4331   100.1618     7.7293    -0.0002     2.4478    86.5910     0.1385     0.2704
  102.0000   380.8311    20.8955   -66.4212   100.2324     7.7293     0.0405     2.4477    89.3213     0.1379     0.2644
  102.5000   322.7964    19.6456   -66.5577   100.4503     7.7293     0.0390     2.4477    88.5324     0.1373     0.2635
  103.0000   279.3492    17.4766   -66.6944   100.5209     7.7293     0.0283     2.4484    87.7731     0.1370     0.2632
  103.5000   192.3615    15.0187   -66.9792   100.4383     7.7293     0.0268     2.4499    89.5702     0.1364     0.2629
  104.0000    95.0010    13.6405   -67.2641   100.2069     7.7293     0.0403     2.4551    94.5251     0.1322     0.2883
  104.5000    53.5156    13.2758   -67.4006   100.1258     7.7293     0.0493     2.4649    98.7282     0.1268     0.2925
  105.0000    31.2084    13.0086   -67.3883   100.6457     7.7293     0.0523     2.4755    99.1738     0.1216     0.2865
  105.5000    26.6364    12.7486   -67.5248   101.2407     7.7293     0.0492     2.4860    98.7134     0.1156     0.2632
  106.0000    25.9306    12.6678   -67.3645   101.8358     7.7293     0.0446     2.4912    96.2999     0.1131     0.2542
  106.5000    25.5960    12.6751   -67.3526   102.2806     7.7293     0.0415     2.4865    93.4354     0.1147     0.2503
  107.0000    25.2658    12.7701   -67.4896   102.4999     7.6992     0.0399     2.4695    89.9693     0.1274     0.2560
  107.5000    25.1132    12.8658   -67.4771   102.5706     7.6842     0.0399     2.4549    86.9543     0.1320     0.2654
  108.0000    24.9615    12.9623   -67.3169   102.6397     7.6842     0.0382     2.4563    86.3454     0.1323     0.2669
  108.5000    24.9839    12.7911   -67.3050   102.5571     7.6992     0.0263     2.4578    86.7891     0.1314     0.2684
  109.0000    24.8322    12.7101   -67.1447   102.5511     7.6992     0.0125     2.4510    87.9847     0.1341     0.2742
  109.5000    24.5127    12.7173   -66.9844   102.2445     7.6992     0.0275     2.4479    92.0374     0.1371     0.2730
  110.0000    24.3638    12.6308   -66.8271   101.8629     7.6992     0.0381     2.4433    93.0827     0.1396     0.2549
  110.5000    24.0504    12.3839   -67.1090   101.7817     7.6842     0.0410     2.4410    92.9248     0.1408     0.2437
  111.0000    23.7392    12.3021   -67.2484   101.6255     7.6692     0.0410     2.4440    92.1614     0.1408     0.2404
  111.5000    23.2722    12.0595   -67.3819   101.7697     7.6692     0.0379     2.4606    90.4596     0.1362     0.2449
  112.0000    23.1307    11.9830   -67.5213   102.0642     7.6692     0.0423     2.4674    88.9384     0.1302     0.2552
