~VERSION INFORMATION
 VERS.                2.0:   CWLS LOG ASCII STANDARD - VERSION 2.0
 WRAP.                 NO:   ONE LINE PER DEPTH STEP
~WELL INFORMATION
#MNEM.UNIT      DATA TYPE    INFORMATION
#----------   ------------   ------------------------------
 STRT.F           32.0000:   START DEPTH
 STOP.F         1006.0000:   STOP DEPTH
 STEP.F            0.5000:   STEP LENGTH
 NULL.          -999.2500:   NO VALUE
 COMP. FENIX & SCISSON INC:   COMPANY
 WELL.        NPR-3 #54-2:   WELL
 FLD .             TEAPOT:   FIELD
 LOC .       S2 T38N R78W:   LOCATION
 CNTY.            NATRONA:   COUNTY
 STAT.            WYOMING:   STATE
 CTRY. UNITED STATES OF AMERICA:   COUNTRY
 SRVC.              Welex:   SERVICE COMPANY
 DATE.        08-SEP-1977:   LOGDATE
 API .       490251041600:   API NUMBER
~CURVE INFORMATION
#MNEM.UNIT       API CODE    CURVE DESCRIPTION
#----------   ------------   ------------------------------
 DEPT.F                  :   
 CALD.IN     45 280 60 00:   CALIPER FROM DENSITY LOG
 GRD .GAPI   45 310 01 00:   GAMMA RAY FROM DENSITY LOG
 CORR.G/C3   45 356 01 00:   DENSITY CORRECTION
 DPHI.DEC    45 890 12 00:   DENSITY POROSITY SANDSTONE
 RHOB.G/C3   45 350 01 00:   BULK DENSITY
 SPR .MV     07 010 01 00:   SPONTANEOUS POTENTIAL
 ILD .OHMM   07 120 46 00:   INDUCTION LOG DEEP
 ILM .OHMM   07 120 44 00:   INDUCTION LOG MEDIUM
 SGRD.OHMM   07 221 05 00:   SHALLOW SHORT GUARD RESISTIVITY
~PARAMETER INFORMATION
#MNEM.UNIT          VALUE    DESCRIPTION
#----------   ------------   ------------------------------
 PD  .                 GL:   PERMANENT DATUM
 EPD .F              5160:   ELEVATION PERMANENT DATUM
 LMF .                 KB:   LOG MEASURED FROM
 DAPD.F                10:   FEET ABOVE PERMANENT DATUM
 DMF .                 KB:   DRILLING MEASURED FROM
 EKB .F              5170:   KELLING BUSHING
 EGL .F              5160:   GROUND LEVEL
 DATE.        08-SEP-1977:   RUN DATE
 RUN .                  1:   RUN NUMBER
 DD  .F              1000:   DEPTH DRILLER
 DL  .F              1008:   DEPTH LOGGER
 BLI .F              1006:   BOTTOM LOG INTERVAL
 TLI .F                47:   TOP LOG INTERVAL
 CS  .IN            8.625:   CASING SIZE
 BS  .IN             6.75:   BIT SIZE
 BSD .F              1000:   BIT SIZE AT DEPTH
 DFT .            KCL MUD:   DRILLING FLUID TYPE
 DFD .                9.1:   DRILLING FLUID DENSITY
 BHT .F               100:   BOTTOM HOLE TEMPERATURE
 TCS .HRS            0230:   TIME CURCULATED STOPPED
 MRT .F               100:   MAXIMUM RECORDED TEMPERATURE
 ENGI.          D. LAWSON:   RECORDING ENGINEER
 WITN.         HARRINGTON:   WITNESSED BY
 CLNT.            A2DTECH:   CLIENT CODE
 ORIG.           5" PRINT:   ORIGIN OF DATA
 UWI .       490251041600:   UNIQUE WELL ID
 DICO. A2D Technologies, Inc.:   DIGITIZING COMPANY
~OTHER INFORMATION
~A   DEPT     CALD         GRD       CORR      DPHI         RHOB      SPR        ILD        ILM       SGRD   
# ...
  798.5000     6.6859    85.2747     0.0258     0.1409     2.3985   -44.4305     7.2929     8.4907    11.2674
  799.0000     6.6571    88.8891     0.0230     0.1456     2.3909   -44.5678     7.1963     8.4386    12.2799
  799.5000     6.6432    93.6994     0.0186     0.1522     2.3775   -44.6816     6.8619     8.1578    13.0111
  800.0000     6.6293    99.9732     0.0133     0.1871     2.3536   -44.9278     6.6374     7.6182    11.9798
  800.5000     6.6317   105.0350     0.0063     0.1927     2.3461   -45.1740     6.1089     6.3247    12.6732
  801.0000     6.6341   110.0969    -0.0018     0.1819     2.3522   -45.5420     5.5961     5.6270    13.2200
  801.5000     6.6365   104.0314     0.0029     0.1630     2.3882   -45.3702     5.0419     5.1826    12.6907
  802.0000     6.6391    88.1596     0.0076     0.1286     2.4310   -44.7499     4.8745     5.1143     9.9031
  802.5000     6.6565    79.0627     0.0093     0.1178     2.4520   -44.2792     4.6791     5.1192     3.9157
  803.0000     6.6738    82.9844     0.0095     0.1181     2.4618   -43.8084     4.7822     5.3034     3.2049
  803.5000     6.6912    85.4043     0.0097     0.1234     2.4596   -43.1881     4.9205     5.8321     6.7424
  804.0000     6.6936    87.9737     0.0099     0.1284     2.4492   -42.8668     5.0628     6.8350    14.3242
  804.5000     6.7109    84.7134     0.0100     0.1305     2.4350   -42.6950     5.3554     7.8379    12.9199
  805.0000     6.7283    78.4637     0.0102     0.1298     2.4313   -42.5232     5.9357     9.0001    13.2002
  805.5000     6.7456    76.2498     0.0119     0.1289     2.4336   -42.3514     6.5636     9.8548    13.6748
  806.0000     6.7630    83.4529     0.0166     0.1279     2.4397   -42.3290     7.1914     9.9997    13.9715
  806.5000     6.7953    92.5993     0.0214     0.1255     2.4472   -42.1572     7.9170    10.1468    13.9812
  807.0000     6.8276    83.6589     0.0261     0.1221     2.4533   -41.8359     8.4913    10.1545    13.6087
  807.5000     6.8599    81.1390     0.0278     0.1179     2.4608   -41.2156     8.6168    10.0206    13.3381
  808.0000     6.8773    85.5092     0.0310     0.1149     2.4639   -40.7449     8.5627     9.8904    13.0729
  808.5000     6.8797    83.8932     0.0312     0.1169     2.4602   -40.1246     8.3376     9.8316    12.9916
  809.0000     6.8516    81.6793     0.0313     0.1204     2.4550   -39.5043     8.2852    10.0454    12.8217
  809.5000     6.8390    80.2128     0.0330     0.1240     2.4461   -38.7346     8.4678    10.4793    12.6542
  810.0000     6.8087    74.2620     0.0332     0.1293     2.4357   -37.8154     8.9572    10.8564    12.6631
  810.5000     6.7815    60.3889     0.0334     0.1337     2.4200   -36.7467     9.6070    11.2472    12.9379
  811.0000     6.7416    54.7370     0.0336     0.1380     2.4058   -35.6780     9.9534    12.1225    13.2186
  811.5000     6.7272    57.4559     0.0338     0.1430     2.3930   -34.6094    10.8921    13.4002    14.7777
  812.0000     6.7016    54.1956     0.0355     0.1459     2.3841   -33.5407    12.3332    14.6779    19.6434
  812.5000     6.6890    50.0385     0.0372     0.1507     2.3797   -32.6215    13.7743    15.8352    21.2129
  813.0000     6.6765    48.1236     0.0374     0.1671     2.3782   -31.8517    15.3536    15.6294    18.7398
  813.5000     6.6335    48.8993     0.0376     0.1773     2.3769   -31.2315    15.0048    16.1920    21.8390
  814.0000     6.5914    52.8139     0.0378     0.1746     2.3761   -30.7607    13.8373    17.1266    26.9349
  814.5000     6.5641    54.4988     0.0380     0.1707     2.3733   -30.2899    13.5727    18.1152    27.1061
  815.0000     6.5366    52.8704     0.0397     0.1787     2.3726   -29.8191    14.6194    18.7673    18.4055
  815.5000     6.5390    49.0123     0.0399     0.1741     2.3757   -29.4978    17.0955    19.7137    16.4744
  816.0000     6.5415    46.3500     0.0401     0.1687     2.3840   -29.0271    16.1412    20.4232    20.5906
  816.5000     6.5439    49.2183     0.0403     0.1624     2.3915   -28.7058    15.3066    21.0124    22.0824
  817.0000     6.5164    52.6941     0.0405     0.1618     2.3946   -28.5339    16.1561    20.8834    19.7800
  817.5000     6.5188    55.8824     0.0407     0.1647     2.3916   -28.5116    18.0495    20.0493    18.3419
  818.0000     6.5212    58.9022     0.0393     0.1685     2.3864   -28.4892    19.0306    18.9840    24.7212
  818.5000     6.5085    61.6217     0.0396     0.1732     2.3768   -28.4669    18.6078    18.1001    27.2568
  819.0000     6.5110    60.9637     0.0368     0.1842     2.3626   -28.4445    16.8005    17.7384    22.4681
  819.5000     6.4985    54.3999     0.0295     0.1952     2.3514   -27.6748    15.9362    18.1277    25.1181
  820.0000     6.5009    47.7719     0.0251     0.1991     2.3327   -27.2040    17.1405    18.9105    23.1312
  820.5000     6.5033    50.3754     0.0223     0.2017     2.3283   -26.5838    18.5127    20.0021    23.7974
  821.0000     6.5057    54.8606     0.0195     0.2041     2.3246   -25.9635    19.2584    20.7221    29.1104
  821.5000     6.5081    58.1090     0.0182     0.2079     2.3179   -25.4928    19.2365    20.8818    29.4206
  822.0000     6.4950    59.2451     0.0184     0.2144     2.3127   -25.0220    18.4872    20.7536    22.2514
  822.5000     6.4824    56.1414     0.0186     0.2218     2.3023   -24.5512    18.2662    19.7873    24.9534
  823.0000     6.5004    54.0770     0.0188     0.2251     2.2971   -23.9309    18.8150    19.7528    23.4040
  823.5000     6.5028    56.3474     0.0190     0.2161     2.2949   -23.6096    19.4940    21.2373    26.6966
  824.0000     6.5052    58.3189     0.0192     0.2076     2.3085   -23.7369    20.0360    22.3083    28.0420
  824.5000     6.5076    57.7492     0.0194     0.2022     2.3168   -23.8640    20.3552    23.1113    25.7363
  825.0000     6.5250    56.8806     0.0211     0.2022     2.3243   -24.1405    20.7759    23.9431    28.0809
  825.5000     6.5274    55.5636     0.0213     0.2003     2.3319   -24.4171    20.9375    24.2952    30.7475
  826.0000     6.5447    54.6950     0.0230     0.1973     2.3409   -24.5481    20.9801    24.6526    28.7102
  826.5000     6.5471    54.8727     0.0231     0.1907     2.3440   -24.8266    21.1179    25.0151    25.0142
  827.0000     6.5495    55.4989     0.0233     0.1927     2.3456   -25.0975    21.2822    25.0342    24.6864
  827.5000     6.5519    57.0219     0.0235     0.1870     2.3516   -25.3837    21.2999    24.7089    25.9314
  828.0000     6.5693    58.8439     0.0237     0.1792     2.3659   -25.6622    20.9975    24.0526    28.1979
  828.5000     6.5717    60.5164     0.0239     0.1731     2.3764   -26.0768    20.5828    23.4138    30.4509
  829.0000     6.5741    60.8436     0.0226     0.1724     2.3742   -26.3687    20.2023    22.4787    25.2754
  829.5000     6.5915    59.3771     0.0198     0.1769     2.3689   -26.6472    19.6147    21.8816    21.5688
  830.0000     6.6238    53.8747     0.0155     0.1804     2.3613   -27.0752    18.6272    21.1536    22.0369
  830.5000     6.6411    57.5391     0.0125     0.1876     2.3549   -27.3537    17.5170    20.4497    24.2972
  831.0000     6.6585    61.7041     0.0081     0.1866     2.3528   -27.6093    16.8186    19.9066    23.4866
  831.5000     6.6604    64.1239     0.0026     0.1830     2.3581   -27.7364    16.3730    19.3779    22.2362
  832.0000     6.6628    64.3017    -0.0003     0.1799     2.3649   -27.4151    16.0466    18.6039    20.0562
  832.5000     6.6801    64.1734    -0.0030     0.1739     2.3739   -28.2840    15.6247    18.1098    18.8574
  833.0000     6.6825    63.4613    -0.0029     0.1694     2.3815   -29.1585    15.2108    17.2666    16.8913
  833.5000     6.7014    62.4433    -0.0042     0.1637     2.3890   -29.8836    15.1184    16.5770    16.1032
  834.0000     6.7172    60.0799    -0.0055     0.1609     2.3928   -30.6086    15.0267    16.7048    15.7803
  834.5000     6.7345    62.2008    -0.0053     0.1612     2.3921   -31.3336    14.9323    17.1867    17.8907
