~VERSION INFORMATION
 VERS.                2.0:   CWLS LOG ASCII STANDARD - VERSION 2.0
 WRAP.                 NO:   ONE LINE PER DEPTH STEP
~WELL INFORMATION
#MNEM.UNIT      DATA TYPE    INFORMATION
#----------   ------------   ------------------------------
 STRT.F            0.0000:   START DEPTH
 STOP.F          596.0000:   STOP DEPTH
 STEP.F            0.1000:   STEP LENGTH
 NULL.          -999.2500:   NO VALUE
 COMP. BROWN JOHN E&C INC:   COMPANY
 WELL.    72-5 SX-3 #72-3:   WELL
 FLD .             TEAPOT:   FIELD
 LOC .       S3 T38N R78W:   LOCATION
 CNTY.            NATRONA:   COUNTY
 STAT.            WYOMING:   STATE
 CTRY. UNITED STATES OF AMERICA:   COUNTRY
 SRVC.      Western Atlas:   SERVICE COMPANY
 DATE.        15-APR-1992:   LOGDATE
 API .       490252250900:   API NUMBER
~CURVE INFORMATION
#MNEM.UNIT       API CODE    CURVE DESCRIPTION
#----------   ------------   ------------------------------
 DEPT.F                  :   
 GRR .GAPI   07 310 01 00:   GAMMA RAY
 RILD.OHMM   07 120 46 00:   INDUCTION LOG DEEP RESISTIVITY
 RILM.OHMM   07 120 44 00:   INDUCTION LOG MEDIUM RESISTIVITY
~PARAMETER INFORMATION
#MNEM.UNIT          VALUE    DESCRIPTION
#----------   ------------   ------------------------------
 PD  .                 GL:   PERMANENT DATUM
 EPD .F              5132:   ELEVATION PERMANENT DATUM
 LMF .                 KB:   LOG MEASURED FROM
 DAPD.F                 5:   FEET ABOVE PERMANENT DATUM
 DMF .                 KB:   DRILLING MEASURED FROM
 EKB .F              5137:   KELLING BUSHING
 EDF .F              5136:   DRILLING FLOOR
 EGL .F              5132:   GROUND LEVEL
 DATE.        15-APR-1992:   RUN DATE
 RUN .                  1:   RUN NUMBER
 DD  .F               605:   DEPTH DRILLER
 DL  .F               599:   DEPTH LOGGER
 BLI .F               596:   BOTTOM LOG INTERVAL
 TLI .F                46:   TOP LOG INTERVAL
 CS  .IN            8.625:   CASING SIZE
 CBD .F                48:   CASING BOTTOM DRILLER
 CBL .F                46:   CASING BOTTOM LOGGER
 BS  .IN            7.875:   BIT SIZE
 BSD .F               605:   BIT SIZE AT DEPTH
 DFT .                AIR:   DRILLING FLUID TYPE
 LUN .            HL-6321:   LOGGING UNIT NUMBER
 LUL .        RK. SPRINGS:   LOGGING UNIT LOCATION
 ENGI.            TRIBBLE:   RECORDING ENGINEER
 WITN.             STRONG:   WITNESSED BY
 CLNT.            A2DTECH:   CLIENT CODE
 ORIG.           5" PRINT:   ORIGIN OF DATA
 UWI .       490252250900:   UNIQUE WELL ID
 DICO. A2D Technologies, Inc.:   DIGITIZING COMPANY
~OTHER INFORMATION
~A    DEPT     GRR       RILD       RILM   
# ...
  218.4000   119.4724    10.9092    11.0292
  218.5000   118.9990    10.9089    11.0289
  218.6000   118.7171    10.9086    11.0286
  218.7000   118.2796    10.9083    10.9668
  218.8000   117.7810    10.8580    10.9512
  218.9000   117.1764    10.8318    10.9509
  219.0000   116.4303    10.8315    10.9318
  219.1000   115.6690    10.8312    10.8694
  219.2000   114.9382    10.8308    10.7981
  219.3000   114.1921    10.8306    10.7978
  219.4000   113.5774    10.8303    10.7975
  219.5000   113.0788    10.8299    10.7729
  219.6000   112.6004    10.8296    10.7218
  219.7000   112.3134    10.8293    10.7215
  219.8000   112.0982    10.8290    10.6638
  219.9000   111.6905    10.8287    10.6030
  220.0000   111.2929    10.8284    10.5425
  220.1000   111.0418    10.8281    10.4981
  220.2000   110.7805    10.8202    10.4955
  220.3000   110.5396    10.7521    10.4244
  220.4000   110.2885    10.7518    10.3762
  220.5000   109.9111    10.7101    10.3170
  220.6000   109.4832    10.6764    10.2581
  220.7000   109.2321    10.6621    10.2072
  220.8000   108.9400    10.6014    10.2069
  220.9000   108.7299    10.6011    10.1542
  221.0000   108.4788    10.5536    10.1353
  221.1000   108.1317    10.4932    10.1350
  221.2000   107.6735    10.4531    10.1218
  221.3000   107.4071    10.4461    10.0639
  221.4000   107.1713    10.3797    10.0637
  221.5000   106.7435    10.3794    10.0634
  221.6000   106.4873    10.3792    10.0945
  221.7000   106.4180    10.3789    10.1333
  221.8000   106.1770    10.3786    10.1330
  221.9000   106.1727    10.3783    10.1327
  222.0000   106.1697    10.3780    10.1325
  222.1000   106.3125    10.3777    10.1692
  222.2000   106.5564    10.3774    10.2029
  222.3000   106.8002    10.3771    10.2026
  222.4000   107.0639    10.3768    10.2023
  222.5000   107.2879    10.3765    10.2020
  222.6000   107.5317    10.3763    10.2018
  222.7000   107.8917    10.3760    10.2015
  222.8000   108.3830    10.3757    10.2012
  222.9000   108.8743    10.3754    10.2009
  223.0000   109.3657    10.3751    10.2006
  223.1000   109.8569    10.3748    10.2003
  223.2000   110.0655    10.3745    10.2001
  223.3000   110.1477    10.3742    10.1998
  223.4000   110.3915    10.3739    10.1995
  223.5000   110.6602    10.3736    10.1992
  223.6000   110.6570    10.3733    10.1989
  223.7000   110.4867    10.3731    10.1986
  223.8000   110.2355    10.3728    10.1983
  223.9000   109.9844    10.3725    10.1981
  224.0000   109.7333    10.3722    10.1978
  224.1000   109.2348    10.3719    10.1975
  224.2000   108.7361    10.3142    10.1972
  224.3000   107.9648    10.2991    10.1969
  224.4000   106.9714    10.2988    10.1966
  224.5000   105.9777    10.2985    10.1963
  224.6000   104.8626    10.2982    10.1960
  224.7000   103.9906    10.2979    10.1958
  224.8000   103.1588    10.2476    10.1955
  224.9000   102.5188    10.2257    10.1952
  225.0000   102.1212    10.2016    10.1949
  225.1000   102.1175    10.1539    10.1946
  225.2000   102.3563    10.1536    10.1944
  225.3000   102.4133    10.1533    10.1941
  225.4000   102.5410    10.1530    10.1634
  225.5000   102.8606    10.1528    10.1226
  225.6000   103.3519    10.1525    10.1182
  225.7000   103.9134    10.1522    10.0515
  225.8000   104.1224    10.1519    10.0031
  225.9000   104.5228    10.1029     9.9811
  226.0000   104.8121    10.0806     9.9808
  226.1000   104.8539    10.0804     9.9805
  226.2000   105.1077    10.0702     9.9802
  226.3000   105.1042    10.0096     9.9800
  226.4000   105.1006    10.0093     9.9797
  226.5000   104.9707    10.0090     9.9794
  226.6000   104.5782    10.0088     9.9644
  226.7000   103.8170    10.0085     9.9094
  226.8000   102.6612    10.0082     9.9091
  226.9000   101.8299    10.0079     9.9088
  227.0000   100.6848    10.0076     9.9086
  227.1000    99.6357    10.0074     9.9083
  227.2000    98.9705    10.0071     9.9080
  227.3000    98.7040    10.0068     9.9077
  227.4000    98.7006    10.0065     9.8568
  227.5000    99.0505    10.0062     9.8382
  227.6000    99.5418    10.0060     9.8380
  227.7000   100.0331    10.0057     9.8377
  227.8000   100.5346    10.0054     9.8374
  227.9000   101.4090    10.0051     9.8371
  228.0000   101.8101    10.0048     9.7940
  228.1000   102.3014    10.0046     9.7682
  228.2000   102.8836    10.0043     9.7679
  228.3000   103.5871    10.0040     9.7676
  228.4000   104.1185     9.9952     9.7673
  228.5000   104.5697     9.9338     9.7671
  228.6000   104.8893     9.9335     9.7315
  228.7000   105.1331     9.9332     9.6986
  228.8000   105.4376     9.9330     9.6983
  228.9000   105.9238     9.9182     9.6980
  229.0000   106.1677     9.8614     9.6451
  229.1000   106.4115     9.7942     9.6300
  229.2000   106.7968     9.7489     9.6297
  229.3000   107.2022     9.7255     9.6295
  229.4000   107.4461     9.7052     9.6264
  229.5000   107.7148     9.6496     9.5619
  229.6000   108.1560     9.5897     9.5169
  229.7000   108.8139     9.5395     9.4626
  229.8000   109.5527     9.4849     9.4087
  229.9000   110.3471     9.4559     9.3626
  230.0000   111.3333     9.4556     9.3624
  230.1000   112.5670     9.4553     9.3621
  230.2000   113.6088     9.4551     9.3619
  230.3000   114.3224     9.4548     9.3616
  230.4000   114.8138     9.4545     9.3613
  230.5000   115.2798     9.4543     9.3617
  230.6000   115.5535     9.4540     9.4150
  230.7000   115.5503     9.4537     9.4261
  230.8000   115.5467     9.4535     9.4259
  230.9000   115.4370     9.4532     9.4078
  231.0000   115.2364     9.4529     9.3598
  231.1000   115.2327     9.4527     9.3595
  231.2000   114.9867     9.4524     9.2941
  231.3000   114.7356     9.4522     9.2938
  231.4000   114.6158     9.4096     9.2936
  231.5000   114.6121     9.3858     9.2933
  231.6000   114.6085     9.3855     9.2931
  231.7000   114.6043     9.3791     9.2928
  231.8000   114.6012     9.3196     9.2925
  231.9000   114.5976     9.3194     9.2923
  232.0000   114.5939     9.2837     9.2920
  232.1000   114.5903     9.2540     9.2918
  232.2000   114.5865     9.2537     9.2915
  232.3000   114.5830     9.2535     9.2913
  232.4000   114.5794     9.2006     9.2910
  232.5000   114.0707     9.1885     9.2487
  232.6000   113.0773     9.1883     9.2258
  232.7000   112.0836     9.1880     9.2256
  232.8000   110.9279     9.1877     9.2253
  232.9000   110.0965     9.1875     9.2250
  233.0000   109.2545     9.1872     9.2248
  233.1000   108.4126     9.1870     9.2245
  233.2000   107.4594     9.1867     9.2243
  233.3000   106.6677     9.1865     9.2240
  233.4000   106.1996     9.1862     9.2238
  233.5000   106.0545     9.1344     9.2235
  233.6000   105.9297     9.1217     9.2233
  233.7000   105.7442     9.1215     9.1952
  233.8000   105.7507     9.1212     9.1586
  233.9000   106.0393     9.1210     9.1542
  234.0000   106.0364     9.1207     9.0943
  234.1000   106.0327     9.0753     9.0941
  234.2000   106.2109     9.0567     9.0938
  234.3000   106.7022     9.0564     9.0729
  234.4000   107.2336     9.0562     9.0300
  234.5000   107.6849     9.0559     9.0298
  234.6000   108.3479     9.0054     8.9810
  234.7000   108.9705     8.9924     8.9665
  234.8000   109.3406     8.9651     8.9662
  234.9000   109.3319     8.9292     8.9660
  235.0000   109.0808     8.9290     8.9657
  235.1000   108.8297     8.9287     8.9654
  235.2000   108.5786     8.9285     8.9238
  235.3000   108.1557     8.9282     8.9026
  235.4000   107.4399     8.9280     8.9023
  235.5000   106.8905     8.9277     8.9021
  235.6000   106.2206     8.9275     8.9018
  235.7000   105.3079     8.9766     8.9016
  235.8000   104.4255     8.9896     8.9013
  235.9000   103.7350     8.9893     8.9011
  236.0000   103.2364     8.9891     8.9008
  236.1000   102.7378     8.9888     8.9006
  236.2000   102.8149     8.9886     8.9003
  236.3000   103.1951     8.9883     8.9001
  236.4000   103.6056     8.9881     8.8998
  236.5000   103.8495     8.9878     8.8996
