~VERSION INFORMATION
 VERS.                2.0:   CWLS LOG ASCII STANDARD - VERSION 2.0
 WRAP.                 NO:   ONE LINE PER DEPTH STEP
~WELL INFORMATION
#MNEM.UNIT      DATA TYPE    INFORMATION
#----------   ------------   ------------------------------
 STRT.F           34.0000:   START DEPTH
 STOP.F          555.0000:   STOP DEPTH
 STEP.F            0.5000:   STEP LENGTH
 NULL.          -999.2500:   NO VALUE
 COMP. FENIX & SCISSON-U.S. NAVY:   COMPANY
 WELL.    NPR #3 #17-S-11:   WELL
 FLD .             TEAPOT:   FIELD
 LOC .      S11 T38N R78W:   LOCATION
 CNTY.            NATRONA:   COUNTY
 STAT.            WYOMING:   STATE
 CTRY. UNITED STATES OF AMERICA:   COUNTRY
 SRVC.       Schlumberger:   SERVICE COMPANY
 DATE.        20-FEB-1977:   LOGDATE
 API .       490251028100:   API NUMBER
~CURVE INFORMATION
#MNEM.UNIT       API CODE    CURVE DESCRIPTION
#----------   ------------   ------------------------------
 DEPT.F                  :   
 SPR .MV     07 010 01 00:   SPONTANEOUS POTENTIAL
 ILD .OHMM   07 120 46 00:   INDUCTION LOG DEEP
 ILM .OHMM   07 120 44 00:   INDUCTION LOG MEDIUM
 LL8 .OHMM   07 220 08 00:   LATEROLOG-8 RES.
 CALD.IN     45 280 60 00:   CALIPER FROM DENSITY LOG
 GRD .GAPI   45 310 01 00:   GAMMA RAY FROM DENSITY LOG
 CORR.G/C3   45 356 01 00:   DENSITY CORRECTION
 RHOB.G/C3   45 350 01 00:   BULK DENSITY
 DPHI.DEC    45 890 12 00:   DENSITY POROSITY SANDSTONE
~PARAMETER INFORMATION
#MNEM.UNIT          VALUE    DESCRIPTION
#----------   ------------   ------------------------------
 PD  .                 GL:   PERMANENT DATUM
 EPD .F              5204:   ELEVATION PERMANENT DATUM
 LMF .                 GL:   LOG MEASURED FROM
 DMF .                 GL:   DRILLING MEASURED FROM
 EKB .F              5209:   KELLING BUSHING
 EGL .F              5204:   GROUND LEVEL
 DATE.        20-FEB-1977:   RUN DATE
 RUN .                  1:   RUN NUMBER
 DD  .F               556:   DEPTH DRILLER
 DL  .F               556:   DEPTH LOGGER
 BLI .F               555:   BOTTOM LOG INTERVAL
 TLI .F                42:   TOP LOG INTERVAL
 CS  .IN            8.625:   CASING SIZE
 CBD .F                42:   CASING BOTTOM DRILLER
 CBL .F                42:   CASING BOTTOM LOGGER
 BS  .IN            7.875:   BIT SIZE
 BSD .F               556:   BIT SIZE AT DEPTH
 DFT .            KCL MUD:   DRILLING FLUID TYPE
 DFD .                8.8:   DRILLING FLUID DENSITY
 DFV .                 33:   DRILLING FLUID VISCOSITY
 DFPH.                8.0:   DRILLING FLUID PH
 DFL .                7.6:   DRILLING FLUID LOSS
 MSS .           FLOWLINE:   MUD SAMPLE SOURCE
 RMS .OHMM            .44:   RESISTIVITY MUD SAMPLE
 MST .F                66:   MUD SAMPLE TEMPERATURE
 RMF .OHMM            .41:   RESISTIVITY MUD FILTRATE SAMPLE
 MFST.F                66:   MUD FILTRATE SAMPLE TEMPERATURE
 MFSS.               MEAS:   MUD FILTRATE SAMPLE SOURCE
 TCS .HRS               3:   TIME CURCULATED STOPPED
 LUN .               7680:   LOGGING UNIT NUMBER
 LUL .               CSPR:   LOGGING UNIT LOCATION
 ENGI.             TAYLOR:   RECORDING ENGINEER
 WITN.               JAPP:   WITNESSED BY
 CLNT.            A2DTECH:   CLIENT CODE
 ORIG.           5" PRINT:   ORIGIN OF DATA
 UWI .       490251028100:   UNIQUE WELL ID
 DICO. A2D Technologies, Inc.:   DIGITIZING COMPANY
~OTHER INFORMATION
~A   DEPT      SPR        ILD        ILM        LL8       CALD        GRD       CORR       RHOB       DPHI   
# ...
   70.5000   -64.2663     7.6568     7.0466     8.5301     8.2837    99.5877     0.0585     2.5072     0.1066
   71.0000   -64.1246     7.7084     7.0443     8.6476     8.2829   102.0719     0.0375     2.4567     0.1208
   71.5000   -64.1353     7.7599     7.0423     8.4679     8.2821   102.9735     0.0435     2.4439     0.1226
   72.0000   -64.1459     7.8117     7.0898     8.2352     8.2814    99.5743     0.0480     2.4544     0.1157
   72.5000   -64.1565     7.8638     7.0874     8.0645     8.2806    94.5925     0.0337     2.4710     0.1109
   73.0000   -64.1692     7.9163     7.1353     7.9521     8.2799    90.7419     0.0509     2.4778     0.1079
   73.5000   -64.0251     7.9686     7.2328     7.9505     8.2791    90.2843     0.0404     2.4582     0.1236
   74.0000   -64.0381     7.9665     7.2811     8.0596     8.2784    94.5785     0.0260     2.4355     0.1254
   74.5000   -64.0486     8.0197     7.3293     8.2268     8.2776    96.6102     0.0217     2.4480     0.1164
   75.0000   -64.0591     8.0732     7.3272     8.4558     8.2769    96.8331     0.0374     2.4718     0.1104
   75.5000   -64.0695     8.1836     7.3762     8.6353     8.2761    95.9226     0.0509     2.4823     0.1071
   76.0000   -64.2319     8.2382     7.3737     8.8185     8.2753    95.2394     0.0554     2.4792     0.1104
   76.5000   -64.3944     8.2354     7.3717     8.9313     8.2746    95.9137     0.0307     2.4672     0.1159
   77.0000   -64.4048     8.1763     7.3697     8.6854     8.2738    96.5891     0.0250     2.4543     0.1207
   77.5000   -64.2629     8.0617     7.3677     8.4468     8.2731    97.4886     0.0292     2.4430     0.1243
   78.0000   -64.2738     7.9486     7.3148     8.1581     8.2723    97.7104     0.0185     2.4340     0.1267
   78.5000   -64.2851     7.8916     7.2123     7.9889     8.2716    98.1584     0.0156     2.4309     0.1274
   79.0000   -64.2948     7.8350     7.1606     7.8776     8.2708    97.9020     0.0314     2.4340     0.1244
   79.5000   -64.3055     7.6718     6.9150     7.7678     8.2700    96.3385     0.0164     2.4475     0.1193
   80.0000   -64.1636     7.5121     6.6779     7.7663     8.2693    95.6553     0.0291     2.4843     0.1051
   80.5000   -64.1767     7.3556     6.4488     7.7112     8.2685    98.3658     0.0583     2.5129     0.0934
   81.0000   -64.1871     7.3029     6.3584     7.7096     8.2678    99.9451     0.0621     2.4920     0.1076
   81.5000   -64.1976     7.2505     6.3563     7.7080     8.2670   100.1680     0.0343     2.4686     0.1172
   82.0000   -64.0535     7.1981     6.3107     7.7064     8.2663    98.5787     0.0283     2.4377     0.1227
   82.5000   -63.9119     7.1329     6.3090     7.7049     8.2655    96.0856     0.0354     2.4565     0.1179
   83.0000   -63.9250     7.0677     6.3073     7.7033     8.2799    93.8187     0.0463     2.4724     0.1128
   83.5000   -63.7809     6.9958     6.3056     7.7017     8.2790    93.1355     0.0411     2.4784     0.1089
   84.0000   -63.6394     6.9456     6.3481     7.6998     8.2783    93.1311     0.0283     2.4723     0.1170
   84.5000   -63.3480     6.9925     6.3460     7.6982     8.2775    94.2579     0.0178     2.4527     0.1234
   85.0000   -63.3589     7.0391     6.3884     7.6966     8.2768    97.2323     0.0126     2.4241     0.1285
   85.5000   -63.3694     7.0857     6.3866     7.6951     8.2760    99.6789     0.0096     2.4308     0.1268
   86.0000   -63.3799     7.1825     6.4292     7.6935     8.2753    98.9946     0.0110     2.4444     0.1201
   86.5000   -63.3906     7.2817     6.4787     7.6919     8.2897    97.4064     0.0163     2.4595     0.1162
   87.0000   -63.4012     7.3802     6.5606     7.6374     8.2890    94.9133     0.0185     2.4685     0.1117
   87.5000   -63.4138     7.4897     6.6499     7.6892     8.3185    94.4564     0.0275     2.4761     0.1084
   88.0000   -63.5762     7.7421     6.8823     7.7943     8.3203    94.6782     0.0433     2.4851     0.1054
   88.5000   -63.4321     7.8484     7.0254     8.0668     8.3321    94.9011     0.0530     2.5047     0.0988
   89.0000   -63.4452     7.9008     7.2203     8.3489     8.3312    94.8955     0.0417     2.5213     0.0928
   89.5000   -63.4556     7.9536     7.4210     8.5221     8.3309    93.7599     0.0372     2.5273     0.0892
   90.0000   -63.4661     8.0623     7.5748     8.6990     8.3313    93.5303     0.0372     2.5107     0.0974
   90.5000   -63.4765     8.1161     7.6783     8.9411     8.3316    93.9774     0.0372     2.4707     0.1078
   91.0000   -63.4870     8.1703     7.7833     8.9392     8.3319    93.7466     0.0335     2.4647     0.1140
   91.5000   -63.4975     8.1675     7.6699     8.8754     8.3323    92.8167     0.0290     2.4775     0.1089
   92.0000   -63.5079     8.1653     7.4535     8.8125     8.3326    90.9744     0.0245     2.4519     0.1191
   92.5000   -63.5184     8.1067     7.2061     8.6897     8.3329    89.6191     0.0192     2.4337     0.1261
   93.0000   -63.5289     7.9931     7.0073     8.5686     8.3332    88.7503     0.0095     2.4443     0.1222
   93.5000   -63.5395     7.8240     6.9571     8.3909     8.3336    88.5196     0.0057     2.3978     0.1393
   94.0000   -63.5502     7.6572     6.8122     8.2170     8.3339    89.8727     0.0109     2.4239     0.1279
   94.5000   -63.4082     7.5035     6.7634     8.1025     8.3342    90.5481     0.0230     2.4435     0.1201
   95.0000   -63.4213     7.3982     6.7149     7.9896     8.3346    89.6375     0.0283     2.4648     0.1132
   95.5000   -63.4317     7.2945     6.6667     7.9880     8.3349    90.0856     0.0192     2.4337     0.1233
   96.0000   -63.4422     7.2925     6.6189     7.9313     8.3352    92.7961     0.0229     2.4465     0.1193
   96.5000   -63.4526     7.3412     6.6631     7.7669     8.3356    95.0541     0.0289     2.4608     0.1154
   97.0000   -63.3111     7.3902     6.6662     7.6586     8.3359    95.3047     0.0132     2.4367     0.1232
   97.5000   -63.3216     7.4400     6.7524     7.6571     8.3362    93.2352     0.0102     2.4118     0.1311
   98.0000   -63.1775     7.5412     6.7975     7.9285     8.3365    93.0046     0.0199     2.4088     0.1335
   98.5000   -63.0359     7.6443     6.9378     8.1454     8.3369    94.5838     0.0094     2.4201     0.1263
   99.0000   -63.0490     7.8027     7.1307     8.4298     8.3372    95.5249     0.0041     2.4095     0.1284
   99.5000   -63.0595     8.0197     7.3290     8.7851     8.3375    95.7062     0.0064     2.3929     0.1278
  100.0000   -63.0699     8.2999     7.5737     9.0923     8.3379    94.2214     0.0151     2.4223     0.1221
  100.5000   -62.9922     8.4756     7.7960     9.3454     8.3382    92.7189     0.0208     2.3794     0.1286
  101.0000   -62.9145     8.5881     7.9570     9.5393     8.3385    91.1765     0.0189     2.3839     0.1399
  101.5000   -62.8367     8.5852     8.0652     9.5374     8.3388    90.7240     0.0182     2.3960     0.1417
  102.0000   -62.8078     8.6425     8.1185     9.6021     8.3392    90.7240     0.0257     2.4277     0.1285
  102.5000   -62.6663     8.7022     8.0590     9.5996     8.3395    90.9502     0.0489     2.4648     0.1159
  103.0000   -62.6793     8.7582     8.0563     9.5315     8.3398    91.6290     0.0331     2.4646     0.1177
  103.5000   -62.5378     8.7557     7.9980     9.1421     8.3245    91.4027     0.0353     2.4731     0.1142
  104.0000   -62.7002     8.6925     7.8853     8.8297     8.3389    90.4857     0.0412     2.4806     0.1112
  104.5000   -62.8627     8.3944     7.7177     8.4691     8.3079    88.8627     0.0352     2.4678     0.1164
  105.0000   -62.8731     7.9950     7.3902     8.2364     8.2918    87.7828     0.0187     2.4475     0.1234
  105.5000   -62.8836     7.6675     7.0018     7.9549     8.2608    88.4615     0.0179     2.4310     0.1303
  106.0000   -62.7416     7.4560     6.7612     7.8985     8.2601    90.9502     0.0088     2.4219     0.1343
  106.5000   -62.6005     7.3514     6.5743     7.8424     8.2594    93.6652     0.0178     2.4469     0.1244
