~VERSION INFORMATION
 VERS.                2.0:   CWLS LOG ASCII STANDARD - VERSION 2.0
 WRAP.                 NO:   ONE LINE PER DEPTH STEP
~WELL INFORMATION
#MNEM.UNIT      DATA TYPE    INFORMATION
#----------   ------------   ------------------------------
 STRT.F           40.0000:   START DEPTH
 STOP.F          950.5000:   STOP DEPTH
 STEP.F            0.5000:   STEP LENGTH
 NULL.          -999.2500:   NO VALUE
 COMP. FENIX & SCISSON INC:   COMPANY
 WELL.       NPR 3 #44-14:   WELL
 FLD .             TEAPOT:   FIELD
 LOC .      S14 T38N R78W:   LOCATION
 CNTY.            NATRONA:   COUNTY
 STAT.            WYOMING:   STATE
 CTRY. UNITED STATES OF AMERICA:   COUNTRY
 SRVC.            Unknown:   SERVICE COMPANY
 DATE.        05-JAN-1979:   LOGDATE
 API .       490251076100:   API NUMBER
~CURVE INFORMATION
#MNEM.UNIT       API CODE    CURVE DESCRIPTION
#----------   ------------   ------------------------------
 DEPT.F                  :   
 SPR .MV     05 010 01 00:   SPONTANEOUS POTENTIAL FROM RES.
 SN  .OHMM   05 040 16 00:   SHORT NORMAL 16"
 IL  .OHMM   05 120 00 00:   INDUCTION LOG
 CALD.IN     45 280 60 00:   CALIPER
 GRD .GAPI   45 310 01 00:   GAMMA RAY FROM DENSITY LOG
 RHOB.G/C3   45 350 01 00:   BULK DENSITY
 DPHI.DEC    45 890 12 00:   DENSITY POROSITY SANDSTONE
 CORR.G/C3   45 356 01 00:   DENSITY CORRECTION
~PARAMETER INFORMATION
#MNEM.UNIT          VALUE    DESCRIPTION
#----------   ------------   ------------------------------
 PD  .                 GL:   PERMANENT DATUM
 EPD .F              5266:   ELEVATION PERMANENT DATUM
 LMF .                 KB:   LOG MEASURED FROM
 DAPD.F                 4:   FEET ABOVE PERMANENT DATUM
 DMF .                 KB:   DRILLING MEASURED FROM
 EKB .F              5270:   KELLING BUSHING
 EGL .F              5266:   GROUND LEVEL
 DATE.             1-5-79:   RUN DATE
 RUN .                  1:   RUN NUMBER
 DD  .F               950:   DEPTH DRILLER
 DL  .F               943:   DEPTH LOGGER
 BLI .F               937:   BOTTOM LOG INTERVAL
 TLI .F                40:   TOP LOG INTERVAL
 CS  .IN            8.625:   CASING SIZE
 CBL .F                40:   CASING BOTTOM LOGGER
 BS  .IN            7.875:   BIT SIZE
 BSD .F               950:   BIT SIZE AT DEPTH
 DFT .                KCL:   DRILLING FLUID TYPE
 DFV .                 42:   DRILLING FLUID VISCOSITY
 DFL .               10.5:   DRILLING FLUID LOSS
 MSS .           FLOWLINE:   MUD SAMPLE SOURCE
 RMS .OHMM            .23:   RESISTIVITY MUD SAMPLE
 RMF .OHMM            .23:   RESISTIVITY MUD FILTRATE SAMPLE
 RMC .OHMM             .2:   RESISTIVITY MUD CAKE
 MFSS.           MEASURED:   MUD FILTRATE SAMPLE SOURCE
 MCSS.           MEASURED:   MUD CAKE SAMPLE SOURCE
 RMB .OHMM             .2:   RESISTIVITY MUD AT BHT
 BHT .F                70:   BOTTOM HOLE TEMPERATURE
 TCS .HRS               5:   TIME CURCULATED STOPPED
 MRT .F                70:   MAXIMUM RECORDED TEMPERATURE
 LUL .             CASPER:   LOGGING UNIT LOCATION
 ENGI.             MILLER:   RECORDING ENGINEER
 WITN.           DINSMORE:   WITNESSED BY
 CLNT.            A2DTECH:   CLIENT CODE
 ORIG.           5" PRINT:   ORIGIN OF DATA
 UWI .       490251076100:   UNIQUE WELL ID
 DICO. A2D Technologies, Inc.:   DIGITIZING COMPANY
~OTHER INFORMATION
~A   DEPT      SPR           SN         IL     CALD        GRD       RHOB       DPHI       CORR   
# ...
  728.5000   -34.4830     6.5410     6.4530     8.0090   119.1880     2.4870     0.1230     0.0090
  729.0000   -34.7630     6.6150     6.9330     8.0130   123.6040     2.4760     0.1290     0.0060
  729.5000   -35.0480     6.6830     6.6570     8.0170   126.7250     2.4690     0.1350     0.0040
  730.0000   -35.3450     6.5630     6.2530     8.0210   126.7090     2.4670     0.1340     0.0040
  730.5000   -34.9510     6.4250     5.8490     8.0250   127.6870     2.4690     0.1320     0.0040
  731.0000   -34.9140     6.2880     5.4590     8.0290   120.6660     2.4760     0.1250     0.0080
  731.5000   -35.0410     6.0350     5.2400     8.0330   114.2680     2.4830     0.1330     0.0090
  732.0000   -35.1710     5.6240     5.0710     8.0370   120.1910     2.4640     0.1420     0.0070
  732.5000   -35.3000     5.4090     5.0710     8.0410   126.8280     2.4440     0.1520     0.0080
  733.0000   -35.3360     5.4090     5.0710     8.0450   132.5920     2.4240     0.1620     0.0190
  733.5000   -34.5800     5.4660     5.0710     8.0480   127.6970     2.4100     0.1700     0.0150
  734.0000   -34.4220     5.8190     5.0710     8.0520   118.8390     2.4180     0.1600    -0.0020
  734.5000   -34.4080     6.1710     5.1270     8.0560   112.8310     2.4580     0.1410    -0.0090
  735.0000   -34.1140     6.4140     5.5400     8.0600   118.8940     2.5000     0.1150     0.0070
  735.5000   -33.8070     6.6160     5.9520     8.0630   124.2870     2.4960     0.1180     0.0160
  736.0000   -33.5030     6.8180     6.3650     8.0660   128.3370     2.4860     0.1230     0.0050
  736.5000   -33.2450     7.0200     6.7450     8.0690   126.9850     2.4760     0.1280    -0.0070
  737.0000   -33.3970     7.1770     6.8820     8.0720   128.8260     2.4740     0.1280    -0.0140
  737.5000   -33.9950     7.2830     7.0380     8.0750   130.2240     2.4780     0.1280    -0.0080
  738.0000   -34.2360     7.3890     7.1320     8.0770   124.3810     2.4980     0.1200     0.0000
  738.5000   -34.2790     7.4940     7.2140     8.0800   120.4590     2.5030     0.1120     0.0090
  739.0000   -33.6820     7.6000     7.2960     8.0830   118.6620     2.5010     0.1110     0.0080
  739.5000   -33.2030     7.7060     7.3790     8.0860   116.8490     2.5040     0.1090     0.0060
  740.0000   -33.1290     7.8140     7.4630     8.0890   114.9710     2.5030     0.1110     0.0040
  740.5000   -33.0460     7.8000     7.5250     8.0920   114.4670     2.4970     0.1140     0.0020
  741.0000   -32.9600     7.7860     7.6050     8.0950   114.9890     2.4910     0.1190     0.0000
  741.5000   -32.8770     7.7720     7.6860     8.0970   115.9600     2.4890     0.1210    -0.0020
  742.0000   -32.6550     7.7580     7.7660     8.1000   116.6790     2.4840     0.1220    -0.0040
  742.5000   -32.3220     7.7420     7.8460     8.1030   114.5900     2.4790     0.1230    -0.0030
  743.0000   -32.4450     7.7330     7.8860     8.1060   110.2080     2.4800     0.1230     0.0010
  743.5000   -32.7740     7.7240     7.9200     8.1090   104.7930     2.4860     0.1220     0.0050
  744.0000   -33.1360     7.7140     7.9510     8.1120   108.5360     2.4880     0.1210     0.0040
  744.5000   -33.2300     7.7040     7.9820     8.1140   115.5990     2.4810     0.1270    -0.0010
  745.0000   -33.2340     7.6940     8.0130     8.1170   113.2930     2.4740     0.1330    -0.0060
  745.5000   -33.2350     7.6850     8.0440     8.1200   110.0840     2.4710     0.1310    -0.0040
  746.0000   -33.2990     7.6710     8.0760     8.1160   115.4550     2.4780     0.1260     0.0000
  746.5000   -33.4500     7.7220     8.1070     8.1110   116.9210     2.4870     0.1210     0.0030
  747.0000   -33.6070     7.8050     8.2340     8.1060   111.9150     2.4860     0.1260     0.0040
  747.5000   -33.3880     7.8890     8.4960     8.1000   108.3960     2.4820     0.1230     0.0040
  748.0000   -33.0990     7.9590     8.9310     8.0950   108.6390     2.4890     0.1200     0.0040
  748.5000   -32.8710     7.8760     9.5660     8.0900   115.3920     2.4910     0.1200     0.0040
  749.0000   -33.1330     7.8050     9.2510     8.0850   113.6060     2.4870     0.1210     0.0040
  749.5000   -33.3900     7.7420     8.4560     8.0790   111.9020     2.4860     0.1210     0.0040
  750.0000   -33.6450     7.2870     7.4690     8.0740   108.5340     2.4870     0.1210     0.0040
  750.5000   -33.8720     6.7880     6.4820     8.0690   103.1300     2.4880     0.1200     0.0040
  751.0000   -34.0340     6.2900     5.3590     8.0640   103.5270     2.4870     0.1200     0.0040
  751.5000   -34.1980     5.7910     5.5080     8.0640   119.2000     2.4850     0.1360     0.0050
  752.0000   -34.0790     5.6110     5.7340     8.0700   135.4950     2.4280     0.1630     0.0050
  752.5000   -33.8650     5.6630     5.9600     8.0770   134.1200     2.3620     0.2020     0.0310
  753.0000   -33.6500     5.7680     6.2720     8.0790   127.6880     2.3320     0.2170     0.0700
  753.5000   -33.4280     6.1800     6.7140     8.0740   115.2770     2.3700     0.2020     0.1010
  754.0000   -33.0670     6.7020     7.1570     8.0690   106.6830     2.3620     0.1810    -0.0150
  754.5000   -32.6970     7.2230     7.5990     8.0640   109.2090     2.4420     0.1490    -0.0200
  755.0000   -32.3270     7.7450     8.0410     8.0590   109.7170     2.5050     0.1120     0.0000
  755.5000   -31.9530     8.1440     8.4830     8.0540   108.3960     2.5090     0.1080     0.0090
  756.0000   -31.6620     8.2630     8.8880     8.0490   107.0050     2.5090     0.1070     0.0040
  756.5000   -31.3910     8.3830     8.9990     8.0440   107.8270     2.5010     0.1140     0.0000
  757.0000   -31.1210     8.5030     9.1020     8.0390   108.9980     2.4940     0.1160    -0.0040
  757.5000   -30.8730     8.6230     9.2050     8.0340   108.8490     2.4930     0.1170    -0.0030
  758.0000   -30.7720     8.7430     9.3060     8.0290   108.5660     2.4930     0.1170    -0.0030
  758.5000   -30.6620     8.8630     9.6000     8.0240   111.2520     2.4930     0.1170    -0.0030
  759.0000   -30.5510     8.9890     9.8910     8.0190   109.4820     2.4950     0.1170    -0.0020
  759.5000   -30.4400     9.1170    10.1050     8.0140   108.0360     2.4980     0.1140    -0.0030
  760.0000   -30.3280     9.2450    10.2620     8.0090   112.5250     2.5040     0.1120    -0.0040
  760.5000   -30.2180     9.3730    10.4180     8.0040   111.3150     2.4870     0.1200    -0.0060
  761.0000   -30.1110     9.5020    10.5750     8.0110   108.0710     2.4830     0.1240    -0.0060
  761.5000   -29.7540     9.6550    10.7310     8.0330   101.7310     2.4830     0.1220    -0.0020
  762.0000   -29.1630     9.8530    11.3540     8.0550    94.4780     2.4930     0.1190     0.0050
  762.5000   -28.0280    10.0360    12.1950     8.0760    87.2560     2.5030     0.1160     0.0120
  763.0000   -26.9220    10.2190    13.0360     8.0980    80.0320     2.5020     0.1150     0.0170
  763.5000   -25.8210    10.4010    13.8350     8.1180    72.7890     2.4800     0.1230     0.0180
  764.0000   -24.7210    10.5850    14.4820     8.0660    65.5420     2.4550     0.1410     0.0190
  764.5000   -23.6200    10.5290    15.1280     8.0100    58.3130     2.4290     0.1590     0.0200
  765.0000   -22.7780    10.4730    15.7750     7.9540    53.6520     2.4030     0.1770     0.0280
  765.5000   -22.3160    10.4180    16.4600     7.9020    55.9250     2.3830     0.1860     0.0370
  766.0000   -21.2260    10.3620    16.1810     7.8960    60.8660     2.3800     0.1880     0.0470
  766.5000   -20.3050    10.3060    15.8850     7.8910    65.8180     2.3770     0.1880     0.0660
  767.0000   -21.0600    10.2500    15.5900     7.8850    67.7550     2.4050     0.1690     0.0850
  767.5000   -20.0750    10.1940    15.2940     7.8800    69.6860     2.4000     0.1780     0.0870
  768.0000   -20.2260    10.1390    15.0130     7.8750    69.6290     2.3920     0.1830     0.0810
  768.5000   -20.4590    10.0830    14.9590     7.8690    63.1450     2.3840     0.1850     0.0860
