~VERSION INFORMATION
 VERS.                2.0:   CWLS LOG ASCII STANDARD - VERSION 2.0
 WRAP.                 NO:   ONE LINE PER DEPTH STEP
~WELL INFORMATION
#MNEM.UNIT      DATA TYPE    INFORMATION
#----------   ------------   ------------------------------
 STRT.F            6.0000:   START DEPTH
 STOP.F          765.0000:   STOP DEPTH
 STEP.F            0.5000:   STEP LENGTH
 NULL.          -999.2500:   NO VALUE
 COMP. FENIX & SCISSON INC:   COMPANY
 WELL.      24 SX 2 #24-2:   WELL
 FLD .        TEAPOT DOME:   FIELD
 LOC .       S2 T38N R78W:   LOCATION
 CNTY.            NATRONA:   COUNTY
 STAT.            WYOMING:   STATE
 CTRY. UNITED STATES OF AMERICA:   COUNTRY
 SRVC.           BIRDWELL:   SERVICE COMPANY
 DATE.        20-JAN-1978:   LOGDATE
 API .       490251055700:   API NUMBER
~CURVE INFORMATION
#MNEM.UNIT       API CODE    CURVE DESCRIPTION
#----------   ------------   ------------------------------
 DEPT.F                  :   
 SPR .MV     05 010 01 00:   SPONTANEOUS POTENTIAL FROM RES.
 SN  .OHMM   05 040 16 00:   SHORT NORMAL 16"
 ILD .OHMM   05 120 46 00:   INDUCTION LOG DEEP
 CALD.IN     45 280 60 00:   CALIPER FROM DENSITY LOG
 CORR.G/C3   45 356 01 00:   DENSITY CORRECTION
 DEN .G/C3   45 350 01 00:   COMPENSATED BULK DENSTIY
 DPHI.DEC    45 890 12 00:   DENSITY POROSITY SANDSTONE
 GRD .GAPI   45 310 01 00:   GAMMA RAY FROM DENSITY LOG
~PARAMETER INFORMATION
#MNEM.UNIT          VALUE    DESCRIPTION
#----------   ------------   ------------------------------
 PD  .                 GL:   PERMANENT DATUM
 EPD .F              5131:   ELEVATION PERMANENT DATUM
 LMF .                 KB:   LOG MEASURED FROM
 DMF .                 KB:   DRILLING MEASURED FROM
 EKB .F              5134:   KELLING BUSHING
 EGL .F              5131:   GROUND LEVEL
 DATE.        20-JAN-1978:   RUN DATE
 RUN .                  1:   RUN NUMBER
 DD  .F               775:   DEPTH DRILLER
 DL  .F               770:   DEPTH LOGGER
 BLI .F               770:   BOTTOM LOG INTERVAL
 TLI .F                40:   TOP LOG INTERVAL
 CS  .IN            8.625:   CASING SIZE
 CBD .F                39:   CASING BOTTOM DRILLER
 CBL .F                39:   CASING BOTTOM LOGGER
 BS  .IN            7.875:   BIT SIZE
 BSD .F               775:   BIT SIZE AT DEPTH
 DFT .                KCL:   DRILLING FLUID TYPE
 DFD .                8.6:   DRILLING FLUID DENSITY
 DFV .                 33:   DRILLING FLUID VISCOSITY
 DFPH.                9.5:   DRILLING FLUID PH
 DFL .                  8:   DRILLING FLUID LOSS
 MSS .           FLOWLINE:   MUD SAMPLE SOURCE
 RMS .OHMM            .31:   RESISTIVITY MUD SAMPLE
 MST .F                54:   MUD SAMPLE TEMPERATURE
 RMF .OHMM            .28:   RESISTIVITY MUD FILTRATE SAMPLE
 MFST.F                64:   MUD FILTRATE SAMPLE TEMPERATURE
 RMC .OHMM             .8:   RESISTIVITY MUD CAKE
 MCST.F                64:   MUD CAKE SAMPLE TEMPERATURE
 MFSS.               MEAS:   MUD FILTRATE SAMPLE SOURCE
 MCSS.               MEAS:   MUD CAKE SAMPLE SOURCE
 RMB .OHMM            .22:   RESISTIVITY MUD AT BHT
 BHT .F                76:   BOTTOM HOLE TEMPERATURE
 TCS .HRS            0400:   TIME CURCULATED STOPPED
 MRT .F                76:   MAXIMUM RECORDED TEMPERATURE
 LUN .               2958:   LOGGING UNIT NUMBER
 LUL .             CASPER:   LOGGING UNIT LOCATION
 ENGI.            POINTER:   RECORDING ENGINEER
 WITN.           MCGINLEY:   WITNESSED BY
 CLNT.            A2DTECH:   CLIENT CODE
 ORIG.           5" PRINT:   ORIGIN OF DATA
 UWI .       490251055700:   UNIQUE WELL ID
 DICO. A2D Technologies, Inc.:   DIGITIZING COMPANY
~OTHER INFORMATION
~A    DEPT     SPR         SN        ILD       CALD       CORR        DEN       DPHI         GRD  
# ...
  451.5000   -44.7565     7.9580     6.9905     8.1115     0.0790     2.4017     0.1559    84.2378
  452.0000   -44.7654     8.0087     6.9876     8.1261     0.0797     2.4039     0.1544    80.3616
  452.5000   -44.9249     7.9482     6.9358     8.1406     0.0819     2.4046     0.1520    87.6054
  453.0000   -44.9339     7.9433     6.8851     8.1401     0.0827     2.4068     0.1535    90.2891
  453.5000   -45.0934     7.9384     6.8823     8.1397     0.0819     2.4045     0.1569    91.4611
  454.0000   -45.1024     7.8786     6.8794     8.1543     0.0871     2.4044     0.1578    91.4458
  454.5000   -45.2620     7.8736     6.9251     8.1388     0.0931     2.4044     0.1545    91.4307
  455.0000   -45.2711     7.8688     6.9704     8.1383     0.0960     2.4051     0.1521    91.4157
  455.5000   -45.4307     7.8094     6.9669     8.1379     0.0990     2.4073     0.1530    92.3374
  456.0000   -45.4415     7.7506     6.9640     8.1374     0.1027     2.4095     0.1503    93.8674
  456.5000   -45.6010     7.6381     6.9611     8.1370     0.1049     2.4125     0.1473   100.8763
  457.0000   -45.6100     7.5805     6.7680     8.1365     0.1027     2.4155     0.1489   108.8258
  457.5000   -45.6189     7.4714     6.3123     8.1361     0.1019     2.4139     0.1528   104.4578
  458.0000   -45.9290     7.3129     5.8061     8.1056     0.1026     2.4086     0.1558   100.9645
  458.5000   -46.3898     7.1578     5.2671     8.1051     0.1048     2.4033     0.1607   102.4555
  459.0000   -46.6999     6.9575     4.9124     8.1047     0.1100     2.3965     0.1730   100.3074
  459.5000   -47.0100     6.7628     4.9104     8.0892     0.1152     2.3739     0.1803    87.9400
  460.0000   -47.0190     6.4381     4.9084     8.0887     0.1205     2.3527     0.1848    75.6032
  460.5000   -47.0279     6.0027     4.9064     8.0582     0.1174     2.3505     0.1755    80.7049
  461.0000   -46.7356     5.6750     4.9385     8.0427     0.1137     2.3624     0.1632    85.2079
  461.5000   -46.5917     5.7508     4.9708     8.0272     0.1129     2.3887     0.1538    92.4218
  462.0000   -46.0005     5.9090     5.0033     8.0268     0.1106     2.4128     0.1427   102.9490
  462.5000   -45.7078     6.3298     5.2135     8.0263     0.1053     2.4248     0.1415   108.6568
  463.0000   -45.2653     6.7805     5.8729     8.0259     0.1023     2.4247     0.1437   107.4370
  463.5000   -44.9729     7.1633     6.4685     8.0253     0.1030     2.4201     0.1470    93.5665
  464.0000   -44.8313     7.4633     6.8877     8.0249     0.1037     2.4156     0.1500    92.3467
  464.5000   -44.8404     7.7758     7.1176     8.0244     0.1045     2.4155     0.1512    91.7293
  465.0000   -44.8494     7.8796     7.2061     8.0240     0.1052     2.4147     0.1504    88.7022
  465.5000   -44.8584     8.0411     7.2024     8.0235     0.1051     2.4147     0.1480    85.9763
  466.0000   -44.8675     8.1478     7.1994     8.0231     0.1059     2.4154     0.1477    84.1541
  466.5000   -44.8783     8.1995     7.2465     8.0226     0.1051     2.4184     0.1465    90.4643
  467.0000   -44.8872     8.2594     7.2939     8.0373     0.1051     2.4213     0.1441    95.8710
  467.5000   -44.8961     8.4199     7.3934     8.0368     0.1050     2.4243     0.1393    97.9682
  468.0000   -44.9051     8.5904     7.5448     8.0363     0.1050     2.4393     0.1333    88.3109
  468.5000   -44.7612     8.7051     7.6470     8.0359     0.1041     2.4423     0.1332    90.4043
  469.0000   -44.7723     8.7617     7.6978     8.0354     0.1019     2.4430     0.1321    92.8026
  469.5000   -44.7813     8.8173     7.8020     8.0350     0.0995     2.4452     0.1291    92.1814
  470.0000   -44.7902     8.8105     7.8522     8.0345     0.0899     2.4452     0.1313    91.5640
  470.5000   -44.7991     8.8677     7.7948     8.0341     0.0876     2.4443     0.1370    91.2478
  471.0000   -44.8081     8.8609     7.7916     8.0336     0.0966     2.4345     0.1415    91.8352
  471.5000   -44.8170     8.9184     7.7884     8.0332     0.0980     2.4300     0.1385    99.3503
  472.0000   -44.8259     8.9116     7.7852     8.0327     0.0973     2.4269     0.1419   109.5762
  472.5000   -44.6820     8.9695     7.7820     8.0323     0.0957     2.4239     0.1425   106.5491
  473.0000   -44.6932     8.9625     7.7788     8.0318     0.0927     2.4231     0.1464    90.8715
  473.5000   -44.5512     8.9570     7.7756     8.0314     0.0949     2.4177     0.1504    89.6516
  474.0000   -44.5605     8.9515     7.7187     8.0159     0.0986     2.4109     0.1516    87.8294
  474.5000   -44.5694     8.9459     7.7155     8.0154     0.1016     2.4109     0.1504    83.5975
  475.0000   -44.5783     8.8786     7.6591     8.0150     0.1038     2.4131     0.1483    77.5584
  475.5000   -44.7379     8.8731     7.4425     7.9995     0.0985     2.4176     0.1471    73.9326
  476.0000   -44.7610     8.8063     7.2400     7.9840     0.0955     2.4236     0.1471    82.0464
  476.5000   -45.0783     8.8008     7.1373     7.9685     0.0925     2.4265     0.1472    87.1518
  477.0000   -45.3675     8.6138     7.0851     7.9681     0.0917     2.4166     0.1493    88.3454
  477.5000   -45.3782     8.4872     6.9841     7.9676     0.0894     2.4105     0.1517    85.9170
  478.0000   -45.3871     8.3678     6.8851     7.9672     0.0894     2.4067     0.1533    84.3997
  478.5000   -45.3961     8.3047     6.7875     7.9667     0.0894     2.4044     0.1542    97.6339
  479.0000   -45.4050     8.2996     6.6914     7.9663     0.0893     2.4022     0.1548   107.2575
  479.5000   -45.5645     8.1791     6.5965     7.9809     0.0886     2.3991     0.1566   111.4593
  480.0000   -45.7241     8.0613     6.3692     7.9804     0.0893     2.3944     0.1606   112.6529
  480.5000   -45.7330     7.7277     6.1926     7.9800     0.0885     2.3899     0.1657   102.6943
  481.0000   -46.1938     7.4595     6.0208     7.9946     0.0870     2.3820     0.1725    98.1612
  481.5000   -46.6545     7.2007     5.6937     7.9941     0.0862     2.3716     0.1821    97.5438
  482.0000   -47.2658     6.7604     5.0940     7.9937     0.0832     2.3609     0.1925    99.0348
  482.5000   -47.7266     6.3032     4.3719     8.0083     0.0831     2.3281     0.2034   101.4294
  483.0000   -47.8861     5.7558     3.5993     7.9928     0.0824     2.3145     0.2130   101.4144
  483.5000   -48.0456     5.3295     3.1105     8.0074     0.0823     2.3077     0.2207   104.7126
  484.0000   -48.2052     4.7995     2.8810     8.0069     0.0830     2.2836     0.2289   106.2074
  484.5000   -48.2141     4.2332     2.7057     8.0065     0.0830     2.2753     0.2453   103.1765
  485.0000   -48.0724     3.7860     2.6673     8.0060     0.0852     2.2512     0.2558    95.3302
  485.5000   -47.7802     3.5055     2.6478     8.0206     0.0897     2.2331     0.2567    86.5802
  486.0000   -47.6345     3.4791     2.6651     8.0202     0.0919     2.2270     0.2547    79.3363
  486.5000   -47.1847     3.5013     2.6826     8.0197     0.0881     2.2480     0.2440    89.8634
  487.0000   -46.4515     3.4990     2.7189     8.0192     0.0859     2.2924     0.2196   107.3183
  487.5000   -46.4608     3.5704     3.1435     8.0188     0.0896     2.3089     0.2085   112.4238
  488.0000   -46.3188     3.7720     3.6450     8.0183     0.0970     2.3111     0.1966   114.2160
  488.5000   -46.1794     4.4840     4.1777     8.0178     0.0948     2.3201     0.1750   107.2732
  489.0000   -46.1883     4.6409     4.3257     8.0174     0.0925     2.3652     0.1519   101.2341
  489.5000   -46.0444     4.9822     4.6151     8.0169     0.0917     2.4080     0.1402   103.6287
  490.0000   -45.9050     5.7276     5.2385     8.0165     0.0902     2.4230     0.1431   104.8185
  490.5000   -45.9139     6.2133     5.5733     8.0160     0.0871     2.4252     0.1465   109.6228
  491.0000   -45.9228     6.6384     5.7276     8.0307     0.0834     2.4222     0.1417   115.3306
  491.5000   -45.7789     6.8221     5.8052     8.0603     0.0796     2.4221     0.1438   117.4241
