~VERSION INFORMATION
 VERS.                2.0:   CWLS LOG ASCII STANDARD - VERSION 2.0
 WRAP.                 NO:   ONE LINE PER DEPTH STEP
~WELL INFORMATION
#MNEM.UNIT      DATA TYPE    INFORMATION
#----------   ------------   ------------------------------
 STRT.F           20.0000:   START DEPTH
 STOP.F          710.0000:   STOP DEPTH
 STEP.F            0.5000:   STEP LENGTH
 NULL.          -999.2500:   NO VALUE
 COMP. FENIX & SCISSON INC:   COMPANY
 WELL.     NPR-3 #42SX-34:   WELL
 FLD .             TEAPOT:   FIELD
 LOC .      S34 T39N R78W:   LOCATION
 CNTY.            NATRONA:   COUNTY
 STAT.            WYOMING:   STATE
 CTRY. UNITED STATES OF AMERICA:   COUNTRY
 SRVC.           BIRDWELL:   SERVICE COMPANY
 DATE.        30-AUG-1978:   LOGDATE
 API .       490251070800:   API NUMBER
~CURVE INFORMATION
#MNEM.UNIT       API CODE    CURVE DESCRIPTION
#----------   ------------   ------------------------------
 DEPT.F                  :   
 SPR .MV     05 010 01 00:   SPONTANEOUS POTENTIAL
 SN  .OHMM   05 040 16 00:   SHORT NORMAL 16'
 ILD .OHMM   05 120 46 00:   INDUCTION LOG DEEP RESISTIVITY
 GRD .GAPI   45 310 01 00:   GAMMA RAY FROM DENSITY LOG
 CALD.IN     45 280 60 00:   CALIPER
 RHOB.G/C3   45 350 01 00:   BULK DENSITY
 DPHI.DEC    45 890 12 00:   DENSITY POROSITY SANDSTONE
 CORR.G/C3   45 356 01 00:   DENSITY CORRECTION
~PARAMETER INFORMATION
#MNEM.UNIT          VALUE    DESCRIPTION
#----------   ------------   ------------------------------
 PD  .                 GL:   PERMANENT DATUM
 EPD .F              5079:   ELEVATION PERMANENT DATUM
 LMF .                 KB:   LOG MEASURED FROM
 DAPD.F                 4:   FEET ABOVE PERMANENT DATUM
 DMF .                 KB:   DRILLING MEASURED FROM
 EKB .F              5083:   KELLING BUSHING
 EGL .F              5079:   GROUND LEVEL
 DATE.            8-30-78:   RUN DATE
 RUN .                  1:   RUN NUMBER
 DD  .F               705:   DEPTH DRILLER
 DL  .F               708:   DEPTH LOGGER
 BLI .F               702:   BOTTOM LOG INTERVAL
 TLI .F                50:   TOP LOG INTERVAL
 CS  .IN            8.625:   CASING SIZE
 CBD .F                40:   CASING BOTTOM DRILLER
 CBL .F                40:   CASING BOTTOM LOGGER
 BS  .IN            7.875:   BIT SIZE
 BSD .F               705:   BIT SIZE AT DEPTH
 DFT .                KCL:   DRILLING FLUID TYPE
 DFD .                8.6:   DRILLING FLUID DENSITY
 DFV .                 34:   DRILLING FLUID VISCOSITY
 DFPH.                  9:   DRILLING FLUID PH
 DFL .                7.4:   DRILLING FLUID LOSS
 MSS .           FLOWLINE:   MUD SAMPLE SOURCE
 RMS .OHMM             .3:   RESISTIVITY MUD SAMPLE
 MST .F                80:   MUD SAMPLE TEMPERATURE
 RMF .OHMM             .4:   RESISTIVITY MUD FILTRATE SAMPLE
 MFST.F                80:   MUD FILTRATE SAMPLE TEMPERATURE
 RMC .OHMM             .5:   RESISTIVITY MUD CAKE
 MCST.F                82:   MUD CAKE SAMPLE TEMPERATURE
 MFSS.               MEAS:   MUD FILTRATE SAMPLE SOURCE
 MCSS.               MEAS:   MUD CAKE SAMPLE SOURCE
 RMB .OHMM            .32:   RESISTIVITY MUD AT BHT
 BHT .F                73:   BOTTOM HOLE TEMPERATURE
 TCS .HRS               3:   TIME CURCULATED STOPPED
 MRT .F                73:   MAXIMUM RECORDED TEMPERATURE
 LUN .               3006:   LOGGING UNIT NUMBER
 LUL .               CASP:   LOGGING UNIT LOCATION
 ENGI.            POINTER:   RECORDING ENGINEER
 WITN.              AMEND:   WITNESSED BY
 CLNT.            A2DTECH:   CLIENT CODE
 ORIG.           5" PRINT:   ORIGIN OF DATA
 UWI .       490251070800:   UNIQUE WELL ID
 DICO. A2D Technologies, Inc.:   DIGITIZING COMPANY
~OTHER INFORMATION
~A   DEPT      SPR         SN        ILD         GRD      CALD       RHOB       DPHI       CORR   
# ...
  263.0000   -48.1978    10.4235    10.0786    90.6351     8.9834     2.4954     0.1140     0.0410
  263.5000   -48.1995    10.4914    10.1095    92.8311     8.9875     2.4927     0.1306     0.0235
  264.0000   -48.2010    10.5600    10.1403    96.5044     8.9917     2.4702     0.1438     0.0111
  264.5000   -48.2001    10.6291    10.1712    97.7412     8.9899     2.4492     0.1444     0.0105
  265.0000   -48.2001    10.6987    10.2086    96.7890     8.9879     2.4451     0.1451     0.0117
  265.5000   -48.2002    10.7884    10.1651    95.6998     8.9857     2.4441     0.1457     0.0127
  266.0000   -48.2001    10.7041    10.1117    94.5822     8.9835     2.4431     0.1460     0.0139
  266.5000   -48.2000    10.5696    10.0584    95.6359     8.9814     2.4452     0.1434     0.0150
  267.0000   -48.2000    10.4365    10.0052    97.5038     8.9792     2.4483     0.1410     0.0161
  267.5000   -48.2000    10.3048     9.9522    99.1230     8.9771     2.4513     0.1387     0.0172
  268.0000   -48.2001    10.1749     9.8993   100.0920     8.9749     2.4545     0.1364     0.0194
  268.5000   -48.2001    10.0481     9.8469    98.9167     8.9728     2.4573     0.1340     0.0240
  269.0000   -48.2001     9.9222     9.7946    96.1926     8.9706     2.4632     0.1317     0.0286
  269.5000   -48.2006     9.8260     9.7426    93.2589     8.9685     2.4660     0.1299     0.0332
  270.0000   -48.2000     9.7833     9.6909    94.7324     8.9663     2.4676     0.1296     0.0378
  270.5000   -48.2000     9.7408     9.6394    96.4425     8.9642     2.4691     0.1293     0.0423
  271.0000   -48.2034     9.6985     9.5882    97.5217     8.9620     2.4710     0.1272     0.0474
  271.5000   -48.1662     9.6612     9.5373    96.3804     8.9599     2.4733     0.1238     0.0536
  272.0000   -48.0886     9.7187     9.4865    95.2363     8.9577     2.4810     0.1205     0.0598
  272.5000   -48.0143     9.7705     9.4364    99.2824     8.9556     2.4871     0.1171     0.0666
  273.0000   -47.9406     9.8227     9.3863   102.5290     8.9534     2.4911     0.1137     0.0705
  273.5000   -47.8658     9.8751     9.3365   104.7213     8.9518     2.4963     0.1103     0.0729
  274.0000   -47.7916     9.9278     9.3117   103.2010     8.9518     2.5015     0.1069     0.0758
  274.5000   -47.7173     9.9808     9.3117   100.1823     8.9518     2.5068     0.1056     0.0786
  275.0000   -47.6429    10.0340     9.3117    94.3870     8.9518     2.5112     0.1052     0.0819
  275.5000   -47.5686    10.0876     9.4022    89.5139     8.9518     2.5150     0.1071     0.0804
  276.0000   -47.4942    10.1414     9.5155    81.9841     8.9518     2.5183     0.1094     0.0761
  276.5000   -47.4199    10.1955     9.6301    81.0757     8.9518     2.5147     0.1117     0.0718
  277.0000   -47.3456    10.2499     9.7461    84.9586     8.9518     2.5046     0.1126     0.0681
  277.5000   -47.2706    10.3046     9.8635    90.7793     8.9518     2.4991     0.1109     0.0609
  278.0000   -47.1975    10.3596     9.9823    94.7547     8.9518     2.4964     0.1128     0.0514
  278.5000   -47.1227    10.4148    10.0237    95.1643     8.9518     2.4927     0.1187     0.0422
  279.0000   -47.0432    10.4704    10.0237    94.4058     8.9518     2.4864     0.1247     0.0331
  279.5000   -46.9954    10.5263    10.0237    95.6235     8.9518     2.4752     0.1307     0.0243
  280.0000   -47.0004    10.5824    10.0382    96.8554     8.9518     2.4657     0.1366     0.0146
  280.5000   -47.0000    10.6389    10.0532    96.3798     8.9518     2.4571     0.1385     0.0152
  281.0000   -46.9992    10.6957    10.0683    94.1988     8.9518     2.4566     0.1364     0.0161
  281.5000   -47.0001    10.7527    10.0834    92.1712     8.9518     2.4561     0.1361     0.0175
  282.0000   -47.0000    10.8101    10.0985    89.9829     8.9518     2.4556     0.1370     0.0187
  282.5000   -47.0000    10.8678    10.1136    90.6223     8.9518     2.4554     0.1380     0.0199
  283.0000   -47.0010    10.9258    10.1287    92.7779     8.9518     2.4554     0.1348     0.0211
  283.5000   -47.0000    10.9908    10.1439    94.8140     8.9518     2.4613     0.1314     0.0223
  284.0000   -46.9997    10.9384    10.1592    96.6838     8.9518     2.4662     0.1276     0.0236
  284.5000   -47.0056    10.8806    10.1745    98.3795     8.9518     2.4707     0.1317     0.0247
  285.0000   -46.9461    10.8234    10.1896    97.2855     8.9518     2.4658     0.1363     0.0259
  285.5000   -46.8359    10.7665    10.2052    96.1402     8.9517     2.4571     0.1410     0.0260
  286.0000   -46.7311    10.7098    10.2111    94.1497     8.9518     2.4476     0.1424     0.0260
  286.5000   -46.6288    10.6530    10.2097    91.4309     8.9518     2.4477     0.1397     0.0260
  287.0000   -46.5232    10.5940    10.2082    93.6934     8.9515     2.4529     0.1370     0.0260
  287.5000   -46.4181    10.7779    10.1727    99.0769     8.9556     2.4578     0.1356     0.0260
  288.0000   -46.3186    10.9731    10.1366    97.5931     8.9664     2.4626     0.1346     0.0260
  288.5000   -46.2026    11.1952    10.0993    94.7577     8.9769     2.4655     0.1335     0.0260
  289.0000   -46.2446    11.2940    10.0622    91.8210     8.9874     2.4658     0.1325     0.0260
  289.5000   -46.3405    11.4068    10.0237    90.4336     8.9980     2.4664     0.1314     0.0260
  290.0000   -46.4371    11.5208    10.0237    90.0728     9.0085     2.4671     0.1304     0.0260
  290.5000   -46.5317    11.6359    10.3097    91.0564     9.0189     2.4676     0.1293     0.0260
  291.0000   -46.6031    11.7521    10.6752    92.5634     9.0295     2.4681     0.1284     0.0260
  291.5000   -46.5649    11.8695    11.0536    94.0966     9.0287     2.4689     0.1305     0.0259
  292.0000   -46.4886    11.9881    11.4464    90.6497     9.0235     2.4676     0.1324     0.0268
  292.5000   -46.4148    12.1079    11.7241    86.8527     9.0183     2.4645     0.1342     0.0282
  293.0000   -46.3385    12.2288    11.9362    85.2575     9.0134     2.4629     0.1320     0.0296
  293.5000   -46.2671    12.3510    12.1843    88.1168     9.0083     2.4636     0.1279     0.0311
  294.0000   -46.2077    12.4744    12.4375    90.5282     9.0032     2.4715     0.1239     0.0324
  294.5000   -46.3010    12.5990    12.5066    89.6684     8.9984     2.4785     0.1199     0.0339
  295.0000   -46.3807    12.7248    12.5008    88.8894     8.9932     2.4855     0.1132     0.0330
  295.5000   -46.4695    12.8520    12.6953    87.3954     9.0019     2.4925     0.1149     0.0318
  296.0000   -46.5669    12.9804    12.8585    85.0343     9.0162     2.4892     0.1204     0.0305
  296.5000   -46.5351    13.1100    13.0238    82.6918     9.0303     2.4857     0.1201     0.0307
  297.0000   -46.3763    13.2410    13.1912    80.3338     9.0446     2.4837     0.1194     0.0328
  297.5000   -46.2285    13.3733    13.3607    77.9382     9.0582     2.4864     0.1187     0.0347
  298.0000   -46.0795    13.5069    13.7098    77.4101     9.0714     2.4868     0.1180     0.0366
  298.5000   -45.9314    13.7098    13.7098    77.4333     9.0650     2.4864     0.1182     0.0380
  299.0000   -45.8055    13.6374    13.6070    79.6373     9.0586     2.4861     0.1184     0.0380
  299.5000   -45.8338    13.4937    13.4918    80.1905     9.0513     2.4858     0.1186     0.0380
  300.0000   -45.8580    13.3515    13.3775    80.0058     9.0442     2.4854     0.1188     0.0380
  300.5000   -45.8886    13.2109    13.2642    82.7004     9.0374     2.4853     0.1212     0.0380
  301.0000   -45.9174    13.0717    13.1519    83.2611     9.0324     2.4831     0.1242     0.0380
  301.5000   -45.9457    12.9340    13.0406    82.9261     9.0383     2.4797     0.1271     0.0380
  302.0000   -45.9748    12.7978    12.9301    84.0785     9.0463     2.4767     0.1301     0.0380
  302.5000   -46.0035    12.7203    12.8206    85.2127     9.0531     2.4701     0.1331     0.0373
  303.0000   -46.0322    12.6915    12.7121    86.2710     9.0593     2.4594     0.1360     0.0366
