~VERSION INFORMATION
 VERS.                2.0:   CWLS LOG ASCII STANDARD - VERSION 2.0
 WRAP.                 NO:   ONE LINE PER DEPTH STEP
~WELL INFORMATION
#MNEM.UNIT      DATA TYPE    INFORMATION
#----------   ------------   ------------------------------
 STRT.F            5.0000:   START DEPTH
 STOP.F          640.0000:   STOP DEPTH
 STEP.F            0.5000:   STEP LENGTH
 NULL.          -999.2500:   NO VALUE
 COMP. BROWN JOHN E&C INC:   COMPANY
 WELL.     85-1 X 3 #85-3:   WELL
 FLD .             TEAPOT:   FIELD
 LOC .       S3 T38N R78W:   LOCATION
 CNTY.            NATRONA:   COUNTY
 STAT.            WYOMING:   STATE
 CTRY. UNITED STATES OF AMERICA:   COUNTRY
 SRVC.     Atlas Wireline:   SERVICE COMPANY
 DATE.        30-DEC-1991:   LOGDATE
 API .       490252249400:   API NUMBER
~CURVE INFORMATION
#MNEM.UNIT       API CODE    CURVE DESCRIPTION
#----------   ------------   ------------------------------
 DEPT.F                  :   
 GRR .GAPI   06 310 01 00:   GAMMA RAY FROM RESISTIVITY
 RFOC.OHMM   06 220 04 00:   RESISTIVITY FOCUSED LOG RES.
 RILD.OHMM   06 120 46 00:   DEEP INDUCTION RESISTIVITY
 RILM.OHMM   06 120 44 00:   INDUCTION LOG MEDIUM RESISTIVITY
 SPR .MV     06 010 01 00:   SPONTANEOUS POTENTIAL FROM RES.
 CALD.IN     45 280 60 00:   CALIPER FROM DENSITY LOG
 CORR.G/C3   45 356 01 00:   DENSITY CORRECTION
 DEN .G/C3   45 350 01 00:   COMPENSATED BULK DENSTIY
 PORD.DEC    45 890 12 00:   POROSITY DENSITY SANDSTONE
 CNC .DEC    42 890 03 00:   NEUTRON POROSITY SANDSTONE
~PARAMETER INFORMATION
#MNEM.UNIT          VALUE    DESCRIPTION
#----------   ------------   ------------------------------
 PD  .                 GL:   PERMANENT DATUM
 EPD .F              5156:   ELEVATION PERMANENT DATUM
 LMF .                 KB:   LOG MEASURED FROM
 DAPD.F                10:   FEET ABOVE PERMANENT DATUM
 DMF .                 KB:   DRILLING MEASURED FROM
 EKB .F              5166:   KELLING BUSHING
 EGL .F              5156:   GROUND LEVEL
 DATE.        30-DEC-1991:   RUN DATE
 RUN .                  1:   RUN NUMBER
 DD  .F               641:   DEPTH DRILLER
 DL  .F               642:   DEPTH LOGGER
 BLI .F               261:   BOTTOM LOG INTERVAL
 TLI .F               172:   TOP LOG INTERVAL
 CS  .IN            8.625:   CASING SIZE
 CBD .F               163:   CASING BOTTOM DRILLER
 CBL .F               172:   CASING BOTTOM LOGGER
 BS  .IN            7.875:   BIT SIZE
 BSD .F               641:   BIT SIZE AT DEPTH
 DFT .               CHEM:   DRILLING FLUID TYPE
 DFD .               17.1:   DRILLING FLUID DENSITY
 DFV .                 47:   DRILLING FLUID VISCOSITY
 DFPH.                9.0:   DRILLING FLUID PH
 DFL .                6.8:   DRILLING FLUID LOSS
 MSS .                PIT:   MUD SAMPLE SOURCE
 RMS .OHMM           1.40:   RESISTIVITY MUD SAMPLE
 MST .F               100:   MUD SAMPLE TEMPERATURE
 RMF .OHMM           1.12:   RESISTIVITY MUD FILTRATE SAMPLE
 MFST.F               100:   MUD FILTRATE SAMPLE TEMPERATURE
 RMC .OHMM           1.75:   RESISTIVITY MUD CAKE
 MCST.F               100:   MUD CAKE SAMPLE TEMPERATURE
 MFSS.               MEAS:   MUD FILTRATE SAMPLE SOURCE
 MCSS.               CALC:   MUD CAKE SAMPLE SOURCE
 RMB .OHMM           .536:   RESISTIVITY MUD AT BHT
 BHT .F               261:   BOTTOM HOLE TEMPERATURE
 TCS .HRS               4:   TIME CURCULATED STOPPED
 MRT .F               261:   MAXIMUM RECORDED TEMPERATURE
 LUN .            HL-6387:   LOGGING UNIT NUMBER
 LUL .          CASPER/WT:   LOGGING UNIT LOCATION
 ENGI.             ZIEGER:   RECORDING ENGINEER
 WITN.         LOFRENIERI:   WITNESSED BY
 CLNT.            A2DTECH:   CLIENT CODE
 ORIG.           5" PRINT:   ORIGIN OF DATA
 UWI .       490252249400:   UNIQUE WELL ID
 DICO. A2D Technologies, Inc.:   DIGITIZING COMPANY
~OTHER INFORMATION
~A    DEPT      GRR      RFOC       RILD       RILM        SPR       CALD       CORR        DEN       PORD        CNC   
# ...
  306.5000    87.1805     6.6821     6.2426     6.2817   -64.9547     9.6271     0.0113     2.4759     0.1239     0.3133
  307.0000    91.1169     6.8720     6.3307     6.4093   -64.5015     9.6124     0.0128     2.4797     0.1220     0.3059
  307.5000    92.6327     7.0182     6.3756     6.5002   -64.3505     9.5826     0.0173     2.4820     0.1199     0.3012
  308.0000    91.4253     7.2722     6.4656     6.5465   -64.3505     9.5678     0.0236     2.4843     0.1166     0.3000
  308.5000    89.0077     7.3714     6.5113     6.5932   -64.6526     9.5684     0.0324     2.4818     0.1150     0.3051
  309.0000    85.0772     7.3210     6.6033     6.6867   -64.8036     9.5840     0.0354     2.4790     0.1162     0.3079
  309.5000    82.9541     7.2208     6.6500     6.7344   -65.1057     9.5844     0.0324     2.4828     0.1189     0.3091
  310.0000    82.6625     7.2218     6.7439     6.7353   -65.4079     9.6000     0.0279     2.4911     0.1171     0.3048
  310.5000    83.2714     7.4270     6.7443     6.7363   -65.5589     9.6156     0.0249     2.4941     0.1129     0.2988
  311.0000    85.0897     7.4800     6.7920     6.7372   -65.7100     9.6161     0.0264     2.4903     0.1095     0.2982
  311.5000    87.5133     7.4810     6.7453     6.7383   -65.8610     9.6166     0.0294     2.4858     0.1095     0.2979
  312.0000    89.3316     7.4820     6.7458     6.7392   -66.1712     9.6170     0.0264     2.4851     0.1132     0.2985
  312.5000    89.9397     7.4833     6.7935     6.7401   -66.6415     9.6175     0.0219     2.4889     0.1146     0.2991
  313.0000    89.9427     7.4843     6.7940     6.7410   -66.7674     9.6179     0.0204     2.4926     0.1136     0.2997
  313.5000    89.6431     7.4853     6.8420     6.7891   -66.7674     9.6183     0.0324     2.4994     0.1097     0.2997
  314.0000    88.4357     7.5914     6.8904     6.8854   -66.4653     9.6188     0.0430     2.5093     0.1042     0.2987
  314.5000    85.9617     7.6991     6.8909     6.9345   -66.0121     9.6193     0.0475     2.5199     0.0987     0.2969
  315.0000    87.5346     7.7540     6.8434     6.9355   -65.5589     9.6197     0.0460     2.5282     0.0924     0.2952
  315.5000    89.9574     7.8093     6.8364     6.9366   -65.7100     9.6202     0.0230     2.5312     0.0885     0.2934
  316.0000    86.9346     7.8104     6.7495     6.8891   -65.8610     9.6206     0.0173     2.5244     0.0927     0.2955
  316.5000    87.2409     7.8117     6.6564     6.8422   -66.0232     9.6059     0.0249     2.5070     0.1012     0.2964
  317.0000    89.3618     7.7045     6.6570     6.7486   -66.1631     9.6064     0.0219     2.4942     0.1085     0.2949
  317.5000    90.5751     7.5461     6.7040     6.7024   -66.1631     9.6088     0.0158     2.4852     0.1148     0.2949
  318.0000    89.0652     7.3909     6.7045     6.7035   -66.1631     9.6225     0.0219     2.4799     0.1191     0.2961
  318.5000    89.3707     7.2895     6.7049     6.7044   -66.0121     9.6381     0.0219     2.4761     0.1208     0.2982
  319.0000    91.4917     7.1895     6.6588     6.7053   -66.0121     9.6385     0.0173     2.4770     0.1205     0.3000
  319.5000    91.7973     7.1405     6.6526     6.7022   -66.0121     9.6390     0.0204     2.4791     0.1199     0.3006
  320.0000    91.1950     7.1418     6.6134     6.6605   -66.0121     9.6242     0.0294     2.4784     0.1205     0.3039
  320.5000    88.7781     7.1427     6.5223     6.5692   -66.3142     9.5944     0.0370     2.4777     0.1227     0.3082
  321.0000    86.6630     7.1437     6.4772     6.4793   -66.7674     9.5973     0.0430     2.4792     0.1251     0.3142
  321.5000    85.7575     7.0948     6.3879     6.3903   -66.9184     9.6105     0.0339     2.4754     0.1275     0.3204
  322.0000    86.3663     6.9008     6.2560     6.2156   -66.9184     9.6110     0.0249     2.4701     0.1319     0.3314
  322.5000    86.9744     6.6190     6.0843     5.9617   -66.7674     9.6114     0.0324     2.4606     0.1381     0.3417
  323.0000    85.7671     6.2607     5.7136     5.6785   -66.4653     9.5966     0.0462     2.4414     0.1432     0.3532
  323.5000    84.8623     5.9959     5.3573     5.2968   -65.8610     9.5971     0.0294     2.4233     0.1508     0.3674
  324.0000    85.1679     5.7200     4.9019     4.9643   -65.4079     9.5982     0.0113     2.4052     0.1625     0.3873
  324.5000    86.3818     5.4863     4.4151     4.3587   -64.9547     9.6436     0.0068     2.3893     0.1701     0.4063
  325.0000    88.2002     5.1894     3.8672     3.9539   -64.8036     9.6592     0.0053     2.3712     0.1819     0.4272
  325.5000    90.9263     4.8744     3.2711     3.4880   -64.6526     9.6899    -0.0008     2.3456     0.1902     0.4547
  326.0000    90.3241     4.5152     2.8058     2.8698   -64.5015     9.7055    -0.0189     2.2958     0.2057     0.5320
  326.5000    87.6039     4.0674     2.5449     2.3777   -64.3505     9.7059    -0.0340     2.2489     0.2468     0.5393
  327.0000    83.9760     3.7399     2.3901     2.1419   -63.7462     9.6761    -0.0324     2.2345     0.2640     0.5208
  327.5000    80.9532     3.2382     2.2412     2.1125   -62.8399     9.6462    -0.0098     2.2625     0.2486     0.4846
  328.0000    76.7201     2.8916     2.1680     2.1427   -61.9335     9.6468     0.0098     2.3093     0.2263     0.4505
  328.5000    71.7610     2.9945     2.1531     2.1900   -61.7825     9.6472     0.0053     2.3350     0.2115     0.4335
  329.0000    69.1617     3.5902     2.1532     2.3302   -61.9335     9.6476     0.0008     2.3516     0.2007     0.4175
  329.5000    75.5194     4.0993     2.2455     2.5162   -62.0846     9.6481     0.0113     2.3752     0.1894     0.3975
  330.0000    81.2712     4.2451     2.5284     2.7746   -62.3867     9.6485     0.0294     2.4211     0.1610     0.3550
  330.5000    83.3922     3.7190     2.9481     3.1681   -62.9909     9.6489     0.0389     2.4619     0.1396     0.3411
  331.0000    84.3029     3.9984     3.2509     3.6173   -63.5952     9.6645     0.0445     2.4740     0.1257     0.3314
  331.5000    85.5161     5.0208     3.5925     3.9062   -64.0483     9.6651     0.0400     2.4718     0.1242     0.3344
  332.0000    87.3345     6.2766     4.0365     4.3678   -64.6526     9.6655     0.0294     2.4680     0.1254     0.3290
  332.5000    87.0348     6.2774     4.3893     4.7199   -64.9547     9.6660     0.0189     2.4657     0.1275     0.3218
  333.0000    87.0378     6.1056     4.8064     5.0383   -64.8036     9.6511     0.0113     2.4667     0.1287     0.3208
  333.5000    87.4321     5.9800     5.1902     5.3489   -64.5015     9.6668     0.0113     2.4718     0.1272     0.3258
  334.0000    90.3727     5.8980     5.3748     5.5009   -63.7402     9.6673     0.0205     2.4763     0.1233     0.3184
  334.5000    92.1911     5.8988     5.4889     5.5401   -63.2931     9.6677     0.0294     2.4771     0.1215     0.3145
  335.0000    93.7069     5.9038     5.4893     5.5024   -64.1994     9.6683     0.0309     2.4756     0.1208     0.3142
  335.5000    93.7098     5.9835     5.4515     5.5031   -64.8036     9.6687     0.0294     2.4718     0.1221     0.3157
  336.0000    92.5025     6.0683     5.3764     5.4276   -64.8036     9.6539     0.0219     2.4650     0.1264     0.3181
  336.5000    91.5977     6.2844     5.2288     5.3532   -64.6526     9.6544     0.0128     2.4557     0.1360     0.3233
  337.0000    91.2980     6.4631     5.0147     5.1686   -64.3505     9.6549     0.0083     2.4371     0.1447     0.3356
  337.5000    91.6036     6.5547     4.5802     4.8739   -64.0483     9.6553     0.0098     2.4077     0.1556     0.3711
  338.0000    91.9415     6.4648     4.2421     4.0522   -63.2931     9.6406     0.0113     2.3729     0.1767     0.4039
  338.5000    92.8205     6.0707     4.0969     3.7535   -62.3776     9.6107     0.0083     2.3744     0.1849     0.4066
  339.0000    93.1261     4.7463     3.9844     3.6762   -61.4542     9.5960     0.0068     2.3941     0.1752     0.3927
  339.5000    94.0367     3.8878     3.9001     3.7025   -60.2719     9.5966     0.0128     2.4130     0.1623     0.3755
