~VERSION INFORMATION
 VERS.                2.0:   CWLS LOG ASCII STANDARD - VERSION 2.0
 WRAP.                 NO:   ONE LINE PER DEPTH STEP
~WELL INFORMATION
#MNEM.UNIT      DATA TYPE    INFORMATION
#----------   ------------   ------------------------------
 STRT.F           41.0000:   START DEPTH
 STOP.F          468.0000:   STOP DEPTH
 STEP.F            0.1000:   STEP LENGTH
 NULL.          -999.2500:   NO VALUE
 COMP.       F D SERV INC:   COMPANY
 WELL. NAVAL PETROLEUM RESERVE 3 SX-1 #53-1-10:   WELL
 FLD .             TEAPOT:   FIELD
 LOC .      S10 T38N R78W:   LOCATION
 CNTY.            NATRONA:   COUNTY
 STAT.            WYOMING:   STATE
 CTRY. UNITED STATES OF AMERICA:   COUNTRY
 SRVC.     Atlas Wireline:   SERVICE COMPANY
 DATE.        22-DEC-1992:   LOGDATE
 API .       490252256900:   API NUMBER
~CURVE INFORMATION
#MNEM.UNIT       API CODE    CURVE DESCRIPTION
#----------   ------------   ------------------------------
 DEPT.F                  :   
 GRR .GAPI   07 310 01 00:   GAMMA RAY
 RILD.OHMM   07 120 46 00:   INDUCTION LOG DEEP RESISTIVITY
 RILM.OHMM   07 120 44 00:   RESITIVITY LONG MEDIUM
~PARAMETER INFORMATION
#MNEM.UNIT          VALUE    DESCRIPTION
#----------   ------------   ------------------------------
 PD  .                 GL:   PERMANENT DATUM
 EPD .F              5185:   ELEVATION PERMANENT DATUM
 LMF .                 KB:   LOG MEASURED FROM
 DAPD.F                10:   FEET ABOVE PERMANENT DATUM
 DMF .                 KB:   DRILLING MEASURED FROM
 EKB .F              5195:   KELLING BUSHING
 EDF .F              5194:   DRILLING FLOOR
 EGL .F              5185:   GROUND LEVEL
 DATE.        22-DEC-1992:   RUN DATE
 RUN .                  1:   RUN NUMBER
 DD  .F               475:   DEPTH DRILLER
 DL  .F               472:   DEPTH LOGGER
 BLI .F               470:   BOTTOM LOG INTERVAL
 CS  .IN            8.625:   CASING SIZE
 CBL .F                80:   CASING BOTTOM LOGGER
 BS  .IN            7.875:   BIT SIZE
 BSD .F               475:   BIT SIZE AT DEPTH
 DFT .        AIR DRILLED:   DRILLING FLUID TYPE
 LUN .            HL 6321:   LOGGING UNIT NUMBER
 LUL .       RCK, SPRINGS:   LOGGING UNIT LOCATION
 ENGI.      JOHN THOMPSON:   RECORDING ENGINEER
 WITN.          G. STRONG:   WITNESSED BY
 CLNT.            A2DTECH:   CLIENT CODE
 ORIG.           5" PRINT:   ORIGIN OF DATA
 UWI .       490252256900:   UNIQUE WELL ID
 DICO. A2D Technologies, Inc.:   DIGITIZING COMPANY
~OTHER INFORMATION
~A   DEPT      GRR       RILD       RILM   
# ...
  132.0000   142.4016     7.4720     7.9977
  132.1000   143.0474     7.4475     7.9984
  132.2000   144.3541     7.4399     7.9990
  132.3000   146.2567     7.3969     7.9997
  132.4000   147.3811     7.3974     7.9746
  132.5000   148.2523     7.3662     7.9455
  132.6000   148.7610     7.3248     7.9405
  132.7000   149.1202     7.2836     7.8918
  132.8000   149.5114     7.2426     7.8924
  132.9000   149.5129     7.1967     7.8623
  133.0000   149.0167     7.1971     7.8389
  133.1000   148.7145     7.1976     7.8288
  133.2000   148.1870     7.1981     7.7858
  133.3000   147.5269     7.1986     7.7866
  133.4000   146.9990     7.1991     7.7872
  133.5000   146.1837     7.1996     7.7878
  133.6000   145.7336     7.2001     7.7885
  133.7000   145.2369     7.2006     7.7829
  133.8000   144.6234     7.1877     7.7358
  133.9000   143.9402     7.1516     7.7364
  134.0000   143.4355     7.1522     7.7062
  134.1000   142.5511     7.1526     7.6840
  134.2000   141.9442     7.1260     7.6846
  134.3000   141.1985     7.1039     7.6853
  134.4000   140.5467     7.0954     7.6860
  134.5000   140.0106     7.0554     7.6865
  134.6000   139.2201     7.0158     7.6611
  134.7000   138.7534     7.0076     7.6345
  134.8000   138.2568     6.9856     7.6351
  134.9000   137.8854     6.9329     7.6358
  135.0000   137.7086     6.8593     7.5958
  135.1000   137.7102     6.8169     7.5841
  135.2000   137.7119     6.7824     7.5634
  135.3000   137.9242     6.7443     7.5327
  135.4000   138.4880     6.7064     7.5310
  135.5000   139.3389     6.6686     7.4818
  135.6000   140.3844     6.6318     7.4469
  135.7000   141.6647     6.6323     7.4310
  135.8000   143.1206     6.5727     7.3986
  135.9000   144.2404     6.5199     7.3153
  136.0000   145.1047     6.4571     7.2288
  136.1000   145.8534     6.3526     7.1129
  136.2000   146.6021     6.2750     6.9355
  136.3000   147.4402     6.1779     6.7411
  136.4000   148.0996     6.0735     6.5624
  136.5000   148.5185     5.9548     6.4097
  136.6000   148.4377     5.8123     6.1624
  136.7000   147.7729     5.6487     6.0162
  136.8000   146.5291     5.4611     5.8477
  136.9000   145.2853     5.3613     5.7096
  137.0000   144.8265     5.2583     5.6131
  137.1000   144.7208     5.1912     5.5151
  137.2000   144.5475     5.1575     5.4551
  137.3000   144.0839     5.0954     5.3937
  137.4000   143.8150     5.0687     5.3489
  137.5000   143.5888     5.0402     5.3189
  137.6000   143.3412     5.0259     5.2866
  137.7000   143.0937     5.0185     5.2190
  137.8000   142.9105     4.9902     5.2194
  137.9000   142.9318     4.9574     5.2007
  138.0000   143.5208     4.9577     5.1840
  138.1000   143.7266     4.9581     5.1844
  138.2000   144.2774     4.9584     5.1849
  138.3000   144.9305     4.9587     5.1853
  138.4000   145.5126     4.9591     5.1633
  138.5000   146.5631     4.9594     5.1502
  138.6000   147.9799     4.9598     5.1506
  138.7000   150.0204     4.9601     5.1540
  138.8000   151.7552     4.9605     5.1875
  138.9000   152.9294     4.9627     5.2140
  139.0000   153.9090     4.9959     5.2641
  139.1000   154.7665     4.9962     5.3250
  139.2000   154.9807     4.9965     5.3865
  139.3000   155.3897     5.0085     5.4488
  139.4000   155.7853     5.0322     5.4804
  139.5000   155.9863     5.0325     5.5615
  139.6000   155.9879     5.0329     5.6399
  139.7000   155.7452     5.0332     5.7162
  139.8000   155.6874     5.0336     5.8113
  139.9000   155.5536     5.0339     5.8855
  140.0000   155.3060     5.0343     5.9464
  140.1000   155.0585     5.0347     6.0385
  140.2000   154.7832     5.0350     6.1433
  140.3000   154.5634     5.0353     6.2413
  140.4000   153.9825     5.0478     6.3133
  140.5000   153.4613     5.0712     6.3864
  140.6000   153.1559     5.0716     6.4602
  140.7000   152.6627     5.1290     6.5135
  140.8000   152.4152     5.1883     6.5646
  140.9000   152.1676     5.2646     6.6353
  141.0000   151.9201     5.3657     6.6773
  141.1000   151.6725     5.4897     6.7126
  141.2000   151.4250     5.6327     6.7783
  141.3000   151.1579     5.7473     6.8567
  141.4000   151.1593     5.8363     6.9359
  141.5000   150.9859     5.9335     7.0159
  141.6000   150.6177     6.0708     7.1127
  141.7000   150.0550     6.2119     7.1792
  141.8000   149.2858     6.2833     7.2622
  141.9000   147.8288     6.3843     7.3461
  142.0000   147.2109     6.5159     7.4246
  142.1000   146.4653     6.6410     7.4709
  142.2000   145.4272     6.7133     7.5510
  142.3000   143.9773     6.7564     7.6075
  142.4000   142.6768     6.7914     7.6516
  142.5000   141.9651     6.8307     7.6960
  142.6000   141.4027     6.8703     7.7427
  142.7000   141.1639     6.9101     7.8480
  142.8000   141.2399     6.9501     7.8486
  142.9000   141.5104     6.9904     7.8763
  143.0000   142.0791     7.0309     7.9394
  143.1000   142.9391     7.0717     8.0236
  143.2000   143.7766     7.0985     8.0729
  143.3000   144.7370     7.1042     8.1171
  143.4000   146.0866     7.1492     8.1642
  143.5000   147.8528     7.1868     8.2116
  143.6000   149.3304     7.2284     8.2592
  143.7000   150.4432     7.2703     8.3043
  143.8000   151.3038     7.3124     8.3051
  143.9000   151.8870     7.3548     8.3057
  144.0000   152.1093     7.4057     8.3358
  144.1000   152.1109     7.4062     8.3651
  144.2000   152.1123     7.4315     8.3658
  144.3000   151.7767     7.4745     8.3665
  144.4000   151.3942     7.5116     8.3672
  144.5000   151.1467     7.5122     8.3679
  144.6000   150.8675     7.5325     8.3686
  144.7000   148.7818     7.5546     8.3693
  144.8000   147.9835     7.5871     8.3700
  144.9000   147.1342     7.6311     8.3708
  145.0000   146.5706     7.6735     8.3714
  145.1000   146.2864     7.6741     8.3721
  145.2000   145.7543     7.7106     8.3728
  145.3000   145.7557     7.7288     8.3735
  145.4000   145.7572     7.7461     8.3742
  145.5000   145.8811     7.7839     8.4215
  145.6000   146.1317     7.7845     8.4341
  145.7000   146.3823     7.7850     8.4348
  145.8000   146.6740     7.8015     8.4355
  145.9000   147.2999     7.8244     8.4406
  146.0000   148.0485     7.8535     8.4960
  146.1000   148.7973     7.8964     8.4966
  146.2000   149.6808     7.8970     8.5289
  146.3000   151.2337     7.8975     8.5574
  146.4000   152.4331     7.8981     8.5581
  146.5000   153.8649     7.9165     8.5588
  146.6000   155.0994     7.9544     8.6079
  146.7000   155.8684     7.9550     8.6200
  146.8000   156.1627     7.9555     8.6208
  146.9000   157.0093     7.9560     8.6376
  147.0000   157.2271     7.9566     8.6824
  147.1000   157.4777     7.9572     8.6832
  147.2000   157.6206     7.9577     8.7279
  147.3000   157.5690     7.9583     8.7453
  147.4000   157.3202     7.9588     8.7683
  147.5000   156.8260     7.9594     8.8078
  147.6000   155.9425     7.9599     8.8086
  147.7000   154.8087     7.9605     8.8093
  147.8000   153.6495     7.9611     8.8495
  147.9000   152.6548     7.9177     8.8723
  148.0000   151.5631     7.9069     8.8731
  148.1000   150.6653     7.9074     8.8800
  148.2000   150.0113     7.9080     8.9366
  148.3000   149.3988     7.9085     8.9373
  148.4000   148.5916     7.9091     8.9381
  148.5000   147.6040     7.9096     8.9388
  148.6000   146.7165     7.8811     8.9396
  148.7000   146.3143     7.8558     8.9403
  148.8000   145.6704     7.8563     8.9410
  148.9000   144.8319     7.8569     8.9418
  149.0000   143.9524     7.9018     8.9132
  149.1000   143.6890     7.9129     8.8812
  149.2000   143.4574     7.9135     8.8820
  149.3000   143.3885     7.9287     8.8828
  149.4000   143.5142     7.9699     8.8835
  149.5000   143.7648     7.9705     8.8491
  149.6000   144.0307     7.9710     8.8233
  149.7000   144.6087     7.9716     8.8240
  149.8000   144.8200     7.9721     8.8248
  149.9000   144.7594     7.9727     8.8257
  150.0000   144.5119     7.9732     8.8263
  150.1000   144.2643     7.9738     8.8270
