~VERSION INFORMATION
 VERS.                2.0:   CWLS LOG ASCII STANDARD - VERSION 2.0
 WRAP.                 NO:   ONE LINE PER DEPTH STEP
~WELL INFORMATION
#MNEM.UNIT      DATA TYPE    INFORMATION
#----------   ------------   ------------------------------
 STRT.F           28.0000:   START DEPTH
 STOP.F          563.0000:   STOP DEPTH
 STEP.F            0.1000:   STEP LENGTH
 NULL.          -999.2500:   NO VALUE
 COMP.       F D SERV INC:   COMPANY
 WELL.    SX-3 62-4 #62-3:   WELL
 FLD .          N.P.R. #3:   FIELD
 LOC .       S3 T38N R78W:   LOCATION
 CNTY.            NATRONA:   COUNTY
 STAT.            WYOMING:   STATE
 CTRY. UNITED STATES OF AMERICA:   COUNTRY
 SRVC.     Atlas Wireline:   SERVICE COMPANY
 DATE.        03-MAY-1992:   LOGDATE
 API .       490252252100:   API NUMBER
~CURVE INFORMATION
#MNEM.UNIT       API CODE    CURVE DESCRIPTION
#----------   ------------   ------------------------------
 DEPT.F                  :   
 RILD.OHMM   07 120 46 00:   INDUCTION LOG DEEP RESISTIVITY
 RILM.OHMM   07 120 44 00:   INDUCTION LOG MEDIUM RESISTIVITY
 CALD.IN     45 280 60 00:   CALIPER FROM DENSITY LOG
 CORR.G/C3   45 356 01 00:   DENSITY CORRECTION
 DEN .G/C3   45 350 01 00:   COMPENSATED BULK DENSTIY
 GRD .GAPI   45 310 01 00:   GAMMA RAY FROM DENSITY LOG
 PORD.DEC    45 890 12 00:   POROSITY DENSITY SANDSTONE
~PARAMETER INFORMATION
#MNEM.UNIT          VALUE    DESCRIPTION
#----------   ------------   ------------------------------
 PD  .                 GL:   PERMANENT DATUM
 EPD .F              5156:   ELEVATION PERMANENT DATUM
 LMF .                 KB:   LOG MEASURED FROM
 DAPD.F                 5:   FEET ABOVE PERMANENT DATUM
 DMF .                 KB:   DRILLING MEASURED FROM
 EKB .F              5161:   KELLING BUSHING
 EGL .F              5156:   GROUND LEVEL
 DATE.        03-MAY-1992:   RUN DATE
 RUN .                  1:   RUN NUMBER
 DD  .F               565:   DEPTH DRILLER
 DL  .F               566:   DEPTH LOGGER
 BLI .F               564:   BOTTOM LOG INTERVAL
 TLI .F                50:   TOP LOG INTERVAL
 CS  .IN            8.625:   CASING SIZE
 CBD .F                49:   CASING BOTTOM DRILLER
 CBL .F                50:   CASING BOTTOM LOGGER
 BS  .IN            7.875:   BIT SIZE
 BSD .F               565:   BIT SIZE AT DEPTH
 DFT .        AIR DRILLED:   DRILLING FLUID TYPE
 LUN .             HL 632:   LOGGING UNIT NUMBER
 LUL .           RK. SPGS:   LOGGING UNIT LOCATION
 ENGI.               RALL:   RECORDING ENGINEER
 WITN.             STRONG:   WITNESSED BY
 CLNT.            A2DTECH:   CLIENT CODE
 ORIG.           5" PRINT:   ORIGIN OF DATA
 UWI .       490252252100:   UNIQUE WELL ID
 DICO. A2D Technologies, Inc.:   DIGITIZING COMPANY
~OTHER INFORMATION
~A   DEPT     RILD       RILM       CALD       CORR        DEN        GRD       PORD   
# ...
  146.3000     9.0850     8.9964     8.2729     0.0006     2.5157   175.6363     0.0805
  146.4000     9.0577     8.9960     8.2728     0.0002     2.5153   176.1369     0.0804
  146.5000     9.0215     8.9956     8.2728     0.0002     2.5142   176.5293     0.0804
  146.6000     9.0154     8.9661     8.2727     0.0006     2.5162   176.8375     0.0805
  146.7000     8.9583     8.9328     8.2727     0.0017     2.5157   177.3277     0.0808
  146.8000     8.9114     8.9324     8.2726     0.0017     2.5150   177.6146     0.0808
  146.9000     8.8599     8.9320     8.2725     0.0017     2.5144   178.0387     0.0810
  147.0000     8.8086     8.9317     8.2725     0.0026     2.5134   178.5393     0.0818
  147.1000     8.7724     8.9313     8.2724     0.0032     2.5116   178.8090     0.0836
  147.2000     8.7721     8.9034     8.2724     0.0036     2.5102   178.8060     0.0861
  147.3000     8.7717     8.8520     8.2723     0.0047     2.5091   178.8030     0.0884
  147.4000     8.7267     8.8009     8.2722     0.0047     2.5074   178.7996     0.0895
  147.5000     8.7104     8.7460     8.2722     0.0047     2.5055   178.7970     0.0897
  147.6000     8.7100     8.7457     8.2721     0.0056     2.5036   178.6224     0.0902
  147.7000     8.7096     8.7096     8.2721     0.0062     2.5016   178.3675     0.0905
  147.8000     8.7057     8.6846     8.2720     0.0066     2.4989   178.0388     0.0908
  147.9000     8.6487     8.6842     8.2719     0.0077     2.4983   177.5322     0.0910
  148.0000     8.6484     8.6839     8.2719     0.0077     2.4981   176.9772     0.0910
  148.1000     8.6480     8.6835     8.2718     0.0088     2.4981   176.5188     0.0910
  148.2000     8.6476     8.6831     8.2718     0.0091     2.4983   175.6545     0.0909
  148.3000     8.6473     8.6828     8.2717     0.0091     2.4989   175.1639     0.0907
  148.4000     8.6444     8.6824     8.2716     0.0096     2.4989   175.1609     0.0902
  148.5000     8.5867     8.6820     8.2716     0.0106     2.4995   175.1900     0.0894
  148.6000     8.5864     8.6817     8.2715     0.0106     2.5001   175.4554     0.0886
  148.7000     8.5544     8.6813     8.2715     0.0106     2.5011   175.6876     0.0881
  148.8000     8.5264     8.6810     8.2714     0.0106     2.5021   176.1225     0.0874
  148.9000     8.5260     8.6806     8.2713     0.0106     2.5028   176.4860     0.0868
  149.0000     8.5257     8.6802     8.2713     0.0106     2.5041   176.7348     0.0863
  149.1000     8.5253     8.6799     8.2712     0.0106     2.5054   177.0793     0.0858
  149.2000     8.4844     8.6795     8.2712     0.0106     2.5071   177.9410     0.0850
  149.3000     8.4657     8.6791     8.2711     0.0106     2.5086   178.8028     0.0848
  149.4000     8.4653     8.6788     8.2710     0.0106     2.5099   179.5310     0.0841
  149.5000     8.4650     8.6784     8.2710     0.0106     2.5110   179.9435     0.0837
  149.6000     8.4646     8.6781     8.2709     0.0106     2.5117   179.9392     0.0833
  149.7000     8.4642     8.6777     8.2709     0.0106     2.5123   180.1826     0.0828
  149.8000     8.4246     8.6774     8.2708     0.0106     2.5134   180.2328     0.0823
  149.9000     8.4051     8.6769     8.2707     0.0105     2.5139   180.2292     0.0818
  150.0000     8.4047     8.6766     8.2707     0.0105     2.5142   180.3258     0.0819
  150.1000     8.4044     8.6763     8.2705     0.0105     2.5146   180.4714     0.0817
  150.2000     8.4040     8.6759     8.2704     0.0075     2.5139   180.2184     0.0815
  150.3000     8.3557     8.6663     8.2702     0.0053     2.5132   180.2141     0.0818
  150.4000     8.3074     8.6153     8.2700     0.0060     2.5122   180.2111     0.0823
  150.5000     8.2872     8.6149     8.2698     0.0060     2.5113   180.0511     0.0833
  150.6000     8.2687     8.5763     8.2696     0.0060     2.5104   179.9032     0.0839
  150.7000     8.2209     8.5547     8.2694     0.0060     2.5091   179.8995     0.0845
  150.8000     8.1720     8.5366     8.2692     0.0060     2.5079   179.8959     0.0851
  150.9000     8.1717     8.4873     8.2691     0.0060     2.5072   179.8918     0.0859
  151.0000     8.0882     8.4359     8.2689     0.0060     2.5061   179.8887     0.0866
  151.1000     7.9923     8.3439     8.2687     0.0066     2.5052   179.8851     0.0875
  151.2000     7.9458     8.2482     8.2685     0.0091     2.5046   179.8815     0.0881
  151.3000     7.9453     8.1037     8.2683     0.0105     2.5038   179.8121     0.0887
  151.4000     7.9083     7.9469     8.2682     0.0105     2.5026   179.5735     0.0892
  151.5000     7.8623     7.8694     8.2680     0.0105     2.5019   179.5695     0.0897
  151.6000     7.8346     7.8680     8.2678     0.0111     2.5013   179.5663     0.0902
  151.7000     7.8252     7.7604     8.2676     0.0120     2.5011   179.5627     0.0902
  151.8000     7.7796     7.7238     8.2674     0.0121     2.5011   179.5591     0.0900
  151.9000     7.7253     7.6789     8.2672     0.0135     2.5011   179.5555     0.0899
  152.0000     7.7250     7.6162     8.2671     0.0135     2.5011   179.5519     0.0898
  152.1000     7.6979     7.5470     8.2669     0.0144     2.5011   179.5479     0.0896
  152.2000     7.6531     7.5460     8.2667     0.0150     2.5017   179.5446     0.0896
  152.3000     7.6085     7.4942     8.2665     0.0150     2.5019   179.5410     0.0896
  152.4000     7.5642     7.4586     8.2663     0.0148     2.5019   179.5374     0.0896
  152.5000     7.5115     7.3890     8.2662     0.0135     2.5019   179.6140     0.0894
  152.6000     7.4765     7.3214     8.2660     0.0123     2.5019   179.8623     0.0893
  152.7000     7.4330     7.2789     8.2658     0.0111     2.5026   180.1279     0.0894
  152.8000     7.3898     7.2375     8.2656     0.0098     2.5021   180.5929     0.0896
  152.9000     7.3468     7.2372     8.2654     0.0085     2.5019   180.9077     0.0896
  153.0000     7.3040     7.2026     8.2653     0.0073     2.5019   181.2922     0.0898
  153.1000     7.2029     7.1867     8.2651     0.0059     2.5017   181.7923     0.0901
  153.2000     7.2026     7.1864     8.2649     0.0047     2.5010   182.2923     0.0905
  153.3000     7.1773     7.1861     8.2647     0.0044     2.5004   182.8131     0.0909
  153.4000     7.1520     7.1858     8.2645     0.0044     2.4998   183.2924     0.0912
  153.5000     7.1516     7.1854     8.2644     0.0044     2.4992   184.5623     0.0917
  153.6000     7.1512     7.2197     8.2642     0.0044     2.4989   185.0649     0.0922
  153.7000     7.1508     7.2348     8.2640     0.0044     2.4987   184.7148     0.0925
  153.8000     7.1175     7.2345     8.2638     0.0044     2.4979   184.2075     0.0926
  153.9000     7.0517     7.2342     8.2636     0.0054     2.4966   183.6938     0.0927
  154.0000     7.0024     7.2339     8.2635     0.0066     2.4966   183.4416     0.0927
  154.1000     6.9939     7.2336     8.2633     0.0084     2.4966   183.1862     0.0924
  154.2000     6.9532     7.2333     8.2631     0.0104     2.4973   182.9307     0.0922
  154.3000     6.9047     7.2596     8.2629     0.0104     2.4983   182.7771     0.0916
  154.4000     6.9044     7.2830     8.2627     0.0119     2.4990   182.7735     0.0911
  154.5000     6.9040     7.2827     8.2626     0.0119     2.4996   182.7699     0.0906
  154.6000     6.9197     7.2839     8.2624     0.0127     2.5002   182.7657     0.0902
  154.7000     6.9594     7.3243     8.2622     0.0134     2.5009   182.9696     0.0899
  154.8000     6.9993     7.3647     8.2620     0.0131     2.5015   183.2178     0.0894
  154.9000     6.9988     7.4051     8.2618     0.0119     2.5024   183.4660     0.0889
  155.0000     7.0637     7.4455     8.2616     0.0104     2.5035   183.7143     0.0886
  155.1000     7.1206     7.4859     8.2615     0.0104     2.5041   183.9514     0.0882
  155.2000     7.1614     7.5263     8.2613     0.0096     2.5049   183.9471     0.0877
  155.3000     7.2025     7.5667     8.2611     0.0077     2.5059   183.9441     0.0872
