~VERSION INFORMATION
 VERS.                2.0:   CWLS LOG ASCII STANDARD - VERSION 2.0
 WRAP.                 NO:   ONE LINE PER DEPTH STEP
~WELL INFORMATION
#MNEM.UNIT      DATA TYPE    INFORMATION
#----------   ------------   ------------------------------
 STRT.F          248.0000:   START DEPTH
 STOP.F         2495.0000:   STOP DEPTH
 STEP.F            0.5000:   STEP LENGTH
 NULL.          -999.2500:   NO VALUE
 COMP. FENIX & SCISSON INC:   COMPANY
 WELL.      85 SHX #28-28:   WELL
 FLD .             TEAPOT:   FIELD
 LOC .      S28 T39N R78W:   LOCATION
 CNTY.            NATRONA:   COUNTY
 STAT.            WYOMING:   STATE
 CTRY. UNITED STATES OF AMERICA:   COUNTRY
 SRVC.           BIRDWELL:   SERVICE COMPANY
 DATE.        18-AUG-1979:   LOGDATE
 API .       490251079700:   API NUMBER
~CURVE INFORMATION
#MNEM.UNIT       API CODE    CURVE DESCRIPTION
#----------   ------------   ------------------------------
 DEPT.F                  :   
 CALD.IN     45 280 60 00:   CALIPER
 CORR.G/C3   45 356 01 00:   DENSITY CORRECTION
 RHOB.G/C3   45 350 01 00:   BULK DENSITY
 DPHI.DEC    45 890 12 00:   DENSITY POROSITY SANDSTONE
 GRD .GAPI   45 310 01 00:   GAMMA RAY FROM DENSITY LOG
~PARAMETER INFORMATION
#MNEM.UNIT          VALUE    DESCRIPTION
#----------   ------------   ------------------------------
 PD  .                 GL:   PERMANENT DATUM
 EPD .F              5044:   ELEVATION PERMANENT DATUM
 LMF .                 DF:   LOG MEASURED FROM
 DMF .                 KB:   DRILLING MEASURED FROM
 EKB .F              5054:   KELLING BUSHING
 EDF .F              5052:   DRILLING FLOOR
 EGL .F              5044:   GROUND LEVEL
 DATE.            8-18-79:   RUN DATE
 RUN .                  1:   RUN NUMBER
 DD  .F              2500:   DEPTH DRILLER
 DL  .F              2495:   DEPTH LOGGER
 BLI .F              2495:   BOTTOM LOG INTERVAL
 CS  .IN            9.625:   CASING SIZE
 CBD .F               520:   CASING BOTTOM DRILLER
 CBL .F               505:   CASING BOTTOM LOGGER
 BS  .IN             8.75:   BIT SIZE
 BSD .F              2500:   BIT SIZE AT DEPTH
 DFT .                AIR:   DRILLING FLUID TYPE
 TCS .HRS               2:   TIME CURCULATED STOPPED
 ENGI.          B. MILLER:   RECORDING ENGINEER
 WITN.           DINSMORE:   WITNESSED BY
 CLNT.            A2DTECH:   CLIENT CODE
 ORIG.           5" PRINT:   ORIGIN OF DATA
 UWI .       490251079700:   UNIQUE WELL ID
 DICO. A2D Technologies, Inc.:   DIGITIZING COMPANY
~OTHER INFORMATION
~A   DEPT     CALD       CORR       RHOB       DPHI         GRD  
# ...
 1163.0000    10.0346     0.2628     2.4239     0.0772   138.5438
 1163.5000    10.0305     0.2902     2.4450     0.0602   132.4261
 1164.0000    10.0776     0.3076     2.4662     0.0423   143.1998
 1164.5000    10.1299     0.3220     2.4834     0.0360   152.1490
 1165.0000    10.1428     0.3205     2.4870     0.0335   147.6807
 1165.5000    10.1331     0.3112     2.4960     0.0251   140.2448
 1166.0000    10.1229     0.2927     2.5054     0.0268   136.4789
 1166.5000    10.1128     0.2564     2.5005     0.0293   140.5917
 1167.0000    10.1026     0.2203     2.4907     0.0326   138.3660
 1167.5000    10.0925     0.1841     2.4741     0.0424   137.3987
 1168.0000    10.0823     0.1583     2.4601     0.0516   136.2431
 1168.5000    10.0722     0.1557     2.4651     0.0496   131.8439
 1169.0000    10.0621     0.1549     2.4597     0.0502   127.3451
 1169.5000    10.0523     0.1455     2.4494     0.0570   126.4984
 1170.0000    10.0275     0.1433     2.4399     0.0637   133.7980
 1170.5000     9.9993     0.1442     2.4346     0.0668   130.4714
 1171.0000     9.9712     0.1491     2.4296     0.0658   126.4796
 1171.5000     9.9428     0.1572     2.4391     0.0647   122.9588
 1172.0000     9.9300     0.1653     2.4507     0.0560   125.4227
 1172.5000     9.9492     0.1734     2.4624     0.0474   130.0668
 1173.0000     9.9736     0.1806     2.4754     0.0398   130.6407
 1173.5000     9.9974     0.1589     2.4669     0.0445   124.5530
 1174.0000     9.9947     0.1355     2.4492     0.0594   129.1620
 1174.5000     9.9703     0.1203     2.4306     0.0695   134.7242
 1175.0000     9.9330     0.1328     2.4197     0.0722   139.0618
 1175.5000     9.9492     0.1886     2.3843     0.0905   136.6587
 1176.0000    10.4291     0.2755     2.3261     0.1204   132.5247
 1176.5000    10.3864     0.3749     2.3561     0.1264   128.3751
 1177.0000    10.2401     0.4690     2.4363     0.0678   124.9980
 1177.5000    10.0913     0.4771     2.5348    -0.0495   127.9848
 1178.0000     9.9420     0.3098     2.6401    -0.0496   133.4940
 1178.5000     9.8910     0.1580     2.5447     0.0165   135.0506
 1179.0000     9.8901     0.0589     2.4834     0.0468   133.6633
 1179.5000     9.8904     0.0120     2.4478     0.0609   138.5539
 1180.0000     9.8904     0.0067     2.4357     0.0668   146.3388
 1180.5000     9.8988     0.0119     2.4290     0.0690   143.3041
 1181.0000     9.9126     0.0223     2.4227     0.0715   140.3774
 1181.5000     9.9265     0.0377     2.4332     0.0669   138.6177
 1182.0000     9.9405     0.0612     2.4450     0.0583   148.5108
 1182.5000     9.9544     0.0869     2.4488     0.0564   146.2008
 1183.0000     9.9683     0.1121     2.4525     0.0552   144.6860
 1183.5000     9.9822     0.1351     2.4517     0.0559   143.1689
 1184.0000     9.9962     0.1475     2.4423     0.0636   138.2256
 1184.5000    10.0100     0.1646     2.4394     0.0572   134.8095
 1185.0000    10.0240     0.1912     2.4628     0.0439   137.7982
 1185.5000    10.0296     0.2173     2.4787     0.0392   146.5365
 1186.0000    10.0361     0.2248     2.4876     0.0339   152.7610
 1186.5000    10.0439     0.2053     2.4843     0.0366   158.3154
 1187.0000    10.0516     0.1830     2.4804     0.0400   158.3514
 1187.5000    10.0594     0.1594     2.4766     0.0416   151.8532
 1188.0000    10.0671     0.1508     2.4694     0.0422   146.8179
 1188.5000    10.0749     0.1316     2.4552     0.0536   141.7852
 1189.0000    10.0826     0.1154     2.4308     0.0710   138.7581
 1189.5000    10.0897     0.1043     2.4040     0.0890   140.8573
 1190.0000    10.1130     0.1285     2.3799     0.1013   149.0593
 1190.5000    10.1389     0.1779     2.3646     0.1064   149.2345
 1191.0000    10.1652     0.2258     2.3819     0.0927   143.2657
 1191.5000    10.1693     0.2634     2.4142     0.0751   138.7507
 1192.0000    10.1664     0.2885     2.4467     0.0555   134.2040
 1192.5000    10.1634     0.2537     2.4795     0.0415   129.6690
 1193.0000    10.1606     0.1844     2.4458     0.0625   129.5992
 1193.5000    10.1577     0.1159     2.3989     0.0878   135.2074
 1194.0000    10.1548     0.0782     2.3616     0.1100   134.5457
 1194.5000    10.1519     0.0757     2.3377     0.1212   133.9829
 1195.0000    10.1494     0.0939     2.3334     0.1223   133.5635
 1195.5000    10.1297     0.1162     2.3708     0.1012   131.4843
 1196.0000    10.0933     0.1366     2.3968     0.0858   129.0780
 1196.5000    10.0568     0.1530     2.4044     0.0804   126.6454
 1197.0000    10.0291     0.1691     2.4048     0.0809   126.0235
 1197.5000    10.0301     0.1979     2.4051     0.0811   133.4031
 1198.0000    10.0662     0.2315     2.3868     0.0892   139.6005
 1198.5000    10.1067     0.2841     2.3696     0.0986   145.0141
 1199.0000    10.1511     0.3509     2.4143     0.0758   144.8230
 1199.5000    10.1351     0.4044     2.4626     0.0411   136.8416
 1200.0000    10.0671     0.3409     2.5041     0.0280   134.1508
 1200.5000    10.0003     0.2684     2.4863     0.0326   136.3218
 1201.0000     9.9556     0.1966     2.4635     0.0526   136.4844
 1201.5000     9.9490     0.1399     2.4397     0.0604   133.9470
 1202.0000     9.9210     0.1205     2.4396     0.0580   131.4055
 1202.5000     9.8770     0.1104     2.4678     0.0461   128.8534
 1203.0000     9.8328     0.1000     2.4771     0.0406   128.4198
 1203.5000     9.7865     0.0848     2.4834     0.0389   130.1676
 1204.0000     9.7711     0.0633     2.4828     0.0401   131.9272
 1204.5000     9.7707     0.0439     2.4616     0.0494   130.0813
 1205.0000     9.7709     0.0424     2.4636     0.0468   127.0368
 1205.5000     9.7709     0.0409     2.4589     0.0514   125.4573
 1206.0000     9.7709     0.0478     2.4520     0.0572   126.6658
 1206.5000     9.7709     0.0619     2.4452     0.0585   129.7922
 1207.0000     9.7709     0.0746     2.4386     0.0624   134.6919
 1207.5000     9.7709     0.0870     2.4452     0.0636   139.1469
 1208.0000     9.7709     0.0993     2.4577     0.0484   139.4166
 1208.5000     9.7709     0.0989     2.4704     0.0411   138.9096
 1209.0000     9.7709     0.0965     2.4825     0.0367   138.4259
 1209.5000     9.7709     0.0762     2.4780     0.0419   138.0090
 1210.0000     9.7709     0.0573     2.4689     0.0466   138.9180
 1210.5000     9.7709     0.0476     2.4599     0.0506   140.7991
 1211.0000     9.7709     0.0444     2.4510     0.0573   142.5925
 1211.5000     9.7709     0.0487     2.4463     0.0572   141.1389
 1212.0000     9.7709     0.0552     2.4630     0.0481   138.8602
 1212.5000     9.7709     0.0580     2.4722     0.0420   137.2008
 1213.0000     9.7699     0.0568     2.4768     0.0410   137.5287
 1213.5000     9.7666     0.0592     2.4727     0.0426   137.8904
 1214.0000     9.7633     0.0628     2.4629     0.0501   135.0114
 1214.5000     9.7600     0.0664     2.4444     0.0595   129.5914
 1215.0000     9.7567     0.0691     2.4282     0.0689   128.7641
 1215.5000     9.7534     0.0702     2.4218     0.0710   131.7663
 1216.0000     9.7509     0.0831     2.4286     0.0678   128.9139
 1216.5000     9.7510     0.0985     2.4365     0.0631   136.0505
 1217.0000     9.7510     0.1101     2.4446     0.0572   147.2453
 1217.5000     9.7508     0.1245     2.4651     0.0435   152.3571
 1218.0000     9.7515     0.1384     2.4904     0.0287   149.9414
 1218.5000     9.7660     0.1101     2.4990     0.0345   146.0966
 1219.0000     9.7873     0.0803     2.4755     0.0445   142.2166
 1219.5000     9.8130     0.0512     2.4607     0.0506   138.3549
 1220.0000     9.8393     0.0491     2.4511     0.0558   136.7990
 1220.5000     9.8656     0.0660     2.4465     0.0597   146.1062
 1221.0000     9.8919     0.0827     2.4439     0.0638   148.3718
 1221.5000     9.9183     0.0993     2.4237     0.0736   143.9422
 1222.0000     9.9301     0.1164     2.4036     0.0815   138.9667
 1222.5000     9.9303     0.1398     2.4063     0.0781   134.0026
 1223.0000     9.9303     0.1640     2.4223     0.0702   129.0259
 1223.5000     9.9303     0.1820     2.4381     0.0607   124.3515
