~VERSION INFORMATION
 VERS.                2.0:   CWLS LOG ASCII STANDARD - VERSION 2.0
 WRAP.                 NO:   ONE LINE PER DEPTH STEP
~WELL INFORMATION
#MNEM.UNIT      DATA TYPE    INFORMATION
#----------   ------------   ------------------------------
 STRT.F          276.0000:   START DEPTH
 STOP.F         2768.0000:   STOP DEPTH
 STEP.F            0.5000:   STEP LENGTH
 NULL.          -999.2500:   NO VALUE
 COMP.       TESORD PETRO:   COMPANY
 WELL. AX-20 NPR #3 #83-20:   WELL
 FLD .            WILDCAT:   FIELD
 LOC .      S20 T39N R78W:   LOCATION
 CNTY.            NATRONA:   COUNTY
 STAT.            WYOMING:   STATE
 CTRY. UNITED STATES OF AMERICA:   COUNTRY
 SRVC.       Schlumberger:   SERVICE COMPANY
 DATE.        20-JUL-1971:   LOGDATE
 API .       490251022000:   API NUMBER
~CURVE INFORMATION
#MNEM.UNIT       API CODE    CURVE DESCRIPTION
#----------   ------------   ------------------------------
 DEPT.F                  :   
 SPR .MV     05 010 01 00:   SPONTANEOUS POTENTIAL FROM RES.
 ASN .OHMM   05 041 16 00:   AMPLIFIED SHORT NORMAL 16"
 ILD .OHMM   05 120 46 00:   INDUCTION LOG DEEP
 CALD.IN     45 280 60 00:   CALIPER FROM DENSITY
 CORR.G/C3   45 356 01 00:   DENSITY CORRECTION
 DPHI.DEC    45 890 12 00:   DENSITY POROSITY SANDSTONE
 GRD .GAPI   45 310 01 00:   GAMMA RAY FROM DENSITY LOG
 RHOB.G/C3   45 350 01 00:   BULK DENSITY
 CILD.MMHO   05 110 46 00:   CONDUCTIVITY INDUCTION LOG DEEP
~PARAMETER INFORMATION
#MNEM.UNIT          VALUE    DESCRIPTION
#----------   ------------   ------------------------------
 PD  .                 GL:   PERMANENT DATUM
 EPD .F              4994:   ELEVATION PERMANENT DATUM
 LMF .                 KB:   LOG MEASURED FROM
 DAPD.F                11:   FEET ABOVE PERMANENT DATUM
 DMF .                 KB:   DRILLING MEASURED FROM
 EKB .F              5005:   KELLING BUSHING
 EGL .F              4994:   GROUND LEVEL
 DATE.        20-JUL-1971:   RUN DATE
 RUN .                  1:   RUN NUMBER
 DD  .F              2770:   DEPTH DRILLER
 DL  .F              2769:   DEPTH LOGGER
 BLI .F              2768:   BOTTOM LOG INTERVAL
 TLI .F               276:   TOP LOG INTERVAL
 CS  .IN            10.75:   CASING SIZE
 CBD .F               274:   CASING BOTTOM DRILLER
 CBL .F               276:   CASING BOTTOM LOGGER
 BS  .IN                9:   BIT SIZE
 BSD .F              2770:   BIT SIZE AT DEPTH
 DFT .      FRESH GEL MUD:   DRILLING FLUID TYPE
 DFD .                 10:   DRILLING FLUID DENSITY
 DFV .                 82:   DRILLING FLUID VISCOSITY
 DFPH.                  8:   DRILLING FLUID PH
 DFL .                4.8:   DRILLING FLUID LOSS
 MSS .           FLOWLINE:   MUD SAMPLE SOURCE
 RMS .OHMM            1.8:   RESISTIVITY MUD SAMPLE
 MST .F                73:   MUD SAMPLE TEMPERATURE
 RMF .OHMM            1.4:   RESISTIVITY MUD FILTRATE SAMPLE
 MFST.F                73:   MUD FILTRATE SAMPLE TEMPERATURE
 MFSS.               MEAS:   MUD FILTRATE SAMPLE SOURCE
 RMB .OHMM           1.15:   RESISTIVITY MUD AT BHT
 BHT .F               116:   BOTTOM HOLE TEMPERATURE
 TCS .HRS               2:   TIME CURCULATED STOPPED
 MRT .F               116:   MAXIMUM RECORDED TEMPERATURE
 LUN .               7037:   LOGGING UNIT NUMBER
 LUL .               CSPR:   LOGGING UNIT LOCATION
 ENGI.             JENSEN:   RECORDING ENGINEER
 WITN.                MAY:   WITNESSED BY
 CLNT.            A2DTECH:   CLIENT CODE
 ORIG.     1", 2.5" PRINT:   ORIGIN OF DATA
 UWI .       490251022000:   UNIQUE WELL ID
 DICO. A2D Technologies, Inc.:   DIGITIZING COMPANY
~OTHER INFORMATION
~A   DEPT      SPR          ASN        ILD     CALD       CORR       DPHI        GRD       RHOB       CILD   
# ...
 1845.5000   -30.2313     6.5127     5.0640     9.3054     0.0101     0.1262   101.7623     2.4267  -999.2500
 1846.0000   -30.2388     6.0644     4.7857     9.3045     0.0101     0.1292   101.7490     2.4238  -999.2500
 1846.5000   -30.1861     6.0041     4.6340     9.3037     0.0078     0.1253    98.6014     2.4335  -999.2500
 1847.0000   -29.9545     6.0333     4.6310     9.3030     0.0032     0.1194    92.7672     2.4471  -999.2500
 1847.5000   -29.9627     6.1820     4.6280     9.3022    -0.0006     0.1140    92.8467     2.4592  -999.2500
 1848.0000   -29.9701     6.3904     4.7836     9.3015    -0.0029     0.1192    97.9047     2.4444  -999.2500
 1848.5000   -29.9776     6.6286     5.3735     9.3008    -0.0081     0.1332   102.5782     2.4234  -999.2500
 1849.0000   -29.9323     6.6579     5.8145     9.3297    -0.0126     0.1455   101.5120     2.4126  -999.2500
 1849.5000   -29.6934     6.6572     6.1041     9.3290     0.0068     0.1431    98.2668     2.4081  -999.2500
 1850.0000   -29.6516     6.5969     6.0267     9.3282     0.0127     0.1383    95.3742     2.4200  -999.2500
 1850.5000   -29.4098     6.5963     5.8762     9.3275    -0.0008     0.1365    98.8375     2.4379  -999.2500
 1851.0000   -29.1188     6.6554     5.7976     9.3268    -0.0068     0.1276   103.0921     2.4424  -999.2500
 1851.5000   -29.0816     6.8638     5.7947     9.3260     0.0036     0.1266   107.4240     2.4333  -999.2500
 1852.0000   -29.1343     6.9826     6.0099     9.3253     0.0125     0.1294   105.2600     2.4258  -999.2500
 1852.5000   -29.1841     7.1909     6.3715     9.3246     0.0110     0.1210   103.1045     2.4497  -999.2500
 1853.0000   -29.4885     7.5784     6.7456     9.3238     0.0139     0.1132   102.4567     2.4870  -999.2500
 1853.5000   -29.7537     8.0853     7.0390     9.3231     0.0273     0.0995   103.1969     2.4974  -999.2500
 1854.0000   -29.7990     8.5324     7.1835     9.3224     0.0332     0.1217   103.7756     2.4496  -999.2500
 1854.5000   -30.0672     8.6512     7.2649     9.3216     0.0197     0.1235   103.0582     2.4358  -999.2500
 1855.0000   -30.0746     8.6208     7.2619     9.3209     0.0212     0.1169    98.4097     2.4498  -999.2500
 1855.5000   -30.0821     8.5605     6.8398     9.3201     0.0122     0.1271    91.3521     2.4300  -999.2500
 1856.0000   -30.0896     8.3808     6.3929     9.3493    -0.0028     0.1138    91.9282     2.4588  -999.2500
 1856.5000   -30.0970     8.1414     6.0625     9.3485    -0.0043     0.1023    96.0940     2.4859  -999.2500
 1857.0000   -30.1045     8.1109     6.0025     9.3776    -0.0044     0.0984    94.7225     2.4971  -999.2500
 1857.5000   -29.8131     8.1700     6.0571     9.3769    -0.0042     0.1062    92.2051     2.4792  -999.2500
 1858.0000   -29.8209     8.2888     6.1081     9.3761     0.0162     0.0892    90.9344     2.5167  -999.2500
 1858.5000   -29.8039     8.3182     6.2527     9.3753     0.0403     0.0792    92.9881     2.5317  -999.2500
 1859.0000   -29.5370     8.3175     6.3973     9.3746     0.0332     0.0964    90.6512     2.5297  -999.2500
 1859.5000   -29.5234     8.3169     6.5420     9.3739     0.0183     0.0972    86.1603     2.4790  -999.2500
 1860.0000   -29.2535     8.4119     6.6865     9.3731     0.0148     0.0900    83.4605     2.5029  -999.2500
 1860.5000   -29.2429     8.5961     6.9320     9.3724     0.0217     0.0718    82.1039     2.5351  -999.2500
 1861.0000   -28.9699     8.7453     7.0779     9.3717     0.0270     0.0747    83.8817     2.5312  -999.2500
 1861.5000   -28.9930     8.6552     7.0744     9.3709     0.0304     0.0860    87.0028     2.5205  -999.2500
 1862.0000   -29.2836     8.6424     7.2207     9.3586     0.0330     0.0962    91.9149     2.5007  -999.2500
 1862.5000   -29.2910     8.7363     7.1739     9.3395     0.0340     0.0976    93.6926     2.4809  -999.2500
 1863.0000   -29.5970     8.8848     7.0233     9.3388     0.0276     0.0985    88.3062     2.4627  -999.2500
 1863.5000   -29.6045     8.9735     6.8727     9.3082     0.0053     0.0997    87.3975     2.4560  -999.2500
 1864.0000   -29.6119     9.0452     6.7222     9.3074     0.0049     0.1003    87.8320     2.4786  -999.2500
 1864.5000   -29.6194     9.0743     6.5717     9.3067     0.0228     0.0980    89.1620     2.5005  -999.2500
 1865.0000   -29.6269     8.7811     6.4583     9.3060     0.0287     0.0908    89.5965     2.5156  -999.2500
 1865.5000   -29.6343     8.1210     6.3065     9.3051     0.0195     0.0860    90.9265     2.5307  -999.2500
 1866.0000   -29.6418     7.5654     6.1200     9.3043     0.0247     0.0812    94.4953     2.5277  -999.2500
 1866.5000   -29.6493     7.2140     6.0030     9.3335     0.0291     0.0878    99.8552     2.5082  -999.2500
 1867.0000   -29.6567     7.0511     5.8512     9.3627     0.0242     0.0998   103.4615     2.4738  -999.2500
 1867.5000   -29.6642     6.9776     5.8172     9.3917     0.0022     0.1004   106.9928     2.4558  -999.2500
 1868.0000   -29.3731     6.9962     5.6964     9.3910     0.0066     0.1004   105.9641     2.4737  -999.2500
 1868.5000   -29.3807     7.1310     5.6934     9.3902     0.0185     0.1022   102.8535     2.4976  -999.2500
 1869.0000   -29.3881     7.3254     5.6905     9.3895     0.0274     0.1046   101.9746     2.4796  -999.2500
 1869.5000   -29.0971     7.4715     5.8366     9.3290     0.0035     0.1059   101.5657     2.4482  -999.2500
 1870.0000   -29.1046     7.5423     5.8334     9.2985     0.0064     0.1022   101.5522     2.4825  -999.2500
 1870.5000   -29.1121     7.4048     5.8304     9.2977     0.0183     0.0935   101.6245     2.5139  -999.2500
 1871.0000   -29.1196     7.2436     5.8274     9.3567     0.0317     0.0921   102.6148     2.5123  -999.2500
 1871.5000   -28.8285     7.1866     5.8244     9.3858     0.0421     0.0958   103.7523     2.5033  -999.2500
 1872.0000   -28.8360     7.1295     5.8214     9.4149     0.0376     0.1047   104.3044     2.4778  -999.2500
 1872.5000   -28.8435     7.0776     5.8370     9.4142     0.0181     0.1154   105.3283     2.4582  -999.2500
 1873.0000   -28.8318     7.0770     5.9645     9.4121     0.0061     0.1207   107.7182     2.4449  -999.2500
 1873.5000   -28.8585     7.1519     5.9613     9.3829     0.0016     0.1187   106.3384     2.4673  -999.2500
 1874.0000   -29.1645     7.3755     5.9583     9.3523     0.0031     0.1149    98.3104     2.4591  -999.2500
 1874.5000   -29.1719     7.7223     5.9554     9.2918     0.0060     0.1211   100.3415     2.4473  -999.2500
 1875.0000   -29.1794     7.9751     5.9524     9.2612     0.0090     0.1219   103.1341     2.4432  -999.2500
 1875.5000   -29.1869     8.0293     5.8006     9.2604     0.0134     0.1173   105.3819     2.4453  -999.2500
 1876.0000   -29.1944     7.9153     5.7976     9.2597     0.0178     0.1118   105.8985     2.4564  -999.2500
 1876.5000   -29.5004     7.6511     5.7859     9.2589     0.0147     0.1078   104.2994     2.4711  -999.2500
 1877.0000   -29.5079     7.4511     5.6428     9.2882     0.0113     0.1102   100.6555     2.4744  -999.2500
 1877.5000   -29.5153     7.2880     5.6337     9.2873     0.0066     0.1150    95.3428     2.4579  -999.2500
 1878.0000   -29.5228     7.0324     5.4881     9.3165     0.0012     0.1126    93.5912     2.4665  -999.2500
 1878.5000   -29.2313     6.9169     5.4852     9.3457    -0.0003     0.1037    96.2978     2.4827  -999.2500
 1879.0000   -29.2393     6.8609     5.4822     9.3448    -0.0004     0.0965   101.7557     2.5069  -999.2500
 1879.5000   -29.2467     6.8603     5.4792     9.3440     0.0014     0.0962   105.3245     2.4944  -999.2500
 1880.0000   -29.2542     6.8975     5.4762     9.3731     0.0059     0.1007   104.8635     2.4726  -999.2500
 1880.5000   -28.9627     7.0084     5.4732     9.3724     0.0093     0.1007   104.7141     2.4845  -999.2500
 1881.0000   -28.9707     6.9741     5.6190     9.3716     0.0143     0.0948   106.6280     2.5088  -999.2500
 1881.5000   -28.6797     6.9438     5.6160     9.3709     0.0158     0.0894   108.8535     2.5203  -999.2500
