~VERSION INFORMATION
 VERS.                2.0:   CWLS LOG ASCII STANDARD - VERSION 2.0
 WRAP.                 NO:   ONE LINE PER DEPTH STEP
~WELL INFORMATION
#MNEM.UNIT      DATA TYPE    INFORMATION
#----------   ------------   ------------------------------
 STRT.F            0.0000:   START DEPTH
 STOP.F          663.0000:   STOP DEPTH
 STEP.F            0.1000:   STEP LENGTH
 NULL.          -999.2500:   NO VALUE
 COMP.   FLUOR DANIEL INC:   COMPANY
 WELL.     62-6 X 3 #62-3:   WELL
 FLD .             TEAPOT:   FIELD
 LOC .       S3 T38N R78W:   LOCATION
 CNTY.            NATRONA:   COUNTY
 STAT.            WYOMING:   STATE
 CTRY. UNITED STATES OF AMERICA:   COUNTRY
 SRVC.      Western Atlas:   SERVICE COMPANY
 DATE.        11-APR-1995:   LOGDATE
 API .       490252270400:   API NUMBER
~CURVE INFORMATION
#MNEM.UNIT       API CODE    CURVE DESCRIPTION
#----------   ------------   ------------------------------
 DEPT.F                  :   
 GRR .GAPI   07 310 01 00:   GAMMA RAY
 RILD.OHMM   07 120 46 00:   INDUCTION LOG DEEP RESISTIVITY
 RILM.OHMM   07 120 44 00:   INDUCTION LOG MEDIUM RESISTIVITY
~PARAMETER INFORMATION
#MNEM.UNIT          VALUE    DESCRIPTION
#----------   ------------   ------------------------------
 PD  .                 GL:   PERMANENT DATUM
 EPD .F              5157:   ELEVATION PERMANENT DATUM
 LMF .                 KB:   LOG MEASURED FROM
 DAPD.F                10:   FEET ABOVE PERMANENT DATUM
 DMF .                 KB:   DRILLING MEASURED FROM
 EKB .F              5167:   KELLING BUSHING
 EDF .F              5166:   DRILLING FLOOR
 EGL .F              5157:   GROUND LEVEL
 DATE.        11-APR-1995:   RUN DATE
 RUN .                  1:   RUN NUMBER
 DD  .F               671:   DEPTH DRILLER
 DL  .F               671:   DEPTH LOGGER
 BLI .F               663:   BOTTOM LOG INTERVAL
 TLI .F                95:   TOP LOG INTERVAL
 CS  .IN            9.625:   CASING SIZE
 CBD .F                95:   CASING BOTTOM DRILLER
 CBL .F                95:   CASING BOTTOM LOGGER
 BS  .IN             8.75:   BIT SIZE
 BSD .F               671:   BIT SIZE AT DEPTH
 DFT .                AIR:   DRILLING FLUID TYPE
 MRT .F                90:   MAXIMUM RECORDED TEMPERATURE
 LUN .            HL 6530:   LOGGING UNIT NUMBER
 LUL .             CASPER:   LOGGING UNIT LOCATION
 ENGI.      PAT RASMUSSEN:   RECORDING ENGINEER
 WITN.        GARY STRONG:   WITNESSED BY
 CLNT.            A2DTECH:   CLIENT CODE
 ORIG.           5" PRINT:   ORIGIN OF DATA
 UWI .       490252270400:   UNIQUE WELL ID
 DICO. A2D Technologies, Inc.:   DIGITIZING COMPANY
~OTHER INFORMATION
~A    DEPT      GRR      RILD       RILM   
# ...
  273.0000   101.6546     8.0235     8.5201
  273.1000   101.9133     8.0239     8.5207
  273.2000   102.1719     8.0245     8.5214
  273.3000   102.3687     8.0250     8.5219
  273.4000   102.3711     8.0256     8.5225
  273.5000   102.3738     8.0261     8.4996
  273.6000   102.3759     8.0267     8.4644
  273.7000   102.1952     8.0273     8.4591
  273.8000   102.0795     8.0278     8.4067
  273.9000   102.0819     8.0015     8.4073
  274.0000   102.1326     7.9732     8.4078
  274.1000   102.3880     7.9840     8.3789
  274.2000   102.3908     8.0301     8.3505
  274.3000   102.8216     8.0307     8.3511
  274.4000   103.5061     8.0312     8.3517
  274.5000   104.0281     8.0317     8.3523
  274.6000   104.2867     8.0323     8.3528
  274.7000   104.5105     8.0329     8.3534
  274.8000   104.2121     8.0334     8.3540
  274.9000   104.2145     8.0340     8.3546
  275.0000   104.2169     8.0346     8.3552
  275.1000   104.0635     8.0351     8.3557
  275.2000   103.9205     8.0356     8.3564
  275.3000   103.9229     8.0148     8.3569
  275.4000   103.9253     7.9810     8.3575
  275.5000   103.9279     7.9816     8.3581
  275.6000   103.9301     7.9822     8.3427
  275.7000   103.9325     7.9827     8.3010
  275.8000   104.3614     7.9482     8.3017
  275.9000   104.9382     7.9018     8.3022
  276.0000   105.1968     7.8739     8.2635
  276.1000   105.4627     7.8645     8.2151
  276.2000   106.0534     7.8204     8.1888
  276.3000   106.2739     7.8210     8.1761
  276.4000   106.3590     7.8215     8.1329
  276.5000   106.3614     7.8220     8.1336
  276.6000   106.3639     7.7991     8.1341
  276.7000   106.3663     7.7689     8.0985
  276.8000   106.3687     7.7694     8.0786
  276.9000   106.3711     7.7700     8.0792
  277.0000   106.3735     7.7706     8.0689
  277.1000   106.3759     7.7710     8.0216
  277.2000   106.2635     7.7716     7.9689
  277.3000   105.9397     7.7721     7.9694
  277.4000   105.4297     7.7726     7.9367
  277.5000   104.8797     7.7732     7.9150
  277.6000   104.8819     7.7738     7.9156
  277.7000   104.6932     7.7743     7.9077
  277.8000   104.5855     7.7407     7.8616
  277.9000   104.5880     7.7214     7.8622
  278.0000   104.6466     7.7041     7.8627
  278.1000   104.9052     7.6689     7.8327
  278.2000   105.1979     7.6677     7.8091
  278.3000   105.2000     7.6168     7.7955
  278.4000   105.3799     7.6173     7.7557
  278.5000   105.7711     7.6178     7.7564
  278.6000   106.1108     7.6184     7.7569
  278.7000   106.1133     7.6189     7.7215
  278.8000   106.1157     7.6124     7.7040
  278.9000   106.1185     7.5671     7.7045
  279.0000   106.1205     7.5677     7.7051
  279.1000   106.1229     7.5681     7.7056
  279.2000   105.8876     7.5129     7.7062
  279.3000   105.4514     7.4645     7.6652
  279.4000   105.2262     7.4530     7.6536
  279.5000   105.2291     7.4137     7.6541
  279.6000   104.9912     7.4143     7.6547
  279.7000   104.3470     7.3745     7.6456
  279.8000   104.0313     7.2994     7.6008
  279.9000   103.8233     7.2382     7.5502
  280.0000   103.3133     7.1960     7.5121
  280.1000   102.8185     7.1450     7.4986
  280.2000   102.5352     7.0630     7.4991
  280.3000   102.0843     7.0161     7.4846
  280.4000   101.7558     6.9689     7.4337
  280.5000   101.3655     6.9142     7.3452
  280.6000   100.8554     6.8595     7.2947
  280.7000   100.3453     6.8048     7.2599
  280.8000    99.8354     6.7501     7.1902
  280.9000    99.2390     6.6954     7.1252
  281.0000    98.6024     6.6407     7.0835
  281.1000    98.1719     6.5860     7.0372
  281.2000    98.0410     6.5313     6.9496
  281.3000    98.0434     6.4766     6.8728
  281.4000    98.0787     6.4333     6.7921
  281.5000    98.3495     6.3591     6.7123
  281.6000    98.3518     6.2822     6.6334
  281.7000    98.5534     6.2776     6.5555
  281.8000    98.8121     6.2395     6.4783
  281.9000    99.0707     6.1695     6.3941
  282.0000    99.2651     6.1256     6.3607
  282.1000    99.3059     6.1118     6.2966
  282.2000    99.8725     6.1122     6.2226
  282.3000   100.3358     6.1127     6.1629
  282.4000   100.6650     6.1131     6.1338
  282.5000   101.0642     6.1136     6.1343
  282.6000   101.4835     6.1139     6.0921
  282.7000   101.6916     6.1144     6.0924
  282.8000   101.7053     6.1148     6.0929
  282.9000   102.2992     6.1152     6.0933
  283.0000   102.5180     6.1156     6.1054
  283.1000   102.6048     6.1161     6.1422
  283.2000   102.7342     6.1166     6.1803
  283.3000   102.9108     6.1169     6.1807
  283.4000   102.9133     6.1173     6.2401
  283.5000   102.9157     6.1178     6.2918
  283.6000   102.9181     6.1182     6.3297
  283.7000   102.3108     6.1186     6.3679
  283.8000   101.7028     6.1191     6.4063
  283.9000   101.0796     6.1195     6.4479
  284.0000   100.4498     6.1199     6.4839
  284.1000   100.1727     6.1424     6.4939
  284.2000    99.6195     6.1635     6.5167
  284.3000    99.3871     6.1639     6.5404
  284.4000    99.3229     6.1672     6.5496
  284.5000    99.1807     6.2079     6.5891
  284.6000    98.8273     6.2416     6.6338
  284.7000    98.3719     6.2521     6.6689
  284.8000    98.1276     6.2729     6.7091
  284.9000    98.1304     6.2967     6.7284
  285.0000    97.9117     6.3044     6.7573
  285.1000    97.8337     6.3423     6.8313
  285.2000    97.8361     6.3863     6.8724
  285.3000    97.9245     6.4187     6.9210
  285.4000    98.1831     6.4318     6.9214
  285.5000    98.4458     6.4510     6.9489
  285.6000    99.0511     6.4776     7.0109
  285.7000    99.4675     6.4887     7.0694
  285.8000    99.9823     6.5694     7.0754
  285.9000   100.3799     6.6450     7.1200
  286.0000   100.7832     6.6934     7.1205
  286.1000   101.4996     6.7580     7.1541
  286.2000   101.7761     6.8214     7.1973
  286.3000   102.4939     6.8728     7.2407
  286.4000   103.0715     6.9517     7.2844
  286.5000   103.7351     6.9976     7.3247
  286.6000   104.2988     7.0355     7.3253
  286.7000   104.5574     7.0778     7.3654
  286.8000   104.8024     7.1436     7.4098
  286.9000   104.8051     7.1971     7.4545
  287.0000   104.8072     7.2060     7.4824
  287.1000   104.9895     7.2484     7.4922
  287.2000   105.1133     7.2490     7.5359
  287.3000   105.0257     7.2857     7.5365
  287.4000   104.7719     7.3295     7.5369
  287.5000   104.5181     7.3735     7.5374
  287.6000   104.2197     7.4040     7.5380
  287.7000   104.2217     7.4045     7.5385
  287.8000   104.2241     7.4050     7.5390
  287.9000   104.2265     7.4055     7.5396
  288.0000   104.1526     7.4060     7.5930
  288.1000   103.9298     7.4066     7.5934
  288.2000   103.9327     7.4071     7.5940
  288.3000   103.9349     7.4076     7.5945
  288.4000   103.7398     7.4081     7.5950
  288.5000   103.4859     7.4087     7.5956
  288.6000   103.2321     7.4091     7.5961
  288.7000   103.0410     7.4097     7.5966
  288.8000   103.0434     7.4102     7.5972
  288.9000   103.0460     7.4107     7.5977
  289.0000   103.0482     7.4112     7.5982
  289.1000   102.8667     7.4117     7.5879
  289.2000   102.7518     7.4123     7.5464
  289.3000   102.6602     7.4127     7.5470
  289.4000   102.4064     7.4133     7.5475
  289.5000   102.1566     7.4138     7.5480
  289.6000   102.1594     7.4096     7.5485
  289.7000   101.9462     7.3951     7.5490
  289.8000   101.8627     7.3805     7.5409
  289.9000   101.8651     7.3660     7.4975
  290.0000   101.8675     7.3515     7.4982
  290.1000   101.9052     7.3370     7.4986
  290.2000   102.1736     7.3224     7.4694
  290.3000   102.6692     7.3079     7.4475
  290.4000   103.1588     7.2934     7.4339
  290.5000   103.6416     7.2789     7.3966
  290.6000   104.1244     7.2661     7.3972
  290.7000   104.4610     7.2666     7.3552
  290.8000   104.8418     7.2268     7.3467
  290.9000   105.2795     7.2172     7.3472
  291.0000   105.5703     7.1927     7.3478
  291.1000   106.1110     7.1507     7.3364
