~VERSION INFORMATION
 VERS.                2.0:   CWLS LOG ASCII STANDARD - VERSION 2.0
 WRAP.                 NO:   ONE LINE PER DEPTH STEP
~WELL INFORMATION
#MNEM.UNIT      DATA TYPE    INFORMATION
#----------   ------------   ------------------------------
 STRT.F           34.0000:   START DEPTH
 STOP.F          460.0000:   STOP DEPTH
 STEP.F            0.5000:   STEP LENGTH
 NULL.          -999.2500:   NO VALUE
 COMP. FENIX & SCISSON INC:   COMPANY
 WELL.     SX 3 FO #46--3:   WELL
 FLD .              NPR 3:   FIELD
 LOC .       S3 T38N R78W:   LOCATION
 CNTY.            NATRONA:   COUNTY
 STAT.            WYOMING:   STATE
 CTRY. UNITED STATES OF AMERICA:   COUNTRY
 SRVC.              Welex:   SERVICE COMPANY
 DATE.        10-JUL-1981:   LOGDATE
 API .       490251086000:   API NUMBER
~CURVE INFORMATION
#MNEM.UNIT       API CODE    CURVE DESCRIPTION
#----------   ------------   ------------------------------
 DEPT.F                  :   
 GRD .GAPI   45 310 01 00:   GAMMA RAY FROM DENSITY LOG
 CALD.IN     45 280 60 00:   CALIPER
 RHOB.G/C3   45 350 01 00:   BULK DENSITY
 DPHI.DEC    45 890 12 00:   DENSITY POROSITY SANDSTONE
 CORR.G/C3   45 356 01 00:   DENSITY CORRECTION
~PARAMETER INFORMATION
#MNEM.UNIT          VALUE    DESCRIPTION
#----------   ------------   ------------------------------
 PD  .                 GL:   PERMANENT DATUM
 EPD .F              5168:   ELEVATION PERMANENT DATUM
 LMF .                 KB:   LOG MEASURED FROM
 DAPD.F                 5:   FEET ABOVE PERMANENT DATUM
 DMF .                 KB:   DRILLING MEASURED FROM
 EKB .F              5173:   KELLING BUSHING
 EGL .F              5168:   GROUND LEVEL
 DATE.            7-10-80:   RUN DATE
 RUN .                  1:   RUN NUMBER
 DD  .F               470:   DEPTH DRILLER
 DL  .F               468:   DEPTH LOGGER
 BLI .F               460:   BOTTOM LOG INTERVAL
 TLI .F                46:   TOP LOG INTERVAL
 CS  .IN                7:   CASING SIZE
 CBD .F                46:   CASING BOTTOM DRILLER
 BS  .IN             6.25:   BIT SIZE
 BSD .F               470:   BIT SIZE AT DEPTH
 DFT .        AIR DRILLED:   DRILLING FLUID TYPE
 BHT .F                75:   BOTTOM HOLE TEMPERATURE
 TCS .HRS               2:   TIME CURCULATED STOPPED
 MRT .F                75:   MAXIMUM RECORDED TEMPERATURE
 ENGI.    JOYNER/PFRIMMER:   RECORDING ENGINEER
 WITN.              AMEND:   WITNESSED BY
 CLNT.            A2DTECH:   CLIENT CODE
 ORIG.           5" PRINT:   ORIGIN OF DATA
 UWI .       490251086000:   UNIQUE WELL ID
 DICO. A2D Technologies, Inc.:   DIGITIZING COMPANY
~OTHER INFORMATION
~A   DEPT       GRD      CALD       RHOB       DPHI       CORR   
# ...
  339.0000    83.2270     6.3045     2.4937     0.1120     0.0898
  339.5000    81.9453     6.3047     2.4897     0.1146     0.0854
  340.0000    81.8688     6.3048     2.4857     0.1160     0.0810
  340.5000    82.5878     6.3048     2.4817     0.1174     0.0766
  341.0000    83.7407     6.3048     2.4776     0.1219     0.0722
  341.5000    84.8646     6.3048     2.4727     0.1260     0.0678
  342.0000    85.9971     6.3048     2.4658     0.1303     0.0633
  342.5000    87.1929     6.3048     2.4614     0.1317     0.0588
  343.0000    87.8361     6.3048     2.4732     0.1205     0.0597
  343.5000    88.6365     6.3048     2.4895     0.1101     0.0719
  344.0000    88.9849     6.3048     2.5057     0.0998     0.0923
  344.5000    87.9223     6.3048     2.5165     0.0926     0.1067
  345.0000    86.9269     6.3048     2.5055     0.1036     0.0986
  345.5000    85.9079     6.3048     2.4889     0.1136     0.0827
  346.0000    86.2876     6.3048     2.4721     0.1236     0.0682
  346.5000    87.4176     6.3048     2.4553     0.1336     0.0685
  347.0000    88.5623     6.3048     2.4384     0.1436     0.0685
  347.5000    88.6431     6.3048     2.4217     0.1526     0.0667
  348.0000    85.2942     6.3048     2.4049     0.1654     0.0591
  348.5000    83.4608     6.3048     2.3852     0.1780     0.0521
  349.0000    81.5023     6.3048     2.3663     0.1846     0.0579
  349.5000    78.9522     6.3048     2.3547     0.1915     0.0695
  350.0000    78.5022     6.3048     2.3430     0.1985     0.0799
  350.5000    76.2941     6.3048     2.3313     0.2055     0.0847
  351.0000    73.1528     6.3048     2.3247     0.2113     0.0865
  351.5000    71.8329     6.3048     2.3346     0.2082     0.0866
  352.0000    72.5076     6.3004     2.3509     0.2031     0.0901
  352.5000    71.3244     6.2917     2.3510     0.1986     0.0939
  353.0000    69.8523     6.2830     2.3459     0.2003     0.0935
  353.5000    68.7842     6.2743     2.3409     0.2027     0.0841
  354.0000    68.8314     6.2654     2.3358     0.2052     0.0748
  354.5000    70.5704     6.2670     2.3307     0.2058     0.0699
  355.0000    72.4954     6.2695     2.3316     0.2058     0.0687
  355.5000    74.4268     6.2719     2.3396     0.2045     0.0701
  356.0000    74.9266     6.2743     2.3491     0.2006     0.0706
  356.5000    73.4575     6.2766     2.3535     0.1966     0.0707
  357.0000    73.4068     6.2790     2.3469     0.1965     0.0703
  357.5000    74.1980     6.2814     2.3403     0.2016     0.0561
  358.0000    73.7247     6.2838     2.3338     0.2078     0.0410
  358.5000    72.1440     6.2861     2.3368     0.2048     0.0441
  359.0000    70.8441     6.2885     2.3461     0.1993     0.0484
  359.5000    70.2207     6.2909     2.3554     0.1939     0.0527
  360.0000    69.9679     6.2933     2.3647     0.1898     0.0571
  360.5000    70.1717     6.2956     2.3671     0.1895     0.0607
  361.0000    69.4714     6.2980     2.3637     0.1894     0.0582
  361.5000    68.9854     6.3004     2.3709     0.1794     0.0551
  362.0000    69.8387     6.3028     2.3906     0.1692     0.0599
  362.5000    69.3068     6.3036     2.4102     0.1590     0.0690
  363.0000    69.2301     6.2948     2.4289     0.1557     0.0709
  363.5000    70.2594     6.2861     2.4277     0.1524     0.0570
  364.0000    71.2705     6.2775     2.4258     0.1522     0.0411
  364.5000    71.7703     6.2687     2.4243     0.1561     0.0387
  365.0000    70.8356     6.2656     2.4045     0.1660     0.0363
  365.5000    70.7933     6.2667     2.3797     0.1807     0.0279
  366.0000    72.1502     6.2678     2.3464     0.1963     0.0194
  366.5000    73.5601     6.2689     2.3261     0.2120     0.0144
  367.0000    74.9746     6.2700     2.3182     0.2150     0.0219
  367.5000    76.3897     6.2711     2.3387     0.2033     0.0348
  368.0000    77.8286     6.2722     2.3617     0.1938     0.0476
  368.5000    77.7180     6.2733     2.3785     0.1843     0.0603
  369.0000    76.6383     6.2744     2.3872     0.1748     0.0731
  369.5000    76.3392     6.2755     2.3957     0.1708     0.0843
  370.0000    77.6565     6.2766     2.3982     0.1678     0.0846
  370.5000    76.8916     6.2778     2.3920     0.1700     0.0846
  371.0000    77.0646     6.2789     2.3865     0.1742     0.0846
  371.5000    77.9565     6.2800     2.3927     0.1704     0.0845
  372.0000    77.8724     6.2811     2.3980     0.1678     0.0822
  372.5000    77.5622     6.2822     2.3956     0.1674     0.0772
  373.0000    77.2536     6.2833     2.4001     0.1670     0.0721
  373.5000    77.5885     6.2844     2.4096     0.1610     0.0671
  374.0000    80.2057     6.2856     2.4135     0.1604     0.0621
  374.5000    81.9026     6.2867     2.4126     0.1597     0.0570
  375.0000    80.7020     6.2879     2.4179     0.1566     0.0556
  375.5000    78.7032     6.2890     2.4310     0.1496     0.0684
  376.0000    77.9982     6.2902     2.4436     0.1395     0.0814
  376.5000    77.9636     6.2913     2.4563     0.1305     0.0907
  377.0000    77.0696     6.2925     2.4687     0.1218     0.0888
  377.5000    77.7078     6.2937     2.4765     0.1214     0.0830
  378.0000    78.9617     6.2948     2.4629     0.1331     0.0773
  378.5000    80.2359     6.2960     2.4519     0.1419     0.0716
  379.0000    81.5173     6.2972     2.4382     0.1508     0.0663
  379.5000    82.3003     6.2983     2.4188     0.1597     0.0588
  380.0000    81.1070     6.2995     2.3993     0.1725     0.0503
  380.5000    79.2524     6.3006     2.3905     0.1687     0.0470
  381.0000    77.3729     6.3018     2.4086     0.1612     0.0572
  381.5000    75.4753     6.3030     2.4250     0.1537     0.0698
  382.0000    75.6763     6.3041     2.4300     0.1478     0.0681
  382.5000    78.9769     6.3040     2.4323     0.1444     0.0550
  383.0000    79.7092     6.3020     2.4415     0.1422     0.0420
  383.5000    81.2590     6.3001     2.4417     0.1472     0.0290
  384.0000    79.9094     6.2982     2.4250     0.1537     0.0160
  384.5000    78.8031     6.2963     2.4184     0.1574     0.0123
  385.0000    80.6515     6.2944     2.4275     0.1538     0.0188
  385.5000    77.2231     6.2924     2.4368     0.1475     0.0253
  386.0000    77.9299     6.2905     2.4461     0.1412     0.0317
  386.5000    78.8189     6.2886     2.4554     0.1355     0.0382
  387.0000    79.5186     6.2867     2.4647     0.1303     0.0446
  387.5000    79.5006     6.2847     2.4719     0.1250     0.0486
  388.0000    79.5412     6.2808     2.4743     0.1246     0.0455
  388.5000    80.3656     6.2770     2.4695     0.1259     0.0406
  389.0000    81.2215     6.2731     2.4701     0.1258     0.0369
  389.5000    80.4775     6.2693     2.4767     0.1219     0.0445
  390.0000    79.1508     6.2652     2.4832     0.1180     0.0541
  390.5000    79.9656     6.2741     2.4932     0.1126     0.0637
  391.0000    82.5912     6.2848     2.5038     0.1052     0.0733
  391.5000    81.7835     6.2955     2.5145     0.0977     0.0824
  392.0000    81.8958     6.3063     2.5214     0.0946     0.0829
  392.5000    82.7936     6.3169     2.5200     0.1007     0.0738
  393.0000    82.4069     6.3225     2.5011     0.1067     0.0632
  393.5000    82.1041     6.3116     2.4822     0.1126     0.0525
  394.0000    80.7068     6.3012     2.4798     0.1170     0.0426
  394.5000    79.1818     6.2909     2.4926     0.1097     0.0430
  395.0000    82.6734     6.2806     2.5052     0.1028     0.0553
  395.5000    85.5997     6.2703     2.5178     0.0958     0.0676
  396.0000    87.6075     6.2649     2.5304     0.0889     0.0797
  396.5000    87.5289     6.2649     2.5410     0.0834     0.0889
  397.0000    86.1268     6.2649     2.5335     0.0882     0.0829
  397.5000    84.8614     6.2649     2.5219     0.0936     0.0674
  398.0000    85.6561     6.2649     2.5100     0.0991     0.0522
  398.5000    86.8718     6.2649     2.5071     0.1030     0.0430
  399.0000    88.0647     6.2655     2.5150     0.0982     0.0466
  399.5000    88.0824     6.2753     2.5227     0.0983     0.0504
