~VERSION INFORMATION
 VERS.                2.0:   CWLS LOG ASCII STANDARD - VERSION 2.0
 WRAP.                 NO:   ONE LINE PER DEPTH STEP
~WELL INFORMATION
#MNEM.UNIT      DATA TYPE    INFORMATION
#----------   ------------   ------------------------------
 STRT.F            5.0000:   START DEPTH
 STOP.F          610.0000:   STOP DEPTH
 STEP.F            0.5000:   STEP LENGTH
 NULL.          -999.2500:   NO VALUE
 COMP. FENIX & SCISSON INC:   COMPANY
 WELL.        NPR 3 #25-3:   WELL
 FLD .        TEAPOT DOME:   FIELD
 LOC .       S3 T38N R78W:   LOCATION
 CNTY.            NATRONA:   COUNTY
 STAT.            WYOMING:   STATE
 CTRY. UNITED STATES OF AMERICA:   COUNTRY
 SRVC.           BIRDWELL:   SERVICE COMPANY
 DATE.        28-SEP-1978:   LOGDATE
 API .       490251068900:   API NUMBER
~CURVE INFORMATION
#MNEM.UNIT       API CODE    CURVE DESCRIPTION
#----------   ------------   ------------------------------
 DEPT.F                  :   
 SPR .MV     05 010 01 00:   SPONTANEOUS POTENTIAL FROM RES.
 IL  .OHMM   05 120 00 00:   INDUCTION LOG
 SN  .OHMM   05 040 16 00:   SHORT NORMAL 16"
 CALD.IN     45 280 60 00:   CALIPER
 GRD .GAPI   45 310 01 00:   GAMMA RAY FROM DENSITY LOG
 CORR.G/C3   45 356 01 00:   DENSITY CORRECTION
 DEN .G/C3   45 350 01 00:   COMPENSATED BULK DENSTIY
 DPHI.DEC    45 890 12 00:   DENSITY POROSITY SANDSTONE
~PARAMETER INFORMATION
#MNEM.UNIT          VALUE    DESCRIPTION
#----------   ------------   ------------------------------
 PD  .                 GL:   PERMANENT DATUM
 EPD .F              5249:   ELEVATION PERMANENT DATUM
 LMF .                 KB:   LOG MEASURED FROM
 DAPD.F                 4:   FEET ABOVE PERMANENT DATUM
 DMF .                 KB:   DRILLING MEASURED FROM
 EKB .F              5253:   KELLING BUSHING
 EGL .F              5249:   GROUND LEVEL
 DATE.            9-28-78:   RUN DATE
 RUN .                  1:   RUN NUMBER
 DD  .F               616:   DEPTH DRILLER
 DL  .F               613:   DEPTH LOGGER
 BLI .F               607:   BOTTOM LOG INTERVAL
 TLI .F                40:   TOP LOG INTERVAL
 BS  .IN            7.875:   BIT SIZE
 BSD .F               616:   BIT SIZE AT DEPTH
 DFT .                KCL:   DRILLING FLUID TYPE
 DFD .                8.7:   DRILLING FLUID DENSITY
 DFV .                 33:   DRILLING FLUID VISCOSITY
 DFPH.                  9:   DRILLING FLUID PH
 DFL .                  5:   DRILLING FLUID LOSS
 MSS .            MUD PIT:   MUD SAMPLE SOURCE
 RMS .OHMM            .14:   RESISTIVITY MUD SAMPLE
 MST .F                65:   MUD SAMPLE TEMPERATURE
 RMF .OHMM            2.1:   RESISTIVITY MUD FILTRATE SAMPLE
 MFST.F                65:   MUD FILTRATE SAMPLE TEMPERATURE
 RMC .OHMM            .32:   RESISTIVITY MUD CAKE
 MCST.F                65:   MUD CAKE SAMPLE TEMPERATURE
 MFSS.               MEAS:   MUD FILTRATE SAMPLE SOURCE
 TCS .HRS               2:   TIME CURCULATED STOPPED
 LUN .               2958:   LOGGING UNIT NUMBER
 LUL .               CASP:   LOGGING UNIT LOCATION
 ENGI.            ROLLINS:   RECORDING ENGINEER
 WITN.              AMEND:   WITNESSED BY
 CLNT.            A2DTECH:   CLIENT CODE
 ORIG.           5" PRINT:   ORIGIN OF DATA
 UWI .       490251068900:   UNIQUE WELL ID
 DICO. A2D Technologies, Inc.:   DIGITIZING COMPANY
~OTHER INFORMATION
~A    DEPT     SPR         IL         SN         CALD       GRD      CORR        DEN       DPHI   
# ...
  369.5000   -26.6535     7.2647     7.3726     8.6306   117.0539    -0.0127     2.5148     0.1006
  370.0000   -26.5421     7.2807     7.3079     8.6376   117.0864    -0.0128     2.5165     0.0982
  370.5000   -26.4580     7.2968     7.2437     8.6553   118.2586    -0.0125     2.5210     0.0971
  371.0000   -26.5585     7.3129     7.2023     8.6729   120.5116    -0.0122     2.5218     0.0977
  371.5000   -26.6572     7.3290     7.2023     8.6906   122.7763    -0.0119     2.5180     0.0983
  372.0000   -26.7552     7.3452     7.2023     8.7087   123.9687    -0.0116     2.5150     0.1027
  372.5000   -26.8531     7.3614     7.2024     8.7100   122.7586    -0.0113     2.5124     0.1042
  373.0000   -26.9511     7.3776     7.2027     8.7072   121.2082    -0.0111     2.5090     0.1043
  373.5000   -27.0492     7.3939     7.1870     8.7043   119.6242    -0.0099     2.5075     0.1045
  374.0000   -27.1477     7.4102     7.1676     8.7014   119.1121    -0.0087     2.5082     0.1046
  374.5000   -27.2418     7.4266     7.1481     8.6985   119.5806    -0.0074     2.5110     0.0991
  375.0000   -27.2246     7.4427     7.2023     8.6956   123.0452    -0.0062     2.5136     0.0998
  375.5000   -27.2022     7.4598     7.1808     8.6927   126.5504    -0.0050     2.5155     0.1017
  376.0000   -27.1802     7.5227     7.1552     8.6898   126.7861    -0.0038     2.5138     0.1043
  376.5000   -27.1583     7.7775     7.1290     8.6869   123.7884    -0.0025     2.5085     0.1050
  377.0000   -27.1365     8.0389     7.1030     8.6840   120.8259    -0.0013     2.5031     0.1050
  377.5000   -27.1147     8.2683     7.0771     8.6811   119.3085    -0.0001     2.5016     0.1050
  378.0000   -27.0928     8.2694     7.0513     8.6783   119.4583     0.0016     2.5099     0.1026
  378.5000   -27.0699     7.8868     7.0256     8.6755   117.1906     0.0058     2.5185     0.0950
  379.0000   -27.0419     7.5373     6.9700     8.6735   112.8414     0.0101     2.5273     0.0875
  379.5000   -27.3083     6.7248     6.8249     8.6359   110.0712     0.0126     2.5374     0.0814
  380.0000   -27.6150     6.0279     6.6828     8.5933   110.5717     0.0092     2.5448     0.0993
  380.5000   -27.8537     5.8286     6.5437     8.5506   114.0398     0.0057     2.5235     0.1256
  381.0000   -27.5970     5.9793     6.4075     8.5121   117.4584     0.0070     2.4883     0.1636
  381.5000   -27.2307     6.1581     6.3904     8.4904   120.8604     0.0674     2.4291     0.1962
  382.0000   -26.7416     6.2164     6.4782     8.4675   124.2595     0.1174     2.3609     0.1865
  382.5000   -26.1056     6.2164     6.6696     8.4533   127.6559     0.0770     2.3438     0.1490
  383.0000   -25.4725     6.2164     7.0297     8.4660   129.6398     0.0294     2.4069     0.1153
  383.5000   -24.8155     6.4361     7.4093     8.4779   127.6287     0.0290     2.4837     0.0960
  384.0000   -24.3971     7.2796     7.8095     8.4906   121.6484     0.0322     2.5069     0.0914
  384.5000   -24.0336     8.7725     8.2683     8.5192   115.3703     0.0356     2.5287     0.0954
  385.0000   -23.6734     9.4920     8.4340     8.5499   114.0871     0.0390     2.5261     0.1015
  385.5000   -23.3117     9.8888     8.5604     8.5743   113.8765     0.0428     2.5171     0.1042
  386.0000   -22.9398    10.3114     8.6887     8.5941   113.9611     0.0468     2.5082     0.1042
  386.5000   -22.7384    10.3114     8.8189     8.6145   114.5971     0.0506     2.5071     0.1000
  387.0000   -22.5791     9.5796     8.9511     8.6347   115.2381     0.0514     2.5136     0.0922
  387.5000   -22.4223     9.5728     9.1049     8.6546   115.8880     0.0470     2.5213     0.0890
  388.0000   -22.2549    10.0804     9.3761     8.6701   114.9453     0.0430     2.5277     0.0910
  388.5000   -21.8306    10.6834     9.6553     8.6859   113.7360     0.0390     2.5254     0.0973
  389.0000   -21.2686    11.3280     9.9429     8.7017   113.4873     0.0349     2.5200     0.1036
  389.5000   -20.1117    12.0100    10.2390     8.7175   112.3400     0.0310     2.5147     0.1098
  390.0000   -18.9535    13.1572    10.5440     8.7334   105.2642     0.0269     2.4969     0.1251
  390.5000   -17.8006    14.5516    10.8581     8.7494    98.0983     0.0215     2.4762     0.1275
  391.0000   -16.7750    16.0938    11.1814     8.7578    90.1082     0.0161     2.4729     0.1323
  391.5000   -16.3851    18.3477    11.5152     8.7647    82.1358     0.0129     2.4710     0.1504
  392.0000   -15.8160    21.2892    11.7842     8.7726    72.0314     0.0209     2.4491     0.1710
  392.5000   -14.4673    21.9360    12.0630     8.7412    67.4534     0.0331     2.4002     0.1738
  393.0000   -13.6276    21.5824    12.3996     8.7144    68.0002     0.0340     2.3939     0.1718
  393.5000   -13.4301    20.9416    12.3916     8.6884    69.4015     0.0293     2.3908     0.1354
  394.0000   -13.1324    21.1239    12.4170     8.5984    70.2266     0.0246     2.4441     0.1326
  394.5000   -12.4348    21.4193    12.4346     8.5059    70.2188     0.0238     2.4657     0.1545
  395.0000   -11.7489    21.7267    12.4526     8.4705    70.2620     0.0256     2.4375     0.1938
  395.5000   -11.0630    21.3510    12.4706     8.4930    71.2618     0.0273     2.3836     0.2166
  396.0000   -10.3804    21.0523    12.4887     8.5442    72.2546     0.0287     2.3239     0.2306
  396.5000   -10.0944    20.7579    12.5068     8.5908    72.2375     0.0388     2.3046     0.2306
  397.0000    -9.8771    20.4675    12.5249     8.5947    72.0371     0.0473     2.3096     0.2072
  397.5000    -9.6956    20.3715    12.5430     8.6008    71.8041     0.0360     2.3308     0.1913
  398.0000    -9.9604    20.4955    12.5611     8.6069    72.6173     0.0214     2.3508     0.1788
  398.5000   -10.2285    20.9541    12.5793     8.6140    73.5228     0.0104     2.3707     0.1694
  399.0000   -10.4845    21.4230    12.5973     8.6597    74.4298     0.0086     2.3906     0.1593
  399.5000   -10.5311    21.9023    12.6245     8.9210    75.2960     0.0068     2.4104     0.1484
  400.0000   -10.5266    22.3924    12.5882     8.8225    75.4507     0.0050     2.4337     0.1359
  400.5000   -10.5862    22.5413    12.5191     8.7731    75.4546     0.0031     2.4578     0.1235
  401.0000   -10.6445    22.1835    12.4489     8.7815    75.4531     0.0010     2.4835     0.1117
  401.5000   -10.7017    21.9125    12.3791     8.8128    75.4527    -0.0012     2.4928     0.1103
  402.0000   -10.7592    21.6150    12.3097     8.8440    75.4519    -0.0035     2.4988     0.1168
  402.5000   -10.8183    21.2557    12.2407     8.8682    75.4501    -0.0057     2.4863     0.1329
  403.0000   -10.8723    20.9416    12.1721     8.8898    75.4579    -0.0079     2.4624     0.1491
  403.5000   -10.5292    20.9916    12.1038     8.9113    75.9172    -0.0090     2.4385     0.1656
  404.0000   -10.1436    21.4361    12.0434     8.9328    77.5455    -0.0090     2.4147     0.1862
  404.5000    -9.7582    21.9275    11.9994     8.9544    78.8775    -0.0090     2.3910     0.1974
  405.0000    -9.3729    21.9275    11.9556     8.9776    78.2051    -0.0090     2.3664     0.2092
  405.5000    -8.9743    21.9275    11.9119     9.0143    76.7593    -0.0090     2.3431     0.2172
  406.0000    -8.9350    21.9275    11.8684     9.0513    75.1587    -0.0090     2.3219     0.2190
  406.5000    -9.1015    21.9615    11.8251     9.0882    75.0917    -0.0089     2.3250     0.2031
  407.0000    -9.2695    22.2331    11.7819     9.1250    75.1628    -0.0044     2.3510     0.1973
  407.5000    -9.4419    22.5081    11.7389     9.1622    75.2304     0.0007     2.3577     0.1968
  408.0000    -9.5690    22.9599    11.6960     9.2050    75.0826     0.0051     2.3588     0.1953
  408.5000    -9.7361    22.9599    11.6533     9.2194    74.4871     0.0044     2.3597     0.1938
  409.0000    -9.9435    22.4235    11.6107     9.2252    73.9169     0.0039     2.3607     0.1937
  409.5000   -10.3904    22.0294    11.5683     9.2308    73.6349     0.0034     2.3616     0.1936
