~VERSION INFORMATION
 VERS.                2.0:   CWLS LOG ASCII STANDARD - VERSION 2.0
 WRAP.                 NO:   ONE LINE PER DEPTH STEP
~WELL INFORMATION
#MNEM.UNIT      DATA TYPE    INFORMATION
#----------   ------------   ------------------------------
 STRT.F           11.0000:   START DEPTH
 STOP.F          804.0000:   STOP DEPTH
 STEP.F            0.1000:   STEP LENGTH
 NULL.          -999.2500:   NO VALUE
 COMP. BROWN JOHN E&C INC:   COMPANY
 WELL. 72-1 STX-34 #72-34:   WELL
 FLD .             TEAPOT:   FIELD
 LOC .      S34 T39N R78W:   LOCATION
 CNTY.            NATRONA:   COUNTY
 STAT.            WYOMING:   STATE
 CTRY. UNITED STATES OF AMERICA:   COUNTRY
 SRVC.     Atlas Wireline:   SERVICE COMPANY
 DATE.        31-JAN-1992:   LOGDATE
 API .       490252250200:   API NUMBER
~CURVE INFORMATION
#MNEM.UNIT       API CODE    CURVE DESCRIPTION
#----------   ------------   ------------------------------
 DEPT.F                  :   
 GRR .GAPI   07 310 01 00:   GAMMA RAY
 RILD.OHMM   07 120 46 00:   INDUCTION LOG DEEP RESISTIVITY
 RILM.OHMM   07 120 44 00:   INDUCTION LOG MEDIUM RESISTIVITY
~PARAMETER INFORMATION
#MNEM.UNIT          VALUE    DESCRIPTION
#----------   ------------   ------------------------------
 PD  .                 GL:   PERMANENT DATUM
 EPD .F              5069:   ELEVATION PERMANENT DATUM
 LMF .                 KB:   LOG MEASURED FROM
 DAPD.F                10:   FEET ABOVE PERMANENT DATUM
 DMF .                 KB:   DRILLING MEASURED FROM
 EKB .F              5079:   KELLING BUSHING
 EDF .F              5078:   DRILLING FLOOR
 EGL .F              5069:   GROUND LEVEL
 DATE.        31-JAN-1992:   RUN DATE
 RUN .                  1:   RUN NUMBER
 DD  .F               814:   DEPTH DRILLER
 DL  .F               813:   DEPTH LOGGER
 BLI .F               804:   BOTTOM LOG INTERVAL
 CS  .IN            9.625:   CASING SIZE
 CBD .F               100:   CASING BOTTOM DRILLER
 CBL .F               104:   CASING BOTTOM LOGGER
 BS  .IN             8.75:   BIT SIZE
 BSD .F               814:   BIT SIZE AT DEPTH
 DFT .                AIR:   DRILLING FLUID TYPE
 MRT .F                90:   MAXIMUM RECORDED TEMPERATURE
 LUN .           HL- 6274:   LOGGING UNIT NUMBER
 LUL .             CASPER:   LOGGING UNIT LOCATION
 ENGI.             RAUTIO:   RECORDING ENGINEER
 WITN.        GARY STRONG:   WITNESSED BY
 CLNT.            A2DTECH:   CLIENT CODE
 ORIG.           5" PRINT:   ORIGIN OF DATA
 UWI .       490252250200:   UNIQUE WELL ID
 DICO. A2D Technologies, Inc.:   DIGITIZING COMPANY
~OTHER INFORMATION
~A   DEPT       GRR      RILD       RILM   
# ...
  247.6000   108.6984    14.7640    15.2230
  247.7000   109.5280    14.7635    15.1244
  247.8000   110.4500    14.6136    15.1246
  247.9000   110.9933    14.5024    15.0705
  248.0000   111.4392    14.4558    15.0199
  248.1000   112.0993    14.4554    14.9888
  248.2000   112.5132    14.4550    14.8122
  248.3000   112.5156    14.4546    14.8124
  248.4000   112.5180    14.4542    14.7508
  248.5000   112.2784    14.4538    14.7098
  248.6000   112.0347    14.4534    14.7100
  248.7000   111.7910    14.4530    14.7051
  248.8000   111.6200    14.4525    14.6081
  248.9000   111.6224    14.4522    14.6083
  249.0000   111.6252    14.4517    14.6085
  249.1000   111.4214    14.4513    14.6087
  249.2000   111.3271    14.4509    14.5954
  249.3000   111.3295    14.4505    14.5075
  249.4000   111.2958    14.4502    14.5077
  249.5000   111.0320    14.4498    14.4491
  249.6000   111.0342    14.4494    14.4073
  249.7000   110.8672    14.4490    14.4293
  249.8000   110.6235    14.4486    14.5085
  249.9000   110.3798    14.4481    14.4079
  250.0000   110.1362    14.4647    14.3937
  250.1000   109.3641    14.4851    14.3764
  250.2000   108.5919    14.5054    14.3590
  250.3000   107.8198    14.5258    14.3416
  250.4000   107.0477    14.5483    14.3243
  250.5000   106.2756    14.5481    14.3079
  250.6000   105.5034    14.5479    14.3079
  250.7000   104.7313    14.5477    14.3079
  250.8000   104.0989    14.5475    14.3079
  250.9000   104.1012    14.5473    14.2796
  251.0000   104.1029    14.4680    14.2084
  251.1000   104.1047    14.4455    14.2084
  251.2000   104.1065    14.4048    14.2084
  251.3000   104.1679    14.3018    14.1057
  251.4000   104.4147    14.1450    13.9793
  251.5000   104.6617    14.1448    13.9141
  251.6000   105.2878    14.0808    13.9141
  251.7000   106.0249    13.9119    13.9141
  251.8000   106.9116    13.7281    13.8591
  251.9000   108.1040    13.6347    13.7450
  252.0000   108.9625    13.3742    13.6081
  252.1000   109.3735    13.3084    13.5311
  252.2000   110.0127    13.1384    13.4553
  252.3000   110.4805    12.8874    13.2659
  252.4000   110.5147    12.6215    13.0814
  252.5000   110.7869    12.4700    12.9136
  252.6000   110.7885    12.2727    12.6962
  252.7000   110.7903    12.0179    12.4443
  252.8000   110.7922    11.7480    12.1620
  252.9000   110.7939    11.4838    11.8618
  253.0000   110.7958    11.2259    11.5968
  253.1000   110.7976    11.0365    11.3170
  253.2000   110.7994    10.7562    10.8234
  253.3000   110.8012    10.4870    10.6125
  253.4000   110.9907    10.2512    10.3756
  253.5000   111.7332    10.0206    10.1211
  253.6000   112.7149     9.7611     9.8570
  253.7000   114.4670     9.6219     9.6801
  253.8000   116.2946     9.4270     9.4790
  253.9000   118.0899     9.2153     9.2675
  254.0000   119.9915     9.0079     9.0605
  254.1000   121.4060     8.7884     8.8578
  254.2000   122.6542     8.6082     8.6575
  254.3000   123.9763     8.4474     8.4196
  254.4000   125.0180     8.3257     8.1856
  254.5000   125.7549     8.2216     7.9578
  254.6000   126.5587     8.0804     7.7725
  254.7000   127.4519     7.9020     7.6830
  254.8000   128.2686     7.7906     7.5299
  254.9000   129.0057     7.6802     7.4954
  255.0000   129.6420     7.5503     7.4052
  255.1000   129.8960     7.4225     7.3086
  255.2000   129.8977     7.2751     7.2631
  255.3000   129.8996     7.2076     7.1709
  255.4000   130.0244     7.1026     7.1358
  255.5000   130.2058     7.0106     7.0454
  255.6000   130.1995     6.9660     6.9579
  255.7000   129.9563     6.8787     6.9062
  255.8000   129.9086     6.8439     6.7816
  255.9000   129.9104     6.7547     6.7462
  256.0000   129.8316     6.6726     6.6564
  256.1000   129.6113     6.6274     6.5781
  256.2000   129.6136     6.5497     6.5248
  256.3000   129.6151     6.4786     6.4134
  256.4000   129.7702     6.4585     6.3778
  256.5000   130.0171     6.4403     6.3153
  256.6000   130.3786     6.3941     6.2624
  256.7000   131.4380     6.3231     6.2271
  256.8000   132.1173     6.2872     6.1935
  256.9000   133.0229     6.2799     6.1935
  257.0000   133.8942     6.2597     6.1935
  257.1000   134.6312     6.2360     6.1736
  257.2000   135.3804     6.2359     6.1505
  257.3000   135.8643     6.2358     6.1505
  257.4000   136.7231     6.2357     6.1505
  257.5000   137.5793     6.2356     6.1505
  257.6000   138.1794     6.2499     6.1505
  257.7000   138.4152     6.2792     6.1505
  257.8000   138.4173     6.2791     6.1505
  257.9000   138.2201     6.2790     6.1505
  258.0000   137.6947     6.2789     6.1826
  258.1000   136.8776     6.2958     6.1935
  258.2000   135.8987     6.3403     6.2094
  258.3000   134.7954     6.4118     6.2522
  258.4000   133.0859     6.4117     6.3246
  258.5000   130.5022     6.4400     6.3597
  258.6000   128.3539     6.4765     6.3688
  258.7000   127.3338     6.5133     6.4057
  258.8000   126.0298     6.5532     6.4683
  258.9000   125.3451     6.6394     6.5050
  259.0000   124.4401     6.6393     6.5491
  259.1000   123.6891     6.6858     6.5789
  259.2000   123.2006     6.7327     6.6375
  259.3000   122.7104     6.7383     6.6876
  259.4000   122.7123     6.7797     6.6912
  259.5000   122.5275     6.7796     6.7345
  259.6000   122.5425     6.8059     6.7345
  259.7000   122.9325     6.8270     6.7345
  259.8000   123.6699     6.8269     6.7493
  259.9000   124.5371     6.8268     6.7816
  260.0000   125.5468     6.8267     6.7816
  260.1000   126.6299     6.8266     6.7816
  260.2000   127.6122     6.8266     6.7816
  260.3000   128.5650     6.8265     6.7816
  260.4000   129.3872     6.8263     6.7736
  260.5000   129.8224     6.8262     6.7345
  260.6000   130.3146     6.8261     6.7345
  260.7000   130.8067     6.8032     6.7345
  260.8000   131.2097     6.7784     6.7345
  260.9000   131.2116     6.7735     6.7243
  261.0000   131.4453     6.7309     6.6876
  261.1000   131.5177     6.6968     6.6876
  261.2000   131.4026     6.6589     6.6278
  261.3000   131.1592     6.6372     6.5741
  261.4000   130.9160     6.6371     6.5491
  261.5000   130.6727     6.6370     6.5458
  261.6000   130.4294     6.6008     6.5036
  261.7000   130.1862     6.5905     6.4722
  261.8000   129.9430     6.5535     6.4358
  261.9000   129.6825     6.4989     6.3995
  262.0000   129.1138     6.4975     6.3688
  262.1000   128.9104     6.4533     6.3688
  262.2000   128.6673     6.4532     6.3688
  262.3000   128.3343     6.4532     6.3688
  262.4000   127.8781     6.4531     6.3688
  262.5000   127.6099     6.4530     6.3688
  262.6000   127.6115     6.4529     6.3688
  262.7000   127.6133     6.4528     6.3688
  262.8000   127.6151     6.4527     6.3688
  262.9000   127.6645     6.4527     6.3688
  263.0000   127.9214     6.4589     6.3688
  263.1000   128.3931     6.4977     6.3698
  263.2000   128.5301     6.5324     6.4059
  263.3000   128.6519     6.5695     6.4422
  263.4000   128.8988     6.6068     6.4787
  263.5000   129.1511     6.6352     6.5154
  263.6000   129.6428     6.6354     6.5491
  263.7000   129.9420     6.6731     6.5491
  263.8000   130.4592     6.7408     6.5491
  263.9000   131.0411     6.7755     6.5719
  264.0000   131.2879     6.7874     6.6091
  264.1000   131.5724     6.8228     6.6465
  264.2000   131.9894     6.8227     6.6876
  264.3000   132.1809     6.8555     6.6876
  264.4000   132.1828     6.8703     6.6876
  264.5000   132.1139     6.8852     6.7042
  264.6000   131.5814     6.9243     6.7345
  264.7000   131.1372     6.9669     6.7345
  264.8000   130.3183     6.9668     6.7345
  264.9000   129.4476     6.9666     6.7345
  265.0000   128.6635     6.9845     6.7533
  265.1000   127.6569     7.0154     6.7816
  265.2000   126.7063     7.0153     6.7825
  265.3000   125.9085     7.0151     6.8209
  265.4000   125.4213     7.0150     6.8596
  265.5000   125.1781     6.9943     6.8769
  265.6000   124.9428     6.9660     6.8769
  265.7000   124.9446     6.9659     6.8769
