~VERSION INFORMATION
 VERS.                2.0:   CWLS LOG ASCII STANDARD - VERSION 2.0
 WRAP.                 NO:   ONE LINE PER DEPTH STEP
~WELL INFORMATION
#MNEM.UNIT      DATA TYPE    INFORMATION
#----------   ------------   ------------------------------
 STRT.F           28.0000:   START DEPTH
 STOP.F          546.5000:   STOP DEPTH
 STEP.F            0.5000:   STEP LENGTH
 NULL.          -999.2500:   NO VALUE
 COMP. LAWRENCE/ALLISON INC:   COMPANY
 WELL.    55-66 SX #10-10:   WELL
 FLD .            WILDCAT:   FIELD
 LOC .      S10 T38N R78W:   LOCATION
 CNTY.            NATRONA:   COUNTY
 STAT.            WYOMING:   STATE
 CTRY. UNITED STATES OF AMERICA:   COUNTRY
 SRVC.            Unknown:   SERVICE COMPANY
 DATE.        20-AUG-1984:   LOGDATE
 API .       490251098000:   API NUMBER
~CURVE INFORMATION
#MNEM.UNIT       API CODE    CURVE DESCRIPTION
#----------   ------------   ------------------------------
 DEPT.F                  :   
 CNC .DEC    42 890 03 00:   NEUTRON POROSITY SANDSTONE
 CALD.IN     45 280 60 00:   CALIPER FROM DENSITY LOG
 DEN .G/C3   45 350 01 00:   COMPENSATED BULK DENSTIY
 PORD.DEC    45 890 12 00:   POROSITY DENSITY STONESTONE
 CORR.G/C3   45 356 01 00:   DENSITY CORRECTION
 SPR .MV     07 010 01 00:   SPONTANEOUS POTENTIAL
 RFOC.OHMM   07 220 04 00:   RESISTIVITY FOCUSED LOG
 RILD.OHMM   07 120 46 00:   INDUCTION LOG DEEP RESISTIVITY
 RILM.OHMM   07 120 44 00:   INDUCTION LOG MEDIUM RESISTIVITY
 AC  .US/F   60 520 00 00:   ACCOUSTIC
 GRD .GAPI   45 310 01 00:   GAMMA RAY FROM DENSITY LOG
~PARAMETER INFORMATION
#MNEM.UNIT          VALUE    DESCRIPTION
#----------   ------------   ------------------------------
 PD  .                 GL:   PERMANENT DATUM
 EPD .F              5200:   ELEVATION PERMANENT DATUM
 LMF .                 GL:   LOG MEASURED FROM
 DMF .                 GL:   DRILLING MEASURED FROM
 EGL .F              5200:   GROUND LEVEL
 DATE.        20-AUG-1984:   RUN DATE
 RUN .                  1:   RUN NUMBER
 DD  .F               554:   DEPTH DRILLER
 DL  .F               548:   DEPTH LOGGER
 BLI .F               546:   BOTTOM LOG INTERVAL
 TLI .F                30:   TOP LOG INTERVAL
 CS  .IN            9.625:   CASING SIZE
 CBD .F                46:   CASING BOTTOM DRILLER
 CBL .F                41:   CASING BOTTOM LOGGER
 BS  .IN            7.875:   BIT SIZE
 BSD .F               554:   BIT SIZE AT DEPTH
 DFT .          KCL WATER:   DRILLING FLUID TYPE
 MSS .           FLOWLINE:   MUD SAMPLE SOURCE
 RMS .OHMM           .691:   RESISTIVITY MUD SAMPLE
 MST .F                82:   MUD SAMPLE TEMPERATURE
 MRT .F               100:   MAXIMUM RECORDED TEMPERATURE
 LUN .               6307:   LOGGING UNIT NUMBER
 LUL .               GLTE:   LOGGING UNIT LOCATION
 ENGI.           FAHLSING:   RECORDING ENGINEER
 WITN.           JENNINGS:   WITNESSED BY
 CLNT.            A2DTECH:   CLIENT CODE
 ORIG.       2", 5" PRINT:   ORIGIN OF DATA
 UWI .       490251098000:   UNIQUE WELL ID
 DICO. A2D Technologies, Inc.:   DIGITIZING COMPANY
~OTHER INFORMATION
~A   DEPT      CNC       CALD        DEN       PORD       CORR        SPR       RFOC       RILD       RILM         AC        GRD   
# ...
   58.5000     0.0424     7.8920     2.4680     0.1300    -0.0030   -24.7530  9805.3945     8.7780    10.3550  -999.2500   184.3310
   59.0000     0.0440     7.9270     2.4610     0.1310    -0.0150   -24.5230  9808.1113     8.6420    10.2900  -999.2500   189.0070
   59.5000     0.0449     7.9410     2.4540     0.1360    -0.0170   -23.5300  8717.4287     8.5460    10.2250  -999.2500   194.3730
   60.0000     0.0451     7.9140     2.4470     0.1410    -0.0140   -22.4860  1778.5282     8.5230    10.1590  -999.2500   192.1550
   60.5000     0.0451     7.8860     2.4460     0.1380     0.0010   -23.2210   564.4449     8.4960    10.0940  -999.2500   187.9730
   61.0000     0.0444     7.8620     2.4520     0.1330     0.0170   -27.6600   322.1689     8.4700    10.0290  -999.2500   183.7950
   61.5000     0.0438     7.8630     2.4590     0.1300     0.0340   -31.9520   251.3902     8.4440     9.9630  -999.2500   179.5740
   62.0000     0.0444     7.8850     2.4620     0.1300     0.0310   -36.2240   249.5640     8.4180     9.8980  -999.2500   177.5800
   62.5000     0.0446     7.9080     2.4630     0.1300     0.0200   -40.4900   307.1472     8.3920     9.8330  -999.2500   177.9270
   63.0000     0.0446     7.9210     2.4680     0.1280     0.0100   -45.1480   406.4663     8.3660     9.7670  -999.2500   181.0900
   63.5000     0.0449     7.8940     2.4720     0.1250     0.0080   -49.9060   886.7628     8.3390     9.7020  -999.2500   184.6960
   64.0000     0.0451     7.8650     2.4730     0.1240     0.0280   -54.6670   583.7162     8.3130     9.6370  -999.2500   188.3880
   64.5000     0.0451     7.8370     2.4740     0.1240     0.0360   -59.4340   421.2044     8.2870     9.5710  -999.2500   189.1840
   65.0000     0.0447     7.8080     2.4770     0.1230     0.0280   -64.3280   340.4671     8.2610     9.5060  -999.2500   186.6090
   65.5000     0.0444     7.7800     2.4820     0.1180     0.0250   -68.4820   315.0749     8.2350     9.4410  -999.2500   184.0490
   66.0000     0.0434     7.7800     2.4860     0.1150     0.0410   -72.7360   832.4214     8.2080     9.3690  -999.2500   183.4380
   66.5000     0.0431     7.8200     2.4840     0.1180     0.0460   -77.0020  1469.6462     8.1820     9.3860  -999.2500   189.6630
   67.0000     0.0434     7.8600     2.4810     0.1210     0.0360   -81.3040  3613.4629     8.1560     9.4040  -999.2500   190.7610
   67.5000     0.0427     7.8740     2.4820     0.1200     0.0340   -82.7230  7307.4932     8.1300     9.4220  -999.2500   188.2710
   68.0000     0.0417     7.8540     2.4870     0.1170     0.0460   -83.4210  9785.9043     8.1040     9.4410  -999.2500   185.8280
   68.5000     0.0420     7.8450     2.4910     0.1140     0.0580   -84.1290  9862.2646     8.0780     9.4590  -999.2500   185.5470
   69.0000     0.0426     7.8510     2.4960     0.1110     0.0670   -82.5150  9939.2207     8.0510     9.4780  -999.2500   186.7680
   69.5000     0.0429     7.8580     2.5000     0.1090     0.0520   -78.8320  9945.8428     8.0250     9.4960  -999.2500   189.0400
   70.0000     0.0431     7.8640     2.5030     0.1090     0.0350   -73.6150  1538.0681     7.9990     9.5150  -999.2500   191.2910
   70.5000     0.0431     7.8700     2.5060     0.1070     0.0340   -68.3270   395.3755     7.9730     9.5330  -999.2500   193.5070
   71.0000     0.0437     7.8750     2.5080     0.1050     0.0530   -63.0110   355.5743     7.9470     9.5520  -999.2500   193.5610
   71.5000     0.0443     7.8820     2.5090     0.1030     0.0680   -60.7630  1257.2140     7.9210     9.5700  -999.2500   193.4660
   72.0000     0.0442     7.9030     2.5080     0.1020     0.0590   -59.5820  3043.9180     7.8940     9.5880  -999.2500   194.5910
   72.5000     0.0445     7.8980     2.5050     0.1060     0.0400   -56.0310  9705.5000     7.8680     9.6070  -999.2500   193.3610
   73.0000     0.0445     7.8190     2.4990     0.1100     0.0210   -52.5980  9712.0615     7.8420     9.6250  -999.2500   192.4330
   73.5000     0.0447     7.7630     2.4920     0.1140     0.0020   -47.2060  9718.6230     7.8160     9.6730  -999.2500   195.0150
   74.0000     0.0413     7.8710     2.4840     0.1180     0.0150   -49.2970  9725.1846     7.7900     9.7570  -999.2500   199.2660
   74.5000     0.0400     7.8750     2.4770     0.1220     0.0310   -55.4640  9731.7461     7.7640     9.8420  -999.2500   201.3470
   75.0000     0.0418     7.8390     2.4700     0.1270     0.0390   -61.5240  9738.3076     7.7240     9.9260  -999.2500   198.5200
   75.5000     0.0440     7.8030     2.4630     0.1310     0.0230   -67.6850  9744.8691     7.7560    10.0100  -999.2500   195.3670
   76.0000     0.0446     7.7660     2.4580     0.1350     0.0090   -73.5680  9751.4307     7.8210    10.0940  -999.2500   192.2050
   76.5000     0.0439     7.7280     2.4580     0.1330     0.0200   -72.9670  9757.9922     7.8850    10.1790  -999.2500   189.0380
   77.0000     0.0435     7.7050     2.4600     0.1300     0.0310   -72.1100  9764.5537     7.9490    10.2630  -999.2500   185.8740
   77.5000     0.0432     7.8230     2.4630     0.1290     0.0390   -71.9550  9771.1152     8.0130    10.3470  -999.2500   183.0780
   78.0000     0.0425     7.7780     2.4670     0.1280     0.0210   -72.5610  9777.6768     8.0770    10.4320  -999.2500   183.9270
   78.5000     0.0422     7.7240     2.4700     0.1260     0.0190   -73.1840  9784.2383     8.1420    10.5160  -999.2500   185.1020
   79.0000     0.0422     7.7720     2.4740     0.1220     0.0180   -73.7960  9790.7998     8.2060    10.6560  -999.2500   186.2710
   79.5000     0.0424     7.8250     2.4720     0.1260     0.0170   -74.3670  9797.3613     8.2700    10.7540  -999.2500   187.4130
   80.0000     0.0433     7.8780     2.4640     0.1310     0.0170   -77.4050  9804.8975     8.3340    10.6710  -999.2500   187.4080
   80.5000     0.0442     7.9020     2.4570     0.1360     0.0130   -80.4460  1834.7267     8.3980    10.5950  -999.2500   184.4430
   81.0000     0.0433     7.9020     2.4550     0.1360     0.0040   -82.5600   673.6235     8.4630    10.5200  -999.2500   181.5710
   81.5000     0.0429     7.9020     2.4550     0.1340     0.0010   -83.6070   971.5731     8.5270    10.4440  -999.2500   180.2950
   82.0000     0.0432     7.9020     2.4570     0.1330     0.0030   -83.6670  8115.0449     8.5460    10.3690  -999.2500   180.9380
   82.5000     0.0431     7.9020     2.4500     0.1380     0.0060   -83.5910  9768.4824     8.3980    10.2930  -999.2500   184.1550
   83.0000     0.0434     7.9020     2.4420     0.1430     0.0060   -81.8660  9844.7080     8.2840    10.2180  -999.2500   187.1700
   83.5000     0.0440     7.9020     2.4390     0.1430     0.0020   -80.1470  9921.5264     8.1700    10.1420  -999.2500   190.2980
   84.0000     0.0421     7.9020     2.4410     0.1420    -0.0030   -78.4340  9928.1367     8.0550    10.0670  -999.2500   193.4440
   84.5000     0.0411     7.9020     2.4430     0.1420    -0.0070   -75.4200  9864.3994     7.9410     9.9910  -999.2500   196.5890
   85.0000     0.0411     7.9020     2.4450     0.1400     0.0100   -70.6510  3918.5496     7.8270     9.9160  -999.2500   198.0940
   85.5000     0.0407     7.9020     2.4500     0.1370     0.0260   -65.8930  2010.4402     7.7130     9.8400  -999.2500   193.5650
   86.0000     0.0407     7.9020     2.4550     0.1380     0.0250   -61.1600  9471.5264     7.5990     9.7650  -999.2500   189.9040
   86.5000     0.0410     7.9020     2.4530     0.1390     0.0150   -60.4470  9613.5127     7.4850     9.6890  -999.2500   191.9870
   87.0000     0.0409     7.9020     2.4510     0.1360     0.0050   -60.4390  9757.6260     7.3710     9.6140  -999.2500   194.5980
   87.5000     0.0406     7.9020     2.4560     0.1320     0.0130   -59.8230  9754.4316     7.2570     9.5380  -999.2500   195.5440
   88.0000     0.0406     7.9020     2.4630     0.1280     0.0270   -58.7250  9747.1299     7.1770     9.4630  -999.2500   193.8190
   88.5000     0.0405     7.9020     2.4650     0.1310     0.0280   -57.5440  9739.8291     7.1770     9.3870  -999.2500   196.0650
