~VERSION INFORMATION
 VERS.                2.0:   CWLS LOG ASCII STANDARD - VERSION 2.0
 WRAP.                 NO:   ONE LINE PER DEPTH STEP
~WELL INFORMATION
#MNEM.UNIT      DATA TYPE    INFORMATION
#----------   ------------   ------------------------------
 STRT.F           20.0000:   START DEPTH
 STOP.F          599.0000:   STOP DEPTH
 STEP.F            0.5000:   STEP LENGTH
 NULL.          -999.2500:   NO VALUE
 COMP. FENIX & SCISSON INC:   COMPANY
 WELL.    47 SX 34 #47-34:   WELL
 FLD .             TEAPOT:   FIELD
 LOC .      S34 T39N R78W:   LOCATION
 CNTY.            NATRONA:   COUNTY
 STAT.            WYOMING:   STATE
 CTRY. UNITED STATES OF AMERICA:   COUNTRY
 SRVC.       Schlumberger:   SERVICE COMPANY
 DATE.        24-JAN-1979:   LOGDATE
 API .       490251077000:   API NUMBER
~CURVE INFORMATION
#MNEM.UNIT       API CODE    CURVE DESCRIPTION
#----------   ------------   ------------------------------
 DEPT.F                  :   
 SN  .OHMM   05 040 16 00:   SHORT NORMAL 16"
 ILD .OHMM   05 120 46 00:   INDUCTION LOG DEEP
 SPR .MV     05 010 01 00:   SPONTANEOUS POTENTIAL FROM RES.
 CALD.IN     45 280 60 00:   CALIPER
 GRD .GAPI   45 310 01 00:   GAMMA RAY FROM DENSITY LOG
 DPHI.DEC    45 890 12 00:   DENSITY POROSITY SANDSTONE
 CORR.G/C3   45 356 01 00:   DENSITY CORRECTION
 RHOB.G/C3   45 350 01 00:   BULK DENSITY
~PARAMETER INFORMATION
#MNEM.UNIT          VALUE    DESCRIPTION
#----------   ------------   ------------------------------
 PD  .                 GL:   PERMANENT DATUM
 EPD .F              5132:   ELEVATION PERMANENT DATUM
 LMF .                 KB:   LOG MEASURED FROM
 DAPD.F                 4:   FEET ABOVE PERMANENT DATUM
 DMF .                 KB:   DRILLING MEASURED FROM
 EKB .F              5136:   KELLING BUSHING
 EGL .F              5132:   GROUND LEVEL
 DATE.            1-24-79:   RUN DATE
 RUN .                  1:   RUN NUMBER
 DD  .F               600:   DEPTH DRILLER
 DL  .F               600:   DEPTH LOGGER
 BLI .F               594:   BOTTOM LOG INTERVAL
 TLI .F                28:   TOP LOG INTERVAL
 CS  .IN            8.625:   CASING SIZE
 CBD .F                40:   CASING BOTTOM DRILLER
 BS  .IN            7.875:   BIT SIZE
 BSD .F               600:   BIT SIZE AT DEPTH
 DFT .                KCL:   DRILLING FLUID TYPE
 DFD .                8.8:   DRILLING FLUID DENSITY
 DFV .                 60:   DRILLING FLUID VISCOSITY
 DFPH.                9.5:   DRILLING FLUID PH
 DFL .               10.8:   DRILLING FLUID LOSS
 MSS .           FLOWLINE:   MUD SAMPLE SOURCE
 RMS .OHMM            .22:   RESISTIVITY MUD SAMPLE
 MST .F                60:   MUD SAMPLE TEMPERATURE
 RMF .OHMM             .2:   RESISTIVITY MUD FILTRATE SAMPLE
 MFST.F                61:   MUD FILTRATE SAMPLE TEMPERATURE
 RMC .OHMM             .3:   RESISTIVITY MUD CAKE
 MCST.F                61:   MUD CAKE SAMPLE TEMPERATURE
 MFSS.           MEASURED:   MUD FILTRATE SAMPLE SOURCE
 MCSS.           MEASURED:   MUD CAKE SAMPLE SOURCE
 RMB .OHMM            .23:   RESISTIVITY MUD AT BHT
 BHT .F                58:   BOTTOM HOLE TEMPERATURE
 TCS .HRS               4:   TIME CURCULATED STOPPED
 MRT .F                58:   MAXIMUM RECORDED TEMPERATURE
 LUN .               3029:   LOGGING UNIT NUMBER
 LUL .             CASPER:   LOGGING UNIT LOCATION
 ENGI.         B. ROLLINS:   RECORDING ENGINEER
 WITN.         RICHARDSON:   WITNESSED BY
 CLNT.            A2DTECH:   CLIENT CODE
 ORIG.           5" PRINT:   ORIGIN OF DATA
 UWI .       490251077000:   UNIQUE WELL ID
 DICO. A2D Technologies, Inc.:   DIGITIZING COMPANY
~OTHER INFORMATION
~A   DEPT       SN        ILD        SPR         CALD       GRD        DPHI       CORR       RHOB 
# ...
  546.5000    10.0338    16.0706   -27.2056     8.2958    76.9671     0.1955     0.0206     2.3505
  547.0000     9.9831    15.9347   -27.8564     8.3217    75.8624     0.1937     0.0179     2.3510
  547.5000     9.9329    15.7949   -27.9004     8.2735    73.5499     0.1863     0.0204     2.3625
  548.0000     9.8840    15.6563   -27.7690     8.2256    72.8986     0.1732     0.0282     2.3819
  548.5000     9.8354    15.5190   -27.8993     8.2370    83.3932     0.1670     0.0280     2.4017
  549.0000     9.7870    15.3828   -28.2765     8.2526    81.1820     0.1701     0.0272     2.4021
  549.5000     9.7388    15.2755   -28.6549     8.2681    79.4899     0.1757     0.0247     2.3948
  550.0000     9.6909    15.1958   -29.0337     8.2835    83.2894     0.1766     0.0222     2.3871
  550.5000     9.6432    15.1164   -29.3585     8.2995    87.4917     0.1777     0.0220     2.3791
  551.0000     9.5957    15.0375   -29.5720     8.2917    84.3366     0.1784     0.0220     2.3780
  551.5000     9.5485    14.9590   -29.7832     8.2688    81.9455     0.1782     0.0219     2.3765
  552.0000     9.5015    14.8809   -30.0050     8.2457    81.5137     0.1725     0.0199     2.3770
  552.5000     9.4548    14.8032   -30.6614     8.2226    78.3790     0.1540     0.0112     2.4160
  553.0000     9.4083    14.6228   -31.6940     8.1995    76.7633     0.1373     0.0093     2.4573
  553.5000     9.3620    14.3336   -31.7034     8.1764    77.1246     0.1140     0.0314     2.4952
  554.0000     9.3188    14.0486   -31.7713     8.1533    78.9218     0.1150     0.0491     2.4942
  554.5000     9.1772    13.7697   -31.8623     8.1302    80.9375     0.1445     0.0238     2.4432
  555.0000     9.0462    13.4966   -32.2783     8.1071    82.9584     0.1636     0.0014     2.4067
  555.5000     8.9168    13.2289   -32.8209     8.0839    84.7524     0.1606     0.0114     2.4033
  556.0000     8.7894    12.9664   -33.3694     8.0635    81.7934     0.1584     0.0160     2.4020
  556.5000     8.6638    12.7092   -33.9278     8.0808    77.8819     0.1489     0.0158     2.4206
  557.0000     8.5400    12.4571   -33.9398     8.0994    81.4325     0.1374     0.0239     2.4406
  557.5000     8.4218    12.2100   -33.7111     8.1179    85.2767     0.1269     0.0323     2.4616
  558.0000     8.4141    12.1687   -33.5313     8.1363    88.9301     0.1274     0.0256     2.4648
  558.5000     8.4072    12.1748   -34.1399     8.1548    86.0144     0.1365     0.0163     2.4533
  559.0000     8.4002    12.1844   -34.7531     8.1733    82.7094     0.1333     0.0150     2.4479
  559.5000     8.3931    12.1940   -35.3609     8.1917    81.8905     0.1283     0.0188     2.4602
  560.0000     8.3860    12.2036   -35.9653     8.2102    81.0211     0.1331     0.0226     2.4613
  560.5000     8.3788    12.2133   -36.2375     8.2286    80.1723     0.1389     0.0258     2.4565
  561.0000     8.3717    12.2229   -36.0921     8.2471    82.1446     0.1379     0.0219     2.4517
  561.5000     8.3646    12.2326   -35.9537     8.2656    84.4688     0.1365     0.0181     2.4469
  562.0000     8.3575    12.2422   -36.1591     8.2842    81.9354     0.1365     0.0142     2.4455
  562.5000     8.3505    12.2519   -36.7454     8.3026    80.7318     0.1373     0.0139     2.4469
  563.0000     8.3434    12.2615   -37.2866     8.3016    89.2167     0.1353     0.0165     2.4547
  563.5000     8.3363    12.2707   -37.3671     8.2884    86.3576     0.1320     0.0201     2.4556
  564.0000     8.3293    12.2850   -37.4383     8.2753    83.3774     0.1343     0.0237     2.4537
  564.5000     8.3222    12.2812   -37.5196     8.2623    82.5071     0.1312     0.0273     2.4536
  565.0000     8.3151    12.3947   -37.9902     8.2491    86.7077     0.1280     0.0309     2.4580
  565.5000     8.3081    12.3714   -38.4705     8.2480    87.7551     0.1216     0.0345     2.4720
  566.0000     8.3010    12.3068   -38.9481     8.2555    91.7586     0.1174     0.0381     2.4858
  566.5000     8.2940    12.2425   -39.4226     8.2632    89.3200     0.1154     0.0399     2.4863
  567.0000     8.2870    12.1786   -39.6872     8.2709    87.8928     0.1154     0.0396     2.4850
  567.5000     8.2799    12.1151   -39.6469     8.2786    90.5531     0.1154     0.0382     2.4838
  568.0000     8.2730    12.0518   -39.6107     8.2835    91.4870     0.1162     0.0397     2.4827
  568.5000     8.2654    11.9889   -39.5727     8.2834    88.6911     0.1191     0.0419     2.4776
  569.0000     8.2569    11.9263   -39.5330     8.2846    86.2294     0.1219     0.0388     2.4708
  569.5000     8.2484    11.8641   -39.5203     8.2867    87.4659     0.1244     0.0323     2.4644
  570.0000     8.2398    11.8021   -40.0573     8.2888    89.4921     0.1267     0.0322     2.4646
  570.5000     8.2313    11.7405   -40.5149     8.2909    91.0650     0.1243     0.0340     2.4665
  571.0000     8.2228    11.6792   -40.3149     8.2930    88.7451     0.1181     0.0329     2.4739
  571.5000     8.2143    11.6183   -40.0848     8.2950    84.9453     0.1160     0.0308     2.4813
  572.0000     8.2058    11.5575   -39.8990     8.2971    87.9724     0.1140     0.0325     2.4887
  572.5000     8.1974    11.5150   -40.0600     8.2992    92.7704     0.1100     0.0341     2.4962
  573.0000     8.1889    11.5149   -40.9987     8.3013    89.8152     0.1059     0.0358     2.5053
  573.5000     8.1805    11.5159   -41.9929     8.3033    87.1549     0.1023     0.0374     2.5201
  574.0000     8.1720    11.5061   -42.3922     8.3035    89.0307     0.1002     0.0390     2.5296
  574.5000     8.1636    11.6308   -42.8045     8.2984    90.8323     0.1046     0.0349     2.5184
  575.0000     8.1552    11.6232   -43.2498     8.2901    92.6383     0.1126     0.0250     2.5016
  575.5000     8.1467    11.6214   -42.2426     8.2817    93.9576     0.1182     0.0223     2.4839
  576.0000     8.1383    11.5589   -42.0434     8.2734    90.4623     0.1182     0.0269     2.4776
  576.5000     8.1299    11.5000   -42.5891     8.2651    92.6295     0.1182     0.0266     2.4777
  577.0000     8.1215    11.4415   -43.1461     8.2567    90.7481     0.1182     0.0249     2.4824
  577.5000     8.1131    11.3835   -43.4961     8.2485    88.2465     0.1161     0.0271     2.4869
  578.0000     8.1048    11.3257   -43.1464     8.2452    88.3332     0.1134     0.0336     2.4913
  578.5000     8.0964    11.2682   -42.7764     8.2494    91.3400     0.1150     0.0310     2.4914
  579.0000     8.0880    11.2110   -42.8545     8.2536    94.3677     0.1175     0.0249     2.4829
  579.5000     8.0797    11.1541   -43.2832     8.2577    96.7262     0.1206     0.0188     2.4753
  580.0000     8.0713    11.0975   -43.7111     8.2620    92.2306     0.1206     0.0169     2.4764
  580.5000     8.0630    11.0412   -43.9095     8.2597    91.3111     0.1159     0.0338     2.4895
  581.0000     8.0547    10.9706   -44.5082     8.2539    90.2484     0.1134     0.0368     2.4850
  581.5000     8.0464    10.8490   -45.1619     8.2480    87.1302     0.1165     0.0354     2.4807
  582.0000     7.9982    10.7289   -45.4067     8.2422    89.9829     0.1169     0.0339     2.4836
  582.5000     7.9253    10.6100   -45.5500     8.2363    94.7246     0.1100     0.0339     2.4923
  583.0000     7.8273    10.4925   -45.7033     8.2304    99.6079     0.1082     0.0340     2.5003
  583.5000     7.7132    10.3762   -46.2006     8.2245   100.8545     0.1090     0.0340     2.4987
  584.0000     7.6010    10.2613   -46.7282     8.2235    96.4976     0.1098     0.0309     2.4967
  584.5000     7.4904    10.1476   -47.2600     8.2235    98.7223     0.1087     0.0268     2.4946
  585.0000     7.3814     9.9990   -47.4499     8.2235   101.2719     0.1074     0.0319     2.4969
  585.5000     7.2740     9.8428   -47.3713     8.2235    96.5603     0.1076     0.0399     2.5003
  586.0000     7.1682     9.6891   -47.3248     8.2235    87.1053     0.1090     0.0367     2.4977
  586.5000     7.0639     9.5377   -47.5255     8.2235    88.9187     0.1103     0.0332     2.4918
