~VERSION INFORMATION
 VERS.                2.0:   CWLS LOG ASCII STANDARD - VERSION 2.0
 WRAP.                 NO:   ONE LINE PER DEPTH STEP
~WELL INFORMATION
#MNEM.UNIT      DATA TYPE    INFORMATION
#----------   ------------   ------------------------------
 STRT.F            0.0000:   START DEPTH
 STOP.F          666.0000:   STOP DEPTH
 STEP.F            0.1000:   STEP LENGTH
 NULL.          -999.2500:   NO VALUE
 COMP.   FLUOR DANIEL INC:   COMPANY
 WELL.   77-2 X 34 #77-34:   WELL
 FLD .             TEAPOT:   FIELD
 LOC .      S34 T39N R78W:   LOCATION
 CNTY.            NATRONA:   COUNTY
 STAT.            WYOMING:   STATE
 CTRY. UNITED STATES OF AMERICA:   COUNTRY
 SRVC.      Western Atlas:   SERVICE COMPANY
 DATE.        01-APR-1995:   LOGDATE
 API .       490252270000:   API NUMBER
~CURVE INFORMATION
#MNEM.UNIT       API CODE    CURVE DESCRIPTION
#----------   ------------   ------------------------------
 DEPT.F                  :   
 GRR .GAPI   07 310 01 00:   GAMMA RAY
 RILD.OHMM   07 120 46 00:   INDUCTION LOG DEEP RESISTIVITY
 RILM.OHMM   07 120 44 00:   INDUCTION LOG MEDIUM RESISTIVITY
~PARAMETER INFORMATION
#MNEM.UNIT          VALUE    DESCRIPTION
#----------   ------------   ------------------------------
 PD  .                 GL:   PERMANENT DATUM
 EPD .F              5106:   ELEVATION PERMANENT DATUM
 LMF .                 KB:   LOG MEASURED FROM
 DAPD.F                10:   FEET ABOVE PERMANENT DATUM
 DMF .                 KB:   DRILLING MEASURED FROM
 EKB .F              5116:   KELLING BUSHING
 EDF .F              5115:   DRILLING FLOOR
 EGL .F              5106:   GROUND LEVEL
 DATE.        01-APR-1995:   RUN DATE
 RUN .                  1:   RUN NUMBER
 DD  .F               674:   DEPTH DRILLER
 DL  .F               674:   DEPTH LOGGER
 BLI .F               666:   BOTTOM LOG INTERVAL
 TLI .F                52:   TOP LOG INTERVAL
 CS  .IN            9.625:   CASING SIZE
 CBD .F                52:   CASING BOTTOM DRILLER
 CBL .F                52:   CASING BOTTOM LOGGER
 BS  .IN             8.75:   BIT SIZE
 BSD .F               674:   BIT SIZE AT DEPTH
 DFT .                AIR:   DRILLING FLUID TYPE
 MRT .F                89:   MAXIMUM RECORDED TEMPERATURE
 LUN .            HL 6530:   LOGGING UNIT NUMBER
 LUL .             CASPER:   LOGGING UNIT LOCATION
 ENGI.      PAT RASMUSSEN:   RECORDING ENGINEER
 WITN.        GARY STRONG:   WITNESSED BY
 CLNT.            A2DTECH:   CLIENT CODE
 ORIG.           5" PRINT:   ORIGIN OF DATA
 UWI .       490252270000:   UNIQUE WELL ID
 DICO. A2D Technologies, Inc.:   DIGITIZING COMPANY
~OTHER INFORMATION
~A    DEPT      GRR      RILD       RILM   
# ...
  291.2000   136.6145     7.8300     7.8003
  291.3000   135.8475     7.8447     7.8005
  291.4000   134.8329     7.8848     7.8214
  291.5000   133.7245     7.8848     7.8554
  291.6000   131.8272     7.9276     7.8586
  291.7000   130.6485     7.9400     7.9107
  291.8000   129.7533     7.9400     7.9109
  291.9000   128.9913     7.9400     7.9422
  292.0000   128.3177     7.9400     7.9666
  292.1000   127.8481     7.9400     7.9800
  292.2000   127.5824     7.9400     8.0267
  292.3000   127.5789     7.9400     8.0789
  292.4000   127.5753     7.9400     8.0791
  292.5000   127.7175     7.9400     8.0793
  292.6000   127.8697     7.9400     8.0795
  292.7000   127.9621     7.9400     8.0942
  292.8000   128.4657     7.9849     8.1364
  292.9000   128.7631     7.9955     8.1366
  293.0000   128.9633     7.9955     8.0936
  293.1000   129.0582     7.9955     8.0807
  293.2000   129.1600     8.0040     8.0809
  293.3000   129.3526     8.0515     8.0811
  293.4000   129.3490     8.0515     8.0813
  293.5000   129.3448     8.0515     8.0816
  293.6000   129.3418     8.0515     8.0818
  293.7000   129.3382     8.0702     8.0820
  293.8000   129.4484     8.1078     8.1082
  293.9000   129.6975     8.1080     8.1557
  294.0000   129.9467     8.1645     8.2036
  294.1000   130.2282     8.2031     8.2534
  294.2000   130.8850     8.2216     8.3001
  294.3000   131.6398     8.2417     8.3864
  294.4000   132.2723     8.2792     8.4564
  294.5000   132.8476     8.2792     8.4872
  294.6000   133.5779     8.2792     8.4965
  294.7000   134.1282     8.3193     8.5469
  294.8000   134.3534     8.3679     8.5472
  294.9000   134.6025     8.3954     8.5870
  295.0000   134.7210     8.4072     8.6373
  295.1000   134.7173     8.4542     8.6676
  295.2000   134.7137     8.4542     8.6783
  295.3000   134.7099     8.4960     8.7286
  295.4000   134.4696     8.5133     8.7289
  295.5000   134.0252     8.5133     8.7291
  295.6000   133.6551     8.5262     8.7610
  295.7000   133.3084     8.5760     8.7905
  295.8000   132.7991     8.6329     8.7908
  295.9000   132.2750     8.6329     8.7910
  296.0000   131.5355     8.6667     8.7913
  296.1000   131.1664     8.6933     8.7915
  296.2000   130.9100     8.7074     8.7917
  296.3000   130.6535     8.7541     8.7920
  296.4000   130.4471     8.7541     8.7922
  296.5000   130.4434     8.7541     8.7925
  296.6000   130.4391     8.7894     8.7928
  296.7000   130.4362     8.8153     8.7930
  296.8000   130.4326     8.8306     8.7932
  296.9000   130.4290     8.8770     8.7935
  297.0000   130.4253     8.8770     8.8225
  297.1000   130.4312     8.8770     8.9215
  297.2000   130.7192     8.9138     8.9797
  297.3000   130.9295     8.9391     8.9799
  297.4000   131.0142     8.9391     9.0165
  297.5000   131.1262     8.9391     9.0431
  297.6000   131.3754     8.9391     9.0433
  297.7000   131.6425     8.9391     9.0436
  297.8000   132.2059     8.9391     9.0439
  297.9000   132.4245     8.9391     9.0441
  298.0000   132.8465     8.9217     9.0444
  298.1000   133.2245     8.8770     9.0446
  298.2000   133.4737     8.8770     9.0449
  298.3000   133.6969     8.8770     9.0451
  298.4000   133.6926     8.8385     9.0454
  298.5000   133.6893     8.8153     9.0456
  298.6000   133.5043     8.8153     9.0070
  298.7000   133.3804     8.8073     8.9834
  298.8000   133.2931     8.7541     8.9837
  298.9000   133.0019     8.7541     8.9839
  299.0000   132.4644     8.7541     8.9842
  299.1000   132.4609     8.7541     8.9844
  299.2000   132.2675     8.7541     8.9448
  299.3000   132.0111     8.7541     8.9226
  299.4000   131.8468     8.7541     8.9229
  299.5000   131.8431     8.7541     8.9138
  299.6000   131.8394     8.7541     8.8615
  299.7000   131.8359     8.7242     8.8617
  299.8000   131.8323     8.6933     8.8214
  299.9000   131.8287     8.6933     8.8008
  300.0000   131.8250     8.6933     8.8011
  300.1000   131.8214     8.6933     8.7909
  300.2000   131.8802     8.6933     8.7405
  300.3000   136.6892     8.6626     8.7408
  300.4000   136.9557     8.6329     8.7410
  300.5000   136.9563     8.6329     8.6576
  300.6000   136.9569     8.6372     8.5833
  300.7000   136.9575     8.7541     8.5579
  300.8000   136.8962     8.7541     8.5576
  300.9000   136.6502     8.7541     8.5553
  301.0000   136.3561     8.7541     8.4978
  301.1000   136.1583     8.7541     8.4580
  301.2000   135.9124     8.7541     8.4384
  301.3000   135.8425     8.7358     8.4201
  301.4000   136.1227     8.6933     8.3721
  301.5000   136.6607     8.6933     8.3211
  301.6000   136.8857     8.6933     8.3209
  301.7000   137.3022     8.6933     8.3207
  301.8000   137.7959     8.6933     8.3205
  301.9000   138.2305     8.6933     8.3075
  302.0000   138.4736     8.6933     8.2623
  302.1000   138.4742     8.6933     8.2621
  302.2000   138.4748     8.6933     8.2619
  302.3000   138.3351     8.6933     8.2616
  302.4000   138.0891     8.6933     8.2614
  302.5000   137.8130     8.6933     8.2612
  302.6000   137.2706     8.6933     8.2609
  302.7000   137.0495     8.6933     8.2607
  302.8000   136.8036     8.6933     8.2605
  302.9000   136.4462     8.6933     8.2603
  303.0000   135.9536     8.6933     8.2731
  303.1000   135.4611     8.6933     8.3175
  303.2000   134.9686     8.6933     8.3172
  303.3000   134.4762     8.6933     8.3170
  303.4000   133.9838     8.6933     8.3168
  303.5000   133.5737     8.6933     8.3351
  303.6000   133.3004     8.6933     8.3825
  303.7000   132.7524     8.6933     8.4326
  303.8000   132.5342     8.6933     8.4780
  303.9000   132.2882     8.6933     8.4910
  304.0000   131.9337     8.6933     8.5152
  304.1000   131.4946     8.6933     8.5498
  304.2000   131.2471     8.6933     8.5526
  304.3000   131.2477     8.6933     8.6089
  304.4000   131.0584     8.6933     8.6501
  304.5000   130.8125     8.6933     8.6686
  304.6000   130.5665     8.7112     8.6880
  304.7000   130.3205     8.7541     8.7374
  304.8000   130.0441     8.7541     8.7893
  304.9000   130.0446     8.7541     8.7891
  305.0000   130.0452     8.7541     8.7888
  305.1000   130.0459     8.7777     8.8143
  305.2000   130.0464     8.8153     8.8497
  305.3000   130.0471     8.8166     8.8529
  305.4000   129.8055     8.8770     8.9109
  305.5000   129.7466     8.8770     8.9538
  305.6000   129.7472     8.9065     8.9727
  305.7000   129.6709     8.9391     8.9931
  305.8000   129.4250     8.9460     9.0348
  305.9000   129.1458     9.0017     9.0345
  306.0000   128.9331     9.0017     9.0343
  306.1000   128.6872     9.0372     9.0722
  306.2000   128.4413     9.0889     9.1238
  306.3000   128.1475     9.1409     9.1756
  306.4000   127.6404     9.1931     9.2238
  306.5000   126.9232     9.2562     9.2235
  306.6000   126.3683     9.2562     9.2683
  306.7000   125.7467     9.2869     9.2874
  306.8000   125.0076     9.3400     9.3089
  306.9000   124.2874     9.3934     9.3618
  307.0000   123.7226     9.4519     9.4167
  307.1000   122.8816     9.4519     9.4685
  307.2000   122.2065     9.4891     9.4819
  307.3000   121.6138     9.5180     9.5101
  307.4000   120.9198     9.5313     9.5476
  307.5000   120.4073     9.5857     9.5518
  307.6000   120.4078     9.6406     9.6137
  307.7000   120.7712     9.6958     9.6134
  307.8000   121.2650     9.7512     9.6483
  307.9000   121.7587     9.8070     9.7263
  308.0000   122.2524     9.8630     9.8154
  308.1000   122.8242     9.9246     9.8151
  308.2000   123.4475     9.9762     9.8148
  308.3000   124.3402     9.9941     9.8567
  308.4000   125.1323    10.0206     9.9128
  308.5000   125.6683    10.0640     9.9691
  308.6000   126.4471    10.0650    10.0207
  308.7000   126.9152    10.1226    10.0204
  308.8000   127.4087    10.1806    10.0697
  308.9000   127.6555    10.2388    10.0898
  309.0000   127.6561    10.2973    10.1385
  309.1000   127.6567    10.3562    10.2306
  309.2000   127.6574    10.4210    10.2303
  309.3000   127.0438    10.4751    10.2873
