~VERSION INFORMATION
 VERS.                2.0:   CWLS LOG ASCII STANDARD - VERSION 2.0
 WRAP.                 NO:   ONE LINE PER DEPTH STEP
~WELL INFORMATION
#MNEM.UNIT      DATA TYPE    INFORMATION
#----------   ------------   ------------------------------
 STRT.F            0.0000:   START DEPTH
 STOP.F         2758.0000:   STOP DEPTH
 STEP.F            0.5000:   STEP LENGTH
 NULL.          -999.2500:   NO VALUE
 COMP. FENIX & SCISSON INC:   COMPANY
 WELL.       402A #402-20:   WELL
 FLD .             TEAPOT:   FIELD
 LOC .      S20 T39N R78W:   LOCATION
 CNTY.            NATRONA:   COUNTY
 STAT.            WYOMING:   STATE
 CTRY. UNITED STATES OF AMERICA:   COUNTRY
 SRVC.      NL McCullough:   SERVICE COMPANY
 DATE.        15-JUL-1965:   LOGDATE
 API .       490251021100:   API NUMBER
~CURVE INFORMATION
#MNEM.UNIT       API CODE    CURVE DESCRIPTION
#----------   ------------   ------------------------------
 DEPT.F                  :   
 GR  .GAPI   30 310 01 00:   GAMMA RAY
 CALI.IN     70 280 01 00:   CALIPER
~PARAMETER INFORMATION
#MNEM.UNIT          VALUE    DESCRIPTION
#----------   ------------   ------------------------------
 PD  .                 GL:   PERMANENT DATUM
 LMF .                 GL:   LOG MEASURED FROM
 DMF .                 GL:   DRILLING MEASURED FROM
 DATE.            7-15-65:   RUN DATE
 RUN .                  1:   RUN NUMBER
 DL  .F              2759:   DEPTH LOGGER
 BLI .F              2758:   BOTTOM LOG INTERVAL
 TLI .F              2100:   TOP LOG INTERVAL
 CS  .IN                7:   CASING SIZE
 ENGI. FITZSIMMONS/COWLTHORPE:   RECORDING ENGINEER
 WITN.             HUDSON:   WITNESSED BY
 CLNT.            A2DTECH:   CLIENT CODE
 ORIG.           5" PRINT:   ORIGIN OF DATA
 UWI .       490251021100:   UNIQUE WELL ID
 DICO. A2D Technologies, Inc.:   DIGITIZING COMPANY
~OTHER INFORMATION
~A    DEPT      GR         CALI 
# ...
  121.5000  -999.2500     5.9197
  122.0000  -999.2500     5.9199
  122.5000  -999.2500     5.9200
  123.0000  -999.2500     5.9201
  123.5000  -999.2500     5.9203
  124.0000  -999.2500     5.9204
  124.5000  -999.2500     5.9206
  125.0000  -999.2500     5.9207
  125.5000  -999.2500     5.9208
  126.0000  -999.2500     5.9210
  126.5000  -999.2500     5.9211
  127.0000  -999.2500     5.9213
  127.5000  -999.2500     5.9214
  128.0000  -999.2500     5.9215
  128.5000  -999.2500     5.9217
  129.0000  -999.2500     5.9218
  129.5000  -999.2500     5.9220
  130.0000  -999.2500     5.9221
  130.5000  -999.2500     5.9222
  131.0000  -999.2500     5.9224
  131.5000  -999.2500     5.9225
  132.0000  -999.2500     5.9227
  132.5000  -999.2500     5.9228
  133.0000  -999.2500     5.9229
  133.5000  -999.2500     5.9231
  134.0000  -999.2500     5.9232
  134.5000  -999.2500     5.9234
  135.0000  -999.2500     5.9235
  135.5000  -999.2500     5.9236
  136.0000  -999.2500     5.9238
  136.5000  -999.2500     5.9239
  137.0000  -999.2500     5.9241
  137.5000  -999.2500     5.9242
  138.0000  -999.2500     5.9243
  138.5000  -999.2500     5.9245
  139.0000  -999.2500     5.9246
  139.5000  -999.2500     5.9248
  140.0000  -999.2500     5.9249
  140.5000  -999.2500     5.9250
  141.0000  -999.2500     5.9252
  141.5000  -999.2500     5.9253
  142.0000  -999.2500     5.9254
  142.5000  -999.2500     5.9256
  143.0000  -999.2500     5.9257
  143.5000  -999.2500     5.9259
  144.0000  -999.2500     5.9260
  144.5000  -999.2500     5.9261
  145.0000  -999.2500     5.9263
  145.5000  -999.2500     5.9264
  146.0000  -999.2500     5.9266
  146.5000  -999.2500     5.9267
  147.0000  -999.2500     5.9268
  147.5000  -999.2500     5.9270
  148.0000  -999.2500     5.9271
  148.5000  -999.2500     5.9273
  149.0000  -999.2500     5.9274
  149.5000  -999.2500     5.9275
  150.0000  -999.2500     5.9277
  150.5000  -999.2500     5.9278
  151.0000  -999.2500     5.9280
  151.5000  -999.2500     5.9281
  152.0000  -999.2500     5.9282
  152.5000  -999.2500     5.9284
  153.0000  -999.2500     5.9285
  153.5000  -999.2500     5.9287
  154.0000  -999.2500     5.9288
  154.5000  -999.2500     5.9289
  155.0000  -999.2500     5.9291
  155.5000  -999.2500     5.9292
  156.0000  -999.2500     5.9294
  156.5000  -999.2500     5.9295
  157.0000  -999.2500     5.9296
  157.5000  -999.2500     5.9298
  158.0000  -999.2500     5.9299
  158.5000  -999.2500     5.9301
  159.0000  -999.2500     5.9302
  159.5000  -999.2500     5.9303
  160.0000  -999.2500     5.9305
  160.5000  -999.2500     5.9306
  161.0000  -999.2500     5.9308
  161.5000  -999.2500     5.9309
  162.0000  -999.2500     5.9310
  162.5000  -999.2500     5.9312
  163.0000  -999.2500     5.9313
  163.5000  -999.2500     5.9315
  164.0000  -999.2500     5.9316
  164.5000  -999.2500     5.9317
  165.0000  -999.2500     5.9319
  165.5000  -999.2500     5.9320
  166.0000  -999.2500     5.9322
  166.5000  -999.2500     5.9323
  167.0000  -999.2500     5.9324
  167.5000  -999.2500     5.9323
  168.0000  -999.2500     5.9314
  168.5000  -999.2500     5.9305
  169.0000  -999.2500     5.9296
  169.5000  -999.2500     5.9288
  170.0000  -999.2500     5.9279
  170.5000  -999.2500     5.9270
  171.0000  -999.2500     5.9261
  171.5000  -999.2500     5.9252
  172.0000  -999.2500     5.9244
  172.5000  -999.2500     5.9235
  173.0000  -999.2500     5.9226
  173.5000  -999.2500     5.9217
  174.0000  -999.2500     5.9209
  174.5000  -999.2500     5.9200
  175.0000  -999.2500     5.9191
  175.5000  -999.2500     5.9182
  176.0000  -999.2500     5.9173
  176.5000  -999.2500     5.9165
  177.0000  -999.2500     5.9156
  177.5000  -999.2500     5.9147
  178.0000  -999.2500     5.9138
  178.5000  -999.2500     5.9130
  179.0000  -999.2500     5.9126
  179.5000  -999.2500     5.9129
  180.0000  -999.2500     5.9132
  180.5000  -999.2500     5.9134
  181.0000  -999.2500     5.9137
  181.5000  -999.2500     5.9140
  182.0000  -999.2500     5.9143
  182.5000  -999.2500     5.9146
  183.0000  -999.2500     5.9149
  183.5000  -999.2500     5.9151
  184.0000  -999.2500     5.9154
  184.5000  -999.2500     5.9157
  185.0000  -999.2500     5.9160
  185.5000  -999.2500     5.9163
  186.0000  -999.2500     5.9165
  186.5000  -999.2500     5.9168
  187.0000  -999.2500     5.9171
  187.5000  -999.2500     5.9174
  188.0000  -999.2500     5.9177
  188.5000  -999.2500     5.9179
  189.0000  -999.2500     5.9182
  189.5000  -999.2500     5.9185
  190.0000  -999.2500     5.9188
  190.5000  -999.2500     5.9191
  191.0000  -999.2500     5.9194
  191.5000  -999.2500     5.9196
  192.0000  -999.2500     5.9199
  192.5000  -999.2500     5.9202
  193.0000  -999.2500     5.9205
  193.5000  -999.2500     5.9208
  194.0000  -999.2500     5.9210
  194.5000  -999.2500     5.9213
  195.0000  -999.2500     5.9216
  195.5000  -999.2500     5.9219
  196.0000  -999.2500     5.9222
  196.5000  -999.2500     5.9224
  197.0000  -999.2500     5.9227
  197.5000  -999.2500     5.9230
  198.0000  -999.2500     5.9233
  198.5000  -999.2500     5.9236
  199.0000  -999.2500     5.9238
  199.5000  -999.2500     5.9241
  200.0000  -999.2500     5.9244
  200.5000  -999.2500     5.9247
  201.0000  -999.2500     5.9250
  201.5000  -999.2500     5.9252
  202.0000  -999.2500     5.9255
  202.5000  -999.2500     5.9258
  203.0000  -999.2500     5.9261
  203.5000  -999.2500     5.9264
  204.0000  -999.2500     5.9267
  204.5000  -999.2500     5.9269
  205.0000  -999.2500     5.9272
  205.5000  -999.2500     5.9275
  206.0000  -999.2500     5.9278
  206.5000  -999.2500     5.9281
  207.0000  -999.2500     5.9283
  207.5000  -999.2500     5.9286
  208.0000  -999.2500     5.9289
  208.5000  -999.2500     5.9292
  209.0000  -999.2500     5.9295
  209.5000  -999.2500     5.9297
  210.0000  -999.2500     5.9300
  210.5000  -999.2500     5.9303
  211.0000  -999.2500     5.9306
  211.5000  -999.2500     5.9309
  212.0000  -999.2500     5.9311
  212.5000  -999.2500     5.9314
  213.0000  -999.2500     5.9317
  213.5000  -999.2500     5.9320
  214.0000  -999.2500     5.9323
  214.5000  -999.2500     5.9324
  215.0000  -999.2500     5.9315
  215.5000  -999.2500     5.9305
  216.0000  -999.2500     5.9296
  216.5000  -999.2500     5.9286
  217.0000  -999.2500     5.9277
  217.5000  -999.2500     5.9268
  218.0000  -999.2500     5.9258
  218.5000  -999.2500     5.9249
  219.0000  -999.2500     5.9239
  219.5000  -999.2500     5.9230
  220.0000  -999.2500     5.9221
  220.5000  -999.2500     5.9211
  221.0000  -999.2500     5.9202
  221.5000  -999.2500     5.9192
  222.0000  -999.2500     5.9183
  222.5000  -999.2500     5.9174
  223.0000  -999.2500     5.9164
  223.5000  -999.2500     5.9155
  224.0000  -999.2500     5.9145
  224.5000  -999.2500     5.9136
  225.0000  -999.2500     5.9127
  225.5000  -999.2500     5.9117
  226.0000  -999.2500     5.9108
  226.5000  -999.2500     5.9098
  227.0000  -999.2500     5.9089
  227.5000  -999.2500     5.9080
  228.0000  -999.2500     5.9070
  228.5000  -999.2500     5.9061
  229.0000  -999.2500     5.9051
  229.5000  -999.2500     5.9042
  230.0000  -999.2500     5.9033
  230.5000  -999.2500     5.9023
  231.0000  -999.2500     5.9014
  231.5000  -999.2500     5.9004
  232.0000  -999.2500     5.8995
  232.5000  -999.2500     5.8986
  233.0000  -999.2500     5.8976
  233.5000  -999.2500     5.8967
  234.0000  -999.2500     5.8957
  234.5000  -999.2500     5.8948
  235.0000  -999.2500     5.8939
  235.5000  -999.2500     5.8929
  236.0000  -999.2500     5.8927
  236.5000  -999.2500     5.8932
  237.0000  -999.2500     5.8937
  237.5000  -999.2500     5.8941
  238.0000  -999.2500     5.8946
  238.5000  -999.2500     5.8951
  239.0000  -999.2500     5.8956
  239.5000  -999.2500     5.8961
  240.0000  -999.2500     5.8966
  240.5000  -999.2500     5.8970
  241.0000  -999.2500     5.8975
  241.5000  -999.2500     5.8980
  242.0000  -999.2500     5.8985
  242.5000  -999.2500     5.8990
