~VERSION INFORMATION
 VERS.                2.0:   CWLS LOG ASCII STANDARD - VERSION 2.0
 WRAP.                 NO:   ONE LINE PER DEPTH STEP
~WELL INFORMATION
#MNEM.UNIT      DATA TYPE    INFORMATION
#----------   ------------   ------------------------------
 STRT.F            8.0000:   START DEPTH
 STOP.F          970.0000:   STOP DEPTH
 STEP.F            0.1000:   STEP LENGTH
 NULL.          -999.2500:   NO VALUE
 COMP.       F D SERV INC:   COMPANY
 WELL. N P R 3 STX-35 #15-35:   WELL
 FLD .             TEAPOT:   FIELD
 LOC .      S35 T39N R78W:   LOCATION
 CNTY.            NATRONA:   COUNTY
 STAT.            WYOMING:   STATE
 CTRY. UNITED STATES OF AMERICA:   COUNTRY
 SRVC.     Atlas Wireline:   SERVICE COMPANY
 DATE.        02-FEB-1992:   LOGDATE
 API .       490252250100:   API NUMBER
~CURVE INFORMATION
#MNEM.UNIT       API CODE    CURVE DESCRIPTION
#----------   ------------   ------------------------------
 DEPT.F                  :   
 GRR .GAPI   07 310 01 00:   GAMMA RAY
 RILD.OHMM   07 120 46 00:   INDUCTION LOG DEEP RESISTIVITY
 RILM.OHMM   07 120 44 00:   INDUCTION LOG MEDIUM RESISTIVITY
~PARAMETER INFORMATION
#MNEM.UNIT          VALUE    DESCRIPTION
#----------   ------------   ------------------------------
 PD  .                 GL:   PERMANENT DATUM
 EPD .F              5084:   ELEVATION PERMANENT DATUM
 LMF .                 KB:   LOG MEASURED FROM
 DAPD.F                10:   FEET ABOVE PERMANENT DATUM
 DMF .                 KB:   DRILLING MEASURED FROM
 EKB .F              5094:   KELLING BUSHING
 EDF .F              5093:   DRILLING FLOOR
 EGL .F              5084:   GROUND LEVEL
 DATE.        02-FEB-1982:   RUN DATE
 RUN .                  1:   RUN NUMBER
 DD  .F               980:   DEPTH DRILLER
 CS  .IN            8.625:   CASING SIZE
 BSD .F               980:   BIT SIZE AT DEPTH
 DFT .                AIR:   DRILLING FLUID TYPE
 LUN .            HL-6272:   LOGGING UNIT NUMBER
 LUL .             CASPER:   LOGGING UNIT LOCATION
 ENGI.       R. RASMLSSEN:   RECORDING ENGINEER
 WITN.          G. STRONG:   WITNESSED BY
 CLNT.            A2DTECH:   CLIENT CODE
 ORIG.           5" PRINT:   ORIGIN OF DATA
 UWI .       490252250100:   UNIQUE WELL ID
 DICO. A2D Technologies, Inc.:   DIGITIZING COMPANY
~OTHER INFORMATION
~A    DEPT      GRR      RILD       RILM   
# ...
  608.6000   131.9918     3.9927     4.1382
  608.7000   131.7414     4.0760     4.2354
  608.8000   131.4789     4.1151     4.3312
  608.9000   131.2404     4.1785     4.4117
  609.0000   130.9899     4.2628     4.4850
  609.1000   130.7394     4.3569     4.5840
  609.2000   130.6748     4.4346     4.6768
  609.3000   131.0180     4.5551     4.7590
  609.4000   131.8001     4.6693     4.8427
  609.5000   132.5455     4.7887     4.9320
  609.6000   133.7052     4.9014     5.0148
  609.7000   134.8272     5.0088     5.1032
  609.8000   135.8446     5.0989     5.1762
  609.9000   136.9122     5.2339     5.2478
  610.0000   138.1818     5.3421     5.3301
  610.1000   139.3976     5.4461     5.3627
  610.2000   140.2160     5.5261     5.3931
  610.3000   141.3880     5.5907     5.4249
  610.4000   142.5534     5.6528     5.4568
  610.5000   143.5151     5.6889     5.4773
  610.6000   144.2849     5.7189     5.4831
  610.7000   145.4763     5.7523     5.5163
  610.8000   146.1088     5.7859     5.5167
  610.9000   146.5515     5.8196     5.5172
  611.0000   146.8081     5.8492     5.4994
  611.1000   147.0030     5.8492     5.4800
  611.2000   146.9942     5.8810     5.4804
  611.3000   146.7065     5.8899     5.4809
  611.4000   146.0611     5.8899     5.4503
  611.5000   145.4698     5.9019     5.4193
  611.6000   144.8483     5.9310     5.4067
  611.7000   144.2262     5.9310     5.3951
  611.8000   143.9756     5.9310     5.3702
  611.9000   143.6943     5.9310     5.3707
  612.0000   143.9191     5.9310     5.3405
  612.1000   144.1757     5.9310     5.3344
  612.2000   144.4323     5.9310     5.3349
  612.3000   144.6152     5.9310     5.3354
  612.4000   144.6182     5.9310     5.3358
  612.5000   144.6215     5.9310     5.3362
  612.6000   144.3960     5.9103     5.3368
  612.7000   144.3242     5.8899     5.3371
  612.8000   144.0687     5.8899     5.3376
  612.9000   143.5646     5.8892     5.3380
  613.0000   143.0602     5.8492     5.3449
  613.1000   142.5184     5.8492     5.3761
  613.2000   142.0525     5.8278     5.3766
  613.3000   141.5485     5.7940     5.3769
  613.4000   141.0444     5.7604     5.3774
  613.5000   140.6263     5.7285     5.3908
  613.6000   140.3395     5.7285     5.4157
  613.7000   139.8092     5.7002     5.4162
  613.8000   140.5335     5.6672     5.4167
  613.9000   141.2967     5.6343     5.4170
  614.0000   141.9191     5.6016     5.4175
  614.1000   142.5213     5.5691     5.4180
  614.2000   143.2423     5.5330     5.4113
  614.3000   143.7667     5.5047     5.3814
  614.4000   144.0162     5.4728     5.3820
  614.5000   143.6817     5.4411     5.3565
  614.6000   143.0303     5.4002     5.3067
  614.7000   142.1749     5.3376     5.2461
  614.8000   141.1637     5.2704     5.1722
  614.9000   140.1485     5.2149     5.0550
  615.0000   139.3945     5.1333     4.9546
  615.1000   138.8394     5.0446     4.8834
  615.2000   138.3353     4.9480     4.7998
  615.3000   137.8313     4.8341     4.7175
  615.4000   137.4363     4.7161     4.6366
  615.5000   137.4394     4.6144     4.5558
  615.6000   137.4429     4.5278     4.4364
  615.7000   137.8636     4.4355     4.3506
  615.8000   138.8524     4.3422     4.2674
  615.9000   139.9028     4.2670     4.1834
  616.0000   140.7275     4.1908     4.0879
  616.1000   141.7224     4.1208     3.9932
  616.2000   142.3095     4.0678     3.8638
  616.3000   142.9574     4.0207     3.8259
  616.4000   143.5553     3.9741     3.7822
  616.5000   144.0654     3.9281     3.7389
  616.6000   144.5757     3.8825     3.7018
  616.7000   145.0861     3.8290     3.6807
  616.8000   145.6610     3.8112     3.6571
  616.9000   146.1060     3.7758     3.6390
  617.0000   146.6160     3.7321     3.6323
  617.1000   147.0040     3.6983     3.6227
  617.2000   147.3334     3.6977     3.6022
  617.3000   147.8204     3.6727     3.5817
  617.4000   148.1033     3.6549     3.5588
  617.5000   148.5609     3.6472     3.5590
  617.6000   148.8930     3.6472     3.5593
  617.7000   149.1495     3.6420     3.5497
  617.8000   149.4061     3.6220     3.5353
  617.9000   149.6333     3.6220     3.5356
  618.0000   149.6366     3.6220     3.5359
  618.1000   149.4061     3.6220     3.5362
  618.2000   148.9718     3.6220     3.5365
  618.3000   148.6020     3.6220     3.5368
  618.4000   148.2666     3.6220     3.5371
  618.5000   147.7275     3.6220     3.5373
  618.6000   146.9274     3.6220     3.5377
  618.7000   145.9727     3.6220     3.5379
  618.8000   144.9622     3.6326     3.5382
  618.9000   143.9509     3.6537     3.5489
  619.0000   143.0302     3.6751     3.5635
  619.1000   142.2315     3.6983     3.5659
  619.2000   141.1880     3.6983     3.5889
  619.3000   140.2090     3.7139     3.6081
  619.4000   139.1985     3.7355     3.6293
  619.5000   138.4799     3.7573     3.6507
  619.6000   138.0726     3.7792     3.6789
  619.7000   137.8691     3.8025     3.7195
  619.8000   137.8727     3.8446     3.7433
  619.9000   138.1273     3.8896     3.7635
  620.0000   138.5856     3.9223     3.8015
  620.1000   139.8574     3.9620     3.8344
  620.2000   141.5328     4.0276     3.8716
  620.3000   142.9507     4.0760     3.9339
  620.4000   143.9598     4.1225     3.9588
  620.5000   144.5611     4.1898     4.0235
  620.6000   145.3957     4.2490     4.0598
  620.7000   146.2541     4.2986     4.0963
  620.8000   146.6909     4.3439     4.1443
  620.9000   146.6939     4.3692     4.1896
  621.0000   146.6766     4.4303     4.2159
  621.1000   146.0944     4.4722     4.2622
  621.2000   145.8829     4.5246     4.2938
  621.3000   145.1388     4.5775     4.3464
  621.4000   144.1275     4.6310     4.4140
  621.5000   143.1163     4.6851     4.4695
  621.6000   142.1374     4.7489     4.5524
  621.7000   141.5671     4.7955     4.6283
  621.8000   140.6890     4.8516     4.6893
  621.9000   139.8487     4.9084     4.7596
  622.0000   139.0910     4.9658     4.8333
  622.1000   138.4767     5.0257     4.8900
  622.2000   138.2482     5.1260     4.9499
  622.3000   138.2518     5.1519     5.0055
  622.4000   138.2546     5.2023     5.0642
  622.5000   138.2576     5.2632     5.1236
  622.6000   138.2606     5.3247     5.1837
  622.7000   138.3413     5.3871     5.2394
  622.8000   138.5697     5.4567     5.2714
  622.9000   138.5730     5.5139     5.3311
  623.0000   139.0404     5.5784     5.3697
  623.1000   139.3677     5.6270     5.4013
  623.2000   139.6242     5.6701     5.4449
  623.3000   139.7970     5.7325     5.5031
  623.4000   139.8344     5.7685     5.5364
  623.5000   140.1062     5.8310     5.5681
  623.6000   140.3475     5.8741     5.6263
  623.7000   140.6041     5.9268     5.6731
  623.8000   140.7212     5.9842     5.7065
  623.9000   140.8140     6.0190     5.7463
  624.0000   141.0303     6.0559     5.8147
  624.1000   141.0334     6.0895     5.8484
  624.2000   141.2809     6.1251     5.8829
  624.3000   141.5372     6.1811     5.9378
  624.4000   141.7939     6.2399     5.9937
  624.5000   142.0506     6.2763     6.0358
  624.6000   142.2607     6.3136     6.1070
  624.7000   142.2637     6.3497     6.1782
  624.8000   142.5172     6.3868     6.2507
  624.9000   142.7739     6.4240     6.3241
  625.0000   143.1819     6.4615     6.3834
  625.1000   143.5898     6.4992     6.4209
  625.2000   143.8988     6.5371     6.4586
  625.3000   144.4060     6.5823     6.4592
  625.4000   144.7096     6.6136     6.4597
  625.5000   144.9193     6.6521     6.4602
  625.6000   145.1760     6.6909     6.4607
  625.7000   145.4325     6.7209     6.4534
  625.8000   145.6888     6.7209     6.4172
  625.9000   145.9545     6.7209     6.4178
  626.0000   146.5459     6.7209     6.4182
  626.1000   146.7616     6.7209     6.4188
  626.2000   147.0182     6.7031     6.4193
  626.3000   147.1606     6.6743     6.4117
  626.4000   147.2283     6.6743     6.3760
  626.5000   147.4697     6.6743     6.3766
  626.6000   147.4731     6.6743     6.3771
  626.7000   147.6949     6.6743     6.3776
