~VERSION INFORMATION
 VERS.                2.0:   CWLS LOG ASCII STANDARD - VERSION 2.0
 WRAP.                 NO:   ONE LINE PER DEPTH STEP
~WELL INFORMATION
#MNEM.UNIT      DATA TYPE    INFORMATION
#----------   ------------   ------------------------------
 STRT.F           20.0000:   START DEPTH
 STOP.F          468.0000:   STOP DEPTH
 STEP.F            0.1000:   STEP LENGTH
 NULL.          -999.2500:   NO VALUE
 COMP. LAWRENCE/ALLISON INC:   COMPANY
 WELL.    63-51 SX #10-10:   WELL
 FLD .             TEAPOT:   FIELD
 LOC .      S10 T38N R78W:   LOCATION
 CNTY.            NATRONA:   COUNTY
 STAT.            WYOMING:   STATE
 CTRY. UNITED STATES OF AMERICA:   COUNTRY
 SRVC.           Gearhart:   SERVICE COMPANY
 DATE.        01-OCT-1988:   LOGDATE
 API .       490251125100:   API NUMBER
~CURVE INFORMATION
#MNEM.UNIT       API CODE    CURVE DESCRIPTION
#----------   ------------   ------------------------------
 DEPT.F                  :   
 GRR .GAPI   07 310 01 00:   GAMMA RAY
 RILD.OHMM   07 120 46 00:   INDUCTION LOG DEEP RESISTIVITY
 RILM.OHMM   07 120 44 00:   INDUCTION LOG MEDIUM RESISTIVITY
~PARAMETER INFORMATION
#MNEM.UNIT          VALUE    DESCRIPTION
#----------   ------------   ------------------------------
 PD  .                 GL:   PERMANENT DATUM
 EPD .F              5157:   ELEVATION PERMANENT DATUM
 LMF .                 KB:   LOG MEASURED FROM
 DAPD.F                 5:   FEET ABOVE PERMANENT DATUM
 DMF .                 KB:   DRILLING MEASURED FROM
 EKB .F              5162:   KELLING BUSHING
 EGL .F              5157:   GROUND LEVEL
 DATE.        01-OCT-1988:   RUN DATE
 RUN .                  1:   RUN NUMBER
 DD  .F               475:   DEPTH DRILLER
 DL  .F               476:   DEPTH LOGGER
 BLI .F               468:   BOTTOM LOG INTERVAL
 TLI .F                20:   TOP LOG INTERVAL
 CS  .IN            9.625:   CASING SIZE
 CBD .F                45:   CASING BOTTOM DRILLER
 CBL .F                46:   CASING BOTTOM LOGGER
 BS  .IN             7.87:   BIT SIZE
 BSD .F               475:   BIT SIZE AT DEPTH
 TLAB.HRS            1630:   TIME LOGGER AT BOTTOM
 MRT .F                75:   MAXIMUM RECORDED TEMPERATURE
 LUN .               7597:   LOGGING UNIT NUMBER
 LUL .           GILLETTE:   LOGGING UNIT LOCATION
 ENGI.              BENCK:   RECORDING ENGINEER
 WITN.             STRONG:   WITNESSED BY
 CLNT.            A2DTECH:   CLIENT CODE
 ORIG.           5" PRINT:   ORIGIN OF DATA
 UWI .       490251125100:   UNIQUE WELL ID
 DICO. A2D Technologies, Inc.:   DIGITIZING COMPANY
~OTHER INFORMATION
~A   DEPT       GRR      RILD       RILM   
# ...
  311.2000    96.8623    15.1932    14.7216
  311.3000    96.6773    15.1928    14.6371
  311.4000    96.2527    15.1286    14.5461
  311.5000    96.2535    15.0851    14.4699
  311.6000    95.8096    15.0618    14.3871
  311.7000    95.4803    14.9781    14.3046
  311.8000    95.2342    14.9777    14.2226
  311.9000    94.9418    14.9773    14.1388
  312.0000    94.4245    14.9769    13.9826
  312.1000    94.1906    14.9488    13.8814
  312.2000    93.9445    14.8631    13.8019
  312.3000    93.6984    14.7656    13.7228
  312.4000    93.4524    14.7653    13.6442
  312.5000    93.2061    14.7648    13.5660
  312.6000    92.9598    14.7323    13.4276
  312.7000    92.7138    14.6601    13.3593
  312.8000    92.5972    14.6597    13.3342
  312.9000    92.5979    14.5833    13.2578
  313.0000    92.5984    14.5558    13.1706
  313.1000    92.5992    14.5554    13.1064
  313.2000    92.5997    14.5381    13.0313
  313.3000    92.7419    14.4522    12.9847
  313.4000    92.9892    14.3722    12.9734
  313.5000    93.2366    14.3498    12.8924
  313.6000    93.5182    14.3088    12.8252
  313.7000    93.9438    14.2481    12.8008
  313.8000    94.4379    14.2456    12.7684
  313.9000    94.9319    14.1640    12.6951
  314.0000    95.4629    14.1467    12.6200
  314.1000    96.2694    14.1463    12.6195
  314.2000    96.4947    14.1459    12.6190
  314.3000    97.0742    14.1455    12.5829
  314.4000    97.6000    14.1450    12.5293
  314.5000    97.8474    14.1447    12.5288
  314.6000    98.1045    14.1443    12.5282
  314.7000    98.5791    14.1438    12.4715
  314.8000    98.8947    14.1434    12.4392
  314.9000    99.1419    14.1430    12.4387
  315.0000    99.3282    14.2161    12.4382
  315.1000    99.3313    14.2972    12.4376
  315.2000    99.5785    14.3787    12.4371
  315.3000    99.4449    14.4606    12.4366
  315.4000    99.3307    14.5460    12.4361
  315.5000    99.2580    14.6259    12.4355
  315.6000    99.0119    14.7093    12.4350
  315.7000    98.7219    14.8352    12.4988
  315.8000    98.5197    14.9828    12.5219
  315.9000    98.2736    15.0700    12.5214
  316.0000    98.0274    15.2430    12.5350
  316.1000    97.7814    15.4178    12.6088
  316.2000    97.5036    15.6441    12.6083
  316.3000    97.2891    15.8561    12.6078
  316.4000    97.0430    15.9611    12.6783
  316.5000    96.7969    16.2798    12.8231
  316.6000    96.5509    16.5977    12.9696
  316.7000    96.2852    16.8622    13.1179
  316.8000    96.2858    17.1844    13.2679
  316.9000    96.1178    17.7261    13.5047
  317.0000    95.8717    18.2679    13.8771
  317.1000    95.6256    18.8096    14.3903
  317.2000    95.3722    19.3514    14.9035
  317.3000    95.1333    19.8931    15.4167
  317.4000    95.0681    20.4349    15.9299
  317.5000    95.0687    20.9766    16.4431
  317.6000    95.0693    21.5184    16.9563
  317.7000    95.0650    22.0601    17.4695
  317.8000    94.8189    22.6018    17.9827
  317.9000    94.7658    23.1436    18.4959
  318.0000    94.6321    23.6853    19.0091
  318.1000    94.3860    24.2271    19.5223
  318.2000    94.1059    24.7688    20.0576
  318.3000    93.2416    25.3106    20.9638
  318.4000    92.6266    25.8523    21.9109
  318.5000    91.7407    26.3941    22.8580
  318.6000    90.6665    26.9358    23.8051
  318.7000    89.4626    27.4775    24.7522
  318.8000    88.3592    28.0193    25.6993
  318.9000    87.2724    28.5610    26.6464
  319.0000    86.0393    29.1028    27.5935
  319.1000    84.9068    29.6445    28.5406
  319.2000    83.8378    30.1863    29.4877
  319.3000    82.2553    30.7280    30.4348
  319.4000    81.1076    31.2698    31.3819
  319.5000    80.3876    31.8115    32.3290
  319.6000    80.1197    32.3532    33.2761
  319.7000    80.1741    32.8950    34.2232
  319.8000    80.4263    33.4367    35.1703
  319.9000    80.4269    33.9785    36.1174
  320.0000    80.4275    34.6090    37.0645
  320.1000    80.4281    34.7740    38.0116
  320.2000    80.4287    35.0928    38.9587
  320.3000    80.4219    35.4948    39.9058
  320.4000    80.1759    35.8747    40.8529
  320.5000    79.9298    36.1010    41.8000
  320.6000    79.6837    36.4708    42.6425
  320.7000    79.4375    36.7501    43.3144
  320.8000    79.1525    37.0494    43.8112
  320.9000    78.2957    37.4736    44.5665
  321.0000    77.8809    37.9240    45.3347
  321.1000    77.3881    38.3377    45.8305
  321.2000    76.8050    38.7775    46.0906
  321.3000    76.0970    39.1139    46.3344
  321.4000    75.5506    39.3920    46.3320
  321.5000    75.5512    39.8409    46.3304
  321.6000    75.7131    40.0683    46.4865
  321.7000    76.1656    40.2967    46.6540
  321.8000    76.9061    40.5263    46.6521
  321.9000    77.6910    40.6871    46.6499
  322.0000    78.3879    40.7013    46.6481
  322.1000    78.9550    40.9727    46.6461
  322.2000    79.2196    40.9718    46.6442
  322.3000    79.1639    40.9706    46.6422
  322.4000    78.9154    40.9694    46.6401
  322.5000    78.4272    40.9973    46.6383
  322.6000    78.1202    41.2571    46.6363
  322.7000    77.7472    41.2561    46.6343
  322.8000    77.3228    41.2550    46.6323
  322.9000    77.0766    41.2538    46.6304
  323.0000    76.7818    41.2526    46.6284
  323.1000    76.3867    41.2514    46.6264
  323.2000    76.0330    41.2503    46.7669
  323.3000    75.7869    41.2491    47.0323
  323.4000    75.5408    41.2480    47.3164
  323.5000    75.2581    41.2468    47.9510
  323.6000    75.0486    41.2456    48.1761
  323.7000    74.9539    41.2445    48.4497
  323.8000    74.9545    41.2433    48.7248
  323.9000    74.9551    41.2422    49.0012
  324.0000    74.9558    41.2410    49.3115
  324.1000    75.1786    41.2398    49.5593
  324.2000    75.4260    41.2384    49.8406
  324.3000    75.5682    41.2375    50.0053
  324.4000    75.6152    41.2363    50.0032
  324.5000    75.8748    41.2352    50.0010
  324.6000    76.1099    41.2061    49.9990
  324.7000    76.5331    40.9427    49.9969
  324.8000    76.7927    40.9417    49.9948
  324.9000    76.7933    40.7896    49.9926
  325.0000    76.7939    40.6514    49.9905
  325.1000    76.7945    40.6503    49.7042
  325.2000    76.7951    40.6491    49.4196
  325.3000    76.6662    40.4304    49.1366
  325.4000    76.3494    40.3610    48.8550
  325.5000    75.8688    40.2520    48.5748
  325.6000    75.5763    40.0748    48.2472
  325.7000    75.3765    40.0737    48.0200
  325.8000    74.9887    40.0726    47.7450
  325.9000    74.5789    40.0714    47.4714
  326.0000    74.3329    39.9501    47.2303
  326.1000    74.0526    39.7213    47.2280
  326.2000    74.0532    39.5064    46.9901
  326.3000    74.0537    39.5052    46.7209
  326.4000    74.1496    39.3198    46.4532
  326.5000    74.4338    39.2253    46.1870
  326.6000    74.9717    39.1463    45.9058
  326.7000    75.4216    38.9473    45.6594
  326.8000    75.7496    38.9460    45.3979
  326.9000    76.2120    38.7505    45.0187
  327.0000    76.8550    38.5287    44.5639
  327.1000    77.1121    38.3081    44.3072
  327.2000    77.8238    38.0888    44.0549
  327.3000    78.2077    37.8566    43.6140
  327.4000    78.6941    37.8556    43.2457
  327.5000    79.3738    37.7037    42.9979
  327.6000    79.8681    37.4878    42.7513
  327.7000    80.3620    37.2732    42.4618
  327.8000    80.8562    37.0583    42.4603
  327.9000    81.2184    36.8477    42.4586
  328.0000    81.5389    36.6369    42.4568
  328.1000    82.0328    36.4272    42.4817
  328.2000    82.6151    36.2186    42.7531
  328.3000    82.8183    36.0112    42.7515
  328.4000    82.9215    35.7672    42.7498
  328.5000    83.0077    35.7663    42.7479
  328.6000    83.2281    35.6473    42.7872
  328.7000    83.2288    35.4432    43.0465
  328.8000    83.0143    35.2620    43.2745
  328.9000    82.9246    35.2609    43.3474
  329.0000    82.7298    35.0849    43.3455
  329.1000    82.2761    34.8841    43.2883
  329.2000    82.0104    34.7639    43.0375
  329.3000    81.5566    34.7300    42.5532
