~VERSION INFORMATION
 VERS.                2.0:   CWLS LOG ASCII STANDARD - VERSION 2.0
 WRAP.                 NO:   ONE LINE PER DEPTH STEP
~WELL INFORMATION
#MNEM.UNIT      DATA TYPE    INFORMATION
#----------   ------------   ------------------------------
 STRT.F           30.0000:   START DEPTH
 STOP.F          440.0000:   STOP DEPTH
 STEP.F            0.5000:   STEP LENGTH
 NULL.          -999.2500:   NO VALUE
 COMP. FENIX & SCISSON INC:   COMPANY
 WELL.    54 SX 10 #54-10:   WELL
 FLD .             TEAPOT:   FIELD
 LOC .      S10 T38N R78W:   LOCATION
 CNTY.            NATRONA:   COUNTY
 STAT.            WYOMING:   STATE
 CTRY. UNITED STATES OF AMERICA:   COUNTRY
 SRVC.            Unknown:   SERVICE COMPANY
 DATE.        10-NOV-1978:   LOGDATE
 API .       490251072800:   API NUMBER
~CURVE INFORMATION
#MNEM.UNIT       API CODE    CURVE DESCRIPTION
#----------   ------------   ------------------------------
 DEPT.F                  :   
 CALD.IN     45 280 60 00:   CALIPER
 GRD .GAPI   45 310 01 00:   GAMMA RAY FROM DENSITY LOG
 DPHI.DEC    45 890 12 00:   DENSITY POROSITY SANDSTONE
 RHOB.G/C3   45 350 01 00:   BULK DENSITY
 CORR.G/C3   45 356 01 00:   DENSITY CORRECTION
 SPR .MV     05 010 01 00:   SPONTANEOUS POTENTIAL FROM RES.
 ILD .OHMM   05 120 46 00:   INDUCTION LOG DEEP
 SN  .OHMM   05 040 16 00:   SHORT NORMAL 16"
~PARAMETER INFORMATION
#MNEM.UNIT          VALUE    DESCRIPTION
#----------   ------------   ------------------------------
 PD  .                 GL:   PERMANENT DATUM
 EPD .F              5196:   ELEVATION PERMANENT DATUM
 LMF .                 KB:   LOG MEASURED FROM
 DAPD.F                 4:   FEET ABOVE PERMANENT DATUM
 DMF .                 KB:   DRILLING MEASURED FROM
 EKB .F              5200:   KELLING BUSHING
 EGL .F              5196:   GROUND LEVEL
 DATE.           11-10-78:   RUN DATE
 RUN .                  1:   RUN NUMBER
 DD  .F               435:   DEPTH DRILLER
 DL  .F               442:   DEPTH LOGGER
 BLI .F               436:   BOTTOM LOG INTERVAL
 TLI .F                50:   TOP LOG INTERVAL
 CS  .IN            8.625:   CASING SIZE
 CBD .F                40:   CASING BOTTOM DRILLER
 CBL .F                50:   CASING BOTTOM LOGGER
 BS  .IN            7.875:   BIT SIZE
 BSD .F               435:   BIT SIZE AT DEPTH
 DFT .            SEA MUD:   DRILLING FLUID TYPE
 DFD .                8.7:   DRILLING FLUID DENSITY
 DFV .                 34:   DRILLING FLUID VISCOSITY
 DFPH.                 10:   DRILLING FLUID PH
 MSS .            MUD PIT:   MUD SAMPLE SOURCE
 RMS .OHMM             .4:   RESISTIVITY MUD SAMPLE
 MST .F                57:   MUD SAMPLE TEMPERATURE
 RMF .OHMM            .34:   RESISTIVITY MUD FILTRATE SAMPLE
 MFST.F                64:   MUD FILTRATE SAMPLE TEMPERATURE
 RMC .OHMM            .44:   RESISTIVITY MUD CAKE
 MCST.F                60:   MUD CAKE SAMPLE TEMPERATURE
 MFSS.            MUD PIT:   MUD FILTRATE SAMPLE SOURCE
 MCSS.            MUD PIT:   MUD CAKE SAMPLE SOURCE
 RMB .OHMM            .36:   RESISTIVITY MUD AT BHT
 BHT .F                72:   BOTTOM HOLE TEMPERATURE
 TCS .HRS               1:   TIME CURCULATED STOPPED
 MRT .F                70:   MAXIMUM RECORDED TEMPERATURE
 LUN .               3006:   LOGGING UNIT NUMBER
 LUL .               CASP:   LOGGING UNIT LOCATION
 ENGI.             MILLER:   RECORDING ENGINEER
 WITN.           DINSMORE:   WITNESSED BY
 CLNT.            A2DTECH:   CLIENT CODE
 ORIG.           5" PRINT:   ORIGIN OF DATA
 UWI .       490251072800:   UNIQUE WELL ID
 DICO. A2D Technologies, Inc.:   DIGITIZING COMPANY
~OTHER INFORMATION
~A   DEPT     CALD         GRD      DPHI       RHOB       CORR        SPR        ILD         SN   
# ...
  111.0000     7.9719   102.7031     0.1448     2.4373     0.0059   -45.5345     9.2270     8.4348
  111.5000     7.9759   101.4209     0.1457     2.4467     0.0056   -45.8994     9.2872     8.5518
  112.0000     7.9799   100.6525     0.1466     2.4452     0.0053   -46.2477     9.3477     8.6702
  112.5000     7.9839   103.3394     0.1439     2.4439     0.0050   -46.1259     9.4086     8.7903
  113.0000     7.9882   106.0571     0.1403     2.4443     0.0047   -45.9684     9.4483     8.9121
  113.5000     7.9823   107.2520     0.1367     2.4449     0.0045   -45.8559     9.4634     9.0239
  114.0000     7.9728   106.8485     0.1336     2.4505     0.0042   -45.8576     9.4786     9.0395
  114.5000     7.9632   105.8393     0.1339     2.4566     0.0044   -45.8573     9.4937     9.0557
  115.0000     7.9536   103.7470     0.1342     2.4610     0.0055   -45.8602     9.5089     9.0715
  115.5000     7.9494   101.6924     0.1351     2.4615     0.0067   -46.0046     9.5241     9.0874
  116.0000     7.9493   100.1457     0.1371     2.4599     0.0079   -46.3626     9.5394     9.1034
  116.5000     7.9495    99.9801     0.1391     2.4565     0.0091   -46.7167     9.5547     9.1194
  117.0000     7.9604   101.6313     0.1400     2.4532     0.0103   -47.0744     9.5699     9.1354
  117.5000     7.9916   104.0832     0.1376     2.4499     0.0115   -47.2366     9.5852     9.1514
  118.0000     8.0229   107.8184     0.1314     2.4512     0.0125   -47.1878     9.6006     9.1675
  118.5000     8.0330   109.0352     0.1252     2.4598     0.0141   -46.8629     9.6159     9.1835
  119.0000     8.0383   106.3224     0.1251     2.4683     0.0156   -46.5411     9.6313     9.1997
  119.5000     8.0436   104.4375     0.1250     2.4764     0.0171   -46.2196     9.6467     9.2158
  120.0000     8.0486   103.9822     0.1250     2.4769     0.0187   -46.0086     9.6622     9.2320
  120.5000     8.0527   103.5241     0.1249     2.4771     0.0202   -45.9135     9.6776     9.2483
  121.0000     8.0623   102.9145     0.1248     2.4774     0.0218   -45.8184     9.6931     9.2702
  121.5000     8.0719   102.3262     0.1247     2.4776     0.0233   -45.7232     9.7086     9.2494
  122.0000     8.0814   102.0245     0.1246     2.4779     0.0249   -45.6276     9.7242     9.2111
  122.5000     8.0883   101.6732     0.1245     2.4781     0.0264   -45.5330     9.7397     9.1729
  123.0000     8.0868   105.0195     0.1258     2.4784     0.0278   -45.4820     9.7553     9.1350
  123.5000     8.0855   108.8722     0.1287     2.4784     0.0264   -45.5725     9.7710     9.0971
  124.0000     8.0842   111.0334     0.1317     2.4736     0.0250   -45.6585     9.7913     9.0595
  124.5000     8.0829   112.2376     0.1320     2.4689     0.0236   -45.7444     9.7264     9.0220
  125.0000     8.0815   111.0733     0.1309     2.4648     0.0223   -45.8302     9.6117     8.9846
  125.5000     8.0802   106.9028     0.1287     2.4664     0.0209   -45.9160     9.4983     8.9474
  126.0000     8.0789   102.8427     0.1276     2.4679     0.0195   -46.0019     9.3863     8.9104
  126.5000     8.0776   100.9291     0.1271     2.4694     0.0182   -46.0877     9.2756     8.8735
  127.0000     8.0763   105.7502     0.1249     2.4709     0.0168   -46.1736     9.1662     8.8368
  127.5000     8.0750   110.0982     0.1213     2.4743     0.0160   -46.2594     9.0581     8.8002
  128.0000     8.0736   111.7494     0.1193     2.4795     0.0163   -46.3452     8.9512     8.7638
  128.5000     8.0723   110.8485     0.1194     2.4829     0.0167   -46.4312     8.8456     8.7275
  129.0000     8.0711   108.1511     0.1195     2.4860     0.0170   -46.5176     8.7413     8.6914
  129.5000     8.0697   106.2930     0.1196     2.4865     0.0173   -46.6080     8.6382     8.6554
  130.0000     8.0633   105.2055     0.1197     2.4863     0.0176   -46.6471     8.5363     8.6196
  130.5000     8.0305   105.5917     0.1199     2.4862     0.0179   -45.9044     8.4356     8.5839
  131.0000     7.9980   106.2025     0.1200     2.4860     0.0182   -43.3062     8.3361     8.5483
  131.5000     7.9655   106.7710     0.1201     2.4859     0.0186   -40.2399     8.2378     8.5129
  132.0000     7.9331   107.1249     0.1193     2.4857     0.0189   -40.1944     8.1406     8.4777
  132.5000     7.9007   108.4114     0.1174     2.4857     0.0192   -40.2880     8.0446     8.4426
  133.0000     7.8684   111.0648     0.1156     2.4896     0.0195   -40.2362     7.9497     8.4077
  133.5000     7.8498   112.3464     0.1157     2.4935     0.0199   -40.0215     7.8560     8.3417
  134.0000     7.8499   104.9437     0.1169     2.4962     0.0185   -39.8082     7.7633     8.2450
  134.5000     7.8454   102.3552     0.1239     2.4900     0.0164   -39.5941     7.6717     8.1489
  135.0000     7.8242    99.3504     0.1340     2.4775     0.0143   -39.3802     7.5812     8.0541
  135.5000     7.8035    99.0260     0.1442     2.4651     0.0121   -39.1660     7.4918     7.9605
  136.0000     7.7829   101.3688     0.1470     2.4527     0.0148   -38.9516     7.4035     7.8680
  136.5000     7.7622   103.9392     0.1460     2.4403     0.0182   -38.7584     7.3161     7.8022
  137.0000     7.7417   106.5472     0.1424     2.4389     0.0215   -38.7485     7.2298     7.8916
  137.5000     7.7210   107.3197     0.1425     2.4419     0.0249   -38.7420     7.1900     7.9929
  138.0000     7.7109   105.6986     0.1437     2.4484     0.0279   -38.7348     7.3217     8.0955
  138.5000     7.7109   103.4310     0.1447     2.4483     0.0279   -38.7275     7.3183     8.1994
  139.0000     7.7104   101.0582     0.1447     2.4474     0.0278   -38.7202     7.4342     8.3046
  139.5000     7.6831   101.1861     0.1447     2.4464     0.0278   -38.7129     7.5159     8.4112
  140.0000     7.6529   102.0560     0.1447     2.4454     0.0278   -38.7056     7.5984     8.4666
  140.5000     7.6225   102.9371     0.1480     2.4444     0.0278   -38.6983     7.6819     8.4534
  141.0000     7.5930   103.5011     0.1524     2.4417     0.0278   -38.6910     7.8019     8.4388
  141.5000     7.6080   103.4102     0.1567     2.4355     0.0279   -38.6837     7.7923     8.4241
  142.0000     7.6260   103.3093     0.1586     2.4294     0.0304   -38.6764     7.7749     8.4095
  142.5000     7.6436   104.4228     0.1555     2.4232     0.0330   -38.6691     7.7576     8.3943
  143.0000     7.6771   105.8446     0.1499     2.4219     0.0357   -38.6618     7.7404     8.3490
  143.5000     7.7208   107.2795     0.1444     2.4297     0.0377   -38.6544     7.7232     8.2871
  144.0000     7.7991   108.6394     0.1389     2.4427     0.0351   -38.6471     7.7060     8.2257
  144.5000     7.8849   108.4376     0.1333     2.4558     0.0323   -38.6398     7.6888     8.1647
  145.0000     7.9709   108.1694     0.1309     2.4642     0.0296   -38.6325     7.6718     8.1042
  145.5000     8.0572   107.9070     0.1303     2.4689     0.0268   -38.6252     7.6179     8.0441
  146.0000     8.1113   107.6491     0.1298     2.4692     0.0261   -38.6179     7.5139     7.9845
  146.5000     8.1480   107.3766     0.1295     2.4695     0.0273   -38.6106     7.4112     7.9258
  147.0000     8.1845   107.9023     0.1294     2.4699     0.0285   -38.6033     7.2937     7.8507
  147.5000     8.2207   108.8073     0.1292     2.4703     0.0297   -38.5960     7.0576     7.6593
  148.0000     8.2459   109.4461     0.1306     2.4707     0.0308   -38.5887     6.8291     7.4719
  148.5000     8.2348   109.1795     0.1436     2.4665     0.0320   -38.5814     6.6081     7.2892
  149.0000     8.2158   107.8808     0.1538     2.4541     0.0332   -38.5740     6.3941     7.1113
  149.5000     8.1655   105.4252     0.1586     2.4387     0.0366   -38.5666     6.1615     6.9374
  150.0000     8.1170   103.5252     0.1493     2.4232     0.0422   -38.5583     6.1939     6.7679
  150.5000     8.0686   103.4920     0.1388     2.4360     0.0479   -38.6550     6.2419     6.5659
  151.0000     8.0201   104.1713     0.1284     2.4519     0.0536   -38.7887     6.2902     6.5659
