~VERSION INFORMATION
 VERS.                2.0:   CWLS LOG ASCII STANDARD - VERSION 2.0
 WRAP.                 NO:   ONE LINE PER DEPTH STEP
~WELL INFORMATION
#MNEM.UNIT      DATA TYPE    INFORMATION
#----------   ------------   ------------------------------
 STRT.F            0.0000:   START DEPTH
 STOP.F          412.0000:   STOP DEPTH
 STEP.F            0.5000:   STEP LENGTH
 NULL.          -999.2500:   NO VALUE
 COMP. DEPARTMENT OF ENERGY:   COMPANY
 WELL. 65-24 SXS C-3 #65-3:   WELL
 FLD .        TEAPOT EAST:   FIELD
 LOC .       S3 T38N R78W:   LOCATION
 CNTY.            NATRONA:   COUNTY
 STAT.            WYOMING:   STATE
 CTRY. UNITED STATES OF AMERICA:   COUNTRY
 SRVC.      Dresser Atlas:   SERVICE COMPANY
 DATE.        30-JUN-1985:   LOGDATE
 API .       490251134700:   API NUMBER
~CURVE INFORMATION
#MNEM.UNIT       API CODE    CURVE DESCRIPTION
#----------   ------------   ------------------------------
 DEPT.F                  :   
 CALD.IN     45 280 60 00:   CALIPER FROM DENSITY LOG
 CNC .DEC    42 890 03 00:   NEUTRON POROSITY SANDSTONE
 CORR.G/C3   45 356 01 00:   DENSITY CORRECTION
 PORD.DEC    45 890 12 00:   POROSITY DENSITY SANDSTONE
 DEN .G/C3   45 350 01 00:   COMPENSATED BULK DENSTIY
 GRR .GAPI   07 310 01 00:   GAMMA RAY
 RILD.OHMM   07 120 46 00:   INDUCTION LOG DEEP RESISTIVITY
 RILM.OHMM   07 120 44 00:   INDUCTION LOG MEDIUM RESISTIVITY
~PARAMETER INFORMATION
#MNEM.UNIT          VALUE    DESCRIPTION
#----------   ------------   ------------------------------
 PD  .                 GL:   PERMANENT DATUM
 EPD .F              5161:   ELEVATION PERMANENT DATUM
 LMF .                 GL:   LOG MEASURED FROM
 DMF .                 GL:   DRILLING MEASURED FROM
 EGL .F              5161:   GROUND LEVEL
 DATE.        30-JUN-1985:   RUN DATE
 RUN .              1-424:   RUN NUMBER
 DD  .F               424:   DEPTH DRILLER
 DL  .F               422:   DEPTH LOGGER
 BLI .F               414:   BOTTOM LOG INTERVAL
 CS  .IN                7:   CASING SIZE
 CBD .F                80:   CASING BOTTOM DRILLER
 CBL .F                85:   CASING BOTTOM LOGGER
 BS  .IN            4.875:   BIT SIZE
 BSD .F               424:   BIT SIZE AT DEPTH
 DFT .                OIL:   DRILLING FLUID TYPE
 TCS .HRS               3:   TIME CURCULATED STOPPED
 LUN .               6274:   LOGGING UNIT NUMBER
 LUL .           GILLETTE:   LOGGING UNIT LOCATION
 ENGI.             RAUTIO:   RECORDING ENGINEER
 WITN.             GROOMS:   WITNESSED BY
 CLNT.            A2DTECH:   CLIENT CODE
 ORIG.           5" PRINT:   ORIGIN OF DATA
 UWI .       490251134700:   UNIQUE WELL ID
 DICO. A2D Technologies, Inc.:   DIGITIZING COMPANY
~OTHER INFORMATION
~A    DEPT    CALD        CNC       CORR       PORD        DEN         GRR      RILD       RILM   
# ...
  202.5000    10.4138     0.2824     0.2145     0.6878  -999.2500   133.6777     2.8898     2.4577
  203.0000     9.6118     0.2677     0.1739     0.6883  -999.2500   128.3425     2.8908     2.5596
  203.5000     8.7191     0.2440     0.1541     0.6895  -999.2500   123.4910     2.9731     2.7256
  204.0000     9.6418     0.2337     0.2069     0.6973  -999.2500   120.7671     3.1439     2.9227
  204.5000    10.2902     0.2648     0.2145     0.6876  -999.2500   125.6420     3.3969     3.1123
  205.0000    11.2299     0.2738     0.1722     0.6803  -999.2500   130.2130     3.7429     3.2912
  205.5000    10.5793     0.2545     0.1586     0.6976  -999.2500   131.7731     4.0696     3.4819
  206.0000    11.8348     0.2412     0.1571     0.6990  -999.2500   132.3640     4.3637     3.7846
  206.5000    14.4229     0.2410     0.2103     0.6990  -999.2500   129.0352     4.5825     4.0302
  207.0000    15.2383     0.2520     0.2699     0.6981  -999.2500   127.2231     4.7789     4.2618
  207.5000    13.7915     0.2587     0.3505     0.6524  -999.2500   127.8427     5.0536     4.4137
  208.0000    11.2593     0.2628     0.3912     0.5285  -999.2500   132.4137     5.2791     4.5078
  208.5000    10.5178     0.2643     0.3444     0.3890  -999.2500   132.7293     5.4965     4.6038
  209.0000    10.3210     0.2598     0.3701     0.2032     2.0987   130.0084     5.6530     4.5698
  209.5000    10.1995     0.2549     0.3958     0.1662     2.2901   127.2845     5.6939     4.5107
  210.0000    10.1220     0.2498     0.4094     0.1477     2.4002   123.0419     5.6556     4.4801
  210.5000    10.1390     0.2452     0.3604     0.2278     2.2953   123.3575     5.6183     4.3884
  211.0000    10.1692     0.2449     0.3187     0.2819     2.2324   124.2810     5.5038     4.3590
  211.5000    10.1387     0.2485     0.2961     0.2966     2.1620   125.8125     5.3544     4.2402
  212.0000    10.1839     0.2522     0.2719     0.2624     2.1876   127.9518     5.2093     4.1820
  212.5000    10.5469     0.2536     0.2447     0.2397     2.2298   131.0030     5.0674     4.1206
  213.0000    10.9250     0.2475     0.2145     0.2605     2.2517   133.2887     4.8621     4.0129
  213.5000    11.1971     0.2505     0.1782     0.2811     2.2027   135.2847     4.6324     3.8766
  214.0000    11.3519     0.2547     0.2508     0.3152     2.1252   135.2964     4.2925     3.7187
  214.5000    11.4691     0.2553     0.2779     0.3245     2.0987   134.3962     3.9409     3.5180
  215.0000    11.5295     0.2541     0.2221     0.2788     2.1590   133.1921     3.5601     3.2821
  215.5000    11.6504     0.2535     0.1601     0.3049     2.1891   134.1156     3.3220     2.9916
  216.0000    12.2705     0.2544     0.2568     0.3192     2.1356   136.8997     3.1828     2.6462
  216.5000    12.7091     0.2637     0.3399     0.3485     2.1017   137.4854     3.0791     2.4860
  217.0000    12.8300     0.2612     0.3565     0.3830     2.0769   135.6734     2.9954     2.4350
  217.5000    12.7239     0.2470     0.3429     0.4116     2.0150   131.7337     2.9962     2.5043
  218.0000    12.1182     0.2298     0.3232     0.5025     2.0008   126.2743     3.0181     2.6483
  218.5000    10.4392     0.2500     0.3127     0.5101     2.0023   125.3741     3.0826     2.8800
  219.0000     8.1697     0.2587     0.3353     0.4130     2.0023   126.9544     3.1703     3.1382
  219.5000     8.9305     0.2617     0.3625     0.2804     2.0023   132.3913     3.3525     3.4048
  220.0000     9.8033     0.2587     0.3656     0.1921     2.1106   136.3543     3.5948     3.6257
  220.5000     9.7881     0.2537     0.3384     0.2024     2.3580   136.9739     3.8815     3.8075
  221.0000     9.9089     0.2472     0.3051     0.2936     2.2728   134.5540     4.1942     3.9159
  221.5000     9.9542     0.2423     0.3082     0.3479     2.0965   133.9574     4.4631     3.9716
  222.0000     9.9994     0.2417     0.3144     0.3633     2.0490   137.0091     4.6222     4.0281
  222.5000    10.1051     0.2417     0.3308     0.3166     2.0987   136.4157     4.7209     4.0291
  223.0000    10.0743     0.2459     0.3444     0.2533     2.1636   135.5126     4.6894     4.0299
  223.5000     9.4873     0.2564     0.3474     0.2188     2.2094   134.6154     4.6907     4.0307
  224.0000     8.4556     0.2531     0.2719     0.1360     2.3014   126.1164     4.6595     4.0315
  224.5000     8.4101     0.2421     0.2568     0.1269     2.4363   127.0400     4.6935     4.0323
  225.0000     8.3948     0.2391     0.2598     0.1275     2.4401   130.6991     4.6948     3.9636
  225.5000     8.3796     0.2382     0.2825     0.1401     2.3986   135.3678     4.6635     3.9231
  226.0000     8.3794     0.2443     0.3395     0.1758     2.3655   138.9321     4.6321     3.8699
  226.5000     8.3944     0.2539     0.3580     0.1800     2.3519   140.4635     4.5889     3.8169
  227.0000     8.4094     0.2584     0.3051     0.1461     2.3904   139.2594     4.5709     3.7131
  227.5000     8.4092     0.2542     0.2689     0.1370     2.4250   137.7513     4.4468     3.6941
  228.0000     8.4393     0.2457     0.2961     0.1602     2.3775   136.8511     4.3562     3.6125
  228.5000     8.4543     0.2429     0.3202     0.1850     2.3444   138.0790     4.2975     3.5615
  229.0000     8.4693     0.2503     0.3353     0.1904     2.3353   139.6131     4.2096     3.5147
  229.5000     8.4843     0.2535     0.3459     0.1790     2.3534   141.1445     4.1239     3.4912
  230.0000     8.4992     0.2477     0.3243     0.1728     2.3647   139.6364     4.0683     3.4437
  230.5000     8.4688     0.2438     0.2704     0.1930     2.3331   134.7849     3.9854     3.4361
  231.0000     8.4536     0.2431     0.2598     0.2166     2.2909   133.2766     3.9867     3.4211
  231.5000     8.4080     0.2449     0.2749     0.2256     2.2719   133.6170     4.0156     3.3981
  232.0000     8.3322     0.2509     0.2976     0.2280     2.2788   136.9505     4.0447     3.3484
  232.5000     8.2261     0.2573     0.3127     0.2125     2.3203   137.2633     3.9899     3.2605
  233.0000     8.1050     0.2636     0.2870     0.1769     2.3836   135.4542     3.8816     3.1496
  233.5000     8.0746     0.2579     0.2475     0.1452     2.4205   134.8550     3.7240     2.9384
  234.0000     8.0744     0.2533     0.2326     0.1340     2.4288   134.8697     3.4682     2.6661
  234.5000     8.1045     0.2653     0.2447     0.1517     2.4047   135.7933     3.1318     2.4529
  235.0000     8.1346     0.2698     0.2523     0.1791     2.3286   138.5434     3.0047     2.4027
  235.5000     8.1812     0.2689     0.2659     0.2072     2.2534   141.8985     2.9435     2.4884
  236.0000     8.2402     0.2680     0.2900     0.2525     2.1658   143.7310     2.8835     2.5238
  236.5000     8.2249     0.2674     0.3142     0.2794     2.2012   141.9190     2.8052     2.4894
  237.0000     8.1643     0.2661     0.3263     0.1730     2.2969   141.0208     2.6908     2.3550
  237.5000     8.1490     0.2658     0.3182     0.1258     2.4717   141.9472     2.5554     2.1219
  238.0000     8.1640     0.2748     0.2931     0.0977     2.5192   142.5668     2.3598     1.8594
  238.5000     8.1638     0.2984     0.2659     0.0843     2.5177   142.8825     2.1866     1.6838
  239.0000     8.2393     0.3198     0.2341     0.1033     2.4732   142.5902     2.0262     1.5740
  239.5000     8.5045     0.2998     0.1873     0.1623     2.3736   141.9939     1.9439     1.5525
  240.0000     9.3434     0.2941    -0.0242     0.5332     2.0689   138.2371     1.9043     1.6191
  240.5000    10.1602     0.2876     0.0589     0.5996     2.0000   137.7621     1.8916     1.7242
  241.0000    10.6895     0.2795     0.1511     0.6658     2.0000   138.3817     1.9321     1.8617
  241.5000     9.9178     0.2723     0.2115     0.6848     2.0000   135.9647     2.0010     1.9850
  242.0000     7.4517     0.2683     0.2825     0.5261     2.0038   133.5447     2.0868     2.1260
  242.5000     7.4213     0.2653     0.4333     0.1069     2.3730   133.8604     2.2403     2.2017
