~VERSION INFORMATION
 VERS.                2.0:   CWLS LOG ASCII STANDARD - VERSION 2.0
 WRAP.                 NO:   ONE LINE PER DEPTH STEP
~WELL INFORMATION
#MNEM.UNIT      DATA TYPE    INFORMATION
#----------   ------------   ------------------------------
 STRT.F            0.0000:   START DEPTH
 STOP.F          547.0000:   STOP DEPTH
 STEP.F            0.1000:   STEP LENGTH
 NULL.          -999.2500:   NO VALUE
 COMP.     BROWN JOHN E&C:   COMPANY
 WELL.    NPR 3 #86-1-X-3:   WELL
 FLD .             TEAPOT:   FIELD
 LOC .       S3 T38N R78W:   LOCATION
 CNTY.            NATRONA:   COUNTY
 STAT.            WYOMING:   STATE
 CTRY. UNITED STATES OF AMERICA:   COUNTRY
 SRVC.     Atlas Wireline:   SERVICE COMPANY
 DATE.        09-FEB-1992:   LOGDATE
 API .       490252249800:   API NUMBER
~CURVE INFORMATION
#MNEM.UNIT       API CODE    CURVE DESCRIPTION
#----------   ------------   ------------------------------
 DEPT.F                  :   
 GRR .GAPI   07 310 01 00:   GAMMA RAY
 RFOC.OHMM   07 220 04 00:   RESISTIVITY FOCUSED LOG
 RILD.OHMM   07 120 46 00:   INDUCTION LOG DEEP RESISTIVITY
 RILM.OHMM   07 120 44 00:   INDUCTION LOG MEDIUM RESISTIVITY
 SPR .MV     07 010 01 00:   SPONTANEOUS POTENTIAL
~PARAMETER INFORMATION
#MNEM.UNIT          VALUE    DESCRIPTION
#----------   ------------   ------------------------------
 PD  .                 GL:   PERMANENT DATUM
 EPD .F              5145:   ELEVATION PERMANENT DATUM
 LMF .                 KB:   LOG MEASURED FROM
 DAPD.F                10:   FEET ABOVE PERMANENT DATUM
 DMF .                 KB:   DRILLING MEASURED FROM
 EKB .F              5155:   KELLING BUSHING
 EDF .F              5154:   DRILLING FLOOR
 EGL .F              5145:   GROUND LEVEL
 DATE.        09-FEB-1992:   RUN DATE
 RUN .                  1:   RUN NUMBER
 DD  .F               562:   DEPTH DRILLER
 DL  .F               550:   DEPTH LOGGER
 BLI .F               547:   BOTTOM LOG INTERVAL
 CS  .IN            8.625:   CASING SIZE
 CBD .F               183:   CASING BOTTOM DRILLER
 CBL .F               181:   CASING BOTTOM LOGGER
 BS  .IN            7.875:   BIT SIZE
 BSD .F               562:   BIT SIZE AT DEPTH
 DFT .            GEL BAR:   DRILLING FLUID TYPE
 DFD .               17.8:   DRILLING FLUID DENSITY
 DFV .                 52:   DRILLING FLUID VISCOSITY
 DFPH.                  9:   DRILLING FLUID PH
 DFL .                5.2:   DRILLING FLUID LOSS
 MSS .           FLOWLINE:   MUD SAMPLE SOURCE
 RMS .OHMM           1.78:   RESISTIVITY MUD SAMPLE
 MST .F                68:   MUD SAMPLE TEMPERATURE
 RMF .OHMM          1.335:   RESISTIVITY MUD FILTRATE SAMPLE
 MFST.F                68:   MUD FILTRATE SAMPLE TEMPERATURE
 RMC .OHMM          2.225:   RESISTIVITY MUD CAKE
 MCST.F                68:   MUD CAKE SAMPLE TEMPERATURE
 MFSS.               MEAS:   MUD FILTRATE SAMPLE SOURCE
 MCSS.               MEAS:   MUD CAKE SAMPLE SOURCE
 TCS .HRS               3:   TIME CURCULATED STOPPED
 LUN .            HL 6274:   LOGGING UNIT NUMBER
 LUL .             CASPER:   LOGGING UNIT LOCATION
 ENGI.       P. RASMUSSEN:   RECORDING ENGINEER
 WITN.          G. STRONG:   WITNESSED BY
 CLNT.            A2DTECH:   CLIENT CODE
 ORIG.           5" PRINT:   ORIGIN OF DATA
 UWI .       490252249800:   UNIQUE WELL ID
 DICO. A2D Technologies, Inc.:   DIGITIZING COMPANY
~OTHER INFORMATION
~A    DEPT      GRR      RFOC       RILD       RILM        SPR   
# ...
  353.8000    56.3720    14.9966    16.7481    16.6641   -38.7397
  353.9000    55.8638    15.4195    16.9206    16.7548   -38.8661
  354.0000    55.2705    15.8575    17.0253    16.8519   -39.0467
  354.1000    54.5435    16.3801    17.3750    16.9495   -39.2404
  354.2000    54.0011    16.7647    17.5442    17.0477   -39.2495
  354.3000    53.5271    17.1599    17.7492    17.1597   -39.5434
  354.4000    52.8341    17.4818    17.9107    17.3736   -39.5439
  354.5000    52.2067    17.8523    18.0396    17.3731   -39.7044
  354.6000    52.0291    18.2289    18.2501    17.5204   -39.8468
  354.7000    52.4696    18.5710    18.4980    17.6163   -39.8772
  354.8000    51.8588    19.0069    18.4976    17.6825   -40.0036
  354.9000    51.3897    19.2290    18.5661    17.8629   -40.1503
  355.0000    50.8815    19.4537    18.6739    17.8623   -40.1508
  355.1000    50.6359    19.6118    18.7560    17.8619   -40.3125
  355.2000    50.6334    19.7255    18.7600    17.9361   -40.4537
  355.3000    50.6310    19.8166    18.8861    17.9859   -40.4848
  355.4000    50.6284    19.8158    18.9786    18.0183   -40.6112
  355.5000    50.6261    19.8150    19.0174    18.1109   -40.7573
  355.6000    50.8037    19.8141    19.0662    17.9844   -40.7578
  355.7000    50.9252    19.7443    19.1769    17.9839   -40.8395
  355.8000    50.9228    19.6745    19.2831    17.9097   -40.9659
  355.9000    50.9204    19.6509    19.2824    17.8579   -41.0612
  356.0000    50.9177    19.5359    19.2820    17.8259   -41.0618
  356.1000    51.1441    19.5349    19.2814    17.7222   -41.0625
  356.2000    51.5721    19.3535    19.2809    17.6089   -40.8494
  356.3000    51.9490    19.2623    19.2803    17.4256   -40.7620
  356.4000    52.1994    19.2168    19.2741    17.2241   -40.6492
  356.5000    52.4498    19.1044    19.1451    17.0248   -40.4615
  356.6000    52.7268    18.9926    19.0501    16.8563   -40.4489
  356.7000    52.9508    18.7721    18.9390    16.7582   -40.1612
  356.8000    53.0261    18.7274    18.8286    16.6501   -40.1617
  356.9000    53.1477    18.6614    18.6913    16.3940   -39.9976
  357.0000    53.3982    18.5094    18.4742    16.1748   -39.8612
  357.1000    53.6705    18.2942    18.2295    15.9876   -39.8618
  357.2000    54.2319    18.0813    18.0485    15.8025   -39.8480
  357.3000    54.4535    17.7680    17.8392    15.6121   -39.5615
  357.4000    54.8766    17.5409    17.6323    15.3102   -39.5620
  357.5000    55.3799    17.2176    17.4277    15.1542   -39.5626
  357.6000    55.8833    16.8589    17.2253    14.9789   -39.5632
  357.7000    56.4254    16.5660    16.9980    14.8876   -39.5309
  357.8000    57.5608    16.2778    16.8283    14.8398   -39.4135
  357.9000    58.2224    15.9033    16.6332    14.6804   -39.4143
  358.0000    58.9787    15.6089    16.4844    14.6800   -39.4148
  358.1000    59.4966    15.3380    16.3883    14.5321   -39.4154
  358.2000    59.7471    15.1064    16.2989    14.4758   -39.4160
  358.3000    59.9807    14.9654    16.2983    14.3973   -39.4166
  358.4000    59.9778    14.9647    16.2160    14.2744   -39.4256
  358.5000    59.9757    14.8598    16.1215    14.2740   -39.5687
  358.6000    59.9733    14.7903    16.0712    14.2735   -39.5692
  358.7000    59.9708    14.7552    16.0707    14.2020   -39.5698
  358.8000    59.9028    14.7546    16.0703    14.1194   -39.5704
  358.9000    59.6620    14.7540    16.0698    14.0746   -39.5710
  359.0000    59.6592    14.7533    16.0694    14.0326   -39.5898
  359.1000    59.4408    14.7526    16.0063    13.8788   -39.8740
  359.2000    59.3508    14.7521    15.9130    13.8783   -39.8745
  359.3000    59.3483    14.8032    15.8454    13.8095   -39.8751
  359.4000    59.2827    14.8890    15.8380    13.7811   -39.9354
  359.5000    59.0395    14.9580    15.7343    13.7807   -40.0271
  359.6000    59.0367    14.9572    15.6540    13.7804   -40.0374
  359.7000    59.0346    15.1320    15.6241    13.7800   -40.1793
  359.8000    59.0322    15.2373    15.6236    13.7795   -40.1798
  359.9000    59.0298    15.3257    15.6232    13.8469   -40.1804
  360.0000    59.0274    15.3786    15.6227    13.8753   -40.3017
  360.1000    59.0249    15.3959    15.6223    13.8749   -40.4833
  360.2000    59.0221    15.4852    15.6219    13.8745   -40.4839
  360.3000    58.8085    15.5750    15.6214    13.8741   -40.4845
  360.4000    58.5532    15.6654    15.6650    13.8737   -40.4851
  360.5000    58.2978    15.7011    15.7560    13.8734   -40.5716
  360.6000    58.0425    15.7005    15.8397    13.9240   -40.6371
  360.7000    57.7799    15.7182    15.8391    14.0047   -40.6377
  360.8000    57.1838    15.8093    15.8387    14.0671   -40.6492
  360.9000    56.9726    15.7169    15.9018    14.0689   -40.7898
  361.0000    56.7173    15.6250    15.9488    14.1648   -40.7904
  361.1000    56.4620    15.4797    15.9752    14.1644   -40.7910
  361.2000    56.2067    15.3352    16.0596    14.2154   -40.8531
  361.3000    55.9513    15.2455    16.0590    14.2628   -40.9795
  361.4000    55.6494    15.1563    16.1421    14.2624   -41.0944
  361.5000    55.4407    15.1555    16.2359    14.2647   -41.0951
  361.6000    55.3410    15.1550    16.2834    14.4620   -41.0956
  361.7000    55.2340    15.1544    16.3108    14.4617   -41.0962
  361.8000    55.0857    15.1538    16.4055    14.5128   -41.0968
  361.9000    55.3361    15.1708    16.5108    14.5969   -41.0974
  362.0000    55.6348    15.2587    16.5104    14.6637   -41.1101
  362.1000    55.8371    15.4727    16.5099    14.6632   -41.2495
  362.2000    56.0875    15.6173    16.5095    14.7654   -41.2501
  362.3000    56.3380    15.7443    16.5090    14.8343   -41.2507
  362.4000    56.5884    15.8728    16.5085    14.9202   -41.2513
  362.5000    56.8389    16.0579    16.5080    15.0067   -41.2519
  362.6000    57.5950    16.2452    16.5076    15.1112   -41.2525
  362.7000    57.9477    16.4350    16.5072    15.2876   -41.2532
  362.8000    58.1982    16.6270    16.5067    15.3759   -41.2537
  362.9000    58.5483    16.7621    16.5062    15.4651   -41.2543
  363.0000    58.9549    16.8593    16.5158    15.6086   -41.2549
  363.1000    58.9520    16.9570    16.6208    15.7543   -41.2555
  363.2000    59.4506    17.0553    16.6204    15.8456   -41.2428
  363.3000    59.9539    17.1542    16.6885    15.9385   -41.1059
  363.4000    60.3088    17.2537    16.7359    16.1221   -41.1065
  363.5000    60.5593    17.3538    16.7655    16.3100   -41.1071
  363.6000    60.8560    17.4137    16.8522    16.5000   -41.1077
  363.7000    61.3690    17.4333    16.8516    16.6550   -41.1083
  363.8000    60.8705    17.5343    16.9407    16.7691   -41.1089
  363.9000    60.5592    17.5334    16.9687    16.9687   -41.1096
  364.0000    60.4498    17.5328    17.0700    17.1622   -41.1101
  364.1000    60.3526    17.4711    17.2376    17.2839   -41.0211
  364.2000    60.0534    17.3288    17.3609    17.4424   -40.8959
  364.3000    59.5306    17.1470    17.6921    17.6456   -40.8103
  364.4000    58.5458    17.0467    17.8813    17.8332   -40.8109
  364.5000    57.5319    16.9271    18.0903    17.9398   -40.8115
  364.6000    56.5179    16.9266    18.2463    18.0405   -40.6968
  364.7000    55.6887    16.9258    18.3522    18.2262   -40.6618
  364.8000    55.2219    16.9251    18.4716    18.4386   -40.5973
  364.9000    54.9567    16.9244    18.7047    18.6533   -40.5122
  365.0000    54.7113    16.9237    18.9057    18.8704   -40.4826
  365.1000    54.6480    17.0415    19.1266    19.0993   -40.2118
  365.2000    54.6456    17.2008    19.3500    19.2054   -40.2124
  365.3000    54.7331    17.4017    19.5022    19.3167   -40.2130
  365.4000    54.9836    17.6463    19.5298    19.4287   -40.1478
  365.5000    55.2461    17.9775    19.7752    19.5412   -40.0226
  365.6000    55.7252    18.3995    19.9888    19.6544   -39.9130
  365.7000    56.4182    18.8333    20.1369    19.7741   -39.9138
  365.8000    57.1744    19.4595    20.2538    19.8828   -39.9143
  365.9000    57.8431    20.0795    20.4105    19.9114   -39.9149
