~VERSION INFORMATION
 VERS.                2.0:   CWLS LOG ASCII STANDARD - VERSION 2.0
 WRAP.                 NO:   ONE LINE PER DEPTH STEP
~WELL INFORMATION
#MNEM.UNIT      DATA TYPE    INFORMATION
#----------   ------------   ------------------------------
 STRT.F            0.0000:   START DEPTH
 STOP.F          561.0000:   STOP DEPTH
 STEP.F            0.1000:   STEP LENGTH
 NULL.          -999.2500:   NO VALUE
 COMP.       F D SERV INC:   COMPANY
 WELL.  83-1 sx 10 #83-10:   WELL
 FLD .             TEAPOT:   FIELD
 LOC .      S10 T38N R78W:   LOCATION
 CNTY.            NATRONA:   COUNTY
 STAT.            WYOMING:   STATE
 CTRY. UNITED STATES OF AMERICA:   COUNTRY
 SRVC.     Atlas Wireline:   SERVICE COMPANY
 DATE.        10-DEC-1992:   LOGDATE
 API .       490252258000:   API NUMBER
~CURVE INFORMATION
#MNEM.UNIT       API CODE    CURVE DESCRIPTION
#----------   ------------   ------------------------------
 DEPT.F                  :   
 GRR .GAPI   07 310 01 00:   GAMMA RAY
 RILD.OHMM   07 120 46 00:   INDUCTION LOG DEEP RESISTIVITY
 RILM.OHMM   07 120 44 00:   INDUCTION LOG MEDIUM RESISTIVITY
~PARAMETER INFORMATION
#MNEM.UNIT          VALUE    DESCRIPTION
#----------   ------------   ------------------------------
 PD  .                 GL:   PERMANENT DATUM
 EPD .F              5170:   ELEVATION PERMANENT DATUM
 LMF .                 KB:   LOG MEASURED FROM
 DAPD.F                10:   FEET ABOVE PERMANENT DATUM
 DMF .                 KB:   DRILLING MEASURED FROM
 EKB .F              5180:   KELLING BUSHING
 EDF .F              5179:   DRILLING FLOOR
 EGL .F              5170:   GROUND LEVEL
 DATE.        10-DEC-1992:   RUN DATE
 RUN .                  1:   RUN NUMBER
 DD  .F               567:   DEPTH DRILLER
 DL  .F               569:   DEPTH LOGGER
 BLI .F               560:   BOTTOM LOG INTERVAL
 TLI .F                97:   TOP LOG INTERVAL
 CS  .IN            8.625:   CASING SIZE
 CBD .F                97:   CASING BOTTOM DRILLER
 CBL .F                97:   CASING BOTTOM LOGGER
 BS  .IN            7.875:   BIT SIZE
 BSD .F               567:   BIT SIZE AT DEPTH
 DFT .           AIR FOAM:   DRILLING FLUID TYPE
 MRT .F                65:   MAXIMUM RECORDED TEMPERATURE
 LUN .           HL- 6274:   LOGGING UNIT NUMBER
 LUL .             CASPER:   LOGGING UNIT LOCATION
 ENGI.       P. RASMUSSEN:   RECORDING ENGINEER
 WITN.          G. STRONG:   WITNESSED BY
 CLNT.            A2DTECH:   CLIENT CODE
 ORIG.           5" PRINT:   ORIGIN OF DATA
 UWI .       490252258000:   UNIQUE WELL ID
 DICO. A2D Technologies, Inc.:   DIGITIZING COMPANY
~OTHER INFORMATION
~A    DEPT      GRR      RILD       RILM   
# ...
  309.4000   154.6202     7.3570     7.1825
  309.5000   154.3602     7.2601     7.1637
  309.6000   154.0273     7.2216     7.1098
  309.7000   153.4487     7.1786     7.0352
  309.8000   152.3521     7.1359     7.0356
  309.9000   151.6146     7.0767     6.9964
  310.0000   151.0369     7.0022     6.9232
  310.1000   150.5169     6.9577     6.8664
  310.2000   149.9969     6.8670     6.8080
  310.3000   149.3333     6.7932     6.7277
  310.4000   148.2650     6.7125     6.6484
  310.5000   146.8892     6.6327     6.5654
  310.6000   146.1547     6.5538     6.4926
  310.7000   145.7774     6.4758     6.4456
  310.8000   145.5174     6.3987     6.3846
  310.9000   145.3718     6.3162     6.2930
  311.0000   145.4426     6.2475     6.1918
  311.1000   145.7025     6.1732     6.1225
  311.2000   145.9788     6.1212     6.0842
  311.3000   146.4663     6.0848     6.0170
  311.4000   147.5871     6.0486     5.9461
  311.5000   148.8871     6.0126     5.8971
  311.6000   150.0738     5.9742     5.8775
  311.7000   151.2533     5.9744     5.8777
  311.8000   152.7607     5.9746     5.8780
  311.9000   153.8695     5.9533     5.8783
  312.0000   155.0835     5.9333     5.8785
  312.1000   156.5827     5.9239     5.8787
  312.2000   157.9869     5.8923     5.8790
  312.3000   159.3992     5.8925     5.8792
  312.4000   160.6151     5.8927     5.8795
  312.5000   160.8498     5.8655     5.8797
  312.6000   160.2428     5.8306     5.8800
  312.7000   159.7592     5.8114     5.8802
  312.8000   158.8426     5.8018     5.8804
  312.9000   157.6478     5.7673     5.8807
  313.0000   156.3478     5.7313     5.8809
  313.1000   155.1157     5.7315     5.8812
  313.2000   154.0027     5.7046     5.8847
  313.3000   152.0486     5.6919     5.9227
  313.4000   150.3628     5.6764     5.9229
  313.5000   148.1482     5.6427     5.9232
  313.6000   145.9621     5.6134     5.9234
  313.7000   144.1028     5.6136     5.9237
  313.8000   142.7433     5.5747     5.9239
  313.9000   141.9867     5.5482     5.9241
  314.0000   141.4264     5.5152     5.9244
  314.1000   141.1867     5.4823     5.8922
  314.2000   140.9267     5.4597     5.8839
  314.3000   141.1248     5.4552     5.8433
  314.4000   141.5356     5.4221     5.7887
  314.5000   141.9927     5.3845     5.7546
  314.6000   142.9883     5.3846     5.7178
  314.7000   143.5508     5.3639     5.6449
  314.8000   144.7443     5.3475     5.5839
  314.9000   145.4587     5.3374     5.4936
  315.0000   145.8270     5.3105     5.4153
  315.1000   146.0870     5.3107     5.3646
  315.2000   146.2822     5.2739     5.3330
  315.3000   146.3035     5.2740     5.3016
  315.4000   146.5857     5.2533     5.2676
  315.5000   147.0612     5.2376     5.2393
  315.6000   147.3869     5.2274     5.2084
  315.7000   147.6469     5.2014     5.1777
  315.8000   147.9069     5.2016     5.1599
  315.9000   148.1669     5.1656     5.1676
  316.0000   148.4269     5.1657     5.1963
  316.1000   148.7102     5.1659     5.1965
  316.2000   148.9469     5.1503     5.1967
  316.3000   149.2069     5.1408     5.1969
  316.4000   149.4669     5.1663     5.2150
  316.5000   149.6206     5.1669     5.2336
  316.6000   149.5893     5.2028     5.2338
  316.7000   149.4593     5.2029     5.2340
  316.8000   149.3172     5.2031     5.2342
  316.9000   148.8457     5.2196     5.2628
  317.0000   148.1334     5.2398     5.2711
  317.1000   147.5022     5.2460     5.2894
  317.2000   146.7718     5.2768     5.3211
  317.3000   145.6703     5.2770     5.3531
  317.4000   144.3704     5.3045     5.3853
  317.5000   142.9438     5.3143     5.4208
  317.6000   141.7704     5.3144     5.4210
  317.7000   140.8528     5.3264     5.4450
  317.8000   140.0729     5.3519     5.4778
  317.9000   139.6055     5.3534     5.5107
  318.0000   139.5448     5.3898     5.5438
  318.1000   139.3020     5.4183     5.5793
  318.2000   139.3020     5.4510     5.6531
  318.3000   139.3020     5.5021     5.6837
  318.4000   139.3020     5.5558     5.7179
  318.5000   139.3020     5.5967     5.7717
  318.6000   139.4052     5.6643     5.8271
  318.7000   139.6055     5.7405     5.8621
  318.8000   139.6055     5.8022     5.8996
  318.9000   139.6055     5.8724     5.9779
  319.0000   139.8382     5.9434     6.0101
  319.1000   139.9090     6.0153     6.0725
  319.2000   140.0547     6.1050     6.1249
  319.3000   140.2124     6.2482     6.1763
  319.4000   140.3299     6.3312     6.2504
  319.5000   140.8649     6.4351     6.3255
  319.6000   141.7299     6.5231     6.4098
  319.7000   142.4249     6.6248     6.4784
  319.8000   143.2048     6.7286     6.5563
  319.9000   144.1295     6.8099     6.6351
  320.0000   145.0683     6.8890     6.6992
  320.1000   145.7906     6.9342     6.7394
  320.2000   146.3247     7.0109     6.7799
  320.3000   147.1927     7.0638     6.8252
  320.4000   147.1927     7.1065     6.8617
  320.5000   146.8185     7.1314     6.9029
  320.6000   146.2986     7.1316     6.9216
  320.7000   145.7786     7.1318     6.9218
  320.8000   145.2586     7.1320     6.9221
  320.9000   144.7255     7.1322     6.9224
  321.0000   143.8543     7.1000     6.9227
  321.1000   142.9359     7.0830     6.8867
  321.2000   141.8959     7.0468     6.8754
  321.3000   140.9986     6.9740     6.8756
  321.4000   140.3177     6.9282     6.8604
  321.5000   139.7977     6.8407     6.8200
  321.6000   139.2898     6.7267     6.7798
  321.7000   138.9985     6.6376     6.7350
  321.8000   138.7699     6.5587     6.7001
  321.9000   138.5099     6.4807     6.6607
  322.0000   138.2499     6.4142     6.6214
  322.1000   138.0880     6.3717     6.5678
  322.2000   138.0334     6.2921     6.4983
  322.3000   137.7845     6.2565     6.4584
  322.4000   137.7845     6.1902     6.3728
  322.5000   137.5569     6.1166     6.3400
  322.6000   137.4810     6.0438     6.2762
  322.7000   137.3404     5.9719     6.1825
  322.8000   137.0804     5.9009     6.0867
  322.9000   136.8741     5.8280     6.0076
  323.0000   136.8741     5.7614     5.9028
  323.1000   136.8741     5.6659     5.8243
  323.2000   136.8741     5.6072     5.7645
  323.3000   136.8741     5.5429     5.6966
  323.4000   137.1533     5.4540     5.6294
  323.5000   137.6732     5.3846     5.5630
  323.6000   138.2984     5.2863     5.4909
  323.7000   139.3383     5.2131     5.3950
  323.8000   140.5159     5.1880     5.3230
  323.9000   141.4183     5.1571     5.2416
  324.0000   142.2762     5.1265     5.1920
  324.1000   143.1948     5.1056     5.1777
  324.2000   144.2347     5.1058     5.1780
  324.3000   145.4811     5.1059     5.1782
  324.4000   147.5611     5.1061     5.1784
  324.5000   149.9241     5.1062     5.1786
  324.6000   151.0472     5.0862     5.1788
  324.7000   152.1660     5.0709     5.1790
  324.8000   152.9308     5.0811     5.1956
  324.9000   153.3566     5.1067     5.2156
  325.0000   153.5660     5.1069     5.2158
  325.1000   153.2484     5.1071     5.2168
  325.2000   152.6555     5.1329     5.2526
  325.3000   151.9849     5.1639     5.2528
  325.4000   150.8448     5.1793     5.2747
  325.5000   149.6814     5.1794     5.2898
  325.6000   148.7345     5.1851     5.3014
  325.7000   147.9545     5.2160     5.3332
  325.8000   147.1563     5.2162     5.3645
  325.9000   145.3718     5.2429     5.3648
  326.0000   144.2590     5.2746     5.4200
  326.1000   142.9590     5.3065     5.4626
  326.2000   141.9302     5.3500     5.5126
  326.3000   141.2423     5.4084     5.5907
  326.4000   140.7223     5.4419     5.6852
  326.5000   140.2023     5.5169     5.7534
  326.6000   139.6055     5.5744     5.8328
  326.7000   139.3840     5.6656     5.9227
  326.8000   139.1240     5.7872     6.0050
  326.9000   138.9985     5.9278     6.0771
  327.0000   138.9075     6.0717     6.1501
  327.1000   138.6950     6.2175     6.2308
  327.2000   138.6910     6.3451     6.3431
  327.3000   138.3915     6.4799     6.4752
  327.4000   138.1710     6.5809     6.5745
  327.5000   138.0880     6.6605     6.6660
