~VERSION INFORMATION
 VERS.                2.0:   CWLS LOG ASCII STANDARD - VERSION 2.0
 WRAP.                 NO:   ONE LINE PER DEPTH STEP
~WELL INFORMATION
#MNEM.UNIT      DATA TYPE    INFORMATION
#----------   ------------   ------------------------------
 STRT.F            4.0000:   START DEPTH
 STOP.F          508.0000:   STOP DEPTH
 STEP.F            0.5000:   STEP LENGTH
 NULL.          -999.2500:   NO VALUE
 COMP. LAWRENCE-ALLISON &AS:   COMPANY
 WELL. NPR ##3 58-65-SX-3-UPI:   WELL
 FLD .             TEAPOT:   FIELD
 LOC .       S3 T38N R78W:   LOCATION
 CNTY.            NATRONA:   COUNTY
 STAT.            WYOMING:   STATE
 CTRY. UNITED STATES OF AMERICA:   COUNTRY
 SRVC.      Dresser Atlas:   SERVICE COMPANY
 DATE.        07-DEC-1984:   LOGDATE
 API .       490251102500:   API NUMBER
~CURVE INFORMATION
#MNEM.UNIT       API CODE    CURVE DESCRIPTION
#----------   ------------   ------------------------------
 DEPT.F                  :   
 SPR .MV     07 010 01 00:   SPONTANEOUS POTENTIAL
 RILD.OHMM   07 120 46 00:   INDUCTION LOG DEEP RESISTIVITY
 RILM.OHMM   07 120 44 00:   INDUCTION LOG MEDIUM RESISTIVITY
 RFOC.OHMM   07 220 04 00:   RESISTIVITY FOCUSED LOG
 CALS.IN     60 280 50 00:   CALIPER FROM SONIC LOG
 GRS .GAPI   60 310 01 00:   GAMMA RAY FROM SONIC LOG
 AC  .US/F   60 520 00 00:   ACCOUSTIC SONIC
~PARAMETER INFORMATION
#MNEM.UNIT          VALUE    DESCRIPTION
#----------   ------------   ------------------------------
 PD  .                 GL:   PERMANENT DATUM
 EPD .F              5184:   ELEVATION PERMANENT DATUM
 LMF .                 GL:   LOG MEASURED FROM
 DMF .                 GL:   DRILLING MEASURED FROM
 EGL .F              5184:   GROUND LEVEL
 DATE.        07-DEC-1984:   RUN DATE
 RUN .                  1:   RUN NUMBER
 DD  .F               510:   DEPTH DRILLER
 DL  .F               510:   DEPTH LOGGER
 BLI .F               508:   BOTTOM LOG INTERVAL
 TLI .F                20:   TOP LOG INTERVAL
 CS  .IN            8.625:   CASING SIZE
 CBD .F                20:   CASING BOTTOM DRILLER
 CBL .F                20:   CASING BOTTOM LOGGER
 BS  .IN            7.875:   BIT SIZE
 BSD .F               510:   BIT SIZE AT DEPTH
 DFT .          KCL WATER:   DRILLING FLUID TYPE
 MSS .            MUD PIT:   MUD SAMPLE SOURCE
 RMS .OHMM            .14:   RESISTIVITY MUD SAMPLE
 MST .F                55:   MUD SAMPLE TEMPERATURE
 RMF .OHMM             .1:   RESISTIVITY MUD FILTRATE SAMPLE
 MFST.F                55:   MUD FILTRATE SAMPLE TEMPERATURE
 RMC .OHMM            .17:   RESISTIVITY MUD CAKE
 MCST.F                55:   MUD CAKE SAMPLE TEMPERATURE
 MFSS.               CALC:   MUD FILTRATE SAMPLE SOURCE
 MCSS.               CALC:   MUD CAKE SAMPLE SOURCE
 RMB .OHMM            .08:   RESISTIVITY MUD AT BHT
 BHT .F                86:   BOTTOM HOLE TEMPERATURE
 TCS .HRS               3:   TIME CURCULATED STOPPED
 MRT .F               100:   MAXIMUM RECORDED TEMPERATURE
 LUN .               6270:   LOGGING UNIT NUMBER
 LUL .                 FM:   LOGGING UNIT LOCATION
 ENGI.          E. GOVETT:   RECORDING ENGINEER
 WITN.      GROOMS, LUERS:   WITNESSED BY
 CLNT.            A2DTECH:   CLIENT CODE
 ORIG.           5" PRINT:   ORIGIN OF DATA
 UWI .       490251102500:   UNIQUE WELL ID
 DICO. A2D Technologies, Inc.:   DIGITIZING COMPANY
~OTHER INFORMATION
~A    DEPT     SPR       RILD       RILM       RFOC       CALS         GRS        AC   
# ...
  322.5000   -37.6154    13.6546    12.3601    15.5218     7.5432    79.4129    96.6276
  323.0000   -37.7526    13.5673    12.4539    15.1127     7.5441    78.0028    96.5444
  323.5000   -38.0385    13.4829    12.5484    14.9150     7.5599    78.7689    95.1816
  324.0000   -38.1759    13.3990    12.5563    14.9255     7.5608    80.1011    94.3467
  324.5000   -38.4616    13.3180    12.3913    14.9359     7.5617    79.2187    94.1164
  325.0000   -38.5991    13.3273    12.2265    15.1552     7.5627    77.5932    94.4881
  325.5000   -38.8853    13.1528    11.9843    15.2713     7.5784    77.4514    94.3305
  326.0000   -39.1707    13.0710    11.8268    14.9674     7.5793    81.1775    93.7972
  326.5000   -39.4568    13.0802    11.6714    14.5681     7.5800    84.4555    93.5670
  327.0000   -39.5969    13.0875    11.5161    14.3749     7.5661    85.8018    93.7124
  327.5000   -39.7339    13.0965    11.4438    14.2856     7.5670    84.6222    93.4794
  328.0000   -40.0170    13.1056    11.3719    14.2981     7.5530    80.4708    92.9462
  328.5000   -40.0050    13.2110    11.3005    14.3082     7.5390    77.3595    92.6403
  329.0000   -39.9930    13.4012    11.1520    14.4178     7.5399    76.7719    92.7225
  329.5000   -39.9810    13.6915    11.0054    14.5284     7.5259    81.2409    93.3855
  330.0000   -39.8200    13.8926    10.8509    14.7416     7.5268    85.0817    94.8114
  330.5000   -39.6589    14.0967    10.5635    14.8546     7.5126    86.0119    96.1635
  331.0000   -39.4979    14.3037    10.3101    15.0727     7.4987    85.4047    96.6860
  331.5000   -39.3369    14.5139    10.0828    15.1882     7.4847    82.7485    96.3790
  332.0000   -39.1759    14.6252     9.8555    15.3047     7.4858    80.2438    96.3736
  332.5000   -39.4619    14.6354     9.6282    15.3132     7.4716    81.4416    96.3682
  333.0000   -39.5990    14.4438     9.4009    15.2175     7.4728    82.1936    96.3628
  333.5000   -39.7390    14.1561     9.1736    15.1132     7.4586    81.3111    96.2820
  334.0000   -40.0221    13.6828     8.9463    14.8220     7.4597    77.1597    96.0504
  334.5000   -40.1621    13.3175     8.7190    14.7288     7.4604    79.1004    95.3663
  335.0000   -40.2992    12.8723     8.5165    14.5370     7.4464    81.6355    94.5323
  335.5000   -40.4362    12.6159     8.4033    14.3469     7.4473    81.1987    93.3578
  336.0000   -40.5732    12.3646     8.2941    14.2575     7.4333    79.8705    92.4022
  336.5000   -40.5583    12.1183     8.2994    14.1687     7.4342    80.4739    92.2526
  337.0000   -40.5463    11.8769     8.3046    13.9838     7.4203    81.3745    93.0029
  337.5000   -40.3852    11.7214     8.3676    13.8944     7.4212    82.1265    93.9025
  338.0000   -40.5253    11.6464     8.4897    13.7126     7.4221    82.7559    94.1988
  338.5000   -40.5127    11.5740     8.5530    13.6274     7.4079    83.3497    94.2688
  339.0000   -40.3518    11.5841     8.6179    13.6394     7.4090    83.1915    94.1880
  339.5000   -40.3398    11.6854     8.7436    13.5522     7.4099    82.9034    94.1826
  340.0000   -40.1788    11.9362     8.9412    13.5641     7.4108    82.4667    94.1773
  340.5000   -40.0179    12.4490     9.3219    13.7632     7.4117    82.1783    94.1719
  341.0000   -39.8440    12.9886     9.9929    14.0624     7.4126    81.8905    94.3928
  341.5000   -39.3884    13.9254    11.0180    14.6702     7.4135    81.4538    94.6904
  342.0000   -38.7840    15.2466    12.1482    15.8443     7.4144    80.2741    94.2061
  342.5000   -38.0278    17.0493    13.3019    18.9885     7.4154    76.8657    92.4851
  343.0000   -36.9776    19.0651    14.5651    23.5597     7.4161    71.0798    88.7577
  343.5000   -36.0714    21.0254    15.5122    29.8458     7.4169    65.7396    84.9404
  344.0000   -35.1653    23.1872    16.7516    36.8544     7.4327    63.8148    83.9546
  344.5000   -34.4081    25.5714    18.3424    39.1640     7.4485    64.1233    84.4017
  345.0000   -33.6510    27.8119    19.8078    36.4417     7.4643    64.2809    87.6392
  345.5000   -32.8938    30.0395    21.2426    32.2473     7.4801    63.5471    92.3849
  346.0000   -32.1367    31.1221    22.1585    29.7384     7.4959    62.0680    97.3569
  346.5000   -31.5286    31.3608    22.6382    28.7450     7.5114    62.4400   101.1223
  347.0000   -30.9204    30.9502    22.9687    27.5927     7.4828    67.9362   102.2481
  347.5000   -30.6104    30.3336    23.4660    27.4206     7.4837    70.7133   102.6952
  348.0000   -30.1513    29.5238    23.9740    27.8238     7.4695    71.3284   102.8420
  348.5000   -29.8412    29.1321    24.8350    28.6265     7.4706    71.1768   102.9121
  349.0000   -29.5312    29.5652    26.2673    30.2809     7.4716    70.7404   102.8200
  349.5000   -29.3702    30.2084    30.1915    33.1612     7.4725    70.0066   102.2814
  350.0000   -29.1888    30.4346    29.5731    36.3301     7.4734    67.3668   100.8597
  350.5000   -29.0475    30.4509    26.5000    37.1497     7.4764    63.7824    99.1935
  351.0000   -29.3324    30.2571    24.5705    36.1130     7.4794    64.0909    99.0366
  351.5000   -29.9143    29.8510    23.5254    33.7170     7.4824    67.1795    99.4076
  352.0000   -30.4968    29.2502    22.2868    31.4799     7.4854    71.3914   100.6848
  352.5000   -31.0793    28.4668    21.1232    29.5958     7.4884    72.8824   102.3381
  353.0000   -31.6618    27.8939    20.2829    28.2131     7.4914    70.9284   102.1709
  353.5000   -32.2442    27.3326    19.7426    26.8950     7.4944    69.4829   102.0997
  354.0000   -32.6777    26.9657    19.0823    25.8169     7.4964    69.9377   102.6314
  354.5000   -33.1111    26.4231    18.4440    24.9545     7.4975    70.0953   103.0679
  355.0000   -33.3955    26.0421    17.8271    24.4578     7.4985    70.1043   103.0618
  355.5000   -33.5343    25.5266    17.2309    23.9710     7.5145    70.1133   103.0558
  356.0000   -33.6697    25.0214    16.5395    23.6574     7.5155    70.7167   102.5218
  356.5000   -33.6557    24.5290    15.8759    23.5063     7.5166    73.4003   101.6861
  357.0000   -33.6423    24.2028    15.2389    23.1988     7.5176    74.7466   100.9259
  357.5000   -33.7778    23.8809    14.7292    23.0587     7.5336    75.4986   100.6181
  358.0000   -33.7641    23.5633    14.2366    23.0716     7.5346    75.8048   100.4612
  358.5000   -33.7505    23.4118    13.7604    23.0876     7.5357    75.9624   100.4551
  359.0000   -33.5878    23.2584    13.2083    23.1036     7.5516    75.8228   100.5260
  359.5000   -33.4251    23.1089    12.5908    23.1197     7.5527    75.5347   101.2725
  360.0000   -33.2624    22.9604    12.0022    23.1357     7.5537    75.3929   102.4731
  360.5000   -33.0997    22.8128    11.6007    22.9918     7.5548    75.5527   102.6194
  361.0000   -32.7880    22.8268    11.5136    22.6912     7.5558    76.4533   102.1593
  361.5000   -32.4763    22.6773    11.5336    22.5496     7.5569    76.9058   101.9269
  362.0000   -32.1646    22.5315    11.6210    22.4093     7.5579    74.5397   102.1471
  362.5000   -31.7038    22.2319    11.7906    22.2669     7.5590    71.7731   102.5935
  363.0000   -31.5172    21.7871    11.9627    22.5977     7.5449    70.8407   102.8152
  363.5000   -31.2161    21.4974    12.1373    23.2497     7.5459    71.0093   102.5059
  364.0000   -30.9150    21.2114    12.4001    23.2661     7.5470    71.3046   101.9719
  364.5000   -30.6094    21.0725    12.5812    22.6414     7.5480    71.1650   101.8904
  365.0000   -30.4468    20.9371    12.8536    22.8190     7.5491    69.8367   102.3368
  365.5000   -30.4331    20.8025    13.0412    22.2103     7.5353    67.4683   103.8391
  366.0000   -30.2704    20.6688    13.2316    21.4683     7.5363    66.2644   104.3624
  366.5000   -30.4092    20.6789    13.3320    21.0411     7.5374    67.7835   102.8465
  367.0000   -30.5412    20.6891    13.3405    20.9066     7.5384    70.1700   101.7104
  367.5000   -30.5275    20.6993    13.3489    20.9250     7.5245    71.8135   100.5480
