~VERSION INFORMATION
 VERS.                2.0:   CWLS LOG ASCII STANDARD - VERSION 2.0
 WRAP.                 NO:   ONE LINE PER DEPTH STEP
~WELL INFORMATION
#MNEM.UNIT      DATA TYPE    INFORMATION
#----------   ------------   ------------------------------
 STRT.F           30.0000:   START DEPTH
 STOP.F          733.0000:   STOP DEPTH
 STEP.F            0.5000:   STEP LENGTH
 NULL.          -999.2500:   NO VALUE
 COMP. FENIX & SCISSON INC:   COMPANY
 WELL.    NPR-3 #51 S -34:   WELL
 FLD .             TEAPOT:   FIELD
 LOC .      S34 T39N R78W:   LOCATION
 CNTY.            NATRONA:   COUNTY
 STAT.            WYOMING:   STATE
 CTRY. UNITED STATES OF AMERICA:   COUNTRY
 SRVC.      Dresser Atlas:   SERVICE COMPANY
 DATE.        20-MAR-1977:   LOGDATE
 API .       490251031600:   API NUMBER
~CURVE INFORMATION
#MNEM.UNIT       API CODE    CURVE DESCRIPTION
#----------   ------------   ------------------------------
 DEPT.F                  :   
 CALD.IN     45 280 60 00:   CALIPER FROM DENSITY LOG
 GRD .GAPI   45 310 01 00:   GAMMA RAY FROM DENSITY LOG
 CORR.G/C3   45 356 01 00:   DENSITY CORRECTION
 DPHI.DEC    45 890 12 00:   DENSITY POROSITY SANDSTONE
 RHOB.G/C3   45 350 01 00:   BULK DENSITY
 SPR .MV     07 010 01 00:   SPONTANEOUS POTENTIAL
 ILD .OHMM   07 120 46 00:   INDUCTION LOG DEEP
 ILM .OHMM   07 120 44 00:   INDUCTION LOG MEDIUM
 SFL .OHMM   07 220 01 00:   SHALLOW FOCUSED LOG RESISTIVITY
~PARAMETER INFORMATION
#MNEM.UNIT          VALUE    DESCRIPTION
#----------   ------------   ------------------------------
 PD  .                 GL:   PERMANENT DATUM
 EPD .F              5065:   ELEVATION PERMANENT DATUM
 LMF .                 KB:   LOG MEASURED FROM
 DAPD.F                 4:   FEET ABOVE PERMANENT DATUM
 DMF .                 KB:   DRILLING MEASURED FROM
 EKB .F              5069:   KELLING BUSHING
 EGL .F              5065:   GROUND LEVEL
 DATE.        20-MAR-1977:   RUN DATE
 RUN .                  1:   RUN NUMBER
 DD  .F               735:   DEPTH DRILLER
 DL  .F               731:   DEPTH LOGGER
 BLI .F               729:   BOTTOM LOG INTERVAL
 TLI .F                42:   TOP LOG INTERVAL
 CS  .IN            8.625:   CASING SIZE
 CBD .F                40:   CASING BOTTOM DRILLER
 CBL .F                42:   CASING BOTTOM LOGGER
 BS  .IN            7.875:   BIT SIZE
 BSD .F               735:   BIT SIZE AT DEPTH
 DFT .           CHEM GEL:   DRILLING FLUID TYPE
 DFD .                9.0:   DRILLING FLUID DENSITY
 DFV .                 38:   DRILLING FLUID VISCOSITY
 DFPH.                8.5:   DRILLING FLUID PH
 DFL .                 72:   DRILLING FLUID LOSS
 MSS .           FLOWLINE:   MUD SAMPLE SOURCE
 RMS .OHMM             .4:   RESISTIVITY MUD SAMPLE
 MST .F                51:   MUD SAMPLE TEMPERATURE
 RMF .OHMM            .72:   RESISTIVITY MUD FILTRATE SAMPLE
 MFST.F                48:   MUD FILTRATE SAMPLE TEMPERATURE
 RMC .OHMM           1.16:   RESISTIVITY MUD CAKE
 MCST.F                48:   MUD CAKE SAMPLE TEMPERATURE
 MFSS.               MEAS:   MUD FILTRATE SAMPLE SOURCE
 MCSS.               MEAS:   MUD CAKE SAMPLE SOURCE
 RMB .OHMM            .31:   RESISTIVITY MUD AT BHT
 BHT .F                66:   BOTTOM HOLE TEMPERATURE
 TCS .HRS            0300:   TIME CURCULATED STOPPED
 MRT .F                66:   MAXIMUM RECORDED TEMPERATURE
 LUN .               6145:   LOGGING UNIT NUMBER
 LUL .              GLTTE:   LOGGING UNIT LOCATION
 ENGI.              RANCK:   RECORDING ENGINEER
 WITN.              BURKE:   WITNESSED BY
 CLNT.            A2DTECH:   CLIENT CODE
 ORIG.           5" PRINT:   ORIGIN OF DATA
 UWI .       490251031600:   UNIQUE WELL ID
 DICO. A2D Technologies, Inc.:   DIGITIZING COMPANY
~OTHER INFORMATION
~A   DEPT     CALD        GRD       CORR       DPHI       RHOB        SPR        ILD        ILM        SFL   
# ...
  650.5000     8.0034    87.9346     0.0084     0.0794     2.5136   -52.9726    10.4773    12.0696    14.0564
  651.0000     8.0040    89.1510     0.0051     0.0824     2.5141   -53.4017    10.4824    11.9921    13.7725
  651.5000     8.0047    89.4663     0.0006     0.0863     2.5075   -53.6890    10.4151    11.9151    13.9730
  652.0000     8.0053    88.0016    -0.0008     0.0823     2.5031   -54.1218    10.3483    11.9209    14.4724
  652.5000     8.0060    88.3225    -0.0021     0.0766     2.4994   -54.2524    10.3534    12.0096    14.9895
  653.0000     8.0067    89.9866     0.0117     0.0736     2.5176   -54.2374    10.2869    12.0989    15.2041
  653.5000     8.0073    94.7851     0.0164     0.0720     2.5282   -54.2225    10.2209    12.1048    14.7977
  654.0000     8.0080    96.5984     0.0180     0.0762     2.5328   -54.2075    10.2260    12.1949    14.3987
  654.5000     8.0086    96.9137     0.0122     0.0831     2.5254   -54.0433    10.1603    12.2008    14.0139
  655.0000     8.0105    95.8968     0.0048     0.0869     2.5135   -53.8791    10.1653    11.8732    13.9222
  655.5000     8.0277    95.7643    -0.0055     0.0908     2.5016   -53.8642    10.1000    11.6348    13.7374
  656.0000     8.0299    96.2400    -0.0114     0.0946     2.4897   -53.8492    10.1050    11.5599    13.7458
  656.5000     8.0471    96.5608    -0.0127     0.0985     2.4838   -53.8343    10.1801    11.4857    13.7524
  657.0000     8.0493    95.9862    -0.0065     0.1023     2.4817   -53.9723    10.1851    11.3332    13.6625
  657.5000     8.0516    91.9786     0.0012     0.1039     2.4871   -53.9536    10.1900    11.2605    13.5748
  658.0000     8.0538    91.9224     0.0059     0.1027     2.4909   -54.3864    10.1950    11.2661    13.3946
  658.5000     8.0710    90.0830     0.0106     0.1014     2.4940   -54.5245    10.1999    11.2716    13.3087
  659.0000     8.0732    92.4934     0.0138     0.0995     2.5024   -54.9535    10.0646    11.2771    13.2233
  659.5000     8.0605    93.5605     0.0170     0.0923     2.5123   -55.0916    10.0695    11.2045    13.0477
  660.0000     8.0777    92.2396     0.0187     0.0841     2.5169   -55.3714    10.0047    11.2102    12.8761
  660.5000     8.0800    93.6052     0.0159     0.0821     2.5192   -55.6549     9.9396    11.1382    12.7051
  661.0000     8.0673    93.7768     0.0115     0.0876     2.5179   -55.7930     9.7413    11.0667    12.6221
  661.5000     8.0695    92.7543     0.0057     0.0920     2.5007   -55.9273     9.6120    10.9944    12.3701
  662.0000     8.0717    92.3939     0.0043     0.0888     2.4956   -56.2108     9.4191    10.7748    12.2892
  662.5000     8.0590    94.1423     0.0045     0.0859     2.4957   -56.3414     9.2930    10.7044    12.1275
  663.0000     8.0613    91.7765     0.0047     0.0871     2.5063   -56.6250     9.2334    10.4907    11.9651
  663.5000     8.0635    94.9332     0.0049     0.0856     2.5154   -56.7630     9.0492    10.3514    11.7262
  664.0000     8.0658    96.8958     0.0081     0.0785     2.5200   -57.1921     8.8065    10.2127    11.5691
  664.5000     8.0531    98.1122     0.0143     0.0783     2.5216   -57.3301     8.5111     9.9398    11.2599
  665.0000     8.0553    99.0300     0.0175     0.0794     2.5218   -57.4644     8.2828     9.6729    11.0324
  665.5000     8.0426    99.7986     0.0177     0.0751     2.5226   -57.5950     8.2287     9.3483    10.7362
  666.0000     8.0448    95.6397     0.0164     0.0740     2.5235   -57.8786     8.0089     8.9102    10.4493
  666.5000     8.0471    98.2015     0.0165     0.0764     2.5251   -58.0166     7.5290     8.4927    10.3809
  667.0000     8.0493    96.2779     0.0152     0.0739     2.5260   -58.4457     6.9805     8.0948    10.1724
  667.5000     8.0518    93.7686     0.0154     0.0739     2.5276   -58.7292     6.3391     7.7155    10.0934
  668.0000     8.0540    95.5860     0.0156     0.0751     2.5277   -59.1620     5.7965     7.1531     9.8916
  668.5000     8.0561    93.8080     0.0158     0.0778     2.5262   -59.7441     5.4492     6.6777     9.5378
  669.0000     8.0732    93.0755     0.0174     0.0837     2.5196   -60.1806     5.1940     6.0637     8.8163
  669.5000     8.0757    93.2951     0.0176     0.0930     2.5121   -60.1620     5.1966     6.0240     7.4226
  670.0000     8.0931    98.7167     0.0178     0.1114     2.4915   -60.1470     5.1626     6.1542     6.4749
  670.5000     8.0951   100.4701     0.0164     0.1226     2.4481   -59.9828     5.2377     6.4630     6.0721
  671.0000     8.1121    99.5324     0.0167     0.1319     2.4268   -59.5201     5.4248     7.1245     6.8078
  671.5000     8.1144   101.2277     0.0153     0.1234     2.4365   -59.2066     5.7762     7.7994     9.6911
  672.0000     8.1166   104.5666     0.0140     0.1017     2.4789   -58.8932     6.2793     8.4793    13.8712
  672.5000     8.1188    97.5740     0.0126     0.0763     2.5085   -58.8782     6.9695     9.0918    13.1047
  673.0000     8.1061   102.4488     0.0083     0.0703     2.5298   -58.7140     7.6822     9.4166    12.3267
  673.5000     8.1084   103.6303     0.0055     0.0698     2.5349   -58.5498     8.3514     9.5526    11.7577
  674.0000     8.1106   104.8279     0.0011     0.0750     2.5324   -58.2364     8.6496     9.6906    11.5995
  674.5000     8.1130   105.1260    -0.0002     0.0771     2.5194   -58.2214     8.8354     9.8988    11.4476
  675.0000     8.1302   102.2634     0.0106     0.0695     2.5290   -58.2065     9.0251    10.1818    11.3741
  675.5000     8.1323    97.4095     0.0213     0.0665     2.5384   -58.1915     9.1553    10.5456    11.4587
  676.0000     8.1345    99.1025     0.0155     0.0710     2.5344   -58.1766     9.2874    10.7722    11.5440
  676.5000     8.1218    98.8303     0.0096     0.0746     2.5278   -58.1616     9.2919    10.7775    11.8740
  677.0000     8.1241    92.8552     0.0053     0.0763     2.5222   -57.9974     9.3610    10.7827    12.2134
  677.5000     8.1263    92.7264     0.0009     0.0772     2.5193   -57.6839     9.4306    10.8629    12.4759
  678.0000     8.1287    92.0025    -0.0019     0.0778     2.5172   -57.3705     9.5666    11.1735    12.7440
  678.5000     8.1310    89.3382    -0.0033     0.0780     2.5151   -56.9078     9.6377    11.4136    12.9280
  679.0000     8.1334    92.3456     0.0000     0.0753     2.5174   -56.8928     9.7768    11.4985    13.1147
  679.5000     8.1200    94.1590     0.0017     0.0738     2.5273   -57.0271     9.9179    11.5040    13.2122
  680.0000     8.1226    96.2709     0.0003     0.0740     2.5327   -57.0122    10.1308    11.5896    13.2187
  680.5000     8.1099    96.5917    -0.0010     0.0746     2.5260   -56.9972    10.2061    11.8387    13.5027
  681.0000     8.1121    97.5096    -0.0008     0.0731     2.5208   -57.2808    10.2820    12.0931    13.6032
  681.5000     8.0994    98.4274     0.0114     0.0689     2.5337   -57.4188    10.3584    12.3529    13.7996
  682.0000     8.1016    97.4050     0.0206     0.0628     2.5436   -57.8479    10.4354    12.5313    13.9989
  682.5000     8.1039    92.6512     0.0268     0.0580     2.5505   -58.1315    10.5130    12.8006    14.3990
  683.0000     8.0912    98.7929     0.0285     0.0502     2.5663   -58.5643    10.5181    12.9854    14.4061
  683.5000     8.0934   102.6959     0.0242     0.0485     2.5717   -58.6986    10.5232    13.1729    14.4131
  684.0000     8.1106   103.4645     0.0213     0.0579     2.5628   -58.6836    10.5283    13.2709    14.4201
  684.5000     8.1129   103.3376     0.0170     0.0639     2.5494   -58.5194    10.6066    13.1841    14.4271
  685.0000     8.1153   102.7629     0.0142     0.0668     2.5383   -58.5075    10.6854    13.0995    14.2356
  685.5000     8.1173   102.0389     0.0128     0.0650     2.5361   -58.4637    10.7648    12.7494    13.9497
  686.0000     8.1196    98.3299     0.0145     0.0629     2.5445   -58.1791    10.7700    12.4933    13.2960
  686.5000     8.1218    95.8094     0.0192     0.0616     2.5491   -58.1373    10.7010    12.3274    13.1179
