~VERSION INFORMATION
 VERS.                2.0:   CWLS LOG ASCII STANDARD - VERSION 2.0
 WRAP.                 NO:   ONE LINE PER DEPTH STEP
~WELL INFORMATION
#MNEM.UNIT      DATA TYPE    INFORMATION
#----------   ------------   ------------------------------
 STRT.F           16.0000:   START DEPTH
 STOP.F          484.5000:   STOP DEPTH
 STEP.F            0.5000:   STEP LENGTH
 NULL.          -999.2500:   NO VALUE
 COMP. FENIX & SCISSON INC:   COMPANY
 WELL. NPR 3 #83 SX 10-10:   WELL
 FLD .             TEAPOT:   FIELD
 LOC .      S10 T38N R78W:   LOCATION
 CNTY.            NATRONA:   COUNTY
 STAT.            WYOMING:   STATE
 CTRY. UNITED STATES OF AMERICA:   COUNTRY
 SRVC.           BIRDWELL:   SERVICE COMPANY
 DATE.        25-NOV-1978:   LOGDATE
 API .       490251075200:   API NUMBER
~CURVE INFORMATION
#MNEM.UNIT       API CODE    CURVE DESCRIPTION
#----------   ------------   ------------------------------
 DEPT.F                  :   
 SPR .MV     05 010 01 00:   SPONTANEOUS POTENTIAL FROM RES.
 SN  .OHMM   05 040 16 00:   SHORT NORMAL 16"
 IL  .OHMM   05 120 00 00:   INDUCTION LOG
 CALD.IN     45 280 60 00:   CALIPER
 GRD .GAPI   45 310 01 00:   GAMMA RAY FROM DENSITY LOG
 CORR.G/C3   45 356 01 00:   DENSITY CORRECTION
 DPHI.DEC    45 890 12 00:   DENSITY POROSITY SANDSTONE
 RHOB.G/C3   45 350 01 00:   BULK DENSITY
~PARAMETER INFORMATION
#MNEM.UNIT          VALUE    DESCRIPTION
#----------   ------------   ------------------------------
 PD  .                 GL:   PERMANENT DATUM
 EPD .F              5145:   ELEVATION PERMANENT DATUM
 LMF .                 KB:   LOG MEASURED FROM
 DAPD.F                 4:   FEET ABOVE PERMANENT DATUM
 DMF .                 KB:   DRILLING MEASURED FROM
 EKB .F              5149:   KELLING BUSHING
 EGL .F              5145:   GROUND LEVEL
 DATE.           11-25-78:   RUN DATE
 RUN .                  1:   RUN NUMBER
 DD  .F               490:   DEPTH DRILLER
 DL  .F               487:   DEPTH LOGGER
 BLI .F               481:   BOTTOM LOG INTERVAL
 TLI .F                30:   TOP LOG INTERVAL
 CS  .IN            8.625:   CASING SIZE
 CBD .F                40:   CASING BOTTOM DRILLER
 CBL .F                35:   CASING BOTTOM LOGGER
 BS  .IN            7.875:   BIT SIZE
 BSD .F               490:   BIT SIZE AT DEPTH
 DFT .             SEAMUD:   DRILLING FLUID TYPE
 DFD .                8.8:   DRILLING FLUID DENSITY
 DFV .                 38:   DRILLING FLUID VISCOSITY
 DFPH.               11.1:   DRILLING FLUID PH
 DFL .                9.6:   DRILLING FLUID LOSS
 MSS .           FLOWLINE:   MUD SAMPLE SOURCE
 RMS .OHMM            .28:   RESISTIVITY MUD SAMPLE
 MST .F                58:   MUD SAMPLE TEMPERATURE
 RMF .OHMM            .25:   RESISTIVITY MUD FILTRATE SAMPLE
 MFST.F                70:   MUD FILTRATE SAMPLE TEMPERATURE
 RMC .OHMM             .3:   RESISTIVITY MUD CAKE
 MCST.F                70:   MUD CAKE SAMPLE TEMPERATURE
 MFSS.           MEASURED:   MUD FILTRATE SAMPLE SOURCE
 MCSS.           MEASURED:   MUD CAKE SAMPLE SOURCE
 BHT .F                58:   BOTTOM HOLE TEMPERATURE
 TCS .HRS               3:   TIME CURCULATED STOPPED
 MRT .F                58:   MAXIMUM RECORDED TEMPERATURE
 LUN .               3029:   LOGGING UNIT NUMBER
 LUL .               CASP:   LOGGING UNIT LOCATION
 ENGI.           REYNOLDS:   RECORDING ENGINEER
 WITN.           DINSMORE:   WITNESSED BY
 CLNT.            A2DTECH:   CLIENT CODE
 ORIG.     1", 2.5" PRINT:   ORIGIN OF DATA
 UWI .       490251075200:   UNIQUE WELL ID
 DICO. A2D Technologies, Inc.:   DIGITIZING COMPANY
~OTHER INFORMATION
~A   DEPT      SPR         SN         IL       CALD         GRD      CORR       DPHI       RHOB   
# ...
  259.0000   -49.4460     8.3300     7.6750     7.4520   117.0750     0.0400     0.1050     2.5110
  259.5000   -49.5110     8.5660     7.8750     7.4480   115.6210     0.0350     0.1080     2.5090
  260.0000   -49.5850     8.8020     8.0750     7.4460   113.8790     0.0300     0.1140     2.4990
  260.5000   -49.4160     9.0380     8.2790     7.4450   115.2670     0.0280     0.1190     2.4910
  261.0000   -49.1730     9.2740     8.3100     7.4430   117.9680     0.0280     0.1240     2.4840
  261.5000   -48.9380     9.4580     8.3410     7.4420   119.4520     0.0280     0.1230     2.4840
  262.0000   -48.7020     9.5460     8.3720     7.4400   119.8350     0.0280     0.1220     2.4850
  262.5000   -48.4660     9.6330     8.4040     7.4390   119.4730     0.0280     0.1250     2.4810
  263.0000   -48.2290     9.7200     8.4350     7.4370   119.1170     0.0230     0.1310     2.4720
  263.5000   -47.9950     9.7850     8.4670     7.4360   118.9890     0.0200     0.1370     2.4660
  264.0000   -47.7550     9.7850     8.4980     7.4340   117.5530     0.0230     0.1340     2.4660
  264.5000   -47.5260     9.7850     8.5290     7.4330   115.3900     0.0260     0.1280     2.4750
  265.0000   -47.2760     9.7850     8.5610     7.4310   113.3130     0.0300     0.1210     2.4860
  265.5000   -47.1870     9.7850     8.5920     7.4300   113.5920     0.0320     0.1190     2.4890
  266.0000   -47.1750     9.7850     8.6240     7.4280   113.9550     0.0300     0.1230     2.4800
  266.5000   -47.3590     9.7850     8.6550     7.4270   115.5680     0.0290     0.1290     2.4740
  267.0000   -47.7350     9.7850     8.6860     7.4250   118.2500     0.0320     0.1250     2.4800
  267.5000   -48.0710     9.7850     8.7170     7.4240   120.3290     0.0350     0.1190     2.4870
  268.0000   -48.4220     9.7850     8.7530     7.4220   119.5800     0.0300     0.1150     2.4920
  268.5000   -48.7710     9.7850     8.7970     7.4210   117.1900     0.0230     0.1180     2.4900
  269.0000   -49.1120     9.7850     8.8470     7.4200   115.0230     0.0170     0.1210     2.4870
  269.5000   -49.4700     9.7850     8.8980     7.4180   112.9160     0.0140     0.1240     2.4840
  270.0000   -49.6090     9.7850     8.9170     7.4170   114.2970     0.0100     0.1340     2.4670
  270.5000   -49.5200     9.7850     8.7090     7.4150   116.9730     0.0070     0.1430     2.4510
  271.0000   -49.4290     9.5990     8.1710     7.4140   121.2180     0.0040     0.1520     2.4320
  271.5000   -49.3320     9.2540     7.6330     7.4120   125.3780     0.0070     0.1770     2.3970
  272.0000   -49.2370     8.6470     7.0960     7.4110   130.3270     0.0120     0.2060     2.3550
  272.5000   -49.1420     7.9990     6.5030     7.4090   125.3290     0.0290     0.1940     2.3640
  273.0000   -49.0460     7.3520     6.5030     7.4070   112.8350     0.0330     0.1700     2.3950
  273.5000   -48.9520     6.8760     6.5030     7.3920   108.1100     0.0180     0.1470     2.4340
  274.0000   -48.8560     6.8760     6.5030     7.3690   108.1720     0.0130     0.1290     2.4730
  274.5000   -48.7620     7.8050     6.5030     7.3470   109.3710     0.0180     0.1190     2.4920
  275.0000   -48.6650     8.6990     6.8040     7.3260   110.7690     0.0210     0.1170     2.4930
  275.5000   -48.5720     9.4280     7.0050     7.3020   112.0420     0.0260     0.1140     2.4950
  276.0000   -48.4760     9.9860     8.1450     7.2950   113.8820     0.0280     0.1150     2.4980
  276.5000   -48.3690    10.4570     9.1090     7.3290   117.1360     0.0280     0.1170     2.4950
  277.0000   -48.0700    10.9290    10.0730     7.3620   119.7550     0.0280     0.1180     2.4910
  277.5000   -47.7940    11.3520    10.9380     7.3970   118.8100     0.0280     0.1160     2.4940
  278.0000   -47.5080    11.6230    10.9380     7.4300   115.7950     0.0280     0.1150     2.4960
  278.5000   -47.2330    11.8690    10.9380     7.4650   110.4530     0.0280     0.1130     2.4990
  279.0000   -46.9410    12.1150    10.9380     7.4990   104.2040     0.0300     0.1110     2.5010
  279.5000   -46.6810    12.3610    10.9380     7.5250    98.0900     0.0330     0.1090     2.5030
  280.0000   -46.3590    12.8230    10.9380     7.5080    89.8040     0.0360     0.1110     2.5000
  280.5000   -46.1640    13.4230    11.4260     7.4920    80.6720     0.0340     0.1160     2.4960
  281.0000   -45.3040    13.9240    12.0390     7.4740    71.3440     0.0320     0.1310     2.4640
  281.5000   -43.8840    15.2970    12.6900     7.4580    64.0850     0.0300     0.1550     2.4130
  282.0000   -42.8330    16.4770    14.5250     7.4400    59.6670     0.0290     0.1980     2.3640
  282.5000   -42.7750    17.6580    16.4790     7.4240    61.1650     0.0320     0.2410     2.3150
  283.0000   -42.7630    18.8380    18.4340     7.4060    66.3250     0.0360     0.2490     2.2780
  283.5000   -42.7480    20.1870    20.3880     7.3900    71.8870     0.0420     0.2270     2.2940
  284.0000   -42.1180    20.8400    22.3430     7.3720    74.8560     0.0510     0.2090     2.3450
  284.5000   -41.3410    21.7430    23.8580     7.3690    74.1440     0.0470     0.1980     2.3550
  285.0000   -40.5700    21.9710    26.2930     7.3740    72.1540     0.0420     0.1980     2.3580
  285.5000   -39.8030    22.2490    28.7270     7.3780    72.2490     0.0360     0.1970     2.3590
  286.0000   -39.0290    22.5280    28.2380     7.3830    73.3440     0.0300     0.1980     2.3580
  286.5000   -38.2650    22.8070    27.6090     7.3870    74.1920     0.0240     0.2010     2.3520
  287.0000   -37.4820    23.0850    26.6700     7.3910    72.4680     0.0180     0.2150     2.3320
  287.5000   -36.7380    23.3640    26.8510     7.3950    69.3380     0.0120     0.2340     2.3020
  288.0000   -35.9050    23.6430    27.2040     7.4000    67.3070     0.0090     0.2530     2.2710
  288.5000   -35.5640    23.9220    27.5570     7.4040    68.4980     0.0130     0.2730     2.2380
  289.0000   -35.7570    24.2000    28.2710     7.4020    68.7720     0.0150     0.2780     2.2250
  289.5000   -35.8640    24.4790    29.1760     7.3820    67.6910     0.0140     0.2780     2.2270
  290.0000   -36.0110    24.7580    30.0810     7.3630    66.6440     0.0130     0.2760     2.2320
  290.5000   -36.1420    25.0360    30.9860     7.3430    69.8860     0.0260     0.2750     2.2380
  291.0000   -36.2730    25.3150    31.8910     7.3230    74.0680     0.0390     0.2510     2.2540
  291.5000   -36.4190    25.5940    32.1130     7.3030    75.3180     0.0550     0.2300     2.2860
  292.0000   -36.5280    25.8730    32.1130     7.2840    74.9180     0.0610     0.2100     2.3180
  292.5000   -36.7160    26.1800    32.1130     7.2640    73.7730     0.0660     0.2060     2.3400
  293.0000   -36.4560    26.2520    32.1130     7.2440    72.8480     0.0720     0.2170     2.3250
  293.5000   -35.7550    26.3330    32.1130     7.2240    71.6840     0.0770     0.2270     2.3130
  294.0000   -35.1800    26.4140    32.1130     7.2050    72.3980     0.0870     0.2180     2.3240
  294.5000   -35.2080    26.4950    32.1130     7.1850    73.3360     0.1010     0.1980     2.3530
  295.0000   -35.3510    26.5760    32.1130     7.1650    74.5870     0.1160     0.1730     2.3910
  295.5000   -35.4790    26.6560    32.1130     7.1750    73.2500     0.1290     0.1460     2.4250
  296.0000   -35.6050    26.7370    32.1130     7.2080    69.9340     0.1450     0.1410     2.4550
  296.5000   -35.7360    26.8170    32.1130     7.2150    69.5380     0.1310     0.1720     2.4300
  297.0000   -35.8630    26.8970    32.7140     7.2560    70.0730     0.0980     0.2120     2.3410
  297.5000   -35.9940    26.9800    33.5820     7.2910    71.7460     0.0700     0.2520     2.2700
  298.0000   -36.1170    27.0660    34.5270     7.3300    74.1820     0.0570     0.2710     2.2400
  298.5000   -36.2610    27.1570    35.4710     7.3670    76.0810     0.0560     0.2660     2.2500
  299.0000   -36.2410    26.9800    36.5700     7.4060    74.4800     0.0560     0.2510     2.2680
