~VERSION INFORMATION
 VERS.                2.0:   CWLS LOG ASCII STANDARD - VERSION 2.0
 WRAP.                 NO:   ONE LINE PER DEPTH STEP
~WELL INFORMATION
#MNEM.UNIT      DATA TYPE    INFORMATION
#----------   ------------   ------------------------------
 STRT.F           26.0000:   START DEPTH
 STOP.F         1071.0000:   STOP DEPTH
 STEP.F            0.5000:   STEP LENGTH
 NULL.          -999.2500:   NO VALUE
 COMP. FENIX & SCISSON INC:   COMPANY
 WELL.       NRP 3 #61-14:   WELL
 FLD .        TEAPOT DOME:   FIELD
 LOC .      S14 T38N R78W:   LOCATION
 CNTY.            NATRONA:   COUNTY
 STAT.            WYOMING:   STATE
 CTRY. UNITED STATES OF AMERICA:   COUNTRY
 SRVC.            Unknown:   SERVICE COMPANY
 DATE.        09-JAN-1979:   LOGDATE
 API .       490251076300:   API NUMBER
~CURVE INFORMATION
#MNEM.UNIT       API CODE    CURVE DESCRIPTION
#----------   ------------   ------------------------------
 DEPT.F                  :   
 SPR .MV     05 010 01 00:   SPONTANEOUS POTENTIAL FROM RES.
 SN  .OHMM   05 040 16 00:   SHORT NORMAL 16"
 IL  .OHMM   05 120 00 00:   INDUCTION LOG
 CALD.IN     45 280 60 00:   CALIPER
 GRD .GAPI   45 310 01 00:   GAMMA RAY FROM DENSITY LOG
 RHOB.G/C3   45 350 01 00:   BULK DENSITY
 DPHI.DEC    45 890 12 00:   DENSITY POROSITY SANDSTONE
 CORR.G/C3   45 356 01 00:   DENSITY CORRECTION
~PARAMETER INFORMATION
#MNEM.UNIT          VALUE    DESCRIPTION
#----------   ------------   ------------------------------
 PD  .                 GL:   PERMANENT DATUM
 EPD .F              5240:   ELEVATION PERMANENT DATUM
 LMF .                 KB:   LOG MEASURED FROM
 DAPD.F                 4:   FEET ABOVE PERMANENT DATUM
 DMF .                 KB:   DRILLING MEASURED FROM
 EKB .F              5244:   KELLING BUSHING
 EGL .F              5240:   GROUND LEVEL
 DATE.             1-9-79:   RUN DATE
 RUN .                  1:   RUN NUMBER
 DD  .F              1061:   DEPTH DRILLER
 DL  .F              1071:   DEPTH LOGGER
 BLI .F              1064:   BOTTOM LOG INTERVAL
 TLI .F                50:   TOP LOG INTERVAL
 CS  .IN            8.625:   CASING SIZE
 CBD .F                40:   CASING BOTTOM DRILLER
 CBL .F                38:   CASING BOTTOM LOGGER
 BS  .IN            7.875:   BIT SIZE
 BSD .F              1061:   BIT SIZE AT DEPTH
 DFT .                KCL:   DRILLING FLUID TYPE
 DFD .                8.8:   DRILLING FLUID DENSITY
 DFV .                 36:   DRILLING FLUID VISCOSITY
 DFPH.                9.2:   DRILLING FLUID PH
 MSS .           FLOWLINE:   MUD SAMPLE SOURCE
 RMS .OHMM             .3:   RESISTIVITY MUD SAMPLE
 MST .F                58:   MUD SAMPLE TEMPERATURE
 RMF .OHMM             .3:   RESISTIVITY MUD FILTRATE SAMPLE
 MFST.F                58:   MUD FILTRATE SAMPLE TEMPERATURE
 RMC .OHMM            .34:   RESISTIVITY MUD CAKE
 MCST.F                62:   MUD CAKE SAMPLE TEMPERATURE
 MFSS.           MEASURED:   MUD FILTRATE SAMPLE SOURCE
 MCSS.           MEASURED:   MUD CAKE SAMPLE SOURCE
 RMB .OHMM            .29:   RESISTIVITY MUD AT BHT
 BHT .F                61:   BOTTOM HOLE TEMPERATURE
 TCS .HRS               4:   TIME CURCULATED STOPPED
 MRT .F                61:   MAXIMUM RECORDED TEMPERATURE
 LUN .               3006:   LOGGING UNIT NUMBER
 LUL .             CASPER:   LOGGING UNIT LOCATION
 ENGI.            ROLLINS:   RECORDING ENGINEER
 WITN.           DINSMORE:   WITNESSED BY
 CLNT.            A2DTECH:   CLIENT CODE
 ORIG.           5" PRINT:   ORIGIN OF DATA
 UWI .       490251076300:   UNIQUE WELL ID
 DICO. A2D Technologies, Inc.:   DIGITIZING COMPANY
~OTHER INFORMATION
~A   DEPT      SPR         SN         IL       CALD         GRD      RHOB       DPHI       CORR   
# ...
  552.5000   -70.4500     6.6550     6.9650     7.9270   114.3200     2.4330     0.1520     0.1070
  553.0000   -70.4460     6.6710     6.9720     7.9270   115.3140     2.4340     0.1480     0.1070
  553.5000   -70.4420     6.6860     6.9790     7.9270   116.5060     2.4350     0.1450     0.1070
  554.0000   -70.4390     6.7020     6.9870     7.9260   117.2910     2.4360     0.1440     0.1070
  554.5000   -70.4350     6.7180     6.9940     7.9240   116.1640     2.4350     0.1480     0.1070
  555.0000   -70.4310     6.7330     7.0020     7.9230   115.0640     2.4350     0.1490     0.1070
  555.5000   -70.4280     6.7490     7.0090     7.9220   113.9810     2.4350     0.1490     0.1070
  556.0000   -70.4240     6.7650     7.0170     7.9210   112.2200     2.4340     0.1490     0.1070
  556.5000   -70.4210     6.7800     7.0240     7.9200   110.6080     2.4340     0.1510     0.1070
  557.0000   -70.4170     6.7960     7.0320     7.9190   110.4380     2.4340     0.1520     0.1080
  557.5000   -70.4130     6.8120     7.0390     7.9180   111.1010     2.4350     0.1490     0.1080
  558.0000   -70.4100     6.8270     7.0460     7.9160   111.2280     2.4360     0.1460     0.1080
  558.5000   -70.4060     6.8430     7.0540     7.9150   111.3940     2.4360     0.1440     0.1080
  559.0000   -70.4020     6.8580     7.0610     7.9140   112.7880     2.4370     0.1450     0.1080
  559.5000   -70.3990     6.8740     7.0690     7.9130   113.5110     2.4360     0.1460     0.1080
  560.0000   -70.3950     6.8880     7.0760     7.9120   113.6900     2.4340     0.1470     0.1090
  560.5000   -70.3910     6.7890     7.0820     7.9110   114.4760     2.4330     0.1510     0.1100
  561.0000   -70.3880     6.6990     6.9320     7.9100   115.2450     2.4310     0.1520     0.1110
  561.5000   -70.3840     6.6090     6.8170     7.9080   115.6950     2.4300     0.1520     0.1110
  562.0000   -70.3800     6.5200     6.7010     7.9070   115.2260     2.4300     0.1520     0.1120
  562.5000   -70.3770     6.4300     6.5760     7.9080   114.5270     2.4290     0.1530     0.1130
  563.0000   -70.3730     6.3910     6.5710     7.9090   114.6590     2.4290     0.1550     0.1140
  563.5000   -70.3690     6.3800     6.5660     7.9110   114.8330     2.4290     0.1540     0.1150
  564.0000   -70.3660     6.3690     6.5610     7.9120   114.2380     2.4290     0.1500     0.1160
  564.5000   -70.3620     6.3580     6.5560     7.9130   113.7160     2.4350     0.1470     0.1160
  565.0000   -70.3580     6.3470     6.5500     7.9150   114.3910     2.4410     0.1460     0.1190
  565.5000   -70.3550     6.3360     6.5450     7.9160   115.9870     2.4440     0.1440     0.1220
  566.0000   -70.3510     6.3250     6.5400     7.9180   117.5340     2.4450     0.1440     0.1300
  566.5000   -70.3470     6.3140     6.5350     7.9190   119.0720     2.4460     0.1450     0.1630
  567.0000   -70.3440     6.3030     6.5300     7.9210   120.6120     2.4470     0.1440     0.1950
  567.5000   -70.3400     6.2930     6.5250     7.9220   122.0320     2.4480     0.1440     0.2010
  568.0000   -70.3360     6.2810     6.5170     7.9240   120.9180     2.4490     0.1410     0.1680
  568.5000   -70.3330     6.2230     6.5160     7.9250   116.7960     2.4530     0.1250     0.1340
  569.0000   -70.3290     6.2790     6.5570     7.9260   113.9560     2.4640     0.1100     0.1080
  569.5000   -70.3250     6.3550     6.6130     7.9090   114.1180     2.4880     0.0930     0.1070
  570.0000   -70.3220     6.4310     6.6690     7.8920   114.2930     2.5120     0.1030     0.1060
  570.5000   -70.3180     6.5070     6.7250     7.8750   114.4910     2.5180     0.1240     0.1060
  571.0000   -70.3150     6.5830     6.7800     7.8580   113.8110     2.4910     0.1420     0.1060
  571.5000   -70.3110     6.7000     6.8360     7.8470   113.0650     2.4550     0.1480     0.1060
  572.0000   -70.3070     6.6980     6.8880     7.8470   112.9310     2.4400     0.1510     0.1060
  572.5000   -70.3040     6.6940     6.8930     7.8460   112.7820     2.4360     0.1490     0.1050
  573.0000   -70.3000     6.6900     6.8980     7.8450   112.1600     2.4360     0.1450     0.1050
  573.5000   -70.2960     6.6860     6.9030     7.8450   111.1690     2.4370     0.1440     0.1050
  574.0000   -70.2930     6.6820     6.9070     7.8440   111.0640     2.4370     0.1440     0.1050
  574.5000   -70.2890     6.6780     6.9120     7.8440   111.0070     2.4370     0.1420     0.1050
  575.0000   -70.2850     6.6750     6.9170     7.8430   110.9190     2.4380     0.1430     0.1050
  575.5000   -70.2820     6.6710     6.9210     7.8430   109.2510     2.4380     0.1450     0.1040
  576.0000   -70.2780     6.6670     6.9260     7.8420   107.3390     2.4360     0.1480     0.1030
  576.5000   -70.2740     6.6630     6.9310     7.8420   106.8600     2.4340     0.1520     0.1020
  577.0000   -70.2710     6.6590     6.9360     7.8410   110.2780     2.4300     0.1550     0.1010
  577.5000   -70.2670     6.6550     6.9400     7.8410   112.2470     2.4280     0.1530     0.1010
  578.0000   -70.2630     6.6510     6.9450     7.8400   114.0190     2.4280     0.1490     0.1020
  578.5000   -70.2600     6.6470     6.9500     7.8390   115.7740     2.4290     0.1520     0.1030
  579.0000   -70.2560     6.6430     6.9520     7.8390   117.5390     2.4280     0.1550     0.1040
  579.5000   -70.2520     6.6390     6.9760     7.8380   117.6220     2.4250     0.1580     0.1050
  580.0000   -70.2490     6.6730     7.0220     7.8380   117.0030     2.4220     0.1610     0.1060
  580.5000   -70.2450     6.7110     7.0680     7.8370   116.9890     2.4210     0.1600     0.1060
  581.0000   -70.2410     6.7500     7.1130     7.8370   116.7210     2.4210     0.1520     0.1070
  581.5000   -70.2380     6.7880     7.1590     7.8360   115.4360     2.4250     0.1460     0.1080
  582.0000   -70.2340     6.8260     7.2050     7.8360   113.2350     2.4380     0.1440     0.1090
  582.5000   -70.2300     6.8640     7.2510     7.8350   112.6860     2.4450     0.1420     0.1100
  583.0000   -70.2270     6.9020     7.2970     7.8350   112.6040     2.4460     0.1410     0.1110
  583.5000   -70.2230     6.9410     7.3430     7.8340   112.5330     2.4470     0.1430     0.1120
  584.0000   -70.2190     6.9790     7.3890     7.8330   112.4640     2.4470     0.1460     0.1120
  584.5000   -70.2090     7.0160     7.4160     7.8330   112.4010     2.4460     0.1440     0.1120
  585.0000   -70.1970     7.0820     7.4160     7.8320   112.3290     2.4460     0.1410     0.1120
  585.5000   -70.1850     7.0540     7.3450     7.8320   110.6420     2.4490     0.1370     0.1110
  586.0000   -70.1740     6.9840     7.2570     7.8310   108.6730     2.4520     0.1340     0.1110
  586.5000   -70.1620     6.9140     7.1680     7.8310   108.2200     2.4540     0.1330     0.1100
  587.0000   -70.1500     6.8440     7.0800     7.8300   110.1850     2.4540     0.1380     0.1100
  587.5000   -70.1380     6.7750     6.9910     7.8300   111.0550     2.4510     0.1420     0.1090
  588.0000   -70.1270     6.7050     6.9020     7.8290   110.8640     2.4470     0.1460     0.1090
  588.5000   -70.1150     6.6350     6.8140     7.8290   110.7000     2.4420     0.1480     0.1080
  589.0000   -70.1030     6.5650     6.7250     7.8280   110.5550     2.4410     0.1470     0.1080
  589.5000   -70.0920     6.5170     6.7000     7.8310   110.9060     2.4420     0.1450     0.1070
  590.0000   -70.0800     6.5170     6.7000     7.9230   113.3780     2.4450     0.1440     0.1070
  590.5000   -70.0680     6.5170     6.7000     8.1400   116.6120     2.4480     0.1390     0.1070
  591.0000   -70.0560     6.5590     6.7770     7.8170   115.5500     2.4520     0.1350     0.1030
  591.5000   -70.0450     6.7180     6.8890     7.7890   113.3980     2.4580     0.1300     0.1000
  592.0000   -70.0330     6.8770     7.0010     7.7880   111.2470     2.4640     0.1280     0.0960
  592.5000   -70.0210     7.0370     7.2220     7.7880   109.3760     2.4710     0.1190     0.0930
