~VERSION INFORMATION
 VERS.                2.0:   CWLS LOG ASCII STANDARD - VERSION 2.0
 WRAP.                 NO:   ONE LINE PER DEPTH STEP
~WELL INFORMATION
#MNEM.UNIT      DATA TYPE    INFORMATION
#----------   ------------   ------------------------------
 STRT.F           45.5000:   START DEPTH
 STOP.F          740.0000:   STOP DEPTH
 STEP.F            0.5000:   STEP LENGTH
 NULL.          -999.2500:   NO VALUE
 COMP. FENIX & SCISSON INC:   COMPANY
 WELL.       NPR 3 #22-14:   WELL
 FLD .             TEAPOT:   FIELD
 LOC .      S14 T38N R78W:   LOCATION
 CNTY.            NATRONA:   COUNTY
 STAT.            WYOMING:   STATE
 CTRY. UNITED STATES OF AMERICA:   COUNTRY
 SRVC.           BIRDWELL:   SERVICE COMPANY
 DATE.        23-DEC-1978:   LOGDATE
 API .       490251075800:   API NUMBER
~CURVE INFORMATION
#MNEM.UNIT       API CODE    CURVE DESCRIPTION
#----------   ------------   ------------------------------
 DEPT.F                  :   
 SPR .MV     05 010 01 00:   SPONTANEOUS POTENTIAL FROM RES.
 SN  .OHMM   05 040 16 00:   SHORT NORMAL 16"
 IL  .OHMM   05 120 00 00:   INDUCTION LOG
 CALD.IN     45 280 60 00:   CALIPER
 GRD .GAPI   45 310 01 00:   GAMMA RAY FROM DENSITY LOG
 RHOB.G/C3   45 350 01 00:   BULK DENSITY
 DPHI.DEC    45 890 12 00:   DENSITY POROSITY SANDSTONE
 CORR.G/C3   45 356 01 00:   DENSITY CORRECTION
~PARAMETER INFORMATION
#MNEM.UNIT          VALUE    DESCRIPTION
#----------   ------------   ------------------------------
 PD  .                 GL:   PERMANENT DATUM
 EPD .F              5212:   ELEVATION PERMANENT DATUM
 LMF .                 KB:   LOG MEASURED FROM
 DAPD.F                 4:   FEET ABOVE PERMANENT DATUM
 DMF .                 KB:   DRILLING MEASURED FROM
 EKB .F              5216:   KELLING BUSHING
 EGL .F              5212:   GROUND LEVEL
 DATE.           12-23-78:   RUN DATE
 RUN .                  1:   RUN NUMBER
 DD  .F               735:   DEPTH DRILLER
 DL  .F               740:   DEPTH LOGGER
 BLI .F               733:   BOTTOM LOG INTERVAL
 TLI .F                50:   TOP LOG INTERVAL
 CS  .IN            8.625:   CASING SIZE
 CBD .F                40:   CASING BOTTOM DRILLER
 CBL .F                40:   CASING BOTTOM LOGGER
 BS  .IN            7.875:   BIT SIZE
 BSD .F               735:   BIT SIZE AT DEPTH
 DFT .                KCL:   DRILLING FLUID TYPE
 DFD .                8.7:   DRILLING FLUID DENSITY
 DFV .                 35:   DRILLING FLUID VISCOSITY
 DFPH.               10.5:   DRILLING FLUID PH
 DFL .               11.6:   DRILLING FLUID LOSS
 MSS .           FLOWLINE:   MUD SAMPLE SOURCE
 RMS .OHMM             .5:   RESISTIVITY MUD SAMPLE
 MST .F                60:   MUD SAMPLE TEMPERATURE
 RMF .OHMM             .5:   RESISTIVITY MUD FILTRATE SAMPLE
 MFST.F                60:   MUD FILTRATE SAMPLE TEMPERATURE
 RMC .OHMM             .7:   RESISTIVITY MUD CAKE
 MCST.F                60:   MUD CAKE SAMPLE TEMPERATURE
 MFSS.           MEASURED:   MUD FILTRATE SAMPLE SOURCE
 MCSS.           MEASURED:   MUD CAKE SAMPLE SOURCE
 RMB .OHMM           .518:   RESISTIVITY MUD AT BHT
 BHT .F                58:   BOTTOM HOLE TEMPERATURE
 TCS .HRS               5:   TIME CURCULATED STOPPED
 MRT .F                58:   MAXIMUM RECORDED TEMPERATURE
 LUN .               2958:   LOGGING UNIT NUMBER
 LUL .             CASPER:   LOGGING UNIT LOCATION
 ENGI.         B. ROLLINS:   RECORDING ENGINEER
 WITN.              IMMEL:   WITNESSED BY
 CLNT.            A2DTECH:   CLIENT CODE
 ORIG.           5" PRINT:   ORIGIN OF DATA
 UWI .       490251075800:   UNIQUE WELL ID
 DICO. A2D Technologies, Inc.:   DIGITIZING COMPANY
~OTHER INFORMATION
~A   DEPT      SPR         SN         IL       CALD         GRD      RHOB       DPHI       CORR   
# ...
  531.5000   -82.4670    15.9570    20.4400     7.8940    94.6110     2.5550     0.0790     0.1910
  532.0000   -82.4620    16.6560    21.6940     7.8480    94.3250     2.5640     0.0940     0.2360
  532.5000   -82.4440    16.8340    21.9220     7.8560    93.9150     2.5310     0.1040     0.2800
  533.0000   -80.9620    17.0120    21.9580     7.8760    91.2630     2.5010     0.1110     0.3250
  533.5000   -78.7290    17.1710    21.9950     7.7950    83.4710     2.5070     0.1240     0.3700
  534.0000   -76.4920    17.3190    22.0320     7.7900    70.4370     2.5100     0.1480     0.2870
  534.5000   -74.6740    17.4670    22.0690     7.8290    54.5400     2.4630     0.1320     0.1910
  535.0000   -74.0430    17.6150    22.1060     7.8140    48.3750     2.4410     0.0860     0.1310
  535.5000   -73.0900    17.7640    22.1420     7.7950    46.9940     2.5170     0.1050     0.1050
  536.0000   -72.0660    17.8800    22.1790     7.8060    48.4190     2.5230     0.1400     0.1040
  536.5000   -71.8830    17.8800    22.2160     7.8380    53.3160     2.4620     0.1760     0.1020
  537.0000   -71.9250    17.8800    22.2530     7.8700    58.0270     2.4140     0.1790     0.1000
  537.5000   -71.9740    17.8800    22.2970     7.9030    61.4920     2.3860     0.1820     0.0990
  538.0000   -72.0210    17.8800    21.8830     7.8910    62.5080     2.3810     0.1690     0.1010
  538.5000   -71.6920    17.7720    21.3650     7.8570    62.0170     2.3930     0.1610     0.1290
  539.0000   -70.6970    17.4980    20.8460     7.8820    60.8120     2.4070     0.1600     0.1660
  539.5000   -69.7960    17.2230    20.3280     7.9370    59.9170     2.4180     0.1620     0.1930
  540.0000   -69.4950    16.9480    19.8100     7.9860    59.2180     2.4140     0.1510     0.2110
  540.5000   -69.2380    16.6740    19.2910     7.9110    58.5480     2.4160     0.1360     0.2350
  541.0000   -69.2370    16.4970    18.5500     7.9230    58.1770     2.4390     0.1360     0.2770
  541.5000   -69.2380    16.3490    18.7180     7.9160    58.1140     2.4570     0.1350     0.3190
  542.0000   -69.2380    16.2010    18.6800     7.8560    58.5370     2.4600     0.1320     0.3560
  542.5000   -69.2390    16.0530    18.6490     7.7970    66.3760     2.4620     0.1250     0.3520
  543.0000   -69.2390    15.9050    18.6190     7.7380    67.4180     2.4730     0.1120     0.2870
  543.5000   -69.2380    15.7570    18.5880     7.6790    67.5590     2.4910     0.0910     0.2190
  544.0000   -69.2380    15.6780    18.5580     7.6210    67.6710     2.5290     0.0530     0.1540
  544.5000   -68.9710    15.6020    18.5270     7.5690    68.1560     2.5830     0.0800     0.1640
  545.0000   -68.3460    15.5250    18.4970     7.5770    70.8260     2.5680     0.1090     0.1910
  545.5000   -67.8270    15.4490    18.4660     7.5830    73.4710     2.5130     0.1370     0.1990
  546.0000   -67.8000    15.3720    18.4350     7.5890    73.7350     2.4650     0.1400     0.1840
  546.5000   -67.7750    15.2960    18.4050     7.5950    72.7770     2.4500     0.1420     0.1670
  547.0000   -67.7520    15.2190    18.3740     7.6010    71.9190     2.4470     0.1470     0.1500
  547.5000   -67.7280    15.1620    18.3440     7.6070    71.8280     2.4450     0.1570     0.1330
  548.0000   -67.7050    15.2830    18.3130     7.6130    71.8070     2.4320     0.1670     0.1160
  548.5000   -67.6820    15.4330    18.2830     7.6200    71.8970     2.4180     0.1730     0.1040
  549.0000   -67.6560    15.3820    18.2520     7.6260    71.9910     2.4030     0.1780     0.1000
  549.5000   -67.5960    15.3090    18.2220     7.6340    72.0860     2.3950     0.1850     0.1020
  550.0000   -66.9330    15.2360    18.1650     7.6480    72.0460     2.3850     0.1920     0.1150
  550.5000   -65.9350    15.1630    18.0980     7.6630    69.8400     2.3730     0.1990     0.1300
  551.0000   -65.4360    15.0900    18.0310     7.6770    67.7020     2.3600     0.2020     0.1440
  551.5000   -65.4330    15.0170    17.9640     7.6910    65.7870     2.3480     0.2010     0.1320
  552.0000   -65.4300    14.9440    17.8970     7.7050    66.7840     2.3460     0.1880     0.1160
  552.5000   -65.4300    14.8710    17.8300     7.7200    71.6670     2.3680     0.1710     0.1090
  553.0000   -65.4310    14.7980    17.7630     7.7300    73.0550     2.3810     0.1920     0.1260
  553.5000   -65.4330    14.7250    17.7180     7.7270    72.4640     2.3750     0.1950     0.1450
  554.0000   -65.3740    14.6520    17.7290     7.7240    69.7300     2.3690     0.1970     0.1650
  554.5000   -65.2850    14.5790    17.7390     7.7210    67.0870     2.3610     0.1820     0.1410
  555.0000   -65.0320    14.5060    17.7500     7.7190    66.5210     2.3760     0.1650     0.0940
  555.5000   -64.2810    14.4560    17.7600     7.7160    66.2340     2.4090     0.1500     0.0840
  556.0000   -63.6310    14.4270    17.7710     7.7130    66.2260     2.4250     0.1430     0.0820
  556.5000   -63.6240    14.3970    17.7820     7.7110    66.3150     2.4350     0.1660     0.0820
  557.0000   -63.6270    14.3680    17.7920     7.7100    66.6440     2.4200     0.1670     0.0800
  557.5000   -63.6270    14.3390    17.8030     7.7100    68.7460     2.4050     0.1660     0.0790
  558.0000   -63.6270    14.3100    17.8140     7.7100    70.8280     2.4060     0.1640     0.0800
  558.5000   -63.6280    14.2800    17.8240     7.7100    71.5790     2.4060     0.1680     0.0880
  559.0000   -63.7350    14.2510    17.8350     7.7100    68.8830     2.4060     0.1730     0.0950
  559.5000   -63.8550    14.2220    17.8460     7.7100    67.7760     2.4000     0.1730     0.1020
  560.0000   -63.9760    14.1920    17.8560     7.7100    68.1570     2.3950     0.1720     0.0980
  560.5000   -64.0980    14.1630    17.8670     7.7100    69.8010     2.3970     0.1700     0.0870
  561.0000   -64.2230    14.1340    17.8800     7.7100    71.4190     2.4000     0.1690     0.0750
  561.5000   -64.2300    14.1050    17.8100     7.7120    73.0340     2.4020     0.1670     0.0730
  562.0000   -64.2320    14.0750    17.7150     7.7230    74.5400     2.4040     0.1760     0.0710
  562.5000   -64.0820    14.0460    17.6210     7.7330    74.8010     2.3990     0.1700     0.0700
  563.0000   -63.8740    14.0170    17.5260     7.7420    74.9810     2.3950     0.1640     0.0700
  563.5000   -63.6650    13.9880    17.4310     7.7500    75.1430     2.4040     0.1600     0.0690
  564.0000   -63.4540    13.9580    17.3370     7.7420    75.3130     2.4140     0.1570     0.0690
  564.5000   -63.2360    13.9290    17.2420     7.7340    75.4810     2.4220     0.1550     0.0680
  565.0000   -63.2250    13.9000    17.1470     7.7270    75.7280     2.4240     0.1590     0.0780
  565.5000   -63.2270    13.8700    17.0520     7.7190    76.0590     2.4230     0.1640     0.0960
  566.0000   -63.2270    13.8410    16.9580     7.7110    77.5950     2.4150     0.1680     0.1150
  566.5000   -63.1700    13.8120    16.8630     7.7040    78.0530     2.4030     0.1710     0.1340
  567.0000   -62.8800    13.7830    16.7650     7.6960    76.5280     2.4000     0.1680     0.1410
  567.5000   -62.3360    13.7530    16.8140     7.6850    74.2820     2.4010     0.1630     0.1430
  568.0000   -61.8040    13.7250    16.8640     7.6630    72.9440     2.4110     0.1580     0.1450
  568.5000   -61.2410    13.6950    16.9150     7.6410    72.8830     2.4210     0.1540     0.1470
  569.0000   -60.4490    13.7450    16.9650     7.6190    72.8060     2.4250     0.1580     0.1540
  569.5000   -59.9060    13.7960    17.0150     7.5970    72.7330     2.4210     0.1610     0.1830
  570.0000   -59.4470    13.8470    17.0770     7.5750    72.6640     2.4130     0.1640     0.2150
  570.5000   -59.2200    13.8980    17.0450     7.5530    72.5960     2.4060     0.1670     0.2490
  571.0000   -59.2190    13.9500    17.0030     7.5310    72.5300     2.4000     0.1680     0.2480
  571.5000   -59.2180    14.0010    16.9620     7.5090    72.4620     2.4060     0.1550     0.2250
