~VERSION INFORMATION
 VERS.                2.0:   CWLS LOG ASCII STANDARD - VERSION 2.0
 WRAP.                 NO:   ONE LINE PER DEPTH STEP
~WELL INFORMATION
#MNEM.UNIT      DATA TYPE    INFORMATION
#----------   ------------   ------------------------------
 STRT.F           10.0000:   START DEPTH
 STOP.F          833.5000:   STOP DEPTH
 STEP.F            0.5000:   STEP LENGTH
 NULL.          -999.2500:   NO VALUE
 COMP. FENIX & SCISSON INC:   COMPANY
 WELL.       NPR 3 #46-11:   WELL
 FLD .             TEAPOT:   FIELD
 LOC .      S11 T38N R78W:   LOCATION
 CNTY.            NATRONA:   COUNTY
 STAT.            WYOMING:   STATE
 CTRY. UNITED STATES OF AMERICA:   COUNTRY
 SRVC.           BIRDWELL:   SERVICE COMPANY
 DATE.        17-DEC-1978:   LOGDATE
 API .       490251075600:   API NUMBER
~CURVE INFORMATION
#MNEM.UNIT       API CODE    CURVE DESCRIPTION
#----------   ------------   ------------------------------
 DEPT.F                  :   
 GRD .GAPI   45 310 01 00:   GAMMA RAY FROM DENSITY LOG
 CALD.IN     45 280 60 00:   CALIPER
 CORR.G/C3   45 356 01 00:   DENSITY CORRECTION
 DPHI.DEC    45 890 12 00:   DENSITY POROSITY SANDSTONE
 RHOB.G/C3   45 350 01 00:   BULK DENSITY
 SPR .MV     05 010 01 00:   SPONTANEOUS POTENTIAL FROM RES.
 SN  .OHMM   05 040 16 00:   SHORT NORMAL 16"
 IL  .OHMM   05 120 00 00:   INDUCTION LOG
~PARAMETER INFORMATION
#MNEM.UNIT          VALUE    DESCRIPTION
#----------   ------------   ------------------------------
 PD  .                 GL:   PERMANENT DATUM
 EPD .F              5193:   ELEVATION PERMANENT DATUM
 LMF .                 KB:   LOG MEASURED FROM
 DAPD.F                 4:   FEET ABOVE PERMANENT DATUM
 DMF .                 KB:   DRILLING MEASURED FROM
 EKB .F              5197:   KELLING BUSHING
 EGL .F              5193:   GROUND LEVEL
 DATE.           12-17-78:   RUN DATE
 RUN .                  1:   RUN NUMBER
 DD  .F               845:   DEPTH DRILLER
 DL  .F               834:   DEPTH LOGGER
 BLI .F               827:   BOTTOM LOG INTERVAL
 TLI .F                60:   TOP LOG INTERVAL
 CS  .IN            8.625:   CASING SIZE
 CBD .F                40:   CASING BOTTOM DRILLER
 CBL .F                42:   CASING BOTTOM LOGGER
 BS  .IN            7.875:   BIT SIZE
 BSD .F               845:   BIT SIZE AT DEPTH
 DFT .                KCL:   DRILLING FLUID TYPE
 DFD .                8.8:   DRILLING FLUID DENSITY
 DFV .                 36:   DRILLING FLUID VISCOSITY
 DFPH.               10.5:   DRILLING FLUID PH
 MSS .          FLOW LINE:   MUD SAMPLE SOURCE
 RMS .OHMM            .34:   RESISTIVITY MUD SAMPLE
 MST .F                62:   MUD SAMPLE TEMPERATURE
 RMF .OHMM            .26:   RESISTIVITY MUD FILTRATE SAMPLE
 MFST.F                66:   MUD FILTRATE SAMPLE TEMPERATURE
 RMC .OHMM            .42:   RESISTIVITY MUD CAKE
 MCST.F                68:   MUD CAKE SAMPLE TEMPERATURE
 MFSS.           MEASURED:   MUD FILTRATE SAMPLE SOURCE
 MCSS.           MEASURED:   MUD CAKE SAMPLE SOURCE
 RMB .OHMM           .288:   RESISTIVITY MUD AT BHT
 BHT .F                73:   BOTTOM HOLE TEMPERATURE
 TCS .HRS               4:   TIME CURCULATED STOPPED
 MRT .F                73:   MAXIMUM RECORDED TEMPERATURE
 LUN .               3006:   LOGGING UNIT NUMBER
 LUL .             CASPER:   LOGGING UNIT LOCATION
 ENGI.         B. ROLLINS:   RECORDING ENGINEER
 WITN.         RICHARDSON:   WITNESSED BY
 CLNT.            A2DTECH:   CLIENT CODE
 ORIG.           5" PRINT:   ORIGIN OF DATA
 UWI .       490251075600:   UNIQUE WELL ID
 DICO. A2D Technologies, Inc.:   DIGITIZING COMPANY
~OTHER INFORMATION
~A   DEPT      GRD       CALD       CORR       DPHI       RHOB        SPR         SN         IL   
# ...
  536.5000    99.4970     8.0370     0.0460     0.1480     2.4120   -23.1830     6.0010     6.2280
  537.0000    99.7360     8.0110     0.0500     0.1410     2.4250   -23.1970     6.0010     6.2280
  537.5000   100.0960     8.0480     0.0540     0.1330     2.4350   -23.2120     6.0010     6.2280
  538.0000   101.3330     8.1010     0.0580     0.1280     2.4460   -23.2270     6.0650     6.2280
  538.5000   102.7410     8.1500     0.0580     0.1260     2.4570   -23.2420     6.1460     6.3450
  539.0000   102.8740     8.1260     0.0570     0.1240     2.4610   -23.2560     6.2280     6.5430
  539.5000   102.5450     8.0930     0.0550     0.1230     2.4630   -23.2710     6.5060     6.7400
  540.0000   104.1990     8.0600     0.0490     0.1200     2.4650   -23.2860     6.9890     6.9380
  540.5000   106.5800     8.0270     0.0430     0.1170     2.4680   -23.3010     7.4730     7.1360
  541.0000   109.0240     7.9910     0.0360     0.1130     2.4740   -23.3150     7.8210     7.3340
  541.5000   109.6000     8.0340     0.0300     0.1100     2.4800   -23.3300     7.9130     7.5040
  542.0000   107.1030     8.0960     0.0330     0.1060     2.4860   -23.3450     8.0040     7.5040
  542.5000   105.1040     8.1580     0.0460     0.1030     2.4920   -23.3600     8.0950     7.5040
  543.0000   103.9820     8.1560     0.0580     0.1050     2.4980   -23.3740     8.1870     7.5040
  543.5000   103.7250     8.0860     0.0700     0.1100     2.4980   -23.3890     8.2780     7.5040
  544.0000   103.7890     8.2420     0.0780     0.1150     2.4900   -23.4040     8.3700     7.5040
  544.5000   103.8830     8.1940     0.0730     0.1210     2.4820   -23.4180     8.4610     7.5040
  545.0000   103.9780     8.1110     0.0660     0.1240     2.4740   -23.4330     8.5530     7.5050
  545.5000   104.0680     8.0500     0.0590     0.1160     2.4630   -23.4480     8.6440     7.5040
  546.0000   104.7350     8.0100     0.0520     0.1090     2.4710   -23.4620     8.7020     7.5040
  546.5000   106.1570     7.9700     0.0460     0.1020     2.4870   -23.4790     8.6690     7.5050
  547.0000   109.3960     7.9300     0.0510     0.0970     2.5040   -23.4980     8.6360     7.5050
  547.5000   113.1420     7.8900     0.0640     0.0970     2.5040   -23.6300     8.6030     7.5040
  548.0000   111.8770     7.8750     0.0770     0.0970     2.5020   -23.7800     8.5700     7.5050
  548.5000   109.6920     7.9700     0.0910     0.0960     2.5010   -23.9350     8.5380     7.5040
  549.0000   107.4710     8.0640     0.0940     0.0960     2.5020   -24.0860     8.5050     7.5040
  549.5000   105.6230     8.0280     0.0800     0.0940     2.5060   -24.2340     8.4720     7.4380
  550.0000   105.7210     7.9800     0.0610     0.0920     2.5110   -24.3680     8.4390     7.3560
  550.5000   106.5360     7.9330     0.0410     0.0890     2.5150   -24.4930     8.4070     7.2750
  551.0000   107.3200     7.8910     0.0220     0.0870     2.5200   -24.6150     8.3500     7.1930
  551.5000   107.6770     7.9300     0.0040     0.0850     2.5240   -24.7360     8.2770     7.1120
  552.0000   106.7180     7.9650     0.0000     0.0890     2.5270   -24.8580     8.2030     7.0300
  552.5000   105.7330     7.8730    -0.0010     0.0920     2.5200   -24.9790     8.1300     6.9490
  553.0000   106.9270     7.9070    -0.0010     0.0960     2.5130   -25.1010     8.0570     6.8670
  553.5000   108.9610     7.9880    -0.0020     0.0990     2.5060   -25.2240     7.9840     6.7850
  554.0000   110.0670     7.9690    -0.0020     0.1030     2.4990   -25.3440     7.9110     6.7040
  554.5000   107.3400     7.9070    -0.0030     0.1060     2.4920   -25.4690     7.8380     6.6220
  555.0000   105.1810     7.9470    -0.0030     0.1100     2.4860   -25.5870     7.7650     6.5270
  555.5000   103.0280     8.0300    -0.0040     0.1130     2.4810   -25.7070     7.6920     6.4220
  556.0000   100.8790     8.1130    -0.0040     0.1150     2.4760   -25.8510     7.6190     6.3160
  556.5000    98.7220     8.1960    -0.0050     0.1170     2.4730   -25.7530     7.5460     6.2110
  557.0000    97.5230     8.1880    -0.0050     0.1200     2.4700   -25.3120     7.4730     6.1050
  557.5000    98.0080     8.0950    -0.0060     0.1220     2.4670   -24.9000     7.4000     6.0000
  558.0000   100.5090     8.0020    -0.0030     0.1240     2.4640   -24.4870     7.2270     5.8940
  558.5000   103.0300     7.9100     0.0000     0.1290     2.4610   -24.0520     6.9700     5.7890
  559.0000   105.5800     7.8180     0.0040     0.1410     2.4580   -23.8830     6.7120     5.6830
  559.5000   106.1140     7.7250     0.0080     0.1600     2.4520   -23.8970     6.4550     5.5690
  560.0000   105.5640     7.7370     0.0110     0.1790     2.4430   -23.8960     6.2280     5.3460
  560.5000   105.4560     7.8470     0.0110     0.1990     2.4020   -23.8930     5.8050     5.1040
  561.0000   107.3220     7.9560     0.0110     0.2180     2.3610   -23.8960     5.4260     4.8620
  561.5000   109.1660     8.0670     0.0110     0.2380     2.3200   -23.8950     5.0480     4.6200
  562.0000   109.2760     8.0870     0.0170     0.2570     2.2780   -23.8950     4.7090     4.3780
  562.5000   109.0310     8.0520     0.0180     0.2680     2.2370   -23.8960     4.2710     4.1350
  563.0000   107.9040     8.0160     0.0140     0.2490     2.2150   -23.8960     3.8730     3.8930
  563.5000   105.3510     8.0560     0.0110     0.2260     2.2190   -23.8960     3.4760     3.6510
  564.0000   102.7920     8.1120     0.0070     0.2040     2.2500   -23.8960     3.0790     3.4310
  564.5000    99.9570     8.1690     0.0030     0.1810     2.2940   -23.8960     2.7950     3.5000
  565.0000   103.3960     8.2260     0.0020     0.1590     2.3380   -23.8960     2.7950     3.5650
  565.5000   107.9770     8.2500     0.0010     0.1360     2.3820   -23.8960     2.9320     3.6290
  566.0000   112.4500     8.2500     0.0000     0.1150     2.4260   -23.8960     3.0590     3.6930
  566.5000   111.0560     8.2500     0.0000     0.1140     2.4700   -23.8960     3.1860     3.7660
  567.0000   109.6650     8.2500    -0.0010     0.1130     2.4790   -23.8960     3.3050     4.0410
  567.5000   111.2620     8.2500    -0.0020     0.1100     2.4820   -23.8960     4.0030     4.3590
  568.0000   113.3090     8.2500    -0.0020     0.1070     2.4850   -23.8960     4.6580     4.6770
  568.5000   115.3270     8.2460     0.0000     0.1080     2.4870   -23.8960     5.3140     4.9950
  569.0000   116.1920     8.2340     0.0030     0.1100     2.4880   -23.8960     5.8570     5.2360
  569.5000   114.4160     8.2230     0.0060     0.1120     2.4890   -23.8960     6.0010     5.4670
  570.0000   112.7360     8.2110     0.0080     0.1160     2.4830   -23.8960     6.0010     5.4510
  570.5000   111.0690     8.2000     0.0070     0.1270     2.4750   -23.8960     6.0010     5.4140
  571.0000   109.0520     8.1850     0.0060     0.1380     2.4680   -23.8960     6.0010     5.3780
  571.5000   111.3680     8.1520     0.0050     0.1500     2.4470   -23.8960     6.0010     5.3420
  572.0000   115.8940     8.1190     0.0040     0.1620     2.4250   -23.8960     6.0010     5.3060
  572.5000   120.4770     8.0860     0.0030     0.1580     2.4050   -23.8960     6.0010     5.2700
  573.0000   123.6170     8.0520     0.0020     0.1540     2.4100   -23.8960     5.9120     5.2330
  573.5000   125.3620     8.0850     0.0020     0.1500     2.4160   -23.8960     5.7000     5.1970
  574.0000   118.3650     8.1230     0.0020     0.1460     2.4220   -23.8960     5.4890     5.1610
  574.5000   112.7630     8.1500     0.0030     0.1420     2.4290   -23.8960     5.2770     5.1250
  575.0000   107.0450     8.1330     0.0030     0.1350     2.4390   -23.8960     5.0650     5.0740
  575.5000   105.0030     8.1170     0.0030     0.1260     2.4520   -23.8960     4.9800     5.1690
  576.0000   107.0840     8.1010     0.0030     0.1200     2.4650   -23.8960     5.2200     5.3150
  576.5000   110.7550     8.0910     0.0030     0.1150     2.4780   -23.8960     5.5220     5.4970
