~VERSION INFORMATION
 VERS.                2.0:   CWLS LOG ASCII STANDARD - VERSION 2.0
 WRAP.                 NO:   ONE LINE PER DEPTH STEP
~WELL INFORMATION
#MNEM.UNIT      DATA TYPE    INFORMATION
#----------   ------------   ------------------------------
 STRT.F           60.0000:   START DEPTH
 STOP.F         3052.0000:   STOP DEPTH
 STEP.F            0.5000:   STEP LENGTH
 NULL.          -999.2500:   NO VALUE
 COMP.   FLUOR DANIEL INC:   COMPANY
 WELL. NAVAL PETROLEUM RESERVE 3 X-14 #57-14:   WELL
 FLD .            WILDCAT:   FIELD
 LOC .      S14 T38N R78W:   LOCATION
 CNTY.            NATRONA:   COUNTY
 STAT.            WYOMING:   STATE
 CTRY. UNITED STATES OF AMERICA:   COUNTRY
 SRVC.            Unknown:   SERVICE COMPANY
 DATE.        16-MAY-1995:   LOGDATE
 API .       490252272000:   API NUMBER
~CURVE INFORMATION
#MNEM.UNIT       API CODE    CURVE DESCRIPTION
#----------   ------------   ------------------------------
 DEPT.F                  :   
 ROP .FT/HR  91 810 01 00:   RAT OF DRILLING PENETRATION
 TGAS.TC/CC  91 830 01 00:   TOTAL GAS UNIT
~PARAMETER INFORMATION
#MNEM.UNIT          VALUE    DESCRIPTION
#----------   ------------   ------------------------------
 EKB .F              5312:   KELLING BUSHING
 EGL .F              5302:   GROUND LEVEL
 DATE.        16-MAY-1995:   RUN DATE
 RUN .                  1:   RUN NUMBER
 BLI .F              3062:   BOTTOM LOG INTERVAL
 TLI .F                60:   TOP LOG INTERVAL
 ENGI.     C.TOWER/R.HUSK:   RECORDING ENGINEER
 CLNT.            A2DTECH:   CLIENT CODE
 ORIG.           5" PRINT:   ORIGIN OF DATA
 UWI .       490252272000:   UNIQUE WELL ID
 DICO. A2D Technologies, Inc.:   DIGITIZING COMPANY
~OTHER INFORMATION
~A   DEPT        ROP       TGAS 
# ...
 1275.0000     0.6495     1.2844
 1275.5000     0.6496     1.2791
 1276.0000     0.6497     1.2738
 1276.5000     0.6498     1.2685
 1277.0000     0.6499     1.2632
 1277.5000     0.6500     1.2579
 1278.0000     0.6501     1.2526
 1278.5000     0.6502     1.2473
 1279.0000     0.6503     1.2420
 1279.5000     0.6504     1.2367
 1280.0000     0.6505     1.2314
 1280.5000     0.6506     1.2261
 1281.0000     0.6507     1.2208
 1281.5000     0.6508     1.2155
 1282.0000     0.6508     1.2102
 1282.5000     0.6509     1.2049
 1283.0000     0.6510     1.1996
 1283.5000     0.6511     1.1943
 1284.0000     0.6512     1.1890
 1284.5000     0.6513     1.1837
 1285.0000     0.6608     1.1784
 1285.5000     0.6702     1.1731
 1286.0000     0.6609     1.1687
 1286.5000     0.6143     1.1756
 1287.0000     0.6144     1.1797
 1287.5000     0.6051     1.1796
 1288.0000     0.6052     1.1795
 1288.5000     0.6053     1.1794
 1289.0000     0.6054     1.1793
 1289.5000     0.6149     1.1792
 1290.0000     0.6150     1.1791
 1290.5000     0.6150     1.1790
 1291.0000     0.6151     1.1789
 1291.5000     0.6152     1.1788
 1292.0000     0.6247     1.1787
 1292.5000     0.6435     1.1786
 1293.0000     0.6529     1.1784
 1293.5000     0.6530     1.1783
 1294.0000     0.6531     1.1782
 1294.5000     0.6532     1.1781
 1295.0000     0.6533     1.1780
 1295.5000     0.6593     1.1779
 1296.0000     0.6599     1.1778
 1296.5000     0.6604     1.1777
 1297.0000     0.6608     1.1776
 1297.5000     0.6613     1.1775
 1298.0000     0.6617     1.1774
 1298.5000     0.6622     1.1773
 1299.0000     0.6626     1.1771
 1299.5000     0.6631     1.1770
 1300.0000     0.6636     1.1769
 1300.5000     0.6640     1.1768
 1301.0000     0.6646     1.1767
 1301.5000     0.6650     1.1766
 1302.0000     0.6655     1.1765
 1302.5000     0.6659     1.1764
 1303.0000     0.6664     1.1763
 1303.5000     0.6669     1.1652
 1304.0000     0.6673     1.1435
 1304.5000     0.6678     1.1218
 1305.0000     0.6682     1.1001
 1305.5000     0.6687     1.0783
 1306.0000     0.6692     1.0566
 1306.5000     0.6697     1.0349
 1307.0000     0.6702     1.0132
 1307.5000     0.6706     0.9914
 1308.0000     0.6711     0.9697
 1308.5000     0.6715     0.9480
 1309.0000     0.6720     0.9263
 1309.5000     0.6724     0.9045
 1310.0000     0.6729     0.8828
 1310.5000     0.6734     0.8611
 1311.0000     0.6738     0.8394
 1311.5000     0.6744     0.8176
 1312.0000     0.6748     0.7959
 1312.5000     0.6753     0.7742
 1313.0000     0.6758     0.7525
 1313.5000     0.6762     0.7307
 1314.0000     0.9477     0.7090
 1314.5000     0.9949     0.6873
 1315.0000     0.9953     0.6656
 1315.5000     0.9958     0.6438
 1316.0000     0.9763     0.6221
 1316.5000     0.6416     0.6004
 1317.0000     0.6421     0.5787
 1317.5000     0.6426     0.5696
 1318.0000     0.6431     0.5696
 1318.5000     0.6435     0.5696
 1319.0000     0.6440     0.5696
 1319.5000     0.6444     0.5696
 1320.0000     0.6449     0.5696
 1320.5000     0.6453     0.5696
 1321.0000     0.6458     0.5696
 1321.5000     0.6463     0.5696
 1322.0000     0.6468     0.5696
 1322.5000     0.6473     0.5696
 1323.0000     0.6477     0.5657
 1323.5000     0.6482     0.5613
 1324.0000     0.6486     0.5568
 1324.5000     0.5275     0.5523
 1325.0000     0.5281     0.5479
 1325.5000     0.5285     0.5434
 1326.0000     0.5290     0.5390
 1326.5000     0.5294     0.5345
 1327.0000     0.5300     0.5300
 1327.5000     0.5305     0.5256
 1328.0000     0.5309     0.5211
 1328.5000     0.5314     0.5166
 1329.0000     0.5318     0.5122
 1329.5000     0.5323     0.5077
 1330.0000     0.5327     0.5032
 1330.5000     0.5332     0.4988
 1331.0000     0.5336     0.4943
 1331.5000     0.5341     0.4898
 1332.0000     0.5346     0.4854
 1332.5000     0.5350     0.4809
 1333.0000     0.5356     0.4765
 1333.5000     0.5360     0.4720
 1334.0000     0.5364     0.4675
 1334.5000     0.5370     0.4631
 1335.0000     0.5374     0.4586
 1335.5000     0.5379     0.4541
 1336.0000     0.5383     0.4497
 1336.5000     0.5388     0.4452
 1337.0000     0.5393     0.4407
 1337.5000     0.5398     0.4363
 1338.0000     0.6244     0.4318
 1338.5000     0.6342     0.4273
 1339.0000     0.6346     0.4229
 1339.5000     0.6444     0.4184
 1340.0000     0.6449     0.4140
 1340.5000     0.6453     0.4095
 1341.0000     0.6458     0.4050
 1341.5000     0.6463     0.4006
 1342.0000     0.6467     0.3961
 1342.5000     0.6473     0.3916
 1343.0000     0.6477     0.3872
 1343.5000     0.6482     0.3827
 1344.0000     0.5738     0.3761
 1344.5000     0.6584     0.3654
 1345.0000     0.6589     0.3546
 1345.5000     0.6593     0.3438
 1346.0000     0.6599     0.3331
 1346.5000     0.5294     0.3223
 1347.0000     0.5300     0.3116
 1347.5000     0.5398     0.3008
 1348.0000     0.5402     0.2900
 1348.5000     0.5407     0.2793
 1349.0000     0.5411     0.2685
 1349.5000     0.5416     0.2578
 1350.0000     0.5327     0.2470
 1350.5000     0.5328     0.2362
 1351.0000     0.5329     0.2255
 1351.5000     0.5330     0.2147
 1352.0000     0.5331     0.2040
 1352.5000     0.5332     0.1932
 1353.0000     0.5333     0.1824
 1353.5000     0.5334     0.1717
 1354.0000     0.5335     0.1609
 1354.5000     0.5336     0.1502
 1355.0000     0.5337     0.1394
 1355.5000     0.5338     0.1286
 1356.0000     0.5338     0.1179
 1356.5000     0.5339     0.1071
 1357.0000     0.5340     0.0964
 1357.5000     0.5341     0.0856
 1358.0000     0.5342     0.0748
 1358.5000     0.5343     0.0641
 1359.0000     0.5344     0.0533
 1359.5000     0.5345     0.0426
 1360.0000     0.5346     0.0318
 1360.5000     0.5347     0.0210
 1361.0000     0.5348     0.0103
 1361.5000     0.5349     0.0000
 1362.0000     0.5350     0.0000
 1362.5000     0.5351     0.0000
 1363.0000     0.5351     0.0000
 1363.5000     0.5352     0.0000
 1364.0000     0.5353     0.0000
 1364.5000     0.5354     0.0066
 1365.0000     0.5355     0.0803
 1365.5000     0.5356     0.1593
 1366.0000     0.5451     0.2354
 1366.5000     0.5452     0.2487
 1367.0000     0.5546     0.2620
 1367.5000     0.5453     0.2753
 1368.0000     0.5361     0.2887
 1368.5000     0.5362     0.3019
 1369.0000     0.5363     0.3172
 1369.5000     0.5364     0.3285
 1370.0000     0.5645     0.3418
 1370.5000     0.5552     0.3551
 1371.0000     0.5460     0.3684
 1371.5000     0.5554     0.3816
 1372.0000     0.5929     0.3962
 1372.5000     0.6397     0.4082
 1373.0000     0.6492     0.4215
 1373.5000     0.6493     0.4348
 1374.0000     0.6494     0.4298
 1374.5000     0.6494     0.4192
 1375.0000     0.6495     0.4087
 1375.5000     0.6496     0.3981
 1376.0000     0.6497     0.3875
 1376.5000     0.6498     0.3769
 1377.0000     0.6499     0.3663
 1377.5000     0.6500     0.3558
 1378.0000     0.6501     0.3452
 1378.5000     0.7623     0.3346
 1379.0000     0.7624     0.3240
 1379.5000     0.7625     0.3135
 1380.0000     0.7626     0.3029
 1380.5000     0.6506     0.2923
 1381.0000     0.6507     0.2817
 1381.5000     0.6507     0.2711
 1382.0000     0.6508     0.2606
 1382.5000     0.6510     0.2500
 1383.0000     0.6417     0.2394
 1383.5000     0.6418     0.2288
 1384.0000     0.6419     0.2183
 1384.5000     0.6420     0.2077
 1385.0000     0.6514     0.1971
 1385.5000     0.6515     0.1855
 1386.0000     0.6516     0.1987
 1386.5000     0.6330     0.2108
 1387.0000     0.6424     0.2241
 1387.5000     0.6425     0.2373
 1388.0000     0.6426     0.2506
 1388.5000     0.6427     0.2639
 1389.0000     0.6428     0.2772
 1389.5000     0.6429     0.2905
 1390.0000     0.6430     0.3038
 1390.5000     0.6431     0.3172
 1391.0000     0.6432     0.3304
 1391.5000     0.6433     0.3437
 1392.0000     0.7929     0.3570
 1392.5000     0.7930     0.3703
 1393.0000     0.7931     0.3835
 1393.5000     0.7932     0.3968
 1394.0000     0.9709     0.4101
 1394.5000     0.9709     0.4234
 1395.0000     0.9710     0.4367
 1395.5000     0.9805     0.4500
 1396.0000     0.9712     0.4633
