~VERSION INFORMATION
 VERS.                2.0:   CWLS LOG ASCII STANDARD - VERSION 2.0
 WRAP.                 NO:   ONE LINE PER DEPTH STEP
~WELL INFORMATION
#MNEM.UNIT      DATA TYPE    INFORMATION
#----------   ------------   ------------------------------
 STRT.F            0.0000:   START DEPTH
 STOP.F          497.0000:   STOP DEPTH
 STEP.F            0.1000:   STEP LENGTH
 NULL.          -999.2500:   NO VALUE
 COMP.       F D SERV INC:   COMPANY
 WELL. NAVAL PETROLEUM RESERVE 3 SX-1 #81-1-10:   WELL
 FLD .             NPR #3:   FIELD
 LOC .      S10 T38N R78W:   LOCATION
 CNTY.            NATRONA:   COUNTY
 STAT.            WYOMING:   STATE
 CTRY. UNITED STATES OF AMERICA:   COUNTRY
 SRVC.     Atlas Wireline:   SERVICE COMPANY
 DATE.        14-DEC-1997:   LOGDATE
 API .       490252257400:   API NUMBER
~CURVE INFORMATION
#MNEM.UNIT       API CODE    CURVE DESCRIPTION
#----------   ------------   ------------------------------
 DEPT.F                  :   
 GRR .GAPI   07 310 01 00:   GAMMA RAY
 RILD.OHMM   07 120 46 00:   INDUCTION LOG DEEP RESISTIVITY
 RILM.OHMM   07 120 44 00:   INDUCTION LOG MEDIUM RESISTIVITY
~PARAMETER INFORMATION
#MNEM.UNIT          VALUE    DESCRIPTION
#----------   ------------   ------------------------------
 PD  .                 GL:   PERMANENT DATUM
 EPD .F              5132:   ELEVATION PERMANENT DATUM
 LMF .                 KB:   LOG MEASURED FROM
 DAPD.F                10:   FEET ABOVE PERMANENT DATUM
 DMF .                 KB:   DRILLING MEASURED FROM
 EKB .F              5142:   KELLING BUSHING
 EDF .F              5141:   DRILLING FLOOR
 EGL .F              5132:   GROUND LEVEL
 DATE.        14-DEC-1992:   RUN DATE
 RUN .                  1:   RUN NUMBER
 DD  .F               513:   DEPTH DRILLER
 DL  .F               505:   DEPTH LOGGER
 BLI .F               497:   BOTTOM LOG INTERVAL
 CS  .IN            8.625:   CASING SIZE
 CBD .F                53:   CASING BOTTOM DRILLER
 CBL .F                54:   CASING BOTTOM LOGGER
 BS  .IN            7.875:   BIT SIZE
 BSD .F               513:   BIT SIZE AT DEPTH
 DFT .           AIR FOAM:   DRILLING FLUID TYPE
 BHT .F                68:   BOTTOM HOLE TEMPERATURE
 MRT .F                68:   MAXIMUM RECORDED TEMPERATURE
 LUN .           HL- 6274:   LOGGING UNIT NUMBER
 LUL .             CASPER:   LOGGING UNIT LOCATION
 ENGI.             RAUTIO:   RECORDING ENGINEER
 WITN.          G. STRONG:   WITNESSED BY
 CLNT.            A2DTECH:   CLIENT CODE
 ORIG.           5" PRINT:   ORIGIN OF DATA
 UWI .       490252257400:   UNIQUE WELL ID
 DICO. A2D Technologies, Inc.:   DIGITIZING COMPANY
~OTHER INFORMATION
~A    DEPT      GRR      RILD       RILM   
# ...
  109.2000   127.0520     8.0672     8.0401
  109.3000   126.7996     8.0841     8.0401
  109.4000   126.5600     8.1054     8.0401
  109.5000   126.5593     8.1407     8.0401
  109.6000   126.5588     8.1437     8.0401
  109.7000   126.5582     8.1977     8.0826
  109.8000   126.7934     8.1978     8.0962
  109.9000   127.2964     8.2301     8.0962
  110.0000   127.8797     8.2552     8.1113
  110.1000   129.5632     8.2553     8.1527
  110.2000   130.6775     8.2554     8.1527
  110.3000   131.7620     8.2556     8.1968
  110.4000   132.7687     8.2557     8.2446
  110.5000   133.6231     8.2558     8.2669
  110.6000   134.1261     8.2803     8.2832
  110.7000   134.6724     8.3136     8.3246
  110.8000   134.9021     8.3137     8.3246
  110.9000   134.9720     8.3138     8.3246
  111.0000   134.9714     8.3139     8.3246
  111.1000   135.0542     8.3495     8.3246
  111.2000   135.2711     8.3983     8.3420
  111.3000   135.2703     8.4307     8.3827
  111.4000   135.2698     8.4308     8.3827
  111.5000   135.0807     8.4309     8.3827
  111.6000   134.8283     8.4310     8.4204
  111.7000   134.3946     8.4312     8.4413
  111.8000   133.5968     8.4313     8.4413
  111.9000   132.5600     8.4133     8.4413
  112.0000   131.5810     8.3731     8.4413
  112.1000   131.3558     8.3732     8.3931
  112.2000   131.3552     8.3257     8.3827
  112.3000   131.4524     8.3155     8.3540
  112.4000   131.8505     8.2870     8.3246
  112.5000   132.8571     8.2581     8.3246
  112.6000   133.7587     8.2582     8.3246
  112.7000   134.1640     8.2583     8.3246
  112.8000   134.6671     8.2584     8.3246
  112.9000   135.3803     8.2585     8.2952
  113.0000   136.2747     8.2587     8.2669
  113.1000   136.7705     8.2588     8.2669
  113.2000   137.0634     8.2589     8.2669
  113.3000   137.0629     8.2608     8.2669
  113.4000   136.7399     8.3167     8.2669
  113.5000   136.3479     8.3168     8.2367
  113.6000   135.9688     8.3170     8.1890
  113.7000   135.2126     8.3171     8.1415
  113.8000   134.3530     8.3172     8.0962
  113.9000   133.7005     8.3141     8.0962
  114.0000   132.9444     8.2598     8.0962
  114.1000   132.5468     8.2599     8.0962
  114.2000   132.5462     8.2600     8.0962
  114.3000   132.5456     8.2601     8.0962
  114.4000   132.5449     8.2603     8.0962
  114.5000   132.5444     8.2604     8.0962
  114.6000   132.5438     8.2605     8.0962
  114.7000   132.5432     8.2174     8.0962
  114.8000   132.5426     8.2035     8.0962
  114.9000   132.5997     8.2036     8.0962
  115.0000   133.1428     8.1886     8.0962
  115.1000   133.3740     8.1411     8.0962
  115.2000   133.6253     8.0907     8.0962
  115.3000   133.7426     8.0472     8.0962
  115.4000   133.7420     8.0349     8.0962
  115.5000   133.7052     8.0350     8.0962
  115.6000   133.4400     8.0189     8.0962
  115.7000   132.9614     7.9795     8.0962
  115.8000   132.6472     7.9797     8.0538
  115.9000   131.9713     7.9354     8.0401
  116.0000   131.2401     7.9246     8.0163
  116.1000   130.9011     7.8985     7.9698
  116.2000   130.1281     7.8699     7.9290
  116.3000   129.6351     7.8617     7.9290
  116.4000   129.3281     7.8156     7.8866
  116.5000   129.0757     7.8157     7.8740
  116.6000   128.8233     7.8158     7.8740
  116.7000   128.6214     7.8159     7.8740
  116.8000   128.6208     7.8161     7.8740
  116.9000   128.6200     7.8066     7.8740
  117.0000   128.8241     7.7621     7.8311
  117.1000   129.3865     7.7623     7.8194
  117.2000   130.0347     7.7623     7.8194
  117.3000   130.5955     7.7342     7.8194
  117.4000   131.3592     7.6894     7.8123
  117.5000   132.5262     7.6555     7.7652
  117.6000   133.1609     7.6536     7.7652
  117.7000   133.9158     7.6027     7.7308
  117.8000   134.5568     7.6028     7.7114
  117.9000   135.0599     7.6029     7.6948
  118.0000   135.5629     7.6030     7.6579
  118.1000   136.1317     7.6031     7.6579
  118.2000   136.3501     7.6032     7.6579
  118.3000   136.7713     7.6033     7.6579
  118.4000   137.1533     7.6034     7.6579
  118.5000   137.3323     7.5733     7.6579
  118.6000   137.3550     7.5510     7.6493
  118.7000   137.6318     7.5511     7.6048
  118.8000   138.0836     7.5512     7.6048
  118.9000   138.2322     7.5513     7.6405
  119.0000   138.3599     7.5514     7.6579
  119.1000   138.4523     7.5515     7.6579
  119.2000   138.1694     7.5516     7.6484
  119.3000   137.6282     7.5517     7.6048
  119.4000   137.1609     7.5518     7.6048
  119.5000   136.4722     7.5519     7.6048
  119.6000   135.5806     7.5520     7.6048
  119.7000   134.5726     7.5521     7.6048
  119.8000   133.5647     7.5522     7.6048
  119.9000   132.5119     7.5523     7.6048
  120.0000   131.7895     7.5524     7.6048
  120.1000   130.4583     7.5525     7.6048
  120.2000   128.8040     7.5526     7.6048
  120.3000   127.3221     7.5527     7.6048
  120.4000   126.4489     7.5528     7.6048
  120.5000   126.1925     7.5530     7.6048
  120.6000   125.4484     7.5613     7.6048
  120.7000   124.8912     7.6059     7.6048
  120.8000   124.3869     7.6060     7.5756
  120.9000   123.9837     7.6061     7.5521
  121.0000   123.7835     7.6062     7.5521
  121.1000   123.7829     7.6063     7.5554
  121.2000   123.7822     7.6064     7.6048
  121.3000   123.7817     7.6065     7.6048
  121.4000   123.9382     7.6066     7.6048
  121.5000   124.0812     7.6067     7.6048
  121.6000   124.0806     7.6068     7.6177
  121.7000   124.0904     7.6069     7.6579
  121.8000   124.3801     7.6070     7.6579
  121.9000   124.8062     7.6071     7.6579
  122.0000   124.9805     7.6072     7.6579
  122.1000   125.0953     7.6073     7.6805
  122.2000   125.3466     7.6074     7.7253
  122.3000   125.5978     7.6075     7.7704
  122.4000   125.8802     7.6076     7.8194
  122.5000   126.1003     7.6078     7.8194
  122.6000   126.3515     7.6079     7.8194
  122.7000   126.6027     7.6473     7.8434
  122.8000   126.9277     7.6611     7.8740
  122.9000   127.4059     7.6835     7.8740
  123.0000   127.6811     7.7148     7.8740
  123.1000   128.3640     7.7198     7.8740
  123.2000   128.7611     7.7688     7.8740
  123.3000   129.2722     7.7689     7.8740
  123.4000   129.8651     7.7690     7.8740
  123.5000   130.2126     7.7930     7.8740
  123.6000   131.2866     7.8234     7.8740
  123.7000   132.4609     7.8298     7.8740
  123.8000   133.1613     7.8782     7.8740
  123.9000   132.9787     7.8783     7.8999
  124.0000   132.3990     7.9129     7.9460
  124.1000   132.0680     7.9592     7.9843
  124.2000   131.2830     7.9890     7.9843
  124.3000   130.3136     7.9968     8.0297
  124.4000   128.5326     8.0449     8.0401
  124.5000   127.0948     8.0450     8.0401
  124.6000   126.0868     8.0452     8.0582
  124.7000   125.0789     8.0453     8.0962
  124.8000   124.0613     8.0636     8.0962
  124.9000   123.3125     8.1016     8.0962
  125.0000   122.9574     8.1017     8.1339
  125.1000   122.7050     8.1019     8.1813
  125.2000   122.5552     8.1019     8.2290
  125.3000   122.6083     8.1021     8.2669
  125.4000   122.8740     8.1022     8.2669
  125.5000   124.0570     8.1023     8.2669
  125.6000   124.8874     8.1024     8.2669
  125.7000   125.8941     8.1025     8.2669
  125.8000   126.9009     8.1026     8.2669
  125.9000   127.9076     8.1330     8.2669
  126.0000   128.9023     8.1594     8.2669
  126.1000   129.7677     8.1595     8.2669
  126.2000   129.9822     8.1623     8.2669
  126.3000   130.2334     8.2166     8.2669
  126.4000   130.6017     8.2167     8.2669
  126.5000   130.9684     8.2169     8.2669
  126.6000   130.9678     8.2170     8.2669
  126.7000   130.9671     8.2171     8.2669
  126.8000   130.3002     8.2213     8.2669
  126.9000   129.8905     8.2746     8.2354
  127.0000   129.3895     8.2747     8.2096
  127.1000   128.4827     8.2749     8.2096
  127.2000   127.2493     8.2750     8.2096
  127.3000   126.1515     8.2751     8.2096
