~VERSION INFORMATION
 VERS.                2.0:   CWLS LOG ASCII STANDARD - VERSION 2.0
 WRAP.                 NO:   ONE LINE PER DEPTH STEP
~WELL INFORMATION
#MNEM.UNIT      DATA TYPE    INFORMATION
#----------   ------------   ------------------------------
 STRT.F           12.0000:   START DEPTH
 STOP.F          551.0000:   STOP DEPTH
 STEP.F            0.5000:   STEP LENGTH
 NULL.          -999.2500:   NO VALUE
 COMP. LAWRENCE-ALLISON &AS:   COMPANY
 WELL. NPR 3 #58-46SX3LP4:   WELL
 FLD .             TEAPOT:   FIELD
 LOC .       S3 T38N R78W:   LOCATION
 CNTY.            NATRONA:   COUNTY
 STAT.            WYOMING:   STATE
 CTRY. UNITED STATES OF AMERICA:   COUNTRY
 SRVC.      Dresser Atlas:   SERVICE COMPANY
 DATE.        14-DEC-1984:   LOGDATE
 API .       490251099900:   API NUMBER
~CURVE INFORMATION
#MNEM.UNIT       API CODE    CURVE DESCRIPTION
#----------   ------------   ------------------------------
 DEPT.F                  :   
 RD  .OHMM   11 220 10 00:   RESISTIVITY DEEP
 RS  .OHMM   11 220 09 00:   RESISTIVITY SHALLOW
 SPR .MV     11 010 01 00:   SPONTANEOUS POTENTIAL FROM RES.
 AC  .US/F   60 520 00 00:   ACOUSTIC SONIC
 CALD.IN     45 280 60 00:   CALIPER FROM DENSITY
 CORR.G/C3   45 356 01 00:   DENSITY CORRECTION
 DEN .G/C3   45 350 01 00:   COMPENSATED BULK DENSTIY
 GRD .GAPI   45 310 01 00:   GAMMA RAY FROM DENSITY LOG
 PORD.DEC    45 890 12 00:   POROSITY DENSITY SANDSTONE
 CNC .DEC    42 890 03 00:   NEUTRON POROSITY SANDSTONE
~PARAMETER INFORMATION
#MNEM.UNIT          VALUE    DESCRIPTION
#----------   ------------   ------------------------------
 PD  .                 GL:   PERMANENT DATUM
 EPD .F              5201:   ELEVATION PERMANENT DATUM
 LMF .                 GL:   LOG MEASURED FROM
 DMF .                 GL:   DRILLING MEASURED FROM
 EGL .F              5201:   GROUND LEVEL
 DATE.        14-DEC-1984:   RUN DATE
 RUN .                  1:   RUN NUMBER
 DD  .F               552:   DEPTH DRILLER
 DL  .F               552:   DEPTH LOGGER
 BLI .F               550:   BOTTOM LOG INTERVAL
 TLI .F                20:   TOP LOG INTERVAL
 CS  .IN            8.625:   CASING SIZE
 CBD .F                20:   CASING BOTTOM DRILLER
 CBL .F                20:   CASING BOTTOM LOGGER
 BS  .IN            7.875:   BIT SIZE
 BSD .F               552:   BIT SIZE AT DEPTH
 DFT .          KCL WATER:   DRILLING FLUID TYPE
 MSS .            MUDTANK:   MUD SAMPLE SOURCE
 RMS .OHMM          0.152:   RESISTIVITY MUD SAMPLE
 MST .F                76:   MUD SAMPLE TEMPERATURE
 RMF .OHMM           0.11:   RESISTIVITY MUD FILTRATE SAMPLE
 MFST.F                76:   MUD FILTRATE SAMPLE TEMPERATURE
 RMC .OHMM           0.19:   RESISTIVITY MUD CAKE
 MCST.F                76:   MUD CAKE SAMPLE TEMPERATURE
 MFSS.               CALC:   MUD FILTRATE SAMPLE SOURCE
 MCSS.               CALC:   MUD CAKE SAMPLE SOURCE
 TCS .HRS               5:   TIME CURCULATED STOPPED
 MRT .F               100:   MAXIMUM RECORDED TEMPERATURE
 LUN .               6270:   LOGGING UNIT NUMBER
 ENGI.            LEBSOCK:   RECORDING ENGINEER
 WITN.        GREG GROOMS:   WITNESSED BY
 CLNT.            A2DTECH:   CLIENT CODE
 ORIG.           5" PRINT:   ORIGIN OF DATA
 UWI .       490251099900:   UNIQUE WELL ID
 DICO. A2D Technologies, Inc.:   DIGITIZING COMPANY
~OTHER INFORMATION
~A   DEPT       RD         RS        SPR         AC       CALD       CORR        DEN        GRD       PORD          CNC 
# ...
  447.5000    14.8699    14.9123   -65.6301    90.3641     7.8338     0.0112     2.4842    94.2932     0.1182     0.2310
  448.0000    15.2949    15.4654   -65.9165    90.1335     7.8490     0.0127     2.4865    92.3368     0.1169     0.2323
  448.5000    15.9511    16.2249   -66.0549    90.1283     7.8642     0.0126     2.4781    90.2301     0.1176     0.2250
  449.0000    16.5209    16.6902   -66.1929    90.1983     7.8644     0.0065     2.4706    88.1233     0.1260     0.2166
  449.5000    16.9932    16.8164   -66.3309    90.4185     7.8494    -0.0132     2.4547    87.8211     0.1327     0.2148
  450.0000    17.0025    16.8249   -66.3205    90.7138     7.8346    -0.0307     2.4469    91.7293     0.1375     0.2179
  450.5000    16.2105    16.5982   -66.2416    90.8590     7.8346    -0.0283     2.4456    90.9809     0.1388     0.2336
  451.0000    15.6697    16.1495   -66.1628    91.3058     7.8184     0.0079     2.4608    89.6298     0.1339     0.2399
  451.5000    15.0426    15.6046   -66.0378    91.9774     7.8045     0.0335     2.4686    90.5358     0.1260     0.2371
  452.0000    14.6416    15.1828   -65.8779    92.6481     7.8045     0.0244     2.4751    91.7410     0.1230     0.2375
  452.5000    14.1531    14.6941   -65.8661    93.3195     7.8045     0.0002     2.4681    90.5410     0.1242     0.2414
  453.0000    13.8711    14.3983   -65.8544    93.7656     7.8045     0.0001     2.4636    92.0485     0.1278     0.2549
  453.5000    13.6893    14.2083   -66.1389    93.9827     7.8195     0.0063     2.4666    94.9086     0.1281     0.2576
  454.0000    13.5098    14.0209   -66.2753    93.9775     7.8195     0.0260     2.4899    95.0620     0.1211     0.2561
  454.5000    13.4250    14.0305   -66.4117    93.9722     7.8346     0.0305     2.4990    94.1627     0.1120     0.2500
  455.0000    13.2430    13.9414   -66.6963    94.1948     7.8346     0.0300     2.4974    92.9627     0.1098     0.2603
  455.5000    13.0752    13.8510   -67.1289    94.4152     7.8346     0.0212     2.4921    93.5671     0.1095     0.2609
  456.0000    12.8909    13.5741   -67.5616    94.7108     7.8346     0.0106     2.4845    94.7731     0.1143     0.2485
  456.5000    12.6467    13.2128   -67.8543    95.0814     7.8346     0.0060     2.4807    95.0769     0.1176     0.2418
  457.0000    12.3949    12.9487   -68.1432    95.4520     7.8045     0.0332     2.4830    92.5235     0.1159     0.2566
  457.5000    12.1500    12.8647   -68.4321    95.8227     7.8045     0.0301     2.4882    91.4738     0.1125     0.2711
  458.0000    12.0719    12.7830   -68.6997    95.7345     7.8045     0.0195     2.4950    91.1759     0.1100     0.2735
  458.5000    12.0812    12.7918   -68.6874    95.1237     7.8045     0.0165     2.4995    97.9459     0.1067     0.2714
  459.0000    12.0886    12.7988   -68.6732    94.6717     7.8346     0.0285     2.4979   100.2046     0.1063     0.2672
  459.5000    12.1799    12.8947   -68.6615    94.7508     7.8346     0.0406     2.4949    99.6060     0.1084     0.2674
  460.0000    12.1874    12.9017   -68.6497    95.1215     7.8346     0.0466     2.4994    98.4060     0.1099     0.2671
  460.5000    12.1949    12.8197   -68.7890    95.4921     7.8346     0.0511     2.5054    98.0982     0.1051     0.2659
  461.0000    12.1184    12.6506   -68.9225    95.7071     7.8346     0.0390     2.5039    95.0636     0.1038     0.2656
  461.5000    12.1259    12.5704   -68.9107    95.7770     7.8346     0.0178     2.5008    92.3399     0.1050     0.2725
  462.0000    12.0479    12.4012   -68.8989    95.8528     7.8346    -0.0049     2.4963    91.8014     0.1083     0.2719
  462.5000    11.8899    12.2409   -68.8872    95.9918     7.8346    -0.0230     2.4924    97.7193     0.1111     0.2544
  463.0000    11.8153    11.9961   -68.8754    96.2184     7.8346    -0.0155     2.4886   100.5299     0.1126     0.2429
  463.5000    11.5818    11.8378   -68.8636    96.5139     7.8346    -0.0019     2.4886    98.4276     0.1135     0.2441
  464.0000    11.5074    11.6011   -68.8519    96.8846     7.8195     0.0071     2.4906    96.9269     0.1043     0.2559
  464.5000    11.2800    11.2924   -68.8401    97.2624     7.8045     0.0161     2.5078    97.2306     0.1004     0.2622
  465.0000    11.1321    11.1434   -68.6802    97.7010     7.8045     0.0221     2.5097   102.6471     0.1001     0.2646
  465.5000    10.9104    10.9949   -68.3721    98.0716     7.8025     0.0251     2.4991   105.0561     0.1043     0.2646
  466.0000    10.6931    10.7750   -68.0641    98.3671     7.7895     0.0266     2.4907   104.0065     0.1131     0.2623
  466.5000    10.6260    10.7066   -67.9042    98.5794     7.8045     0.0250     2.4884    99.3478     0.1127     0.2561
  467.0000    10.5594    10.6387   -68.0435    98.6493     7.8346     0.0189     2.4869    96.6440     0.1112     0.2568
  467.5000    10.4209    10.5712   -68.0288    98.7278     7.8346     0.0110     2.4884    96.3455     0.1130     0.2609
  468.0000    10.3555    10.5784   -68.0170    98.8730     7.8346    -0.0024     2.4929   100.5597     0.1133     0.2742
  468.5000    10.4340    10.6576   -67.8571    98.9340     7.8195     0.0034     2.5004   101.7657     0.1080     0.2841
  469.0000    10.4405    10.6635   -67.6972    99.0039     7.8195     0.0261     2.5094   100.8665     0.1020     0.2862
  469.5000    10.4482    10.5958   -67.6854    99.0738     7.8346     0.0384     2.5124   100.4183     0.0996     0.2814
  470.0000    10.3826    10.4560   -67.6737    99.3138     7.8346     0.0354     2.5041    99.3687     0.0993     0.2666
  470.5000    10.1759    10.0365   -67.6619   100.2722     7.8195     0.0505     2.4980    98.3190     0.1049     0.2693
  471.0000     9.3074     9.1787   -67.7983   102.4808     7.8346     0.0580     2.4980    99.0739     0.1071     0.2992
  471.5000     8.3385     8.2219   -67.7865   104.3657     7.8346     0.0444     2.4987   104.4904     0.1071     0.3031
  472.0000     7.6268     7.4674   -67.9229   104.9829     7.8045     0.0353     2.4949   105.5453     0.1113     0.3254
  472.5000     7.5256     7.6281   -67.9111   103.4485     7.8045     0.0352     2.4639   104.4964     0.1289     0.3300
  473.0000     8.3539     8.3501   -67.8993   100.6267     7.8045     0.0307     2.4457   102.6951     0.1373     0.3055
  473.5000     9.3361     9.4065   -67.7279    98.5337     7.8045     0.0215     2.4518    96.9838     0.1388     0.2683
  474.0000    10.3621    10.7401   -67.4153    98.1127     7.8045     0.0108     2.4744    96.3845     0.1291     0.2592
  474.5000    11.1872    11.5158   -67.1230    97.8695     7.7895    -0.0046     2.4774    99.3958     0.1218     0.2586
  475.0000    11.5876    11.9347   -67.0864    97.0123     7.7895    -0.0182     2.4789   103.3085     0.1194     0.2728
  475.5000    11.6751    12.5058   -67.0998    95.6153     7.7895    -0.0223     2.4819   103.6115     0.1185     0.2743
  476.0000    12.2612    13.0427   -67.2362    94.2199     7.7895     0.0003     2.4865   101.3596     0.1166     0.2658
  476.5000    12.7881    13.5089   -67.5208    93.1132     7.7895     0.0018     2.4878    96.0994     0.1142     0.2652
  477.0000    13.1546    13.7996   -67.6542    92.6837     7.7895     0.0033     2.4878    92.6438     0.1136     0.2700
  477.5000    13.2539    13.8072   -67.7906    93.2871     7.7895     0.0063     2.4878    94.4512     0.1142     0.2637
  478.0000    13.1706    13.5311   -67.9299    94.4433     7.7895     0.0213     2.4877   100.3189     0.1138     0.2625
  478.5000    13.0880    13.2606   -68.3596    95.2510     7.7895     0.0349     2.4983   102.8783     0.1093     0.2606
  479.0000    13.0060    13.1746   -68.6471    95.7576     7.8045     0.0318     2.4937   103.0316     0.1080     0.2525
  479.5000    12.8354    13.0026   -68.9317    96.1137     7.8045     0.0303     2.4861   102.7339     0.1120     0.2461
  480.0000    12.8435    13.0097   -69.2162    96.1071     7.8045     0.0378     2.4838   101.6842     0.1153     0.2552
  480.5000    12.8514    13.1071   -69.6459    95.8014     7.8045     0.0348     2.4830   102.4591     0.1156     0.2642
