~VERSION INFORMATION
 VERS.                2.0:   CWLS LOG ASCII STANDARD - VERSION 2.0
 WRAP.                 NO:   ONE LINE PER DEPTH STEP
~WELL INFORMATION
#MNEM.UNIT      DATA TYPE    INFORMATION
#----------   ------------   ------------------------------
 STRT.F            0.0000:   START DEPTH
 STOP.F          533.0000:   STOP DEPTH
 STEP.F            0.1000:   STEP LENGTH
 NULL.          -999.2500:   NO VALUE
 COMP.   FLUOR DANIEL INC:   COMPANY
 WELL.   84-4 X 10 #81-10:   WELL
 FLD .             TEAPOT:   FIELD
 LOC .      S10 T38N R78W:   LOCATION
 CNTY.            NATRONA:   COUNTY
 STAT.            WYOMING:   STATE
 CTRY. UNITED STATES OF AMERICA:   COUNTRY
 SRVC.     Atlas Wireline:   SERVICE COMPANY
 DATE.        25-SEP-1994:   LOGDATE
 API .       490252264000:   API NUMBER
~CURVE INFORMATION
#MNEM.UNIT       API CODE    CURVE DESCRIPTION
#----------   ------------   ------------------------------
 DEPT.F                  :   
 GRR .GAPI   07 310 01 00:   GAMMA RAY
 RILD.OHMM   07 120 46 00:   INDUCTION LOG DEEP RESISTIVITY
 RILM.OHMM   07 120 44 00:   INDUCTION LOG MEDIUM RESISTIVITY
~PARAMETER INFORMATION
#MNEM.UNIT          VALUE    DESCRIPTION
#----------   ------------   ------------------------------
 PD  .                 GL:   PERMANENT DATUM
 EPD .F              5150:   ELEVATION PERMANENT DATUM
 LMF .                 KB:   LOG MEASURED FROM
 DAPD.F                10:   FEET ABOVE PERMANENT DATUM
 DMF .                 KB:   DRILLING MEASURED FROM
 EKB .F              5160:   KELLING BUSHING
 EDF .F              5159:   DRILLING FLOOR
 EGL .F              5150:   GROUND LEVEL
 DATE.        25-SEP-1994:   RUN DATE
 RUN .                  1:   RUN NUMBER
 DD  .F               545:   DEPTH DRILLER
 DL  .F               541:   DEPTH LOGGER
 BLI .F               533:   BOTTOM LOG INTERVAL
 CS  .IN            9.625:   CASING SIZE
 CBD .F                76:   CASING BOTTOM DRILLER
 CBL .F                76:   CASING BOTTOM LOGGER
 BS  .IN             8.75:   BIT SIZE
 BSD .F               545:   BIT SIZE AT DEPTH
 DFT .                AIR:   DRILLING FLUID TYPE
 MRT .F                85:   MAXIMUM RECORDED TEMPERATURE
 LUN .            HL 6401:   LOGGING UNIT NUMBER
 LUL .         FT. MORGAN:   LOGGING UNIT LOCATION
 ENGI.    DAVE FREDERICKS:   RECORDING ENGINEER
 WITN.        GARY STRONG:   WITNESSED BY
 CLNT.            A2DTECH:   CLIENT CODE
 ORIG.           5' PRINT:   ORIGIN OF DATA
 UWI .       490252264000:   UNIQUE WELL ID
 DICO. A2D Technologies, Inc.:   DIGITIZING COMPANY
~OTHER INFORMATION
~A    DEPT      GRR      RILD       RILM   
# ...
  455.0000   103.8797    13.4959    13.8404
  455.1000   104.1833    13.4963    13.8411
  455.2000   104.3937    13.4967    13.7688
  455.3000   104.6508    13.4971    13.7467
  455.4000   104.7916    13.4279    13.7038
  455.5000   104.7940    13.4047    13.6242
  455.6000   104.7964    13.3631    13.5594
  455.7000   104.7990    13.3129    13.5600
  455.8000   104.8012    13.3133    13.4672
  455.9000   104.8036    13.3136    13.4676
  456.0000   104.8060    13.3140    13.4174
  456.1000   104.8084    13.2482    13.3759
  456.2000   104.8108    13.2228    13.3540
  456.3000   104.8132    13.2232    13.2765
  456.4000   104.8161    13.2236    13.1937
  456.5000   105.2391    13.2118    13.1942
  456.6000   105.5864    13.1330    13.1948
  456.7000   105.8434    13.1335    13.1953
  456.8000   106.1726    13.1338    13.1658
  456.9000   106.6843    13.0846    13.1054
  457.0000   107.2363    13.0439    13.1060
  457.1000   107.4731    13.0442    13.1066
  457.2000   107.9186    13.0350    13.0417
  457.3000   108.2879    12.9549    13.0172
  457.4000   108.6412    12.9553    13.0177
  457.5000   109.1529    12.9556    13.0183
  457.6000   109.6646    12.9560    13.0188
  457.7000   110.2608    12.9563    13.0194
  457.8000   110.4754    12.9567    13.0199
  457.9000   110.7324    12.9499    13.0204
  458.0000   111.1098    12.8680    13.0210
  458.1000   111.5473    12.8684    13.0215
  458.2000   111.8043    12.8687    13.0221
  458.3000   112.0796    12.8691    13.0226
  458.4000   112.0818    12.8386    13.0232
  458.5000   112.2747    12.7810    13.0237
  458.6000   112.3874    12.7813    13.0242
  458.7000   112.4880    12.7817    13.0248
  458.8000   112.6929    12.7820    13.0253
  458.9000   112.6893    12.7824    13.0259
  459.0000   112.3974    12.7416    13.0264
  459.1000   112.1848    12.6949    13.0270
  459.2000   112.1011    12.6952    13.0275
  459.3000   111.9812    12.6956    13.0280
  459.4000   111.7289    12.6960    13.0628
  459.5000   111.4767    12.6963    13.1196
  459.6000   111.2086    12.6966    13.1201
  459.7000   110.9722    12.7358    13.1207
  459.8000   110.7200    12.7856    13.1212
  459.9000   110.6141    12.7859    13.1217
  460.0000   110.6165    12.7863    13.1648
  460.1000   110.6189    12.8756    13.2140
  460.2000   110.6133    12.8758    13.2145
  460.3000   110.3234    12.8762    13.2151
  460.4000   110.3254    12.8766    13.2157
  460.5000   110.3278    12.9008    13.2162
  460.6000   110.3302    12.9668    13.2167
  460.7000   110.4109    12.9671    13.2173
  460.8000   110.6358    12.9675    13.2178
  460.9000   110.6383    12.9678    13.2184
  461.0000   110.8812    12.9682    13.2189
  461.1000   110.9438    12.9686    13.2194
  461.2000   111.2430    12.9689    13.2200
  461.3000   111.7546    12.9693    13.2205
  461.4000   112.2662    12.9697    13.2211
  461.5000   112.7779    12.9700    13.2216
  461.6000   113.3622    12.9704    13.2222
  461.7000   113.8014    12.9707    13.2228
  461.8000   114.3130    12.9711    13.2233
  461.9000   114.9509    12.9714    13.2238
  462.0000   115.6371    12.9718    13.2244
  462.1000   116.1829    12.9722    13.2249
  462.2000   116.9854    12.9033    13.2255
  462.3000   117.2303    12.8833    13.2261
  462.4000   117.6838    12.8410    13.2266
  462.5000   118.0451    12.7951    13.1663
  462.6000   118.1979    12.7790    13.1365
  462.7000   118.2585    12.7075    13.1370
  462.8000   118.5155    12.7079    13.1376
  462.9000   118.8069    12.7082    13.1381
  463.0000   119.0296    12.7086    13.1387
  463.1000   118.9377    12.6692    13.0708
  463.2000   118.5571    12.6216    13.0491
  463.3000   118.1325    12.6219    13.0497
  463.4000   117.8080    12.6223    13.0234
  463.5000   117.0166    12.6227    12.9607
  463.6000   116.7743    12.6230    12.9613
  463.7000   116.1250    12.6233    12.8725
  463.8000   115.6683    12.5865    12.8730
  463.9000   115.5224    12.5369    12.8735
  464.0000   115.5248    12.5373    12.8741
  464.1000   115.5413    12.5376    12.8746
  464.2000   115.8307    12.5380    12.8751
  464.3000   115.8328    12.5383    12.8757
  464.4000   116.0116    12.4914    12.8070
  464.5000   116.2687    12.4525    12.7879
  464.6000   116.5257    12.4310    12.7466
  464.7000   116.7828    12.3672    12.7008
  464.8000   117.0479    12.3676    12.7013
  464.9000   117.2969    12.2985    12.7002
  465.0000   117.7544    12.2829    12.6149
  465.1000   118.1117    12.2832    12.6153
  465.2000   118.2605    12.2836    12.6158
  465.3000   118.2629    12.2647    12.5806
  465.4000   118.2653    12.1994    12.5299
  465.5000   118.2680    12.1998    12.5304
  465.6000   118.0455    12.1339    12.5309
  465.7000   117.7933    12.1163    12.5314
  465.8000   117.4086    12.0754    12.5320
  465.9000   117.0743    12.0046    12.4894
  466.0000   117.0365    11.9506    12.4466
  466.1000   116.7784    11.9510    12.4471
  466.2000   116.7808    11.9513    12.4476
  466.3000   116.7832    11.9516    12.4482
  466.4000   116.7856    11.9014    12.4486
  466.5000   116.8982    11.8698    12.3988
  466.6000   117.1552    11.8701    12.3638
  466.7000   117.4303    11.8705    12.3643
  466.8000   117.9985    11.8708    12.3537
  466.9000   118.2271    11.8712    12.2801
  467.0000   118.6646    11.8714    12.2806
  467.1000   118.9077    11.8718    12.2240
  467.2000   118.9982    11.8439    12.1969
  467.3000   119.2132    11.8440    12.1974
  467.4000   119.2157    11.8442    12.1795
  467.5000   118.9178    11.8443    12.1143
  467.6000   118.5107    11.8445    12.1149
  467.7000   118.0039    11.8447    12.0516
  467.8000   117.3848    11.8449    12.0323
  467.9000   116.6894    11.8450    11.9569
  468.0000   116.2025    11.8452    11.8679
  468.1000   115.9245    11.8453    11.8684
  468.2000   115.4696    11.8455    11.8689
  468.3000   114.9627    11.8457    11.7876
  468.4000   114.4558    11.8458    11.7312
  468.5000   113.9489    11.8460    11.7072
  468.6000   113.4861    11.8462    11.6758
  468.7000   113.2319    11.8463    11.6274
  468.8000   113.2347    11.8153    11.6207
  468.9000   113.2367    11.7649    11.5482
  469.0000   113.2391    11.7651    11.5487
  469.1000   113.2415    11.7652    11.4986
  469.2000   113.3120    11.7654    11.4700
  469.3000   113.5691    11.7159    11.4443
  469.4000   113.8505    11.6476    11.3918
  469.5000   114.0832    11.6040    11.3902
  469.6000   114.3402    11.6042    11.3143
  469.7000   114.4589    11.6044    11.2583
  469.8000   114.4613    11.5245    11.2371
  469.9000   114.5099    11.5246    11.2376
  470.0000   114.7669    11.4823    11.2174
  470.1000   114.7698    11.4154    11.1610
  470.2000   114.5632    11.3489    11.1615
  470.3000   114.4734    11.2882    11.0996
  470.4000   114.4758    11.2884    11.0351
  470.5000   114.4782    11.2291    11.0095
  470.6000   114.4806    11.2108    10.9830
  470.7000   114.4832    11.1758    10.9345
  470.8000   114.2529    11.1106    10.9311
  470.9000   114.1871    11.0458    10.8600
  471.0000   114.0491    10.9809    10.8604
  471.1000   113.6084    10.9811    10.8163
  471.2000   112.8471    10.9293    10.7208
  471.3000   112.0835    10.8656    10.6386
  471.4000   110.8912    10.8023    10.6187
  471.5000   110.2617    10.7393    10.4933
  471.6000   109.5001    10.6767    10.4214
  471.7000   108.8569    10.6083    10.3727
  471.8000   108.4223    10.6084    10.3503
  471.9000   108.1958    10.5641    10.3237
  472.0000   108.1987    10.4698    10.2637
  472.1000   108.4355    10.3907    10.2041
  472.2000   108.6925    10.3701    10.1394
  472.3000   109.2342    10.2481    10.0859
  472.4000   110.1930    10.1775    10.0703
  472.5000   111.5689    10.1296    10.0383
  472.6000   113.3499    10.0339     9.9799
  472.7000   115.1330     9.9428     9.9330
  472.8000   116.1977     9.8849     9.9320
  472.9000   117.4732     9.8227     9.7974
  473.0000   118.5083     9.6967     9.7978
  473.1000   119.2004     9.6460     9.7607
