~VERSION INFORMATION
 VERS.                2.0:   CWLS LOG ASCII STANDARD - VERSION 2.0
 WRAP.                 NO:   ONE LINE PER DEPTH STEP
~WELL INFORMATION
#MNEM.UNIT      DATA TYPE    INFORMATION
#----------   ------------   ------------------------------
 STRT.F           27.0000:   START DEPTH
 STOP.F          538.0000:   STOP DEPTH
 STEP.F            0.5000:   STEP LENGTH
 NULL.          -999.2500:   NO VALUE
 COMP. FENIX & SCISSON INC:   COMPANY
 WELL.        NPR 3 #24-3:   WELL
 FLD .             TEAPOT:   FIELD
 LOC .       S3 T38N R78W:   LOCATION
 CNTY.            NATRONA:   COUNTY
 STAT.            WYOMING:   STATE
 CTRY. UNITED STATES OF AMERICA:   COUNTRY
 SRVC.            Unknown:   SERVICE COMPANY
 DATE.        26-SEP-1978:   LOGDATE
 API .       490251068800:   API NUMBER
~CURVE INFORMATION
#MNEM.UNIT       API CODE    CURVE DESCRIPTION
#----------   ------------   ------------------------------
 DEPT.F                  :   
 SPR .MV     05 010 01 00:   SPONTANEOUS POTENTIAL FROM RES.
 ILD .OHMM   05 120 46 00:   INDUCTION LOG DEEP
 SN  .OHMM   05 040 16 00:   SHORT NORMAL 16"
 CALD.IN     45 280 60 00:   CALIPER
 GRD .GAPI   45 310 01 00:   GAMMA RAY FROM DENSITY LOG
 DEN .G/C3   45 350 01 00:   COMPENSATED BULK DENSTIY
 DPHI.DEC    45 890 12 00:   DENSITY POROSITY SANDSTONE
 CORR.G/C3   45 356 01 00:   DENSITY CORRECTION
~PARAMETER INFORMATION
#MNEM.UNIT          VALUE    DESCRIPTION
#----------   ------------   ------------------------------
 PD  .                 GL:   PERMANENT DATUM
 EPD .F              5200:   ELEVATION PERMANENT DATUM
 LMF .                 KB:   LOG MEASURED FROM
 DAPD.F                 4:   FEET ABOVE PERMANENT DATUM
 DMF .                 KB:   DRILLING MEASURED FROM
 EKB .F              5204:   KELLING BUSHING
 EGL .F              5200:   GROUND LEVEL
 DATE.            9-26-78:   RUN DATE
 RUN .                  1:   RUN NUMBER
 DD  .F               537:   DEPTH DRILLER
 DL  .F               538:   DEPTH LOGGER
 BLI .F               532:   BOTTOM LOG INTERVAL
 TLI .F                40:   TOP LOG INTERVAL
 CS  .IN            8.625:   CASING SIZE
 CBD .F                40:   CASING BOTTOM DRILLER
 CBL .F                46:   CASING BOTTOM LOGGER
 BS  .IN            7.875:   BIT SIZE
 BSD .F               537:   BIT SIZE AT DEPTH
 DFT .                KCL:   DRILLING FLUID TYPE
 DFD .                8.7:   DRILLING FLUID DENSITY
 DFV .                 37:   DRILLING FLUID VISCOSITY
 DFPH.                  9:   DRILLING FLUID PH
 DFL .                 10:   DRILLING FLUID LOSS
 MSS .          FLOW LINE:   MUD SAMPLE SOURCE
 RMS .OHMM            .18:   RESISTIVITY MUD SAMPLE
 MST .F                72:   MUD SAMPLE TEMPERATURE
 RMF .OHMM            .16:   RESISTIVITY MUD FILTRATE SAMPLE
 MFST.F                76:   MUD FILTRATE SAMPLE TEMPERATURE
 RMC .OHMM            .26:   RESISTIVITY MUD CAKE
 MCST.F                76:   MUD CAKE SAMPLE TEMPERATURE
 MFSS.               MEAS:   MUD FILTRATE SAMPLE SOURCE
 RMB .OHMM            .18:   RESISTIVITY MUD AT BHT
 BHT .F                71:   BOTTOM HOLE TEMPERATURE
 TCS .HRS               3:   TIME CURCULATED STOPPED
 MRT .F                71:   MAXIMUM RECORDED TEMPERATURE
 LUN .               2958:   LOGGING UNIT NUMBER
 LUL .               CASP:   LOGGING UNIT LOCATION
 ENGI.           REYNOLDS:   RECORDING ENGINEER
 WITN.              AMEND:   WITNESSED BY
 CLNT.            A2DTECH:   CLIENT CODE
 ORIG.           5" PRINT:   ORIGIN OF DATA
 UWI .       490251068800:   UNIQUE WELL ID
 DICO. A2D Technologies, Inc.:   DIGITIZING COMPANY
~OTHER INFORMATION
~A   DEPT      SPR        ILD         SN       CALD         GRD       DEN       DPHI       CORR   
   27.0000  -999.2500  -999.2500  -999.2500  -999.2500    86.7937  -999.2500  -999.2500  -999.2500
   27.5000  -999.2500  -999.2500  -999.2500  -999.2500    86.9812  -999.2500  -999.2500  -999.2500
   28.0000  -999.2500  -999.2500  -999.2500  -999.2500    87.1687  -999.2500  -999.2500  -999.2500
   28.5000  -999.2500  -999.2500  -999.2500  -999.2500    87.5081  -999.2500  -999.2500  -999.2500
   29.0000  -999.2500  -999.2500  -999.2500  -999.2500    89.4922  -999.2500  -999.2500  -999.2500
   29.5000  -999.2500  -999.2500  -999.2500  -999.2500    91.4928  -999.2500  -999.2500  -999.2500
   30.0000  -999.2500  -999.2500  -999.2500  -999.2500    93.4165  -999.2500  -999.2500  -999.2500
   30.5000  -999.2500  -999.2500  -999.2500  -999.2500    95.3463  -999.2500  -999.2500  -999.2500
   31.0000  -999.2500  -999.2500  -999.2500  -999.2500    95.8677  -999.2500  -999.2500  -999.2500
   31.5000  -999.2500  -999.2500  -999.2500  -999.2500    92.6020  -999.2500  -999.2500  -999.2500
   32.0000  -999.2500  -999.2500  -999.2500  -999.2500    89.5911  -999.2500  -999.2500  -999.2500
   32.5000  -999.2500  -999.2500  -999.2500  -999.2500    86.6131  -999.2500  -999.2500  -999.2500
   33.0000  -999.2500  -999.2500  -999.2500  -999.2500    86.2833  -999.2500  -999.2500  -999.2500
   33.5000  -999.2500  -999.2500  -999.2500  -999.2500    86.6465  -999.2500  -999.2500  -999.2500
   34.0000  -999.2500  -999.2500  -999.2500  -999.2500    87.1497  -999.2500  -999.2500  -999.2500
   34.5000  -999.2500  -999.2500  -999.2500  -999.2500    87.5057  -999.2500  -999.2500  -999.2500
   35.0000  -999.2500  -999.2500  -999.2500  -999.2500    87.7114  -999.2500  -999.2500  -999.2500
   35.5000  -999.2500  -999.2500  -999.2500  -999.2500    87.3026  -999.2500  -999.2500  -999.2500
   36.0000  -999.2500  -999.2500  -999.2500  -999.2500    85.8334  -999.2500  -999.2500  -999.2500
   36.5000  -999.2500  -999.2500  -999.2500  -999.2500    82.3077  -999.2500  -999.2500  -999.2500
   37.0000  -999.2500  -999.2500  -999.2500  -999.2500    78.5243  -999.2500  -999.2500  -999.2500
   37.5000  -999.2500  -999.2500  -999.2500  -999.2500    74.7485  -999.2500  -999.2500  -999.2500
   38.0000  -999.2500  -999.2500  -999.2500  -999.2500    71.3678  -999.2500  -999.2500  -999.2500
   38.5000  -999.2500  -999.2500  -999.2500  -999.2500    69.0186  -999.2500  -999.2500  -999.2500
   39.0000  -999.2500  -999.2500  -999.2500  -999.2500    66.8613  -999.2500  -999.2500  -999.2500
   39.5000  -999.2500  -999.2500  -999.2500  -999.2500    66.3799  -999.2500  -999.2500  -999.2500
   40.0000  -999.2500  -999.2500  -999.2500  -999.2500    68.0580  -999.2500  -999.2500  -999.2500
   40.5000  -999.2500  -999.2500  -999.2500  -999.2500    71.8024  -999.2500  -999.2500  -999.2500
   41.0000  -999.2500  -999.2500  -999.2500  -999.2500    76.7911  -999.2500  -999.2500  -999.2500
   41.5000  -999.2500  -999.2500  -999.2500  -999.2500    80.4758  -999.2500  -999.2500  -999.2500
   42.0000  -999.2500  -999.2500  -999.2500  -999.2500    80.3420  -999.2500  -999.2500  -999.2500
   42.5000  -999.2500  -999.2500  -999.2500  -999.2500    76.8198  -999.2500  -999.2500  -999.2500
   43.0000  -999.2500  -999.2500  -999.2500  -999.2500    71.7063  -999.2500  -999.2500  -999.2500
   43.5000  -999.2500  -999.2500  -999.2500  -999.2500    72.1470  -999.2500  -999.2500  -999.2500
   44.0000  -999.2500  -999.2500  -999.2500  -999.2500    77.2436  -999.2500  -999.2500  -999.2500
   44.5000  -999.2500  -999.2500  -999.2500  -999.2500    89.7231  -999.2500  -999.2500  -999.2500
   45.0000  -999.2500  -999.2500  -999.2500  -999.2500   108.3742  -999.2500  -999.2500  -999.2500
   45.5000  -999.2500  -999.2500  -999.2500  -999.2500   117.5866  -999.2500  -999.2500  -999.2500
   46.0000   -58.7475     0.1972     0.1954     7.6500   118.5471     2.0065     0.2760     0.1520
   46.5000   -56.2003     0.2130     0.2009     8.3950   117.0541     2.3110     0.1201     0.1272
   47.0000   -56.7594     0.4551     2.9008     8.3700   116.1309     2.4708     0.1014     0.1008
   47.5000   -56.7569     1.0017     3.0159     7.9950   118.7202     2.4900     0.1052     0.0796
   48.0000   -57.2784     2.9744     3.5024     8.7652   122.6869     2.4968     0.1179     0.0711
   48.5000   -58.4265     3.2259     3.8991     7.8943   122.8172     2.4785     0.1305     0.0724
   49.0000   -59.0616     3.4987     4.4426     8.0215   122.8890     2.4585     0.1394     0.0740
   49.5000   -59.3317     3.8454     4.9233     8.5194   123.1463     2.4475     0.1376     0.0756
   50.0000   -59.2806     4.2924     5.2541     8.2109   123.4946     2.4479     0.1345     0.0755
   50.5000   -59.2288     4.7914     5.6413     7.9863   123.8468     2.4523     0.1303     0.0614
   51.0000   -59.1620     5.3448     6.8547     7.9852   124.1954     2.4566     0.1288     0.0465
   51.5000   -60.0502     5.6493     6.9188     7.9763   124.5123     2.4607     0.1310     0.0428
   52.0000   -63.9127     5.3359     7.1094     7.9706   124.5012     2.4566     0.1339     0.0514
   52.5000   -58.7681     5.3877     5.6413     7.9776   125.3490     2.4511     0.1371     0.0666
   53.0000   -62.7860     5.3844     5.5894     7.9844   127.0500     2.4455     0.1406     0.0817
   53.5000   -58.1464     5.7576     7.5120     7.9925   128.1996     2.4397     0.1410     0.0967
   54.0000   -57.2664     6.1304     7.1411     8.1518   128.7994     2.4395     0.1406     0.1117
   54.5000   -57.2749     6.1043     6.7237     8.5271   129.9578     2.4453     0.1320     0.1130
   55.0000   -57.2086     6.0712     6.8727     8.0270   131.6754     2.4646     0.1238     0.0936
   55.5000   -57.3155     6.0535     6.9639     8.0041   133.4077     2.4834     0.1171     0.0737
   56.0000   -58.2699     6.0361     7.0575     7.9705   134.1042     2.4950     0.1109     0.0631
   56.5000   -59.2141     6.0158     7.1510     7.9772   133.6831     2.4893     0.1132     0.0548
   57.0000   -60.1269     6.1933     7.3837     7.9840   132.1926     2.4854     0.1186     0.0496
   57.5000   -60.5210     6.5484     7.6634     7.9885   130.7311     2.4829     0.1266     0.0468
   58.0000   -60.7383     6.9239     7.9536     7.9748   129.6756     2.4649     0.1232     0.0441
   58.5000   -60.7351     7.2427     8.1737     7.9608   129.9189     2.4719     0.1167     0.0414
   59.0000   -60.7340     7.3626     8.3788     7.9469   130.2302     2.4806     0.1103     0.0384
   59.5000   -60.8065     7.4884     8.5890     7.9331   130.5441     2.4886     0.1072     0.0347
   60.0000   -60.8890     7.6222     8.8046     7.9192   130.5342     2.4950     0.1054     0.0327
   60.5000   -60.8941     7.7597     9.0260     7.9054   130.2078     2.4980     0.1035     0.0320
   61.0000   -60.7106     7.8996     9.2524     7.8913   129.5780     2.5000     0.1031     0.0314
   61.5000   -60.5322     8.0420     9.4636     7.8490   128.7064     2.5021     0.1033     0.0307
   62.0000   -60.3525     8.1871     9.3770     7.8032   126.8232     2.5017     0.1034     0.0301
   62.5000   -60.4994     8.5133     9.2944     7.7574   124.9259     2.5007     0.1034     0.0294
   63.0000   -60.6820     8.9560     9.2125     7.7117   123.0307     2.5010     0.1035     0.0291
   63.5000   -60.8645     9.3083     9.1202     7.6660   121.1385     2.5008     0.1045     0.0296
   64.0000   -61.0475     9.7163     9.2296     7.6198   119.2474     2.4997     0.1054     0.0300
   64.5000   -61.1478    10.1401     9.2667     7.5755   118.4600     2.4985     0.1052     0.0304
   65.0000   -61.1796    10.4335     9.3046     7.5271   119.0173     2.4996     0.1037     0.0308
   65.5000   -61.2101    10.7439     9.3427     7.5187   119.2867     2.5016     0.1022     0.0301
   66.0000   -61.2403    11.0290     9.3761     7.4801   117.3094     2.5036     0.1006     0.0285
   66.5000   -61.2706    11.2373     9.3008     7.4415   115.2721     2.5039     0.1018     0.0269
   67.0000   -61.3006    11.4481     9.2319     7.4029   114.6911     2.5028     0.1034     0.0253
