~VERSION INFORMATION
 VERS.                2.0:   CWLS LOG ASCII STANDARD - VERSION 2.0
 WRAP.                 NO:   ONE LINE PER DEPTH STEP
~WELL INFORMATION
#MNEM.UNIT      DATA TYPE    INFORMATION
#----------   ------------   ------------------------------
 STRT.F           12.5000:   START DEPTH
 STOP.F          604.0000:   STOP DEPTH
 STEP.F            0.5000:   STEP LENGTH
 NULL.          -999.2500:   NO VALUE
 COMP. FENIX & SCISSON INC:   COMPANY
 WELL.   SX-3 NPR 3 #61-3:   WELL
 FLD .             TEAPOT:   FIELD
 LOC .       S3 T38N R78W:   LOCATION
 CNTY.            NATRONA:   COUNTY
 STAT.            WYOMING:   STATE
 CTRY. UNITED STATES OF AMERICA:   COUNTRY
 SRVC.           BIRDWELL:   SERVICE COMPANY
 DATE.        03-DEC-1978:   LOGDATE
 API .       490251074100:   API NUMBER
~CURVE INFORMATION
#MNEM.UNIT       API CODE    CURVE DESCRIPTION
#----------   ------------   ------------------------------
 DEPT.F                  :   
 SPR .MV     05 010 01 00:   SPONTANEOUS POTENTIAL FROM RES.
 SN  .OHMM   05 040 16 00:   SHORT NORMAL 16"
 IL  .OHMM   05 120 00 00:   INDUCTION LOG
 CALD.IN     45 280 60 00:   CALIPER
 GRD .GAPI   45 310 01 00:   GAMMA RAY FROM DENSITY LOG
 DEN .G/C3   45 350 01 00:   COMPENSATED BULK DENSTIY
 CORR.G/C3   45 356 01 00:   DENSITY CORRECTION
 DPHI.DEC    45 890 12 00:   DENSITY POROSITY SANDSTONE
~PARAMETER INFORMATION
#MNEM.UNIT          VALUE    DESCRIPTION
#----------   ------------   ------------------------------
 PD  .                 GL:   PERMANENT DATUM
 EPD .F              5099:   ELEVATION PERMANENT DATUM
 LMF .                 KB:   LOG MEASURED FROM
 DAPD.F                 4:   FEET ABOVE PERMANENT DATUM
 DMF .                 KB:   DRILLING MEASURED FROM
 EKB .F              5103:   KELLING BUSHING
 EGL .F              5099:   GROUND LEVEL
 DATE.            12-3-78:   RUN DATE
 RUN .                  1:   RUN NUMBER
 DD  .F               615:   DEPTH DRILLER
 DL  .F               604:   DEPTH LOGGER
 BLI .F               598:   BOTTOM LOG INTERVAL
 TLI .F                40:   TOP LOG INTERVAL
 CS  .IN            8.625:   CASING SIZE
 CBL .F                35:   CASING BOTTOM LOGGER
 BS  .IN            7.875:   BIT SIZE
 BSD .F               615:   BIT SIZE AT DEPTH
 DFT .                KCL:   DRILLING FLUID TYPE
 DFD .                8.8:   DRILLING FLUID DENSITY
 DFV .                 42:   DRILLING FLUID VISCOSITY
 DFPH.               12.2:   DRILLING FLUID PH
 DFL .                 10:   DRILLING FLUID LOSS
 MSS .           FLOWLINE:   MUD SAMPLE SOURCE
 RMS .OHMM            .24:   RESISTIVITY MUD SAMPLE
 MST .F                58:   MUD SAMPLE TEMPERATURE
 RMF .OHMM             .3:   RESISTIVITY MUD FILTRATE SAMPLE
 MFST.F                54:   MUD FILTRATE SAMPLE TEMPERATURE
 RMC .OHMM            .34:   RESISTIVITY MUD CAKE
 MCST.F                56:   MUD CAKE SAMPLE TEMPERATURE
 MFSS.           MEASURED:   MUD FILTRATE SAMPLE SOURCE
 MCSS.           MEASURED:   MUD CAKE SAMPLE SOURCE
 RMB .OHMM            .27:   RESISTIVITY MUD AT BHT
 BHT .F                56:   BOTTOM HOLE TEMPERATURE
 TCS .HRS               3:   TIME CURCULATED STOPPED
 MRT .F                52:   MAXIMUM RECORDED TEMPERATURE
 LUN .               2958:   LOGGING UNIT NUMBER
 LUL .                CPR:   LOGGING UNIT LOCATION
 ENGI.            ROLLINS:   RECORDING ENGINEER
 WITN.              AMEND:   WITNESSED BY
 CLNT.            A2DTECH:   CLIENT CODE
 ORIG.       2", 5" PRINT:   ORIGIN OF DATA
 UWI .       490251074100:   UNIQUE WELL ID
 DICO. A2D Technologies, Inc.:   DIGITIZING COMPANY
~OTHER INFORMATION
~A   DEPT      SPR         SN         IL       CALD         GRD       DEN       CORR       DPHI   
# ...
  377.0000   -55.6202     8.5061     7.1976     8.0919   112.2906     2.4757    -0.0009     0.1305
  377.5000   -55.4928     8.6126     7.2043     8.0934   109.8674     2.4759    -0.0008     0.1310
  378.0000   -55.3675     8.7204     7.2110     8.0950   107.1408     2.4757    -0.0007     0.1316
  378.5000   -55.2734     8.8296     7.2177     8.0966   110.9853     2.4723    -0.0006     0.1332
  379.0000   -55.1247     8.8710     7.2244     8.0982   113.6096     2.4689     0.0005     0.1349
  379.5000   -55.1190     8.8459     7.2311     8.0997   117.5275     2.4654     0.0033     0.1356
  380.0000   -55.1372     8.8085     7.2378     8.0995   120.9146     2.4656     0.0060     0.1236
  380.5000   -55.1804     8.7712     7.2445     8.0952   120.3999     2.4800     0.0089     0.1176
  381.0000   -55.2231     8.7341     7.2512     8.0910   116.9199     2.4944     0.0072     0.1200
  381.5000   -55.2658     8.6972     7.2579     8.0868   114.8369     2.4933     0.0039     0.1236
  382.0000   -55.3085     8.6604     7.2647     8.0826   119.5545     2.4882     0.0006     0.1312
  382.5000   -55.3512     8.6238     7.2714     8.0784   123.6376     2.4775    -0.0025     0.1390
  383.0000   -55.3939     8.5873     7.2782     8.0741   123.4722     2.4657    -0.0026     0.1448
  383.5000   -55.4366     8.5510     7.2849     8.0699   120.8270     2.4536    -0.0001     0.1408
  384.0000   -55.4793     8.5148     7.2916     8.0658   120.1085     2.4556     0.0027     0.1350
  384.5000   -55.5220     8.4788     7.2982     8.0622   122.2298     2.4639     0.0055     0.1292
  385.0000   -55.5647     8.4429     7.3082     8.0370   124.3010     2.4721     0.0082     0.1276
  385.5000   -55.6074     8.4072     7.1952     8.0088   126.1879     2.4779     0.0110     0.1284
  386.0000   -55.6501     8.3716     7.0125     7.9807   124.7063     2.4762     0.0134     0.1348
  386.5000   -55.6928     8.3362     6.8344     7.9520   122.0177     2.4713     0.0126     0.1408
  387.0000   -55.7355     8.3009     6.6609     7.9785   120.8278     2.4589     0.0118     0.1463
  387.5000   -55.7782     8.2658     6.4918     8.0404   122.8483     2.4488     0.0109     0.1450
  388.0000   -55.8210     8.1927     6.3270     8.0604   124.7930     2.4509     0.0101     0.1427
  388.5000   -55.8636     7.9975     6.3027     8.0602   124.9289     2.4529     0.0095     0.1404
  389.0000   -55.9067     7.8069     6.2057     8.0595   123.6544     2.4550     0.0095     0.1382
  389.5000   -55.9125     7.6203     6.1506     8.0590   121.9036     2.4604     0.0095     0.1359
  390.0000   -55.8946     7.4418     6.0959     8.0584   120.1406     2.4664     0.0095     0.1336
  390.5000   -55.8761     7.4432     6.0417     8.0578   118.3777     2.4712     0.0095     0.1332
  391.0000   -55.8577     7.4428     5.9880     8.0573   118.2189     2.4681     0.0095     0.1409
  391.5000   -55.8394     7.4431     5.9061     8.0567   118.3331     2.4569     0.0095     0.1503
  392.0000   -55.8210     7.4429     5.8003     8.0562   117.5867     2.4357     0.0095     0.1596
  392.5000   -55.8027     7.3836     5.6963     8.0556   116.5601     2.4330     0.0095     0.1651
  393.0000   -55.7843     7.3244     5.6413     8.0551   115.9143     2.4146     0.0095     0.1554
  393.5000   -55.7657     7.2658     5.6413     8.0545   116.2167     2.4272     0.0095     0.1427
  394.0000   -55.7480     7.2077     5.6413     8.0540   118.1657     2.4485     0.0095     0.1300
  394.5000   -55.7267     7.1729     5.6413     8.0534   118.9316     2.4707     0.0084     0.1278
  395.0000   -55.8959     7.1729     5.6407     8.0528   119.1881     2.4788     0.0068     0.1281
  395.5000   -56.1544     7.2341     5.6408     8.0523   120.2100     2.4786     0.0052     0.1273
  396.0000   -56.4165     7.2925     5.8826     8.0517   121.3825     2.4779     0.0036     0.1271
  396.5000   -56.6784     7.3332     6.1613     8.0512   122.5743     2.4773     0.0020     0.1309
  397.0000   -56.9393     7.4793     6.4528     8.0506   122.9027     2.4731     0.0004     0.1344
  397.5000   -57.2011     7.6283     6.7580     8.0501   121.6999     2.4673    -0.0012     0.1345
  398.0000   -57.3548     7.7811     7.0416     8.0495   119.6277     2.4677    -0.0022     0.1337
  398.5000   -57.4120     7.9414     7.0416     8.0490   118.3406     2.4685     0.0003     0.1372
  399.0000   -57.4664     7.9012     6.9768     8.0484   118.8741     2.4660     0.0029     0.1477
  399.5000   -57.5207     7.8498     6.7420     8.0478   117.4645     2.4542     0.0053     0.1583
  400.0000   -57.5752     7.7944     6.3813     8.0473   116.4280     2.4365     0.0078     0.1689
  400.5000   -57.6296     7.7986     6.0410     8.0467   119.2841     2.4188     0.0090     0.1719
  401.0000   -57.6839     7.6393     5.7189     8.0462   122.1802     2.4023     0.0075     0.1655
  401.5000   -57.7578     7.3921     5.4140     8.0456   123.6925     2.4132     0.0078     0.1548
  402.0000   -57.9430     7.1509     5.2394     8.0450   123.7687     2.4318     0.0084     0.1438
  402.5000   -58.1288     6.9176     5.1435     8.0445   120.9259     2.4505     0.0090     0.1329
  403.0000   -58.3144     6.6919     5.1435     8.0439   117.8275     2.4691     0.0094     0.1219
  403.5000   -58.5000     6.4735     5.1435     8.0434   117.8337     2.4878     0.0089     0.1150
  404.0000   -58.6853     6.2447     5.1435     8.0428   119.5016     2.4973     0.0084     0.1158
  404.5000   -58.8726     6.2447     5.2394     8.0423   118.3635     2.4980     0.0079     0.1160
  405.0000   -58.9351     6.6188     5.6683     8.0417   115.6625     2.4980     0.0074     0.1160
  405.5000   -58.9363     6.9460     6.1755     8.0411   113.1702     2.4980     0.0069     0.1160
  406.0000   -58.9378     7.2893     6.7281     8.0439   112.3220     2.4972     0.0064     0.1169
  406.5000   -58.8754     7.6497     7.2582     8.0492   112.0774     2.4961     0.0060     0.1181
  407.0000   -58.8072     8.0279     7.6055     8.0545   111.9992     2.4950     0.0055     0.1188
  407.5000   -58.7389     8.3926     7.7236     8.0598   110.9123     2.4940     0.0050     0.1188
  408.0000   -58.6710     8.7086     7.7242     8.0652   109.4024     2.4929     0.0045     0.1188
  408.5000   -58.6030     8.7933     7.7232     8.0705   107.8851     2.4918     0.0040     0.1190
  409.0000   -58.5349     8.7994     7.7230     8.0759   107.2318     2.4911     0.0035     0.1192
  409.5000   -58.4669     8.8047     7.7232     8.0807   108.0990     2.4918     0.0030     0.1186
  410.0000   -58.3989     8.8102     7.7329     8.0798   109.7801     2.4925     0.0025     0.1179
  410.5000   -58.3309     8.8159     7.7634     8.0787   111.4581     2.4932     0.0020     0.1185
  411.0000   -58.2629     8.8215     7.7937     8.0777   113.1068     2.4939     0.0015     0.1209
  411.5000   -58.1951     8.8272     7.8241     8.0767   113.4358     2.4908     0.0019     0.1234
  412.0000   -58.1300     8.8328     7.8546     8.0757   113.7057     2.4859     0.0024     0.1258
  412.5000   -58.0637     8.8385     7.8853     8.0747   113.9579     2.4809     0.0028     0.1283
  413.0000   -57.9997     8.8441     7.9161     8.0737   113.9534     2.4759     0.0032     0.1308
  413.5000   -57.9360     8.8498     7.9470     8.0726   113.2223     2.4719     0.0037     0.1287
  414.0000   -57.8722     8.8555     7.9780     8.0716   109.9847     2.4724     0.0041     0.1252
  414.5000   -57.8081     8.8613     8.0091     8.0706   107.3146     2.4810     0.0046     0.1240
  415.0000   -57.7394     8.8668     8.0404     8.0696   106.4095     2.4839     0.0050     0.1234
  415.5000   -57.8781     8.8710     8.0718     8.0686   104.9094     2.4866     0.0055     0.1215
  416.0000   -58.0661     8.8172     8.1033     8.0675   103.7544     2.4904     0.0031     0.1197
  416.5000   -58.2551     8.7750     8.1351     8.0665   103.8205     2.4941     0.0001     0.1184
  417.0000   -58.4434     8.7330     8.1650     8.0655   104.8032     2.4891    -0.0026     0.1326
