~VERSION INFORMATION
 VERS.                2.0:   CWLS LOG ASCII STANDARD - VERSION 2.0
 WRAP.                 NO:   ONE LINE PER DEPTH STEP
~WELL INFORMATION
#MNEM.UNIT      DATA TYPE    INFORMATION
#----------   ------------   ------------------------------
 STRT.F           19.5000:   START DEPTH
 STOP.F          690.5000:   STOP DEPTH
 STEP.F            0.5000:   STEP LENGTH
 NULL.          -999.2500:   NO VALUE
 COMP. FENIX & SCISSON INC:   COMPANY
 WELL. 37-22 SX 11 WI #3-11:   WELL
 FLD .             TEAPOT:   FIELD
 LOC .      S11 T38N R78W:   LOCATION
 CNTY.            NATRONA:   COUNTY
 STAT.            WYOMING:   STATE
 CTRY. UNITED STATES OF AMERICA:   COUNTRY
 SRVC.      Dresser Atlas:   SERVICE COMPANY
 DATE.        11-AUG-1980:   LOGDATE
 API .       490251084400:   API NUMBER
~CURVE INFORMATION
#MNEM.UNIT       API CODE    CURVE DESCRIPTION
#----------   ------------   ------------------------------
 DEPT.F                  :   
 SPR .MV     07 010 01 00:   SPONTANEOUS POTENTIAL
 SFL .OHMM   07 220 01 00:   SHALLOW FOCUSED LOG RESISTIVITY
 ILD .OHMM   07 120 46 00:   INDUCTION LOG DEEP
 ILM .OHMM   07 120 44 00:   INDUCTION LOG MEDIUM
 GRD .GAPI   45 310 01 00:   GAMMA RAY FROM DENSITY LOG
 CALD.IN     45 280 60 00:   CALIPER
 CORR.G/C3   45 356 01 00:   DENSITY CORRECTION
 RHOB.G/C3   45 350 01 00:   BULK DENSITY
 NPHI.DEC    42 890 12 00:   NEUTRON POROSITY SANDSTONE
 DPHI.DEC    45 890 12 00:   DENSITY POROSITY SANDSTONE
~PARAMETER INFORMATION
#MNEM.UNIT          VALUE    DESCRIPTION
#----------   ------------   ------------------------------
 PD  .                 GL:   PERMANENT DATUM
 EPD .F              5191:   ELEVATION PERMANENT DATUM
 LMF .                 KB:   LOG MEASURED FROM
 DAPD.F                 5:   FEET ABOVE PERMANENT DATUM
 DMF .                 KB:   DRILLING MEASURED FROM
 EKB .F              5196:   KELLING BUSHING
 EGL .F              5191:   GROUND LEVEL
 DATE.            8-11-80:   RUN DATE
 RUN .                  1:   RUN NUMBER
 DD  .F               680:   DEPTH DRILLER
 DL  .F               689:   DEPTH LOGGER
 BLI .F               687:   BOTTOM LOG INTERVAL
 TLI .F                20:   TOP LOG INTERVAL
 CS  .IN            8.625:   CASING SIZE
 BS  .IN            7.875:   BIT SIZE
 BSD .F               680:   BIT SIZE AT DEPTH
 DFT .           CHEM GEL:   DRILLING FLUID TYPE
 DFD .                9.9:   DRILLING FLUID DENSITY
 DFV .                 52:   DRILLING FLUID VISCOSITY
 DFPH.               11.5:   DRILLING FLUID PH
 DFL .                104:   DRILLING FLUID LOSS
 MSS .           FLOWLINE:   MUD SAMPLE SOURCE
 RMS .OHMM             .2:   RESISTIVITY MUD SAMPLE
 MST .F                74:   MUD SAMPLE TEMPERATURE
 RMF .OHMM            .15:   RESISTIVITY MUD FILTRATE SAMPLE
 MFST.F                74:   MUD FILTRATE SAMPLE TEMPERATURE
 RMC .OHMM            .25:   RESISTIVITY MUD CAKE
 MCST.F                74:   MUD CAKE SAMPLE TEMPERATURE
 MFSS.               CALC:   MUD FILTRATE SAMPLE SOURCE
 MCSS.               CALC:   MUD CAKE SAMPLE SOURCE
 TCS .HRS               3:   TIME CURCULATED STOPPED
 LUN .             HL6150:   LOGGING UNIT NUMBER
 LUL .                 FM:   LOGGING UNIT LOCATION
 ENGI.            BRANNEY:   RECORDING ENGINEER
 WITN.           MCINTYRE:   WITNESSED BY
 CLNT.            A2DTECH:   CLIENT CODE
 ORIG.           5" PRINT:   ORIGIN OF DATA
 UWI .       490251084400:   UNIQUE WELL ID
 DICO. A2D Technologies, Inc.:   DIGITIZING COMPANY
~OTHER INFORMATION
~A   DEPT      SPR        SFL        ILD        ILM        GRD       CALD       CORR       RHOB       NPHI       DPHI   
# ...
  120.0000   -48.9240    13.1950    10.8630     9.1980    95.4350     8.0010     0.0200     2.3600     0.2550     0.1940
  120.5000   -49.1150    13.5970    10.7190     9.1980    93.7980     8.0060     0.0160     2.3500     0.2470     0.2000
  121.0000   -49.2960    14.0000    10.5750     9.3080    94.4700     8.0120     0.0110     2.3300     0.2420     0.2090
  121.5000   -49.4730    14.4020    10.4610     9.4190    95.7610     8.0180     0.0070     2.3370     0.2470     0.2050
  122.0000   -49.4940    14.8040    10.5820     9.5300    96.7780     8.0230     0.0030     2.3530     0.2500     0.2010
  122.5000   -49.2870    15.1490    10.7760     9.6410    93.7590     8.0290    -0.0020     2.3290     0.2510     0.2100
  123.0000   -49.0760    15.3130    10.9710     9.7520    91.7940     8.0350     0.0030     2.3380     0.2460     0.2020
  123.5000   -48.8660    15.4770    11.1650     9.8630    92.9640     8.0410     0.0110     2.3490     0.2490     0.1960
  124.0000   -48.7070    15.6410    11.3590     9.9740    95.1440     8.0460     0.0180     2.3590     0.2500     0.1900
  124.5000   -48.7090    15.8050    11.5530    10.0850    96.3750     8.0520     0.0260     2.3700     0.2450     0.1840
  125.0000   -48.8110    15.9690    11.7480    10.1960    95.4430     8.0580     0.0340     2.3810     0.2380     0.1780
  125.5000   -48.9540    16.1150    11.9420    10.3070    97.1750     8.0640     0.0420     2.3920     0.2400     0.1720
  126.0000   -49.1000    15.9600    12.1360    10.4180    94.9660     8.0690     0.0500     2.4030     0.2440     0.1640
  126.5000   -49.1070    15.7910    12.3300    10.5580    92.3940     8.0750     0.0310     2.4120     0.2380     0.1660
  127.0000   -49.1070    15.6210    12.4580    10.4210    91.2160     8.0640     0.0070     2.3990     0.2320     0.1780
  127.5000   -49.1070    15.4520    11.9930    10.2340    91.9010     8.0510    -0.0170     2.3670     0.2200     0.1970
  128.0000   -49.1070    15.2820    11.6470    10.0480    92.1100     8.0380    -0.0200     2.3350     0.2200     0.2090
  128.5000   -49.1070    15.1100    11.3010     9.8620    90.3810     8.0250     0.0000     2.3330     0.2500     0.2080
  129.0000   -49.1080    14.1840    10.9560     9.6760    93.2540     8.0120     0.0160     2.3400     0.2480     0.2040
  129.5000   -49.1080    13.2420    10.6100     9.4900    95.2280     7.9980     0.0200     2.3480     0.2440     0.2010
  130.0000   -49.1070    12.3000    10.2710     9.3040    96.1690     7.9850     0.0250     2.3550     0.2440     0.1960
  130.5000   -49.0970    11.5750    10.3040     9.1180    93.5890     7.9610     0.0390     2.3630     0.2500     0.1880
  131.0000   -49.4470    12.0930    10.3440     8.8660    91.7630     7.9630     0.0520     2.3690     0.2530     0.1910
  131.5000   -49.8440    12.5150    10.3850     8.9690    91.4570     7.9720     0.0560     2.3560     0.2590     0.1970
  132.0000   -50.2460    12.9370    10.4250     9.1960    91.7100     7.9820     0.0570     2.3430     0.2660     0.2020
  132.5000   -50.6480    13.3580    10.4660     9.4230    90.6220     7.9920     0.0630     2.3550     0.2720     0.1950
  133.0000   -51.0500    12.9860    10.5060     9.6510    91.6580     8.0020     0.0690     2.3710     0.2650     0.1860
  133.5000   -51.4770    12.5060    10.5580     9.8100    93.2200     8.0120     0.0740     2.3850     0.2700     0.1810
  134.0000   -52.1680    12.0260    10.2120     9.4130    94.6220     8.0220     0.0760     2.3740     0.2720     0.1760
  134.5000   -52.9140    11.5470     9.7240     9.1080    97.9460     8.0320     0.0720     2.3880     0.2680     0.1710
  135.0000   -53.6620    11.0670     9.2350     8.7850   101.5910     8.0420     0.0670     2.4060     0.2630     0.1640
  135.5000   -54.4090    10.5250     8.7470     8.3190   104.7110     8.0520     0.0610     2.4220     0.2560     0.1580
  136.0000   -55.1570     9.8670     8.2580     7.8230   102.4200     8.0620     0.0560     2.4050     0.2530     0.1620
  136.5000   -55.9050     9.2100     7.7700     7.3280   104.7300     8.0720     0.0510     2.4120     0.2610     0.1650
  137.0000   -56.6530     8.5520     7.2810     6.8320   103.4720     8.0820     0.0470     2.4240     0.2530     0.1570
  137.5000   -57.4010     7.8940     6.7930     6.3370   104.5990     8.0910     0.0480     2.4370     0.2590     0.1490
  138.0000   -58.1500     6.8540     6.1960     5.8410   102.8590     8.1010     0.0490     2.4490     0.2540     0.1420
  138.5000   -58.8960     6.8590     6.2020     5.6510   107.6790     8.1110     0.0500     2.4620     0.2510     0.1340
  139.0000   -59.1160     6.8700     6.2130     5.6390   111.8730     8.1150     0.0510     2.4740     0.2580     0.1280
  139.5000   -59.2310     6.8820     6.2240     5.6280   116.0680     8.1150     0.0520     2.4780     0.2640     0.1250
  140.0000   -59.3430     6.8930     6.2350     5.6170   117.6200     8.1150     0.0520     2.4810     0.2680     0.1230
  140.5000   -59.4550     6.9050     6.2460     5.6050   114.3210     8.1150     0.0410     2.4710     0.2700     0.1290
  141.0000   -59.5660     6.9160     6.2570     5.5990   111.5630     8.1150     0.0300     2.4560     0.2720     0.1360
  141.5000   -59.6770     6.9270     6.2690     5.6210   110.9380     8.1150     0.0190     2.4410     0.2810     0.1430
  142.0000   -59.7890     6.9390     6.2800     5.6410   113.7770     8.1150     0.0080     2.4270     0.2910     0.1520
  142.5000   -59.9020     6.9500     6.2910     5.6610   115.9910     8.1150     0.0050     2.4180     0.2860     0.1590
  143.0000   -60.0110     6.9620     6.3020     5.6810   117.0810     8.1150     0.0100     2.4260     0.2810     0.1520
  143.5000   -59.8570     6.9730     6.3130     5.7010   116.8360     8.1140     0.0150     2.4340     0.2840     0.1540
  144.0000   -59.6830     6.9850     6.3240     5.7210   120.8330     8.1130     0.0140     2.4220     0.2880     0.1580
  144.5000   -59.5090     6.9960     6.3350     5.7410   118.3570     8.1130     0.0060     2.4080     0.2790     0.1640
  145.0000   -59.3370     7.0070     6.3460     5.7610   116.0630     8.1120     0.0060     2.4060     0.2760     0.1620
  145.5000   -59.2770     7.0190     6.3570     5.7810   116.9430     8.1110     0.0120     2.4170     0.2730     0.1590
  146.0000   -59.5580     7.0300     6.3680     5.8070   117.7410     8.1100     0.0200     2.4290     0.2700     0.1540
  146.5000   -59.8370     7.0440     6.3430     5.7970   115.7600     8.1090     0.0290     2.4400     0.2680     0.1490
  147.0000   -60.1180     7.0110     6.3110     5.7780   113.3580     8.1080     0.0370     2.4520     0.2660     0.1440
  147.5000   -60.2170     6.9550     6.2780     5.7590   110.8930     8.1070     0.0410     2.4640     0.2690     0.1390
  148.0000   -60.2480     6.8990     6.2460     5.7400   110.0540     8.1060     0.0280     2.4670     0.2690     0.1330
  148.5000   -60.2790     6.8430     6.2140     5.7210   111.9660     8.1050     0.0300     2.4490     0.2770     0.1350
  149.0000   -60.3090     6.7920     6.1820     5.7020   115.5110     8.1050     0.0320     2.4550     0.2850     0.1390
  149.5000   -60.3390     6.8140     6.1500     5.6830   114.6830     8.1040     0.0310     2.4420     0.2900     0.1440
  150.0000   -60.3690     6.8460     6.1180     5.6640   113.8000     8.1030     0.0200     2.4300     0.2810     0.1510
  150.5000   -60.3990     6.8780     6.0860     5.6510   116.3440     8.1020     0.0100     2.4180     0.2800     0.1590
  151.0000   -60.4290     6.9110     6.0540     5.6890   116.3460     8.1010     0.0080     2.4180     0.2800     0.1550
  151.5000   -60.4590     6.9430     6.0300     5.7190   115.3600     8.1000     0.0060     2.4330     0.2760     0.1490
  152.0000   -60.4890     6.9760     6.0980     5.7480   114.3780     8.0990     0.0120     2.4510     0.2800     0.1420
  152.5000   -60.5190     7.0080     6.1600     5.7780   115.5310     8.0980     0.0200     2.4650     0.2840     0.1360
  153.0000   -60.5490     7.0410     6.2230     5.8070   116.6300     8.0970     0.0280     2.4720     0.2870     0.1300
