~VERSION INFORMATION
 VERS.                2.0:   CWLS LOG ASCII STANDARD - VERSION 2.0
 WRAP.                 NO:   ONE LINE PER DEPTH STEP
~WELL INFORMATION
#MNEM.UNIT      DATA TYPE    INFORMATION
#----------   ------------   ------------------------------
 STRT.F            0.0000:   START DEPTH
 STOP.F          790.0000:   STOP DEPTH
 STEP.F            0.1000:   STEP LENGTH
 NULL.          -999.2500:   NO VALUE
 COMP.   FLUOR DANIEL INC:   COMPANY
 WELL.   72-2 X-34 #72-34:   WELL
 FLD .          N.P.R. #3:   FIELD
 LOC .      S34 T39N R78W:   LOCATION
 CNTY.            NATRONA:   COUNTY
 STAT.            WYOMING:   STATE
 CTRY. UNITED STATES OF AMERICA:   COUNTRY
 SRVC.      Western Atlas:   SERVICE COMPANY
 DATE.        25-MAR-1995:   LOGDATE
 API .       490252269300:   API NUMBER
~CURVE INFORMATION
#MNEM.UNIT       API CODE    CURVE DESCRIPTION
#----------   ------------   ------------------------------
 DEPT.F                  :   
 GRR .GAPI   07 310 01 00:   GAMMA RAY
 RILD.OHMM   07 120 46 00:   INDUCTION LOG DEEP RESISTIVITY
 RILM.OHMM   07 120 44 00:   INDUCTION LOG MEDIUM RESISTIVITY
~PARAMETER INFORMATION
#MNEM.UNIT          VALUE    DESCRIPTION
#----------   ------------   ------------------------------
 PD  .                 GL:   PERMANENT DATUM
 EPD .F              5058:   ELEVATION PERMANENT DATUM
 LMF .                 KB:   LOG MEASURED FROM
 DAPD.F                10:   FEET ABOVE PERMANENT DATUM
 DMF .                 KB:   DRILLING MEASURED FROM
 EKB .F              5068:   KELLING BUSHING
 EDF .F              5067:   DRILLING FLOOR
 EGL .F              5058:   GROUND LEVEL
 DATE.        25-MAR-1995:   RUN DATE
 RUN .                  1:   RUN NUMBER
 DD  .F               796:   DEPTH DRILLER
 DL  .F               798:   DEPTH LOGGER
 BLI .F               790:   BOTTOM LOG INTERVAL
 TLI .F                96:   TOP LOG INTERVAL
 CS  .IN            9.625:   CASING SIZE
 CBD .F                95:   CASING BOTTOM DRILLER
 CBL .F                96:   CASING BOTTOM LOGGER
 BS  .IN             8.75:   BIT SIZE
 BSD .F               796:   BIT SIZE AT DEPTH
 DFT .                AIR:   DRILLING FLUID TYPE
 MRT .F                97:   MAXIMUM RECORDED TEMPERATURE
 LUN .            HL 6530:   LOGGING UNIT NUMBER
 LUL .             CASPER:   LOGGING UNIT LOCATION
 ENGI.             RAUTIO:   RECORDING ENGINEER
 WITN.             STRONG:   WITNESSED BY
 CLNT.            A2DTECH:   CLIENT CODE
 ORIG.       2", 5" PRINT:   ORIGIN OF DATA
 UWI .       490252269300:   UNIQUE WELL ID
 DICO. A2D Technologies, Inc.:   DIGITIZING COMPANY
~OTHER INFORMATION
~A    DEPT      GRR      RILD       RILM   
# ...
  637.0000    88.8375    15.0927    14.9394
  637.1000    89.1536    15.0562    14.9394
  637.2000    89.7242    14.9881    14.9394
  637.3000    90.3000    14.9881    14.9394
  637.4000    90.5621    14.9881    14.9394
  637.5000    90.8243    14.9881    14.9394
  637.6000    90.5162    14.9881    14.9394
  637.7000    90.5182    14.9881    14.9394
  637.8000    90.5207    14.9881    14.9394
  637.9000    90.5232    14.9881    14.9394
  638.0000    90.5256    14.9881    14.9394
  638.1000    90.5281    14.9214    14.9394
  638.2000    90.5311    14.8843    14.9394
  638.3000    90.5331    14.8843    14.9394
  638.4000    90.5356    14.8708    14.8624
  638.5000    90.4301    14.7812    14.8360
  638.6000    90.0598    14.7812    14.7940
  638.7000    89.2941    14.7812    14.7333
  638.8000    88.9908    14.7812    14.7333
  638.9000    88.9929    14.7812    14.7333
  639.0000    89.1571    14.7812    14.7333
  639.1000    89.4192    14.7812    14.7333
  639.2000    89.6813    14.8601    14.6920
  639.3000    89.9435    14.8843    14.6313
  639.4000    90.2499    14.8843    14.6313
  639.5000    90.2520    14.8843    14.6313
  639.6000    90.2544    14.8843    14.6313
  639.7000    90.2569    14.8843    14.6313
  639.8000    90.2594    14.8843    14.6313
  639.9000    90.2619    14.8843    14.6552
  640.0000    90.2648    14.8843    14.7333
  640.1000    90.2669    14.8843    14.7333
  640.2000    90.2694    14.8843    14.7333
  640.3000    90.2718    14.8843    14.7333
  640.4000    90.2743    14.8843    14.7333
  640.5000    90.2768    14.8280    14.7333
  640.6000    90.2797    14.7812    14.7333
  640.7000    90.2818    14.7812    14.7333
  640.8000    90.2843    14.7812    14.7333
  640.9000    90.2868    14.7812    14.7333
  641.0000    90.2892    14.7812    14.7333
  641.1000    90.2917    14.7812    14.7333
  641.2000    90.2946    14.7451    14.7333
  641.3000    90.2968    14.6788    14.7333
  641.4000    90.2993    14.6788    14.7333
  641.5000    90.4220    14.6788    14.7333
  641.6000    90.6153    14.6788    14.7333
  641.7000    90.6178    14.6788    14.7333
  641.8000    90.6205    14.6788    14.7333
  641.9000    90.6227    14.6788    14.7333
  642.0000    90.6252    14.6788    14.6599
  642.1000    90.6277    14.6788    14.6313
  642.2000    90.6302    14.6788    14.6313
  642.3000    90.6327    14.6305    14.6313
  642.4000    90.6355    14.5771    14.6313
  642.5000    90.6376    14.5771    14.6313
  642.6000    90.6401    14.5771    14.6313
  642.7000    90.5172    14.5771    14.6313
  642.8000    90.3341    14.5771    14.6313
  642.9000    90.3142    14.5771    14.6313
  643.0000    90.0283    14.6056    14.6313
  643.1000    89.7999    14.6788    14.6313
  643.2000    89.5427    14.6788    14.6313
  643.3000    89.4133    14.6788    14.6313
  643.4000    89.3395    14.6788    14.6313
  643.5000    89.1071    14.6788    14.6313
  643.6000    89.1101    14.6788    14.6313
  643.7000    89.1123    14.6788    14.6313
  643.8000    89.1147    14.6788    14.6313
  643.9000    89.1173    14.6788    14.6313
  644.0000    89.1198    14.6788    14.5935
  644.1000    89.1223    14.6788    14.5300
  644.2000    89.1250    14.6788    14.5300
  644.3000    89.1272    14.6788    14.5300
  644.4000    89.1297    14.6788    14.5300
  644.5000    89.1322    14.6788    14.5300
  644.6000    89.0534    14.7351    14.5300
  644.7000    88.8258    14.7812    14.5505
  644.8000    88.8288    14.7812    14.6313
  644.9000    88.5930    14.7850    14.6313
  645.0000    88.3359    14.8843    14.6313
  645.1000    88.0788    14.8843    14.6313
  645.2000    87.7377    14.8843    14.6313
  645.3000    87.2208    14.9210    14.6313
  645.4000    86.6664    14.9881    14.6313
  645.5000    86.1878    14.9881    14.6313
  645.6000    86.0491    14.9881    14.6333
  645.7000    86.3270    14.9881    14.6331
  645.8000    86.6762    14.9881    14.6329
  645.9000    86.7483    14.9881    14.6327
  646.0000    87.3034    14.9881    14.6325
  646.1000    87.5487    14.9881    14.6323
  646.2000    87.8109    14.9881    14.6321
  646.3000    88.0731    14.9881    14.6319
  646.4000    88.5126    14.9881    14.6317
  646.5000    89.2561    14.9563    14.6315
  646.6000    89.8067    14.8843    14.6313
  646.7000    90.2998    14.8843    14.6311
  646.8000    90.8215    14.8024    14.6309
  646.9000    91.2007    14.7812    14.6307
  647.0000    91.4628    14.7348    14.6305
  647.1000    91.6852    14.6788    14.6303
  647.2000    91.6878    14.6674    14.6301
  647.3000    91.6902    14.5771    14.6252
  647.4000    91.6927    14.5771    14.6170
  647.5000    91.6952    14.5771    14.6088
  647.6000    91.6977    14.5771    14.6005
  647.7000    91.7002    14.5771    14.5923
  647.8000    91.7027    14.5771    14.5840
  647.9000    91.2039    14.5771    14.5758
  648.0000    90.8864    14.5771    14.5676
  648.1000    90.6293    14.5771    14.5593
  648.2000    90.4684    14.5771    14.5511
  648.3000    90.4260    14.5771    14.5428
  648.4000    90.1624    14.5771    14.5346
  648.5000    90.1648    14.5771    14.5263
  648.6000    90.1673    14.5771    14.5181
  648.7000    90.1699    14.5213    14.5099
  648.8000    90.2710    14.4761    14.5016
  648.9000    90.4859    14.4550    14.4934
  649.0000    90.4884    14.3759    14.4851
  649.1000    90.4909    14.3759    14.4769
  649.2000    90.4933    14.3759    14.4687
  649.3000    90.3432    14.3233    14.4604
  649.4000    90.1873    14.2763    14.4522
  649.5000    90.1898    14.2763    14.4439
  649.6000    90.1922    14.2763    14.4357
  649.7000    89.9369    14.2763    14.4275
  649.8000    89.6797    14.2096    14.4192
  649.9000    89.4992    14.1774    14.4110
  650.0000    89.3705    14.1729    14.4027
  650.1000    89.2418    14.1617    14.3945
  650.2000    89.1132    14.1506    14.3863
  650.3000    88.9845    14.1394    14.3780
  650.4000    88.8558    14.1282    14.3698
  650.5000    88.7271    14.1170    14.3615
  650.6000    88.6507    14.1059    14.3533
  650.7000    88.7048    14.0947    14.3451
  650.8000    88.9646    14.0835    14.3368
  650.9000    89.2748    14.0792    14.3286
  651.0000    89.4847    14.0792    14.3197
  651.1000    90.0601    14.0615    14.2209
  651.2000    90.6267    13.9816    14.2207
  651.3000    90.8868    14.0792    14.2205
  651.4000    91.1468    14.0792    14.2203
  651.5000    91.4558    14.0792    14.2201
  651.6000    91.6670    14.0446    14.2199
  651.7000    91.9270    13.9816    14.2197
  651.8000    92.1871    13.9816    14.2195
  651.9000    92.4471    13.9816    14.2193
  652.0000    92.7070    13.9144    14.2191
  652.1000    93.0147    13.8848    14.2189
  652.2000    93.2271    13.8848    14.2172
  652.3000    93.3269    13.8658    14.1199
  652.4000    93.4360    13.7886    14.1198
  652.5000    93.6962    13.7886    14.1196
  652.6000    93.9563    13.7886    14.1194
  652.7000    94.2626    13.7886    14.1192
  652.8000    94.2631    13.7886    14.1190
  652.9000    94.4254    13.7886    14.1188
  653.0000    94.7955    13.7886    14.1186
  653.1000    95.2565    13.7886    14.1184
  653.2000    95.5234    13.7886    14.0835
  653.3000    96.1326    13.7886    14.0201
  653.4000    96.5617    13.7886    14.0199
  653.5000    96.9185    13.7886    14.0197
  653.6000    97.1786    13.7886    13.9524
  653.7000    97.4980    13.7886    13.9222
  653.8000    98.0018    13.7201    13.9220
  653.9000    98.0026    13.6931    13.9218
  654.0000    98.2189    13.6931    13.9190
  654.1000    98.3148    13.6721    13.8248
  654.2000    98.3154    13.5982    13.8247
  654.3000    98.2554    13.5982    13.8245
  654.4000    98.0056    13.5299    13.8243
  654.5000    98.0063    13.5040    13.8241
  654.6000    97.3562    13.5040    13.8239
  654.7000    96.7439    13.5040    13.8237
  654.8000    96.1121    13.5040    13.7565
  654.9000    95.3343    13.5040    13.7275
  655.0000    94.5460    13.4354    13.6924
  655.1000    93.3444    13.4105    13.6320
