~VERSION INFORMATION
 VERS.                2.0:   CWLS LOG ASCII STANDARD - VERSION 2.0
 WRAP.                 NO:   ONE LINE PER DEPTH STEP
~WELL INFORMATION
#MNEM.UNIT      DATA TYPE    INFORMATION
#----------   ------------   ------------------------------
 STRT.F           12.0000:   START DEPTH
 STOP.F         2336.0000:   STOP DEPTH
 STEP.F            0.5000:   STEP LENGTH
 NULL.          -999.2500:   NO VALUE
 COMP. BROWN JOHN E&C INC:   COMPANY
 WELL.       STX 82 #51-3:   WELL
 FLD .          N.P.R. #3:   FIELD
 LOC .       S3 T38N R78W:   LOCATION
 CNTY.            NATRONA:   COUNTY
 STAT.            WYOMING:   STATE
 CTRY. UNITED STATES OF AMERICA:   COUNTRY
 SRVC.            Unknown:   SERVICE COMPANY
 DATE.        14-SEP-1992:   LOGDATE
 API .       490251125600:   API NUMBER
~CURVE INFORMATION
#MNEM.UNIT       API CODE    CURVE DESCRIPTION
#----------   ------------   ------------------------------
 DEPT.F                  :   
 GR  .GAPI   81 310 01 00:   GAMMA RAY
 DT  .US/F   81 520 00 00:   DELTA SONIC
 ROP .MIN/FT 91 810 01 00:   RATE OF DRILLING PENETRATION
 TGAS.UNITS  91 830 01 00:   TOTAL GAS FROM HOTWIRE
~PARAMETER INFORMATION
#MNEM.UNIT          VALUE    DESCRIPTION
#----------   ------------   ------------------------------
 PD  .                 GL:   PERMANENT DATUM
 EPD .F              5109:   ELEVATION PERMANENT DATUM
 LMF .                 KB:   LOG MEASURED FROM
 DMF .                 KB:   DRILLING MEASURED FROM
 EKB .F              5119:   KELLING BUSHING
 EGL .F              5109:   GROUND LEVEL
 DATE.            9-14-92:   RUN DATE
 RUN .                  1:   RUN NUMBER
 DD  .F               710:   DEPTH DRILLER
 DL  .F               622:   DEPTH LOGGER
 BLI .F               616:   BOTTOM LOG INTERVAL
 BS  .IN             10.5:   BIT SIZE
 BSD .F               710:   BIT SIZE AT DEPTH
 TCS .HRS            0930:   TIME CURCULATED STOPPED
 TLAB.HRS            1045:   TIME LOGGER AT BOTTOM
 LUN .                509:   LOGGING UNIT NUMBER
 LUL .           GILLETTE:   LOGGING UNIT LOCATION
 ENGI.         D. METCALF:   RECORDING ENGINEER
 WITN.     BRUCE ANDERSON:   WITNESSED BY
 CLNT.            A2DTECH:   CLIENT CODE
 ORIG.           5" PRINT:   ORIGIN OF DATA
 UWI .       490251125600:   UNIQUE WELL ID
 DICO. A2D Technologies, Inc.:   DIGITIZING COMPANY
~OTHER INFORMATION
~A   DEPT        GR        DT        ROP       TGAS   
# ...
 2129.0000  -999.2500  -999.2500     0.5299   365.9049
 2129.5000  -999.2500  -999.2500     0.5299   362.0464
 2130.0000  -999.2500  -999.2500     0.5299   358.0992
 2130.5000  -999.2500  -999.2500     0.5299   354.0453
 2131.0000  -999.2500  -999.2500     0.5299   333.4496
 2131.5000  -999.2500  -999.2500     0.5299   305.9439
 2132.0000  -999.2500  -999.2500     0.5299   278.1250
 2132.5000  -999.2500  -999.2500     0.5299   253.1250
 2133.0000  -999.2500  -999.2500     0.5299   205.0000
 2133.5000  -999.2500  -999.2500     0.5299   176.6917
 2134.0000  -999.2500  -999.2500     0.5299   165.0627
 2134.5000  -999.2500  -999.2500     0.5318   152.5923
 2135.0000  -999.2500  -999.2500     0.5349   137.1875
 2135.5000  -999.2500  -999.2500     0.5381   122.0433
 2136.0000  -999.2500  -999.2500     0.5412   106.8990
 2136.5000  -999.2500  -999.2500     0.5416    91.6461
 2137.0000  -999.2500  -999.2500     0.5404    77.4672
 2137.5000  -999.2500  -999.2500     0.5392    71.3099
 2138.0000  -999.2500  -999.2500     0.5379    65.0120
 2138.5000  -999.2500  -999.2500     0.5367    59.7777
 2139.0000  -999.2500  -999.2500     0.5354    56.1941
 2139.5000  -999.2500  -999.2500     0.5342    52.7758
 2140.0000  -999.2500  -999.2500     0.5330    49.3673
 2140.5000  -999.2500  -999.2500     0.5317    45.9510
 2141.0000  -999.2500  -999.2500     0.5305    42.5300
 2141.5000  -999.2500  -999.2500     0.5293    39.4255
 2142.0000  -999.2500  -999.2500     0.5280    38.7941
 2142.5000  -999.2500  -999.2500     0.5268    37.9847
 2143.0000  -999.2500  -999.2500     0.5256    37.1545
 2143.5000  -999.2500  -999.2500     0.5243    36.3209
 2144.0000  -999.2500  -999.2500     0.5231    35.4880
 2144.5000  -999.2500  -999.2500     0.5219    34.6550
 2145.0000  -999.2500  -999.2500     0.5206    33.8221
 2145.5000  -999.2500  -999.2500     0.5194    32.9889
 2146.0000  -999.2500  -999.2500     0.5182    32.1538
 2146.5000  -999.2500  -999.2500     0.5177    31.3222
 2147.0000  -999.2500  -999.2500     0.5184    30.6204
 2147.5000  -999.2500  -999.2500     0.5190    30.7325
 2148.0000  -999.2500  -999.2500     0.5196    30.8306
 2148.5000  -999.2500  -999.2500     0.5202    30.9260
 2149.0000  -999.2500  -999.2500     0.5209    31.0212
 2149.5000  -999.2500  -999.2500     0.5215    31.1164
 2150.0000  -999.2500  -999.2500     0.5221    31.2115
 2150.5000  -999.2500  -999.2500     0.5227    31.3067
 2151.0000  -999.2500  -999.2500     0.5234    31.4019
 2151.5000  -999.2500  -999.2500     0.5240    31.4971
 2152.0000  -999.2500  -999.2500     0.5246    31.5923
 2152.5000  -999.2500  -999.2500     0.5253    31.6875
 2153.0000  -999.2500  -999.2500     0.5259    31.7827
 2153.5000  -999.2500  -999.2500     0.5265    31.8779
 2154.0000  -999.2500  -999.2500     0.5271    31.9731
 2154.5000  -999.2500  -999.2500     0.5278    32.0683
 2155.0000  -999.2500  -999.2500     0.5284    32.1635
 2155.5000  -999.2500  -999.2500     0.5290    32.2587
 2156.0000  -999.2500  -999.2500     0.5296    32.3539
 2156.5000  -999.2500  -999.2500     0.5306    32.4490
 2157.0000  -999.2500  -999.2500     0.5319    32.5442
 2157.5000  -999.2500  -999.2500     0.5331    32.6394
 2158.0000  -999.2500  -999.2500     0.5344    32.7346
 2158.5000  -999.2500  -999.2500     0.5356    32.8298
 2159.0000  -999.2500  -999.2500     0.5369    32.9248
 2159.5000  -999.2500  -999.2500     0.5381    33.0031
 2160.0000  -999.2500  -999.2500     0.5394    33.0075
 2160.5000  -999.2500  -999.2500     0.5407    36.7164
 2161.0000  -999.2500  -999.2500     0.5419    40.7222
 2161.5000  -999.2500  -999.2500     0.5432    44.7434
 2162.0000  -999.2500  -999.2500     0.5444    49.2147
 2162.5000  -999.2500  -999.2500     0.5457    55.9045
 2163.0000  -999.2500  -999.2500     0.5469    62.7230
 2163.5000  -999.2500  -999.2500     0.5482    69.5960
 2164.0000  -999.2500  -999.2500     0.5495    87.0290
 2164.5000  -999.2500  -999.2500     0.5507   104.4985
 2165.0000  -999.2500  -999.2500     0.5520   122.0039
 2165.5000  -999.2500  -999.2500     0.5532   139.5183
 2166.0000  -999.2500  -999.2500     0.5545   157.0326
 2166.5000  -999.2500  -999.2500     0.5554   174.5469
 2167.0000  -999.2500  -999.2500     0.5562   192.0611
 2167.5000  -999.2500  -999.2500     0.5570   209.5012
 2168.0000  -999.2500  -999.2500     0.5579   227.7455
 2168.5000  -999.2500  -999.2500     0.5587   238.1261
 2169.0000  -999.2500  -999.2500     0.5595   248.9093
 2169.5000  -999.2500  -999.2500     0.5603   259.6064
 2170.0000  -999.2500  -999.2500     0.5611   270.3140
 2170.5000  -999.2500  -999.2500     0.5619   281.0087
 2171.0000  -999.2500  -999.2500     0.5627   291.7372
 2171.5000  -999.2500  -999.2500     0.5635   300.4272
 2172.0000  -999.2500  -999.2500     0.5643   303.2912
 2172.5000  -999.2500  -999.2500     0.5650   296.3134
 2173.0000  -999.2500  -999.2500     0.5649   288.2831
 2173.5000  -999.2500  -999.2500     0.5680   278.7852
 2174.0000  -999.2500  -999.2500     0.6671   267.4504
 2174.5000  -999.2500  -999.2500     0.7656   256.1252
 2175.0000  -999.2500  -999.2500     0.7679   254.5965
 2175.5000  -999.2500  -999.2500     0.7670   253.6433
 2176.0000  -999.2500  -999.2500     0.7668   252.6438
 2176.5000  -999.2500  -999.2500     0.7668   251.6243
 2177.0000  -999.2500  -999.2500     0.7668   250.6510
 2177.5000  -999.2500  -999.2500     0.7668   250.5695
 2178.0000  -999.2500  -999.2500     0.7668   250.5249
 2178.5000  -999.2500  -999.2500     0.7670   250.4769
 2179.0000  -999.2500  -999.2500     0.7682   250.4277
 2179.5000  -999.2500  -999.2500     0.7652   250.3785
 2180.0000  -999.2500  -999.2500     0.6421   250.3293
 2180.5000  -999.2500  -999.2500     0.5206   250.2801
 2181.0000  -999.2500  -999.2500     0.5193   250.2309
 2181.5000  -999.2500  -999.2500     0.5222   250.1817
 2182.0000  -999.2500  -999.2500     0.5242   250.1325
 2182.5000  -999.2500  -999.2500     0.5255   250.0833
 2183.0000  -999.2500  -999.2500     0.5285   250.0341
 2183.5000  -999.2500  -999.2500     0.5368   249.9849
 2184.0000  -999.2500  -999.2500     0.7715   249.9357
 2184.5000  -999.2500  -999.2500     0.7959   249.8865
 2185.0000  -999.2500  -999.2500     0.7921   249.8373
 2185.5000  -999.2500  -999.2500     0.7918   249.7881
 2186.0000  -999.2500  -999.2500     0.7918   249.7389
 2186.5000  -999.2500  -999.2500     0.7917   249.6897
 2187.0000  -999.2500  -999.2500     0.7922   249.6405
 2187.5000  -999.2500  -999.2500     0.7988   249.5913
 2188.0000  -999.2500  -999.2500     0.7891   249.5421
 2188.5000  -999.2500  -999.2500     1.0175   249.4952
 2189.0000  -999.2500  -999.2500     1.0063   249.4379
 2189.5000  -999.2500  -999.2500     1.0123   249.4332
 2190.0000  -999.2500  -999.2500     1.0153   246.0979
 2190.5000  -999.2500  -999.2500     0.8684   240.7570
 2191.0000  -999.2500  -999.2500     0.5365   235.3786
 2191.5000  -999.2500  -999.2500     0.5277   229.9966
 2192.0000  -999.2500  -999.2500     0.5262   224.6171
 2192.5000  -999.2500  -999.2500     0.5256   219.2283
 2193.0000  -999.2500  -999.2500     0.5243   213.8570
 2193.5000  -999.2500  -999.2500     0.5231   209.0583
 2194.0000  -999.2500  -999.2500     0.5219   207.8823
 2194.5000  -999.2500  -999.2500     0.5207   206.6260
 2195.0000  -999.2500  -999.2500     0.5195   205.3571
 2195.5000  -999.2500  -999.2500     0.5183   204.0880
 2196.0000  -999.2500  -999.2500     0.5169   202.8189
 2196.5000  -999.2500  -999.2500     0.5153   201.5497
 2197.0000  -999.2500  -999.2500     0.5137   200.2796
 2197.5000  -999.2500  -999.2500     0.5121   199.0092
 2198.0000  -999.2500  -999.2500     0.5106   197.7541
 2198.5000  -999.2500  -999.2500     0.5090   196.8645
 2199.0000  -999.2500  -999.2500     0.5074   197.4717
 2199.5000  -999.2500  -999.2500     0.5058   198.1228
 2200.0000  -999.2500  -999.2500     0.5042   198.7769
 2200.5000  -999.2500  -999.2500     0.5026   199.4295
 2201.0000  -999.2500  -999.2500     0.5010   200.0806
 2201.5000  -999.2500  -999.2500     0.4994   200.7247
