~VERSION INFORMATION
 VERS.                2.0:   CWLS LOG ASCII STANDARD - VERSION 2.0
 WRAP.                 NO:   ONE LINE PER DEPTH STEP
~WELL INFORMATION
#MNEM.UNIT      DATA TYPE    INFORMATION
#----------   ------------   ------------------------------
 STRT.F            0.0000:   START DEPTH
 STOP.F          530.0000:   STOP DEPTH
 STEP.F            0.5000:   STEP LENGTH
 NULL.          -999.2500:   NO VALUE
 COMP. FENIX & SCISSON INC:   COMPANY
 WELL.      74 SX 3 #74-3:   WELL
 FLD .             TEAPOT:   FIELD
 LOC .       S3 T38N R78W:   LOCATION
 CNTY.            NATRONA:   COUNTY
 STAT.            WYOMING:   STATE
 CTRY. UNITED STATES OF AMERICA:   COUNTRY
 SRVC.            Unknown:   SERVICE COMPANY
 DATE.        20-SEP-1978:   LOGDATE
 API .       490251072200:   API NUMBER
~CURVE INFORMATION
#MNEM.UNIT       API CODE    CURVE DESCRIPTION
#----------   ------------   ------------------------------
 DEPT.F                  :   
 CALD.IN     45 280 60 00:   CALIPER
 GRD .GAPI   45 310 01 00:   GAMMA RAY FROM DENSITY LOG
 RHOB.G/C3   45 350 01 00:   BULK DENSITY
 DPHI.DEC    45 890 12 00:   DENSITY POROSITY SANDSTONE
 CORR.G/C3   45 356 01 00:   DENSITY CORRECTION
 SPR .MV     05 010 01 00:   SPONTANEOUS POTENTIAL FROM RES.
 SN  .OHMM   05 040 16 00:   SHORT NORMAL 16"
 ILD .OHMM   05 120 46 00:   INDUCTION LOG DEEP
~PARAMETER INFORMATION
#MNEM.UNIT          VALUE    DESCRIPTION
#----------   ------------   ------------------------------
 PD  .                 GL:   PERMANENT DATUM
 EPD .F              5139:   ELEVATION PERMANENT DATUM
 LMF .                 KB:   LOG MEASURED FROM
 DAPD.F                 4:   FEET ABOVE PERMANENT DATUM
 DMF .                 KB:   DRILLING MEASURED FROM
 EKB .F              5143:   KELLING BUSHING
 EGL .F              5139:   GROUND LEVEL
 DATE.            9-20-78:   RUN DATE
 RUN .                  1:   RUN NUMBER
 DD  .F               532:   DEPTH DRILLER
 DL  .F               530:   DEPTH LOGGER
 BLI .F               524:   BOTTOM LOG INTERVAL
 TLI .F                40:   TOP LOG INTERVAL
 CS  .IN            8.625:   CASING SIZE
 CBD .F                40:   CASING BOTTOM DRILLER
 CBL .F                40:   CASING BOTTOM LOGGER
 BS  .IN            7.875:   BIT SIZE
 BSD .F               532:   BIT SIZE AT DEPTH
 DFT .                KCL:   DRILLING FLUID TYPE
 DFD .                8.8:   DRILLING FLUID DENSITY
 DFV .                 38:   DRILLING FLUID VISCOSITY
 DFPH.                  9:   DRILLING FLUID PH
 DFL .                6.2:   DRILLING FLUID LOSS
 MSS .                PIT:   MUD SAMPLE SOURCE
 BHT .F                69:   BOTTOM HOLE TEMPERATURE
 TCS .HRS               3:   TIME CURCULATED STOPPED
 MRT .F                69:   MAXIMUM RECORDED TEMPERATURE
 LUN .               2958:   LOGGING UNIT NUMBER
 LUL .             CASPER:   LOGGING UNIT LOCATION
 ENGI.           REYNOLDS:   RECORDING ENGINEER
 WITN.           DINSMORE:   WITNESSED BY
 CLNT.            A2DTECH:   CLIENT CODE
 ORIG.       2", 5" PRINT:   ORIGIN OF DATA
 UWI .       490251072200:   UNIQUE WELL ID
 DICO. A2D Technologies, Inc.:   DIGITIZING COMPANY
~OTHER INFORMATION
~A    DEPT    CALD         GRD      RHOB       DPHI       CORR        SPR         SN        ILD   
# ...
  324.0000     7.2610    72.0231     2.5212     0.0940     0.0112   -25.8328    13.0326    11.7176
  324.5000     7.4683    72.9824     2.5184     0.0963     0.0097   -25.1282    13.2594    11.6603
  325.0000     7.5332    73.9564     2.5151     0.1051     0.0069   -24.8767    13.7643    11.6459
  325.5000     7.3547    75.3501     2.5069     0.1200     0.0040   -24.6276    14.4648    12.7149
  326.0000     7.4036    76.8642     2.4914     0.1349     0.0012   -24.2539    15.4236    13.9417
  326.5000     7.3680    74.3880     2.4637     0.1468     0.0037   -23.4879    16.6000    15.6568
  327.0000     7.3500    74.0147     2.4360     0.1526     0.0125   -22.1946    17.8558    17.5828
  327.5000     7.3526    73.4975     2.4228     0.1458     0.0211   -20.8764    19.2066    19.7458
  328.0000     7.4156    72.4891     2.4231     0.1386     0.0297   -19.5487    20.6595    22.1749
  328.5000     7.4504    71.3462     2.4330     0.1314     0.0383   -18.8683    22.2224    24.9027
  329.0000     7.4563    67.6194     2.4555     0.1243     0.0451   -18.2052    22.6725    27.5817
  329.5000     7.4623    59.6631     2.4712     0.1170     0.0437   -17.8305    22.7444    28.4484
  330.0000     7.4688    52.1729     2.4730     0.1436     0.0336   -17.6601    22.8165    29.0020
  330.5000     7.4529    45.1017     2.4651     0.1767     0.0220   -17.4949    22.8888    27.6075
  331.0000     7.4288    43.7610     2.4083     0.2083     0.0150   -17.3182    22.9613    26.2539
  331.5000     7.4044    44.0950     2.3488     0.2145     0.0256   -16.8880    23.0341    25.6752
  332.0000     7.3801    45.4242     2.3207     0.2204     0.0358   -16.5326    23.1071    25.5837
  332.5000     7.3556    47.1141     2.3109     0.2230     0.0435   -16.4969    23.1803    25.4943
  333.0000     7.3765    48.8169     2.3032     0.2239     0.0440   -15.5131    23.2517    26.0558
  333.5000     7.4567    49.1649     2.2994     0.2249     0.0446   -15.2497    24.2220    26.7560
  334.0000     7.3815    48.5477     2.2994     0.2319     0.0447   -15.1301    24.7553    27.4432
  334.5000     7.3162    48.3379     2.2957     0.2428     0.0402   -15.0078    25.0291    29.0685
  335.0000     7.3562    49.4872     2.2831     0.2443     0.0363   -14.5715    25.7170    30.7279
  335.5000     7.3953    49.7076     2.2676     0.2474     0.0338   -13.7330    26.3887    32.4786
  336.0000     7.4039    48.7493     2.2661     0.2597     0.0312   -12.9871    27.0752    34.3245
  336.5000     7.3948    47.5950     2.2566     0.2614     0.0293   -13.1300    27.7002    36.5090
  337.0000     7.3853    46.9216     2.2412     0.2625     0.0312   -13.2853    28.2299    36.1024
  337.5000     7.3758    47.1336     2.2361     0.2601     0.0393   -13.2308    28.7751    35.5143
  338.0000     7.3662    47.3825     2.2360     0.2532     0.0516   -12.9622    29.3513    36.9912
  338.5000     7.3569    46.0356     2.2425     0.2452     0.0552   -12.8336    30.1178    39.2005
  339.0000     7.3541    44.5121     2.2628     0.2509     0.0552   -13.0531    30.6494    41.5417
  339.5000     7.3727    44.1821     2.2612     0.2573     0.0552   -13.2676    30.6494    44.0228
  340.0000     7.3907    45.0118     2.2506     0.2513     0.0541   -13.3348    30.6494    45.1206
  340.5000     7.4089    46.4668     2.2491     0.2442     0.0517   -13.2812    30.6499    44.1823
  341.0000     7.4168    47.7163     2.2618     0.2372     0.0493   -13.2251    30.6520    43.2060
  341.5000     7.4261    47.6676     2.2736     0.2357     0.0469   -13.1722    30.6525    42.2513
  342.0000     7.4469    46.8926     2.2808     0.2319     0.0463   -13.2419    30.1056    41.3195
  342.5000     7.4332    45.9142     2.2820     0.2248     0.0524   -13.3168    29.5410    40.4047
  343.0000     7.3193    45.6652     2.2881     0.2067     0.0719   -13.2815    29.0796    39.0231
  343.5000     7.3615    46.0848     2.3246     0.1902     0.0950   -13.0571    28.6162    37.3462
  344.0000     7.4073    46.5637     2.3564     0.1922     0.1108   -13.1228    28.1601    35.7410
  344.5000     7.4533    46.4735     2.3544     0.1942     0.1218   -13.9702    27.7114    34.2318
  345.0000     7.4746    46.0154     2.3508     0.1963     0.1333   -14.8122    27.2698    33.8570
  345.5000     7.3814    45.5182     2.3473     0.1983     0.1398   -15.0294    26.9705    33.5005
  346.0000     7.3087    47.1530     2.3434     0.1950     0.1352   -15.1253    26.7036    33.1436
  346.5000     7.3177    50.0489     2.3423     0.1794     0.1260   -15.2192    26.4508    32.7906
  347.0000     7.3287    50.6086     2.3609     0.1885     0.1067   -15.3121    25.9190    32.4417
  347.5000     7.2121    49.9174     2.3712     0.2036     0.0754   -15.5115    25.4195    32.0969
  348.0000     7.1264    49.1442     2.3527     0.2185     0.0442   -15.7591    24.9296    31.7495
  348.5000     7.3084    52.6043     2.3249     0.2229     0.0182   -16.0145    24.4489    31.2031
  349.0000     7.2176    56.6499     2.3036     0.2219     0.0143   -16.4141    23.9766    30.1152
  349.5000     7.2118    59.2040     2.3042     0.2062     0.0132   -16.9279    23.5185    29.0652
  350.0000     7.2436    57.9061     2.3207     0.1837     0.0121   -16.9310    23.1648    27.9633
  350.5000     7.1684    55.8867     2.3473     0.1746     0.0110   -16.9331    22.8357    26.9223
  351.0000     7.0560    54.9681     2.3734     0.1737     0.0099   -17.4451    22.5092    25.8307
  351.5000     7.1009    54.3446     2.3838     0.1728     0.0088   -17.6499    22.1873    24.7812
  352.0000     7.1456    53.7037     2.3866     0.1718     0.0077   -17.5342    21.8701    23.8840
  352.5000     7.0692    53.3948     2.3867     0.1710     0.0067   -17.8299    21.5541    23.7399
  353.0000     7.2553    53.8196     2.3867     0.1727     0.0056   -18.1629    21.2240    23.5966
  353.5000     7.0423    55.0272     2.3862     0.1757     0.0045   -18.4956    20.8974    23.4542
  354.0000     7.0994    56.2122     2.3828     0.1791     0.0034   -18.8281    20.5755    23.3127
  354.5000     7.1034    57.4309     2.3782     0.1825     0.0023   -19.1626    20.2522    23.1821
  355.0000     7.0427    57.4631     2.3737     0.1851     0.0011   -19.4909    20.1693    23.0611
  355.5000     7.0973    55.4610     2.3691     0.1841     0.0018   -19.4512    20.0844    22.9402
  356.0000     7.1912    54.5342     2.3683     0.1817     0.0027   -19.3910    19.9998    22.8200
  356.5000     7.2695    53.5987     2.3714     0.1794     0.0037   -19.3294    19.9156    22.7004
  357.0000     7.1305    52.6507     2.3741     0.1789     0.0046   -19.5029    19.8576    22.5815
  357.5000     7.0464    52.8456     2.3758     0.1796     0.0055   -19.8317    19.8163    22.4631
  358.0000     7.0404    55.0469     2.3754     0.1802     0.0065   -20.0735    19.7752    22.3454
  358.5000     7.0567    55.5659     2.3731     0.1808     0.0074   -19.8822    19.7342    22.2283
  359.0000     7.1248    53.4878     2.3712     0.1815     0.0083   -19.7110    19.6932    22.1116
  359.5000     7.2555    52.7792     2.3702     0.1821     0.0093   -19.7991    19.6523    22.0016
  360.0000     7.1820    52.6692     2.3692     0.1860     0.0102   -19.8978    19.6115    22.0318
  360.5000     7.2375    52.7819     2.3669     0.1896     0.0111   -19.9953    19.5708    22.0672
  361.0000     7.2658    53.2084     2.3623     0.1881     0.0121   -20.0924    19.5302    22.1027
  361.5000     7.2929    54.5274     2.3606     0.1882     0.0130   -20.1896    19.4897    22.1380
  362.0000     7.3052    56.5250     2.3606     0.1889     0.0140   -20.2868    19.4492    22.1729
  362.5000     7.2927    58.7155     2.3606     0.1895     0.0149   -20.3843    19.4090    22.2040
  363.0000     7.1519    60.3584     2.3606     0.1890     0.0158   -20.4818    19.3685    22.1229
  363.5000     7.2940    61.1878     2.3606     0.1883     0.0168   -20.4953    19.3001    22.0478
  364.0000     7.3925    61.8650     2.3604     0.1875     0.0157   -20.4953    19.1683    21.9730
