~VERSION INFORMATION
 VERS.                2.0:   CWLS LOG ASCII STANDARD - VERSION 2.0
 WRAP.                 NO:   ONE LINE PER DEPTH STEP
~WELL INFORMATION
#MNEM.UNIT      DATA TYPE    INFORMATION
#----------   ------------   ------------------------------
 STRT.F         1460.0000:   START DEPTH
 STOP.F         2374.5000:   STOP DEPTH
 STEP.F            0.5000:   STEP LENGTH
 NULL.          -999.2500:   NO VALUE
 COMP. BROWN JOHN E&C INC:   COMPANY
 WELL. 15-1 STX-14 #15-14:   WELL
 FLD .             TEAPOT:   FIELD
 LOC .      S14 T38N R78W:   LOCATION
 CNTY.            NATRONA:   COUNTY
 STAT.            WYOMING:   STATE
 CTRY. UNITED STATES OF AMERICA:   COUNTRY
 SRVC.            Unknown:   SERVICE COMPANY
 DATE.        20-OCT-1991:   LOGDATE
 API .       490251098600:   API NUMBER
~CURVE INFORMATION
#MNEM.UNIT       API CODE    CURVE DESCRIPTION
#----------   ------------   ------------------------------
 DEPT.F                  :   
 ROP .MIN/FT 91 810 01 00:   RATE OF DRILLING PENETRATION
 TGAS.UNITS  91 830 01 00:   TOTAL GAS FROM HOTWIRE
~PARAMETER INFORMATION
#MNEM.UNIT          VALUE    DESCRIPTION
#----------   ------------   ------------------------------
 EKB .F              5247:   KELLING BUSHING
 EGL .F              5237:   GROUND LEVEL
 DATE.           10-20-91:   RUN DATE
 DD  .F              2379:   DEPTH DRILLER
 BLI .F              2392:   BOTTOM LOG INTERVAL
 TLI .F              1460:   TOP LOG INTERVAL
 CS  .IN            8.625:   CASING SIZE
 CBD .F               815:   CASING BOTTOM DRILLER
 ENGI.               HUSK:   RECORDING ENGINEER
 WITN.              TOWER:   WITNESSED BY
 CLNT.            A2DTECH:   CLIENT CODE
 ORIG.         2.5" PRINT:   ORIGIN OF DATA
 UWI .       490251098600:   UNIQUE WELL ID
 DICO. A2D Technologies, Inc.:   DIGITIZING COMPANY
~OTHER INFORMATION
~A  DEPT       ROP       TGAS   
# ...
 1703.0000     0.5632   233.7662
 1703.5000     0.5440   214.2857
 1704.0000     0.5442   214.2857
 1704.5000     0.5832   194.8052
 1705.0000     0.6027   194.8052
 1705.5000     0.6611   194.8052
 1706.0000     0.7000   194.8052
 1706.5000     0.6227   194.8052
 1707.0000     0.5647   194.8052
 1707.5000     0.5455   194.8052
 1708.0000     0.5458   194.8052
 1708.5000     0.5460   194.8052
 1709.0000     0.5655   194.8052
 1709.5000     0.5851   194.8052
 1710.0000     0.5853   194.8052
 1710.5000     0.5855   194.8052
 1711.0000     0.6051   194.8052
 1711.5000     0.6246   194.8052
 1712.0000     0.6442   194.8052
 1712.5000     0.7025   195.1330
 1713.0000     0.7415   195.6915
 1713.5000     0.7804   196.2499
 1714.0000     0.8194   196.8084
 1714.5000     0.8196   197.3669
 1715.0000     0.7810   197.9254
 1715.5000     0.7812   198.4838
 1716.0000     0.7426   199.0423
 1716.5000     0.7428   199.6008
 1717.0000     0.7818   200.1593
 1717.5000     0.8401   200.7177
 1718.0000     0.8597   201.2762
 1718.5000     0.8405   201.8347
 1719.0000     0.7826   202.2307
 1719.5000     0.7440   202.4140
 1720.0000     0.7054   241.5890
 1720.5000     0.6668   280.7334
 1721.0000     0.6283   319.9083
 1721.5000     0.5897   339.5722
 1722.0000     0.5899   359.2361
 1722.5000     0.6095   378.9305
 1723.0000     0.6291   398.5943
 1723.5000     0.6293   398.7777
 1724.0000     0.6295   398.9916
 1724.5000     0.5715   399.1749
 1725.0000     0.5523   399.3888
 1725.5000     0.5137   399.5416
 1726.0000     0.4946   398.3565
 1726.5000     0.4754   397.1940
 1727.0000     0.4175   396.0316
 1727.5000     0.3595   394.8691
 1728.0000     0.3597   393.7067
 1728.5000     0.3987   392.5443
 1729.0000     0.4958   391.3818
 1729.5000     0.5541   390.2193
 1730.0000     0.5543   389.0569
 1730.5000     0.5932   387.8944
 1731.0000     0.6322   386.7320
 1731.5000     0.6712   385.5695
 1732.0000     0.6713   384.4071
 1732.5000     0.5940   383.2447
 1733.0000     0.5554   382.0822
 1733.5000     0.5362   380.9198
 1734.0000     0.5365   379.7573
 1734.5000     0.5367   378.5949
 1735.0000     0.5562   377.4324
 1735.5000     0.5564   376.2700
 1736.0000     0.5566   375.1075
 1736.5000     0.5762   373.9451
 1737.0000     0.5958   372.7826
 1737.5000     0.6153   371.6202
 1738.0000     0.6349   370.4577
 1738.5000     0.6739   369.2953
 1739.0000     0.7128   368.1328
 1739.5000     0.7518   366.9704
 1740.0000     0.7520   366.2032
 1740.5000     0.7522   385.9282
 1741.0000     0.7717   405.6226
 1741.5000     0.7913   444.7670
 1742.0000     0.7915   444.9504
 1742.5000     0.7917   445.1642
 1743.0000     0.7919   445.3476
 1743.5000     0.7339   445.5310
 1744.0000     0.6760   444.5337
 1744.5000     0.6568   443.4741
 1745.0000     0.7539   442.4145
 1745.5000     0.7928   441.3548
 1746.0000     0.8124   440.2952
 1746.5000     0.8320   439.2356
 1747.0000     0.8709   438.1760
 1747.5000     0.9099   437.1163
 1748.0000     0.9101   436.0567
 1748.5000     0.9103   434.9971
 1749.0000     0.9105   433.9375
 1749.5000     0.8719   432.8778
 1750.0000     0.8333   431.8182
 1750.5000     0.7560   430.7586
 1751.0000     0.6399   429.6990
 1751.5000     0.5820   428.6394
 1752.0000     0.5628   427.5797
 1752.5000     0.5436   426.5201
 1753.0000     0.5244   425.4605
 1753.5000     0.5246   424.4009
 1754.0000     0.5248   423.3412
 1754.5000     0.4862   422.2816
 1755.0000     0.4477   421.2220
 1755.5000     0.4285   420.1624
 1756.0000     0.4093   419.1028
 1756.5000     0.4483   418.0431
 1757.0000     0.4872   416.9835
 1757.5000     0.5262   415.9239
 1758.0000     0.5845   414.8643
 1758.5000     0.6041   413.8047
 1759.0000     0.5461   412.6203
 1759.5000     0.4882   412.8037
 1760.0000     0.4496   393.5371
 1760.5000     0.4498   374.2093
 1761.0000     0.4306   354.9733
 1761.5000     0.4308   316.1956
 1762.0000     0.4310   296.8984
 1762.5000     0.4312   316.5928
 1763.0000     0.4314   297.2345
 1763.5000     0.4510   297.4790
 1764.0000     0.4899   297.6929
 1764.5000     0.5289   297.8763
 1765.0000     0.6066   298.0901
 1765.5000     0.6456   298.2735
 1766.0000     0.6458   298.4568
 1766.5000     0.6460   298.6707
 1767.0000     0.6074   318.2735
 1767.5000     0.6270   299.0069
 1768.0000     0.6465   299.2513
 1768.5000     0.6855   299.4347
 1769.0000     0.7244   299.6486
 1769.5000     0.7634   299.8319
 1770.0000     0.7442   300.0153
 1770.5000     0.7250   300.2292
 1771.0000     0.6671   300.4125
 1771.5000     0.6091   300.5959
 1772.0000     0.5705   320.2903
 1772.5000     0.5319   339.9542
 1773.0000     0.5322   359.6486
 1773.5000     0.5711   379.3125
 1774.0000     0.6101   418.4568
 1774.5000     0.6490   457.6318
 1775.0000     0.7268   457.8152
 1775.5000     0.7270   457.9870
 1776.0000     0.7271   458.1819
 1776.5000     0.7274   458.3766
 1777.0000     0.7275   458.5714
 1777.5000     0.7471   458.7663
 1778.0000     0.7667   458.9611
 1778.5000     0.8056   459.1559
 1779.0000     0.8640   459.3507
 1779.5000     0.8447   459.5455
 1780.0000     0.8062   459.7403
 1780.5000     0.7676   459.9351
 1781.0000     0.7290   460.1299
 1781.5000     0.6905   460.3247
 1782.0000     0.6132   460.5195
 1782.5000     0.5746   460.7143
 1783.0000     0.5554   460.9091
 1783.5000     0.6138   461.1039
 1784.0000     0.6721   461.2987
 1784.5000     0.7498   461.4935
 1785.0000     0.8469   461.6883
 1785.5000     0.9052   461.8831
 1786.0000     0.8279   462.0779
 1786.5000     0.7700   462.2727
 1787.0000     0.7702   462.4675
 1787.5000     0.7704   462.6624
 1788.0000     0.7706   462.8571
 1788.5000     0.7708   463.0519
 1789.0000     0.7709   463.2468
 1789.5000     0.7905   463.4416
 1790.0000     0.7907   463.6364
 1790.5000     0.7909   463.8312
 1791.0000     0.7911   464.0260
 1791.5000     0.7913   464.2208
 1792.0000     0.8109   464.4156
 1792.5000     0.8111   419.4514
 1793.0000     0.8113   374.4872
 1793.5000     0.8502   329.5230
 1794.0000     0.8698   284.5588
 1794.5000     0.8894   231.6578
 1795.0000     0.8895   234.0254
 1795.5000     0.9091   236.9005
 1796.0000     0.9287   239.7757
 1796.5000     0.9289   242.6508
 1797.0000     0.8710   245.5259
 1797.5000     0.8130   248.4010
 1798.0000     0.7744   251.2761
 1798.5000     0.7746   254.1513
 1799.0000     0.7748   257.0264
 1799.5000     0.7750   259.9015
 1800.0000     0.7752   262.7766
 1800.5000     0.7366   265.6518
 1801.0000     0.6981   268.5269
 1801.5000     0.6983   271.4020
 1802.0000     0.6597   274.2771
 1802.5000     0.6987   277.1523
 1803.0000     0.7570   280.0274
 1803.5000     0.8153   282.9025
 1804.0000     0.8543   285.7776
 1804.5000     0.8932   288.6527
 1805.0000     0.9128   291.5279
 1805.5000     0.9324   294.3773
 1806.0000     0.9326   340.0826
 1806.5000     0.9134   393.0562
 1807.0000     0.7779   446.0298
 1807.5000     0.7587   499.0034
 1808.0000     0.7783   551.9770
 1808.5000     0.8560   604.9506
 1809.0000     0.9531   627.3436
 1809.5000     1.0696   629.2167
 1810.0000     1.1086   631.0897
 1810.5000     1.1281   632.9627
 1811.0000     1.1089   634.8357
 1811.5000     1.0704   636.7087
 1812.0000     0.9543   638.5817
 1812.5000     0.8188   640.4548
 1813.0000     0.6058   642.3278
 1813.5000     0.5285   644.2008
 1814.0000     0.5093   646.0738
 1814.5000     0.4901   647.9468
 1815.0000     0.4709   613.1573
 1815.5000     0.4324   560.0232
 1816.0000     0.4326   506.8890
 1816.5000     0.3940   453.7549
 1817.0000     0.3748   400.6207
 1817.5000     0.3556   347.4865
 1818.0000     0.4086   294.3523
 1818.5000     0.4673   241.2182
 1819.0000     0.4873   188.0840
 1819.5000     0.5267   151.5584
 1820.0000     0.5660   151.9480
 1820.5000     0.5470   152.3376
 1821.0000     0.5282   152.7272
 1821.5000     0.4901   153.1169
 1822.0000     0.4908   153.5065
 1822.5000     0.4913   153.8961
 1823.0000     0.4919   154.2857
 1823.5000     0.5119   154.6753
 1824.0000     0.5318   155.0843
