~VERSION INFORMATION
 VERS.                2.0:   CWLS LOG ASCII STANDARD - VERSION 2.0
 WRAP.                 NO:   ONE LINE PER DEPTH STEP
~WELL INFORMATION
#MNEM.UNIT      DATA TYPE    INFORMATION
#----------   ------------   ------------------------------
 STRT.F            0.0000:   START DEPTH
 STOP.F          545.0000:   STOP DEPTH
 STEP.F            0.1000:   STEP LENGTH
 NULL.          -999.2500:   NO VALUE
 COMP.       F D SERV INC:   COMPANY
 WELL. NAVAL PETROLEUM RESERVE 3 SX-3 #88-5-3:   WELL
 FLD .             TEAPOT:   FIELD
 LOC .       S3 T38N R78W:   LOCATION
 CNTY.            NATRONA:   COUNTY
 STAT.            WYOMING:   STATE
 CTRY. UNITED STATES OF AMERICA:   COUNTRY
 SRVC.     Atlas Wireline:   SERVICE COMPANY
 DATE.        14-OCT-1992:   LOGDATE
 API .       490252255700:   API NUMBER
~CURVE INFORMATION
#MNEM.UNIT       API CODE    CURVE DESCRIPTION
#----------   ------------   ------------------------------
 DEPT.F                  :   
 GRR .GAPI   07 310 01 00:   GAMMA RAY
 RILD.OHMM   07 120 46 00:   INDUCTION LOG DEEP RESISTIVITY
 RILM.OHMM   07 120 44 00:   INDUCTION LOG MEDIUM RESISTIVITY
~PARAMETER INFORMATION
#MNEM.UNIT          VALUE    DESCRIPTION
#----------   ------------   ------------------------------
 PD  .                 GL:   PERMANENT DATUM
 EPD .F              5152:   ELEVATION PERMANENT DATUM
 LMF .                 KB:   LOG MEASURED FROM
 DAPD.F                10:   FEET ABOVE PERMANENT DATUM
 DMF .                 KB:   DRILLING MEASURED FROM
 EKB .F              5162:   KELLING BUSHING
 EDF .F              5161:   DRILLING FLOOR
 EGL .F              5152:   GROUND LEVEL
 DATE.        14-OCT-1992:   RUN DATE
 RUN .                  1:   RUN NUMBER
 DD  .F               555:   DEPTH DRILLER
 DL  .F               552:   DEPTH LOGGER
 BLI .F               546:   BOTTOM LOG INTERVAL
 CS  .IN            8.625:   CASING SIZE
 CBD .F                85:   CASING BOTTOM DRILLER
 CBL .F                96:   CASING BOTTOM LOGGER
 BS  .IN            7.875:   BIT SIZE
 BSD .F               555:   BIT SIZE AT DEPTH
 DFT .           AIR FOAM:   DRILLING FLUID TYPE
 BHT .F                72:   BOTTOM HOLE TEMPERATURE
 TCS .HRS               2:   TIME CURCULATED STOPPED
 MRT .F                72:   MAXIMUM RECORDED TEMPERATURE
 LUN .            HL-6274:   LOGGING UNIT NUMBER
 LUL .             CASPER:   LOGGING UNIT LOCATION
 ENGI.             RAUTIO:   RECORDING ENGINEER
 WITN.        GARY STRONG:   WITNESSED BY
 CLNT.            A2DTECH:   CLIENT CODE
 ORIG.           5" PRINT:   ORIGIN OF DATA
 UWI .       490252255700:   UNIQUE WELL ID
 DICO. A2D Technologies, Inc.:   DIGITIZING COMPANY
~OTHER INFORMATION
~A    DEPT      GRR      RILD       RILM   
# ...
  418.6000    80.6339    32.2706    31.9931
  418.7000    80.4108    32.0770    31.7976
  418.8000    80.3291    31.8786    31.3585
  418.9000    80.3267    31.8771    31.2034
  419.0000    80.3243    31.5694    31.0160
  419.1000    80.3764    31.4366    30.8297
  419.2000    80.6199    31.3428    30.6445
  419.3000    80.6171    31.1548    30.4603
  419.4000    80.8448    31.0007    30.2773
  419.5000    81.1011    30.9994    30.0716
  419.6000    81.5039    30.9979    30.0702
  419.7000    82.2285    30.6802    29.9416
  419.8000    83.3874    30.5695    29.7618
  419.9000    84.9370    30.4692    29.6520
  420.0000    86.6064    30.2864    29.6503
  420.1000    88.5132    30.1456    29.6358
  420.2000    89.7922    30.1195    29.4424
  420.3000    90.5137    29.7287    29.2810
  420.4000    91.0286    29.7276    29.2363
  420.5000    91.5435    29.4607    29.1312
  420.6000    92.0585    29.2127    28.9562
  420.7000    92.5957    28.9625    28.7822
  420.8000    93.0883    28.6643    28.6093
  420.9000    93.6032    28.4923    28.4302
  421.0000    93.7898    28.3148    28.4287
  421.1000    93.9099    28.1182    28.2920
  421.2000    94.1662    27.9828    28.1221
  421.3000    94.3836    27.8150    27.8736
  421.4000    94.3808    27.7285    27.5936
  421.5000    94.0777    27.6732    27.4278
  421.6000    93.8611    27.5071    27.2630
  421.7000    93.4270    27.3440    27.0737
  421.8000    92.7759    27.3427    26.9366
  421.9000    92.0873    27.2028    26.8843
  422.0000    91.5196    27.0397    26.7988
  422.1000    90.7604    26.9637    26.6960
  422.2000    90.7576    26.9018    26.6616
  422.3000    90.5321    26.7404    26.5089
  422.4000    90.6346    26.5800    26.5073
  422.5000    90.7507    26.4052    26.2267
  422.6000    90.7483    26.2622    26.1402
  422.7000    90.8597    25.9892    26.0501
  422.8000    91.3443    25.8596    25.8936
  422.9000    91.3415    25.7925    25.7767
  423.0000    91.8038    25.6378    25.7610
  423.1000    91.9375    25.5010    25.5960
  423.2000    92.2330    25.4999    25.4525
  423.3000    92.6406    25.4989    25.4168
  423.4000    92.8312    25.4978    25.4154
  423.5000    92.8288    25.4967    25.4139
  423.6000    92.8263    25.4957    25.4125
  423.7000    93.0651    25.5436    25.4532
  423.8000    93.1219    25.6708    25.7638
  423.9000    93.1195    25.6695    25.7621
  424.0000    93.1171    25.8465    25.8874
  424.1000    93.1147    25.8456    25.9384
  424.2000    93.1123    26.0583    26.0148
  424.3000    93.1098    26.2036    26.1156
  424.4000    93.1070    26.2025    26.1427
  424.5000    93.1051    26.2348    26.2977
  424.6000    93.1027    26.3823    26.4750
  424.7000    93.1003    26.3811    26.4737
  424.8000    93.0979    26.5217    26.4723
  424.9000    93.0955    26.5622    26.5573
  425.0000    93.0931    26.5611    26.6531
  425.1000    93.0903    26.5600    26.6879
  425.2000    93.3053    26.5589    26.8353
  425.3000    93.2108    26.5578    26.8336
  425.4000    93.0835    26.5566    26.8323
  425.5000    92.8048    26.5556    26.8308
  425.6000    91.9761    26.5545    26.8293
  425.7000    90.9566    26.5534    26.8278
  425.8000    90.3709    26.5523    26.7829
  425.9000    90.1430    26.5511    26.6399
  426.0000    89.6977    26.5500    26.6383
  426.1000    89.3205    26.5489    26.4858
  426.2000    89.0594    26.3646    26.4518
  426.3000    88.8577    26.3637    26.4503
  426.4000    88.8376    26.3626    26.4488
  426.5000    88.5523    26.2797    26.3975
  426.6000    88.3155    26.1786    26.2389
  426.7000    88.2474    26.1775    26.0810
  426.8000    88.2450    26.1764    26.0793
  426.9000    88.3523    26.1752    26.0781
  427.0000    88.6087    26.1743    26.0766
  427.1000    88.8387    26.1732    26.0752
  427.2000    88.8359    26.1721    26.0177
  427.3000    89.0771    26.1066    25.8925
  427.4000    89.3334    25.9895    25.8911
  427.5000    89.4294    25.9735    25.8895
  427.6000    89.4270    25.8080    25.8882
  427.7000    89.4246    25.8070    25.8868
  427.8000    89.4575    25.8059    25.7982
  427.9000    89.7201    25.8049    25.7054
  428.0000    90.0176    25.8038    25.7040
  428.1000    90.0156    25.8027    25.7026
  428.2000    90.1822    25.7791    25.7011
  428.3000    90.4384    25.6227    25.5577
  428.4000    90.6090    25.6214    25.4043
  428.5000    90.6946    25.4939    25.3437
  428.6000    91.2072    25.4428    25.3423
  428.7000    91.5023    25.4417    25.2968
  428.8000    91.7197    25.3869    25.1647
  428.9000    91.7982    25.2346    25.1633
  429.0000    92.0681    25.0889    24.9882
  429.1000    92.4885    25.0878    24.9871
  429.2000    92.7448    24.9554    24.8883
  429.3000    93.0010    24.8057    24.7388
  429.4000    93.2874    24.7400    24.5902
  429.5000    93.5135    24.6793    24.4424
  429.6000    93.9563    24.5312    24.2982
  429.7000    94.4713    24.3969    24.2967
  429.8000    94.9863    24.3958    24.1713
  429.9000    95.5011    24.2598    24.0262
  430.0000    95.9762    24.1143    23.9589
  430.1000    95.9734    24.0576    23.9032
  430.2000    95.4971    23.9914    23.7596
  430.3000    94.1960    23.8474    23.6257
  430.4000    93.1028    23.7240    23.6243
  430.5000    92.5486    23.7230    23.4960
  430.6000    92.2875    23.5583    23.3549
  430.7000    92.0264    23.4421    23.2958
  430.8000    91.7524    23.3940    23.2354
  430.9000    91.7501    23.2526    23.0958
  431.0000    91.7477    23.0706    22.9718
  431.1000    91.7453    23.0436    22.9705
  431.2000    91.7429    22.9054    22.9693
  431.3000    91.7405    22.7505    22.7529
  431.4000    91.7381    22.7497    22.6511
  431.5000    91.7357    22.6520    22.6498
  431.6000    91.7329    22.5162    22.6065
  431.7000    91.7309    22.3811    22.4706
  431.8000    91.8999    22.2469    22.3348
  431.9000    92.1562    22.1134    22.3334
  432.0000    92.3243    21.9705    22.1113
  432.1000    92.3219    21.8490    21.9357
  432.2000    92.3195    21.7179    21.8039
  432.3000    92.3168    21.5877    21.6271
  432.4000    92.3147    21.4582    21.3941
  432.5000    92.4925    21.3295    21.2656
  432.6000    92.8874    21.2016    21.1225
  432.7000    93.6928    21.0709    20.9012
  432.8000    94.9284    20.9246    20.6521
  432.9000    95.9883    20.7216    20.2711
  433.0000    97.7054    20.5548    19.8398
  433.1000    98.8566    20.4315    19.4882
  433.2000    99.9584    20.3501    19.1564
  433.3000   101.1379    20.3273    19.0326
  433.4000   102.3232    20.2053    19.0316
  433.5000   103.2914    20.0678    19.0306
  433.6000   104.0200    20.0671    19.0295
  433.7000   104.2953    20.0663    19.0794
  433.8000   104.5326    19.9999    19.1596
  433.9000   104.3932    19.8800    19.1585
  434.0000   104.1321    19.7880    19.1574
  434.1000   103.7565    19.7872    19.2892
  434.2000   103.1639    19.7863    19.2883
  434.3000   102.3856    19.6778    19.3624
  434.4000   101.5759    19.5598    19.4201
  434.5000   100.3322    19.5120    19.4190
  434.6000    99.6565    19.5112    19.4180
  434.7000    99.1367    19.4776    19.4169
  434.8000    98.8637    19.3750    19.4157
  434.9000    98.7796    19.3742    19.4147
  435.0000    98.5185    19.3732    19.3333
  435.1000    98.2558    19.2795    19.2787
  435.2000    98.2531    19.2382    19.2776
  435.3000    98.2510    19.2374    19.2516
  435.4000    98.2486    19.2366    19.1426
  435.5000    98.2462    19.2159    19.1414
  435.6000    98.2438    19.1024    19.1405
  435.7000    98.2903    19.1015    19.1394
  435.8000    98.5466    19.0033    19.1384
  435.9000    98.8369    18.9683    19.0893
  436.0000    98.8348    18.9675    19.0043
  436.1000    99.1976    18.9667    19.0032
  436.2000    99.4306    18.9406    19.0021
  436.3000    99.5275    18.8343    18.8944
  436.4000    99.7838    18.8335    18.8690
  436.5000   100.0401    18.8328    18.8680
  436.6000   100.3217    18.8320    18.8669
  436.7000   100.5525    18.8312    18.8659
