~VERSION INFORMATION
 VERS.                2.0:   CWLS LOG ASCII STANDARD - VERSION 2.0
 WRAP.                 NO:   ONE LINE PER DEPTH STEP
~WELL INFORMATION
#MNEM.UNIT      DATA TYPE    INFORMATION
#----------   ------------   ------------------------------
 STRT.F          276.0000:   START DEPTH
 STOP.F         2768.0000:   STOP DEPTH
 STEP.F            0.5000:   STEP LENGTH
 NULL.          -999.2500:   NO VALUE
 COMP.       TESORD PETRO:   COMPANY
 WELL. AX-20 NPR #3 #83-20:   WELL
 FLD .            WILDCAT:   FIELD
 LOC .      S20 T39N R78W:   LOCATION
 CNTY.            NATRONA:   COUNTY
 STAT.            WYOMING:   STATE
 CTRY. UNITED STATES OF AMERICA:   COUNTRY
 SRVC.       Schlumberger:   SERVICE COMPANY
 DATE.        20-JUL-1971:   LOGDATE
 API .       490251022000:   API NUMBER
~CURVE INFORMATION
#MNEM.UNIT       API CODE    CURVE DESCRIPTION
#----------   ------------   ------------------------------
 DEPT.F                  :   
 SPR .MV     05 010 01 00:   SPONTANEOUS POTENTIAL FROM RES.
 ASN .OHMM   05 041 16 00:   AMPLIFIED SHORT NORMAL 16"
 ILD .OHMM   05 120 46 00:   INDUCTION LOG DEEP
 CALD.IN     45 280 60 00:   CALIPER FROM DENSITY
 CORR.G/C3   45 356 01 00:   DENSITY CORRECTION
 DPHI.DEC    45 890 12 00:   DENSITY POROSITY SANDSTONE
 GRD .GAPI   45 310 01 00:   GAMMA RAY FROM DENSITY LOG
 RHOB.G/C3   45 350 01 00:   BULK DENSITY
 CILD.MMHO   05 110 46 00:   CONDUCTIVITY INDUCTION LOG DEEP
~PARAMETER INFORMATION
#MNEM.UNIT          VALUE    DESCRIPTION
#----------   ------------   ------------------------------
 PD  .                 GL:   PERMANENT DATUM
 EPD .F              4994:   ELEVATION PERMANENT DATUM
 LMF .                 KB:   LOG MEASURED FROM
 DAPD.F                11:   FEET ABOVE PERMANENT DATUM
 DMF .                 KB:   DRILLING MEASURED FROM
 EKB .F              5005:   KELLING BUSHING
 EGL .F              4994:   GROUND LEVEL
 DATE.        20-JUL-1971:   RUN DATE
 RUN .                  1:   RUN NUMBER
 DD  .F              2770:   DEPTH DRILLER
 DL  .F              2769:   DEPTH LOGGER
 BLI .F              2768:   BOTTOM LOG INTERVAL
 TLI .F               276:   TOP LOG INTERVAL
 CS  .IN            10.75:   CASING SIZE
 CBD .F               274:   CASING BOTTOM DRILLER
 CBL .F               276:   CASING BOTTOM LOGGER
 BS  .IN                9:   BIT SIZE
 BSD .F              2770:   BIT SIZE AT DEPTH
 DFT .      FRESH GEL MUD:   DRILLING FLUID TYPE
 DFD .                 10:   DRILLING FLUID DENSITY
 DFV .                 82:   DRILLING FLUID VISCOSITY
 DFPH.                  8:   DRILLING FLUID PH
 DFL .                4.8:   DRILLING FLUID LOSS
 MSS .           FLOWLINE:   MUD SAMPLE SOURCE
 RMS .OHMM            1.8:   RESISTIVITY MUD SAMPLE
 MST .F                73:   MUD SAMPLE TEMPERATURE
 RMF .OHMM            1.4:   RESISTIVITY MUD FILTRATE SAMPLE
 MFST.F                73:   MUD FILTRATE SAMPLE TEMPERATURE
 MFSS.               MEAS:   MUD FILTRATE SAMPLE SOURCE
 RMB .OHMM           1.15:   RESISTIVITY MUD AT BHT
 BHT .F               116:   BOTTOM HOLE TEMPERATURE
 TCS .HRS               2:   TIME CURCULATED STOPPED
 MRT .F               116:   MAXIMUM RECORDED TEMPERATURE
 LUN .               7037:   LOGGING UNIT NUMBER
 LUL .               CSPR:   LOGGING UNIT LOCATION
 ENGI.             JENSEN:   RECORDING ENGINEER
 WITN.                MAY:   WITNESSED BY
 CLNT.            A2DTECH:   CLIENT CODE
 ORIG.     1", 2.5" PRINT:   ORIGIN OF DATA
 UWI .       490251022000:   UNIQUE WELL ID
 DICO. A2D Technologies, Inc.:   DIGITIZING COMPANY
~OTHER INFORMATION
~A   DEPT      SPR          ASN        ILD     CALD       CORR       DPHI        GRD       RHOB       CILD   
# ...
 1261.5000   -34.3284     9.5846     8.2991     8.1653  -999.2500  -999.2500  -999.2500  -999.2500  -999.2500
 1262.0000   -34.3284     9.7033     8.5952     8.7916  -999.2500  -999.2500  -999.2500  -999.2500  -999.2500
 1262.5000   -34.3284     9.8220     9.0401     9.3582  -999.2500  -999.2500  -999.2500  -999.2500  -999.2500
 1263.0000   -34.3284    10.0707     9.3363     9.6561  -999.2500  -999.2500  -999.2500  -999.2500  -999.2500
 1263.5000   -34.3284    10.3767     9.4836     9.8346  -999.2500  -999.2500  -999.2500  -999.2500  -999.2500
 1264.0000   -34.6269    10.6825     9.6309     9.8340  -999.2500  -999.2500  -999.2500  -999.2500  -999.2500
 1264.5000   -34.6269    11.1276     9.7783     9.8334  -999.2500  -999.2500  -999.2500  -999.2500  -999.2500
 1265.0000   -34.9254    11.1276     9.7768     9.8328  -999.2500  -999.2500  -999.2500  -999.2500  -999.2500
 1265.5000   -34.9254    11.1276     9.7753     9.8323  -999.2500  -999.2500  -999.2500  -999.2500  -999.2500
 1266.0000   -35.2239    10.8309     9.6250     9.8317  -999.2500  -999.2500  -999.2500  -999.2500  -999.2500
 1266.5000   -35.2239    10.3858     9.6235     9.8311  -999.2500  -999.2500  -999.2500  -999.2500  -999.2500
 1267.0000   -35.2239    10.3858     9.4732     9.8305  -999.2500  -999.2500  -999.2500  -999.2500  -999.2500
 1267.5000   -35.2239    10.2374     9.3229     9.8299  -999.2500  -999.2500  -999.2500  -999.2500  -999.2500
 1268.0000   -35.2239    10.2374     9.3194     9.8292  -999.2500  -999.2500  -999.2500  -999.2500  -999.2500
 1268.5000   -34.9254    10.2347     9.1711     9.7988  -999.2500  -999.2500  -999.2500  -999.2500  -999.2500
 1269.0000   -34.9184    10.0890     9.1662     9.7982  -999.2500  -999.2500  -999.2500  -999.2500  -999.2500
 1269.5000   -34.6269    10.0890     9.0194     9.7976  -999.2500  -999.2500  -999.2500  -999.2500  -999.2500
 1270.0000   -34.3284    10.0890     9.0129     9.7970  -999.2500     0.0662  -999.2500     2.5344  -999.2500
 1270.5000   -34.3170    10.0871     8.8676     9.7964     0.0260     0.0545    91.7463     2.5508  -999.2500
 1271.0000   -34.0299     9.9889     8.8661     9.8258     0.0317     0.0527    90.4592     2.5672  -999.2500
 1271.5000   -34.0299     9.8908     8.7158     9.8366     0.0479     0.0383    96.7124     2.5851  -999.2500
 1272.0000   -34.0299     9.7926     8.7143     9.8543     0.0507     0.0545    98.5850     2.5566  -999.2500
 1272.5000   -34.0299     9.6800     8.5640     9.8538     0.0297     0.0599    95.7858     2.5417  -999.2500
 1273.0000   -34.0299     9.6142     8.5625     9.8532     0.0282     0.0629    94.4270     2.5415  -999.2500
 1273.5000   -34.0299     9.5846     8.4122     9.8526     0.0414     0.0489    93.9638     2.6522  -999.2500
 1274.0000   -34.0299     9.5966     8.4107     9.8519     0.0779     0.0072   100.6647     2.6477  -999.2500
 1274.5000   -34.0299     9.6142     8.4092     9.8513     0.1014     0.0113   100.2014     2.5983  -999.2500
 1275.0000   -34.0299     9.6439     8.4077     9.8333     0.0865     0.0368    97.0516     2.5878  -999.2500
 1275.5000   -34.0299     9.6736     8.4062     9.8202     0.0767     0.0433    97.4838     2.5801  -999.2500
 1276.0000   -34.0299     9.7033     8.4047     9.7897     0.0702     0.0660   101.0504     2.5571  -999.2500
 1276.5000   -34.0299     9.7329     8.3886     9.7892     0.0437     0.0717   100.5872     2.5365  -999.2500
 1277.0000   -34.3284     9.7756     8.2530     9.7587     0.0250     0.0721    99.6746     2.5309  -999.2500
 1277.5000   -34.3284     9.7923     8.2515     9.7581     0.0220     0.0709    97.8581     2.5333  -999.2500
 1278.0000   -34.3284     9.7923     8.3989     9.7277     0.0294     0.0650    95.4890     2.5501  -999.2500
 1278.5000   -34.3284     9.7923     8.3973     9.6972     0.0564     0.0549    91.5699     2.5627  -999.2500
 1279.0000   -34.3284     9.7923     8.3958     9.6967     0.0488     0.0554    93.5057     2.5651  -999.2500
 1279.5000   -34.3284     9.7055     8.3943     9.6961     0.0533     0.0575    97.1609     2.5423  -999.2500
 1280.0000   -34.3284     9.5707     8.3929     9.6955     0.0248     0.0540   101.1641     2.5366  -999.2500
 1280.5000   -34.0299     9.5549     8.3914     9.6949     0.0368     0.0465   104.0452     2.5799  -999.2500
 1281.0000   -33.9872     9.6425     8.4112     9.6943     0.0503     0.0445   102.8955     2.5785  -999.2500
 1281.5000   -33.7313     9.7615     8.6861     9.6937     0.0188     0.0540   100.0752     2.5698  -999.2500
 1282.0000   -33.4328    10.0286     8.7073     9.6931     0.0164     0.0646    97.5312     2.5537  -999.2500
 1282.5000   -33.4328    10.3858     8.9808     9.6925     0.0292     0.0723    96.8190     2.5373  -999.2500
 1283.0000   -33.4816    10.3858     9.0035     9.6920     0.0217     0.0562   101.8449     2.5319  -999.2500
 1283.5000   -33.7313    10.5341     9.1515     9.6914     0.0338     0.0524   102.1612     2.5684  -999.2500
 1284.0000   -34.0299    10.6825     9.2739     9.6908     0.0396     0.0748   100.9733     2.5406  -999.2500
 1284.5000   -34.0299    10.6825     9.4213     9.6902     0.0320     0.0706    98.6993     2.5243  -999.2500
 1285.0000   -34.0846    10.6825     9.4197     9.6896     0.0342     0.0634    93.5598     2.5394  -999.2500
 1285.5000   -34.3284    10.8309     9.4182     9.6591     0.0463     0.0563    91.1836     2.5530  -999.2500
 1286.0000   -34.3284    10.6825     9.4167     9.6286     0.0530     0.0617    91.8628     2.5486  -999.2500
 1286.5000   -34.3284    10.6825     9.3856     9.6280     0.0279     0.0707    95.1965     2.5272  -999.2500
 1287.0000   -34.3284    10.5341     9.2649     9.6274     0.0182     0.0677    97.7107     2.5376  -999.2500
 1287.5000   -34.6269    10.5341     9.2324     9.6269     0.0155     0.0659   101.7911     2.5211  -999.2500
 1288.0000   -34.6269    10.2374     9.0814     9.6263     0.0178     0.0797    99.1517     2.5202  -999.2500
 1288.5000   -34.6269    10.0727     8.9628     9.6257     0.0273     0.0792    95.2832     2.5554  -999.2500
 1289.0000   -34.3284    10.0358     8.8125     9.6251     0.0465     0.0588    92.8178     2.5300  -999.2500
 1289.5000   -34.3284     9.9989     8.7771     9.6366     0.0484     0.0690    97.6944     2.5314  -999.2500
 1290.0000   -34.2587     9.9619     8.6607     9.6667     0.0364     0.0564    97.3733     2.5673  -999.2500
 1290.5000   -34.0299     9.9250     8.5104     9.6830     0.0440     0.0481    94.7754     2.5695  -999.2500
 1291.0000   -34.0299     9.8741     8.5089     9.6970     0.0182     0.0540    94.3089     2.5478  -999.2500
 1291.5000   -33.7313     9.8887     8.5074     9.7116     0.0145     0.0583    92.5024     2.5612  -999.2500
 1292.0000   -33.7313    10.4096     8.5059     9.7110     0.0312     0.0509   100.5466     2.5731  -999.2500
 1292.5000   -33.4328    10.2374     8.5045     9.7276     0.0383     0.0555   102.7699     2.5733  -999.2500
 1293.0000   -33.4328    10.1546     8.5030     9.7397     0.0209     0.0633    98.2767     2.5431  -999.2500
 1293.5000   -33.4328     9.9761     8.5414     9.7390    -0.0027     0.0627    95.1269     2.5192  -999.2500
 1294.0000   -33.4328     9.8813     8.6490     9.7384     0.0212     0.0581    94.2159     2.5328  -999.2500
 1294.5000   -33.4328     9.8516     8.6887     9.7378     0.0481     0.0541    94.2004     2.5552  -999.2500
 1295.0000   -33.4328     9.8813     8.7946     9.7372     0.0451     0.0537    94.6327     2.5624  -999.2500
 1295.5000   -33.4328    10.1377     8.9422     9.7366     0.0286     0.0616   101.7813     2.5524  -999.2500
 1296.0000   -33.4328    10.5341     8.9841     9.7361     0.0107     0.0784    99.5270     2.5254  -999.2500
 1296.5000   -33.7313    10.6825     9.1322     9.7430     0.0031     0.0753    94.1384     2.5115  -999.2500
 1297.0000   -33.7313    10.6825     9.2353     9.7256     0.0211     0.0613    91.8841     2.5343  -999.2500
 1297.5000   -33.8234    10.6825     9.2337     9.7095     0.0345     0.0583    94.5551     2.5592  -999.2500
