~VERSION INFORMATION
 VERS.                2.0:   CWLS LOG ASCII STANDARD - VERSION 2.0
 WRAP.                 NO:   ONE LINE PER DEPTH STEP
~WELL INFORMATION
#MNEM.UNIT      DATA TYPE    INFORMATION
#----------   ------------   ------------------------------
 STRT.F            8.0000:   START DEPTH
 STOP.F          598.0000:   STOP DEPTH
 STEP.F            0.5000:   STEP LENGTH
 NULL.          -999.2500:   NO VALUE
 COMP. FENIX & SCISSON INC:   COMPANY
 WELL.    16-SX-11 #16-11:   WELL
 FLD .             TEAPOT:   FIELD
 LOC .      S11 T38N R78W:   LOCATION
 CNTY.            NATRONA:   COUNTY
 STAT.            WYOMING:   STATE
 CTRY. UNITED STATES OF AMERICA:   COUNTRY
 SRVC.            Unknown:   SERVICE COMPANY
 DATE.        13-DEC-1978:   LOGDATE
 API .       490251078400:   API NUMBER
~CURVE INFORMATION
#MNEM.UNIT       API CODE    CURVE DESCRIPTION
#----------   ------------   ------------------------------
 DEPT.F                  :   
 RHOB.G/C3   45 350 01 00:   BULK DENSITY
 CORR.G/C3   45 356 01 00:   DENSITY CORRECTION
 SN  .OHMM   05 040 16 00:   SHORT NORMAL 16"
 ILD .OHMM   05 120 46 00:   INDUCTION LOG DEEP
 SPR .MV     05 010 01 00:   SPONTANEOUS POTENTIAL FROM RES.
 DPHI.DEC    45 890 12 00:   DENSITY POROSITY SANDSTONE
 CALD.IN     45 280 60 00:   CALIPER
 GRD .GAPI   45 310 01 00:   GAMMA RAY FROM DENSITY LOG
~PARAMETER INFORMATION
#MNEM.UNIT          VALUE    DESCRIPTION
#----------   ------------   ------------------------------
 PD  .                 GL:   PERMANENT DATUM
 EPD .F              5209:   ELEVATION PERMANENT DATUM
 LMF .                 KB:   LOG MEASURED FROM
 DAPD.F                 4:   FEET ABOVE PERMANENT DATUM
 DMF .                 KB:   DRILLING MEASURED FROM
 EKB .F              5213:   KELLING BUSHING
 EGL .F              5209:   GROUND LEVEL
 DATE.           12-13-78:   RUN DATE
 RUN .                  1:   RUN NUMBER
 DD  .F               590:   DEPTH DRILLER
 DL  .F               598:   DEPTH LOGGER
 BLI .F               591:   BOTTOM LOG INTERVAL
 TLI .F                40:   TOP LOG INTERVAL
 CS  .IN            8.625:   CASING SIZE
 CBD .F                40:   CASING BOTTOM DRILLER
 CBL .F                25:   CASING BOTTOM LOGGER
 BS  .IN            7.875:   BIT SIZE
 BSD .F               590:   BIT SIZE AT DEPTH
 DFT .                KCL:   DRILLING FLUID TYPE
 DFD .                8.8:   DRILLING FLUID DENSITY
 DFV .                 37:   DRILLING FLUID VISCOSITY
 DFPH.                8.9:   DRILLING FLUID PH
 MSS .           FLOWLINE:   MUD SAMPLE SOURCE
 RMS .OHMM             .3:   RESISTIVITY MUD SAMPLE
 MST .F                56:   MUD SAMPLE TEMPERATURE
 RMF .OHMM            .26:   RESISTIVITY MUD FILTRATE SAMPLE
 MFST.F                66:   MUD FILTRATE SAMPLE TEMPERATURE
 RMC .OHMM            .24:   RESISTIVITY MUD CAKE
 MCST.F                66:   MUD CAKE SAMPLE TEMPERATURE
 MFSS.           MEASURED:   MUD FILTRATE SAMPLE SOURCE
 MCSS.           MEASURED:   MUD CAKE SAMPLE SOURCE
 RMB .OHMM            .29:   RESISTIVITY MUD AT BHT
 BHT .F                58:   BOTTOM HOLE TEMPERATURE
 TCS .HRS               3:   TIME CURCULATED STOPPED
 MRT .F                58:   MAXIMUM RECORDED TEMPERATURE
 LUN .               2958:   LOGGING UNIT NUMBER
 LUL .             CASPER:   LOGGING UNIT LOCATION
 ENGI.            ROLLINS:   RECORDING ENGINEER
 WITN.         RICHARDSON:   WITNESSED BY
 CLNT.            A2DTECH:   CLIENT CODE
 ORIG.       2", 5" PRINT:   ORIGIN OF DATA
 UWI .       490251078400:   UNIQUE WELL ID
 DICO. A2D Technologies, Inc.:   DIGITIZING COMPANY
~OTHER INFORMATION
~A    DEPT    RHOB       CORR         SN        ILD        SPR       DPHI       CALD         GRD  
# ...
  372.5000     2.4715     0.0034     8.0579     7.3869   -12.2420     0.1350     7.9053   114.3459
  373.0000     2.4756     0.0054     8.0339     7.4008   -12.5781     0.1332     7.9041   114.3792
  373.5000     2.4796     0.0074     8.0100     7.3011   -12.9081     0.1297     7.9034   115.1439
  374.0000     2.4831     0.0078     7.9855     7.2224   -13.1406     0.1262     7.9034   115.7051
  374.5000     2.4852     0.0076     7.9174     6.9567   -13.3517     0.1250     7.9034   116.2623
  375.0000     2.4874     0.0073     7.7323     6.6219   -13.5629     0.1239     7.9034   117.4150
  375.5000     2.4888     0.0071     7.5394     6.3032   -13.8484     0.1201     7.9034   117.6510
  376.0000     2.4895     0.0068     7.3285     6.1515   -14.6569     0.1190     7.9034   116.6386
  376.5000     2.4883     0.0066     7.0395     6.1515   -15.4846     0.1212     7.9034   113.2695
  377.0000     2.4745     0.0063     6.6854     6.1515   -16.3243     0.1257     7.9034   110.1366
  377.5000     2.4615     0.0060     6.7220     6.1515   -16.3718     0.1339     7.9034   110.2905
  378.0000     2.4486     0.0073     6.7933     5.9788   -16.3666     0.1451     7.9034   118.8929
  378.5000     2.4429     0.0120     6.8654     5.8456   -16.3623     0.1487     7.9034   123.2852
  379.0000     2.4301     0.0151     6.9382     5.7336   -16.5129     0.1523     7.9034   121.9521
  379.5000     2.4220     0.0132     7.0017     5.6569   -16.7136     0.1614     7.9034   120.8128
  380.0000     2.4328     0.0114     6.8124     5.6468   -16.9156     0.1644     7.9034   123.7848
  380.5000     2.4478     0.0095     6.6500     5.6367   -17.1213     0.1543     7.9034   125.3180
  381.0000     2.4628     0.0077     6.4914     5.6267   -17.2938     0.1431     7.9034   119.3535
  381.5000     2.4654     0.0060     6.3365     5.6166   -17.4625     0.1365     7.9034   115.3735
  382.0000     2.4579     0.0061     6.2087     5.6082   -17.6290     0.1381     7.9034   115.7328
  382.5000     2.4495     0.0100     6.2087     5.6082   -17.7694     0.1441     7.9034   120.7729
  383.0000     2.4411     0.0209     6.4728     5.7163   -17.8212     0.1501     7.9034   122.5977
  383.5000     2.4351     0.0233     6.6951     5.9528   -18.0253     0.1555     7.9034   123.4954
  384.0000     2.4367     0.0258     6.9250     6.2980   -18.5815     0.1555     7.9034   124.3105
  384.5000     2.4475     0.0223     7.1627     6.6632   -19.0257     0.1545     7.9034   128.3420
  385.0000     2.4661     0.0180     7.3047     6.8552   -19.6180     0.1440     7.9034   130.3619
  385.5000     2.4767     0.0138     7.3728     6.9984   -21.0548     0.1325     7.9034   126.1092
  386.0000     2.4767     0.0095     7.4012     6.8319   -22.5713     0.1281     7.9034   120.0804
  386.5000     2.4754     0.0052     7.2936     6.6587   -24.0827     0.1286     7.9034   115.3753
  387.0000     2.4741     0.0046     7.1594     6.2681   -25.6068     0.1297     7.9034   115.0358
  387.5000     2.4735     0.0054     7.0277     5.8465   -26.1955     0.1307     7.9034   115.0997
  388.0000     2.4738     0.0062     6.8997     5.4547   -26.2069     0.1301     7.9034   115.2058
  388.5000     2.4742     0.0070     6.6386     5.2584   -26.2137     0.1296     7.9035   113.9010
  389.0000     2.4741     0.0078     6.3585     5.1116   -26.1663     0.1313     7.9038   111.3016
  389.5000     2.4729     0.0086     6.0949     5.1128   -25.8044     0.1312     7.9042   110.2266
  390.0000     2.4709     0.0095     5.9832     5.1603   -25.4645     0.1303     7.9045   110.2840
  390.5000     2.4595     0.0108     6.1261     5.2931   -25.1254     0.1362     7.9049   114.3598
  391.0000     2.4400     0.0133     6.3630     5.4547   -24.7887     0.1488     7.9052   118.9578
  391.5000     2.4261     0.0158     6.6095     5.7379   -24.4497     0.1615     7.9055   120.7776
  392.0000     2.4301     0.0150     6.8655     6.0993   -24.3972     0.1625     7.9059   122.2316
  392.5000     2.4479     0.0139     7.1312     6.4835   -24.3968     0.1508     7.9062   120.9951
  393.0000     2.4660     0.0128     7.4073     6.8734   -24.3975     0.1404     7.9066   118.0204
  393.5000     2.4779     0.0121     7.6941     7.1319   -24.3976     0.1325     7.9069   116.5333
  394.0000     2.4789     0.0127     7.9919     7.3887   -24.3976     0.1308     7.9073   113.5744
  394.5000     2.4840     0.0132     8.3013     7.6547   -24.3976     0.1265     7.9076   111.1818
  395.0000     2.4932     0.0137     8.4646     7.9303   -24.3976     0.1219     7.9080   111.9062
  395.5000     2.5018     0.0137     8.6044     8.0435   -24.3976     0.1173     7.9083   112.2362
  396.0000     2.5022     0.0127     8.7466     8.0435   -24.3976     0.1139     7.9086   111.6738
  396.5000     2.5017     0.0116     8.8228     8.0435   -24.3976     0.1121     7.9090   109.2310
  397.0000     2.5011     0.0106     8.7912     8.0374   -24.3976     0.1119     7.9093   108.4822
  397.5000     2.5006     0.0095     8.7697     8.0304   -24.3976     0.1118     7.9097   109.7999
  398.0000     2.5000     0.0085     8.7484     8.0234   -24.3976     0.1132     7.9100   109.4542
  398.5000     2.4997     0.0074     8.7270     8.0164   -24.3976     0.1152     7.9104   109.2006
  399.0000     2.5020     0.0064     8.7057     8.0094   -24.3976     0.1139     7.9107   111.2309
  399.5000     2.4982     0.0053     8.6845     8.0024   -24.3976     0.1113     7.9111   112.3568
  400.0000     2.4922     0.0043     8.6612     7.9954   -24.3976     0.1106     7.9114   110.8553
  400.5000     2.4860     0.0032     8.6117     7.9884   -24.3978     0.1171     7.9117   110.5635
  401.0000     2.4797     0.0022     8.5131     7.9813   -24.3988     0.1243     7.9121   109.6895
  401.5000     2.4789     0.0011     8.4156     7.9746   -24.3584     0.1288     7.9124   108.1917
  402.0000     2.4784     0.0001     8.3466     7.9695   -24.3140     0.1298     7.9128   108.1012
  402.5000     2.4784     0.0008     8.3466     8.0443   -24.2695     0.1295     7.9131   111.8708
  403.0000     2.4795     0.0018     8.4418     8.1030   -24.2252     0.1292     7.9135   112.4758
  403.5000     2.4810     0.0027     8.5512     8.1622   -24.1808     0.1289     7.9138   111.6996
  404.0000     2.4860     0.0036     8.6625     8.1937   -24.1365     0.1272     7.9142   110.2405
  404.5000     2.4922     0.0038     8.7748     8.1376   -24.0921     0.1230     7.9145   107.9474
  405.0000     2.4976     0.0030     8.9048     8.0936   -24.0467     0.1187     7.9149   108.8704
  405.5000     2.4968     0.0022     8.7688     8.0499   -23.9998     0.1150     7.9152   111.9590
  406.0000     2.4912     0.0015     8.6131     7.4117   -24.0292     0.1142     7.9156   113.4044
  406.5000     2.4857     0.0007     8.4603     6.7357   -24.4537     0.1222     7.9159   112.4914
  407.0000     2.4846     0.0000     8.1835     6.2407   -24.6615     0.1222     7.9162   110.2838
  407.5000     2.4838    -0.0008     7.6761     6.2068   -24.7812     0.1222     7.9166   108.2948
  408.0000     2.4747    -0.0015     7.0934     6.2058   -24.8007     0.1222     7.9169   105.8863
  408.5000     2.4628    -0.0012     6.5549     6.5464   -24.8041     0.1323     7.9173   103.2390
  409.0000     2.4462     0.0010     6.2663     6.7921   -24.7567     0.1427     7.9176   108.1484
  409.5000     2.4211     0.0030     6.5025     6.9379   -24.3039     0.1581     7.9180   113.2478
  410.0000     2.3963     0.0105     7.2529     6.9344   -23.9171     0.1748     7.9183   117.2334
  410.5000     2.3757     0.0218     8.0691     7.3152   -23.5376     0.1916     7.9187   118.0776
  411.0000     2.3771     0.0275     8.9772     7.9040   -23.1534     0.1952     7.9190   118.0388
  411.5000     2.4327     0.0192     9.8619     8.5340   -23.0112     0.1671     7.9193   117.8050
  412.0000     2.4730     0.0077    10.2298     9.2148   -22.7910     0.1435     7.9197   116.4206
  412.5000     2.4987     0.0072    10.1071     9.6776   -22.6161     0.1198     7.9200   106.1855
