~VERSION INFORMATION
 VERS.                2.0:   CWLS LOG ASCII STANDARD - VERSION 2.0
 WRAP.                 NO:   ONE LINE PER DEPTH STEP
~WELL INFORMATION
#MNEM.UNIT      DATA TYPE    INFORMATION
#----------   ------------   ------------------------------
 STRT.F           93.0000:   START DEPTH
 STOP.F         1921.0000:   STOP DEPTH
 STEP.F            0.5000:   STEP LENGTH
 NULL.          -999.2500:   NO VALUE
 COMP. LAWRENCE-ALLISON &AS:   COMPANY
 WELL.  NPR 3 #15-1SHX2/T:   WELL
 FLD .             NPR #3:   :   FIELD
 LOC .       S2 T38N R78W:   LOCATION
 CNTY.            NATRONA:   COUNTY
 STAT.            WYOMING:   STATE
 CTRY. UNITED STATES OF AMERICA:   COUNTRY
 SRVC.       Schlumberger:   SERVICE COMPANY
 DATE.        10-JUN-1982:   LOGDATE
 API .       490251077600:   API NUMBER
~CURVE INFORMATION
#MNEM.UNIT       API CODE    CURVE DESCRIPTION
#----------   ------------   ------------------------------
 DEPT.F                  :   
 GR  .GAPI   70 310 01 00:   GAMMA RAY
 CALI.IN     70 280 01 00:   CALIPER
~PARAMETER INFORMATION
#MNEM.UNIT          VALUE    DESCRIPTION
#----------   ------------   ------------------------------
 PD  .                 GL:   PERMANENT DATUM
 EPD .F              5116:   ELEVATION PERMANENT DATUM
 LMF .                 KB:   LOG MEASURED FROM
 DAPD.F                10:   FEET ABOVE PERMANENT DATUM
 DMF .                 KB:   DRILLING MEASURED FROM
 EKB .F              5126:   KELLING BUSHING
 EGL .F              5116:   GROUND LEVEL
 DATE.        10-JUN-1982:   RUN DATE
 RUN .                  1:   RUN NUMBER
 DD  .F              2100:   DEPTH DRILLER
 DL  .F              1924:   DEPTH LOGGER
 BLI .F              1921:   BOTTOM LOG INTERVAL
 TLI .F               100:   TOP LOG INTERVAL
 CS  .IN            10.75:   CASING SIZE
 BS  .IN             8.75:   BIT SIZE
 BSD .F              2100:   BIT SIZE AT DEPTH
 DFT .                AIR:   DRILLING FLUID TYPE
 ENGI.        C. MARRINER:   RECORDING ENGINEER
 WITN.             SCOTTY:   WITNESSED BY
 CLNT.            A2DTECH:   CLIENT CODE
 ORIG.           5" PRINT:   ORIGIN OF DATA
 UWI .       490251077600:   UNIQUE WELL ID
 DICO. A2D Technologies, Inc.:   DIGITIZING COMPANY
~OTHER INFORMATION
~A   DEPT       GR       CALI   
# ...
  336.0000    92.2794    10.3139
  336.5000    94.5147    10.2999
  337.0000    94.0912    10.3012
  337.5000    92.7815    10.3022
  338.0000    91.0286    10.3032
  338.5000    88.8326    10.2894
  339.0000    87.0738    10.2905
  339.5000    85.5162    10.2915
  340.0000    86.1004    10.2925
  340.5000    89.5808    10.2935
  341.0000    92.2592    10.2946
  341.5000    94.7161    10.2956
  342.0000    95.8436    10.2966
  342.5000    94.9769    10.2976
  343.0000    90.7868    10.2987
  343.5000    87.2614    10.2997
  344.0000    89.2752    10.3007
  344.5000    94.1693    10.3018
  345.0000    97.0693    10.3030
  345.5000    96.6458    10.3040
  346.0000    91.7910    10.3050
  346.5000    90.9047    10.3061
  347.0000    93.1597    10.3071
  347.5000    95.1883    10.3081
  348.0000    96.3009    10.3091
  348.5000    95.3828    10.3102
  349.0000    94.0184    10.3112
  349.5000    92.6539    10.3122
  350.0000    91.0664    10.3130
  350.5000    90.4148    10.3121
  351.0000    91.3228    10.3113
  351.5000    92.2264    10.3106
  352.0000    93.4011    10.3098
  352.5000    93.7440    10.3090
  353.0000    94.0482    10.3083
  353.5000    91.4112    10.3075
  354.0000    87.4404    10.3068
  354.5000    81.2539    10.3064
  355.0000    83.7085    10.3073
  355.5000    89.4866    10.3081
  356.0000    91.2766    10.3090
  356.5000    88.8567    10.3099
  357.0000    84.8375    10.3108
  357.5000    82.0230    10.3118
  358.0000    86.2545    10.3127
  358.5000    92.2541    10.3136
  359.0000    93.8225    10.3145
  359.5000    92.5105    10.3153
  360.0000    90.9726    10.3162
  360.5000    91.6590    10.3171
  361.0000    94.1136    10.3179
  361.5000    96.1251    10.3188
  362.0000    95.9202    10.3197
  362.5000    90.3992    10.3206
  363.0000    86.6500    10.3214
  363.5000    84.2301    10.3223
  364.0000    86.5937    10.3084
  364.5000    91.3594    10.3093
  365.0000    95.1434    10.3102
  365.5000    96.7117    10.3113
  366.0000    95.1782    10.2971
  366.5000    94.3049    10.2982
  367.0000    96.0992    10.2991
  367.5000    98.1107    10.3000
  368.0000    98.5669    10.2859
  368.5000    93.7142    10.2870
  369.0000    89.7434    10.2878
  369.5000    89.5391    10.2887
  370.0000    93.3826    10.2896
  370.5000    96.0318    10.2904
  371.0000    96.9074    10.2913
  371.5000    96.4773    10.2922
  372.0000    98.9363    10.2931
  372.5000   100.5046    10.2939
  373.0000    98.3063    10.2948
  373.5000    93.6709    10.2957
  374.0000    92.1373    10.2968
  374.5000    91.4900    10.2976
  375.0000    88.6270    10.2985
  375.5000    82.2190    10.2994
  376.0000    79.3560    10.3003
  376.5000    80.7171    10.3011
  377.0000    82.0813    10.3020
  377.5000    84.5086    10.3029
  378.0000    88.5142    10.2890
  378.5000    91.4119    10.2899
  379.0000    92.5371    10.2907
  379.5000    95.8780    10.2916
  380.0000    99.2189    10.2925
  380.5000   100.3441    10.2934
  381.0000    99.9184    10.2942
  381.5000    96.3907    10.2951
  382.0000    97.9590    10.2960
  382.5000    99.3058    10.2971
  383.0000    99.5448    10.2979
  383.5000    97.6690    10.2988
  384.0000    95.3698    10.2997
  384.5000    96.0563    10.3006
  385.0000    96.0737    10.3014
  385.5000    96.0910    10.3023
  386.0000    92.7850    10.3032
  386.5000    86.3769    10.3041
  387.0000    82.6277    10.3049
  387.5000    81.0941    10.3058
  388.0000    83.3272    10.3067
  388.5000    85.3387    10.3075
  389.0000    86.0208    10.3084
  389.5000    88.3041    10.3093
  390.0000    92.2157    10.3250
  390.5000    96.9340    10.3260
  391.0000    97.1686    10.3269
  391.5000    95.1963    10.3278
  392.0000    95.8784    10.3137
  392.5000    97.0036    10.3147
  393.0000    97.6857    10.3156
  393.5000    96.5952    10.3165
  394.0000    95.0617    10.3174
  394.5000    93.5281    10.3182
  395.0000    92.2161    10.3191
  395.5000    91.3472    10.3200
  396.0000    93.3943    10.3209
  396.5000    95.8715    10.3217
  397.0000    98.0507    10.3226
  397.5000    99.6695    10.3235
  398.0000   101.9692    10.3244
  398.5000   104.2263    10.3253
  399.0000   106.0850    10.3263
  399.5000   104.3395    10.3272
  400.0000   100.3729    10.3281
  400.5000    96.8494    10.3284
  401.0000    95.5416    10.3282
  401.5000    96.0063    10.3280
  402.0000    96.6926    10.3277
  402.5000    96.7430    10.3275
  403.0000    93.8554    10.3273
  403.5000    91.6263    10.3271
  404.0000    91.0182    10.3268
  404.5000    96.3628    10.3266
  405.0000   100.3725    10.3264
  405.5000   103.4960    10.3261
  406.0000   105.5117    10.3259
  406.5000   106.1980    10.3257
  407.0000   103.7823    10.3255
  407.5000   101.8098    10.3252
  408.0000   102.5230    10.3250
  408.5000   105.7179    10.3248
  409.0000   107.1975    10.3245
  409.5000   107.4407    10.3243
  410.0000   106.3544    10.3250
  410.5000   103.9388    10.3256
  411.0000   102.4076    10.3262
  411.5000   104.2556    10.3268
  412.0000   104.8934    10.3274
  412.5000   103.3640    10.3279
  413.0000    97.1818    10.3285
  413.5000    93.4367    10.3291
  414.0000    95.8955    10.3298
  414.5000   101.2347    10.3155
  415.0000   104.5798    10.3014
  415.5000   104.6071    10.3020
  416.0000   100.8213    10.2876
  416.5000    99.1107    10.2884
  417.0000    99.5754    10.2889
  417.5000   101.5911    10.2895
  418.0000   105.3793    10.2901
  418.5000   108.9460    10.2907
  419.0000   109.8538    10.2914
  419.5000   105.6656    10.2920
  420.0000    93.9442    10.2925
  420.5000    89.7474    10.2931
  421.0000    93.1728    10.2937
  421.5000    99.9966    10.2943
  422.0000   101.3476    10.2948
  422.5000   101.5908    10.2954
  423.0000   102.2770    10.2960
  423.5000   103.4064    10.2967
  424.0000   103.6442    10.2973
  424.5000   101.4555    10.2979
  425.0000    97.7105    10.2984
  425.5000    95.4933    10.2841
  426.0000    95.7650    10.2848
  426.5000    98.8885    10.2854
  427.0000   100.4610    10.2860
  427.5000   100.4826    10.2866
  428.0000   101.1689    10.2724
  428.5000   104.2924    10.2731
  429.0000   106.3080    10.2737
  429.5000   105.6649    10.2742
  430.0000   101.8907    10.2748
  430.5000   101.0552    10.2754
  431.0000   101.7469    10.2760
  431.5000    98.8881    10.2765
  432.0000    94.4784    10.2771
  432.5000    92.9436    10.2777
  433.0000    96.2940    10.2783
  433.5000   104.9567    10.2938
  434.0000   110.5174    10.2943
  434.5000   112.3117    10.2949
  435.0000   108.4934    10.2955
  435.5000    99.9524    10.2961
  436.0000    99.0823    10.2966
  436.5000    99.3309    10.2972
  437.0000   100.0171    10.2978
  437.5000   101.1466    10.2984
  438.0000   101.8328    10.2991
  438.5000   100.5250    10.2997
  439.0000    97.6663    10.3002
  439.5000    97.7296    10.2859
  440.0000    98.6011    10.2866
  440.5000    97.2933    10.2872
  441.0000    94.6561    10.2878
  441.5000    92.2404    10.2883
  442.0000    89.6032    10.2889
  442.5000    84.9719    10.2895
  443.0000    85.8797    10.2902
  443.5000    89.0032    10.3056
  444.0000    90.5761    10.3061
  444.5000    90.5982    10.3067
  445.0000    93.7263    10.3073
  445.5000    98.8439    10.3079
  446.0000   103.2967    10.3084
  446.5000   104.4262    10.3238
  447.0000   102.8968    10.3244
  447.5000    97.3792    10.3250
  448.0000    91.8617    10.3257
  448.5000    88.1166    10.3262
  449.0000    90.7357    10.3268
  449.5000    95.6984    10.3274
  450.0000    96.8224    10.3267
  450.5000    94.6762    10.3197
  451.0000    92.2495    10.3126
  451.5000    88.4835    10.3056
  452.0000    83.6014    10.2995
  452.5000    77.1568    10.2851
  453.0000    74.4996    10.2706
  453.5000    76.3211    10.2562
  454.0000    81.9301    10.2564
  454.5000    88.6890    10.2567
  455.0000    84.4427    10.2570
  455.5000    76.4356    10.2573
  456.0000    71.1070    10.2576
  456.5000    71.1357    10.2579
  457.0000    69.5462    10.2582
