~VERSION INFORMATION
 VERS.                2.0:   CWLS LOG ASCII STANDARD - VERSION 2.0
 WRAP.                 NO:   ONE LINE PER DEPTH STEP
~WELL INFORMATION
#MNEM.UNIT      DATA TYPE    INFORMATION
#----------   ------------   ------------------------------
 STRT.F           43.0000:   START DEPTH
 STOP.F          551.0000:   STOP DEPTH
 STEP.F            0.5000:   STEP LENGTH
 NULL.          -999.2500:   NO VALUE
 COMP. FENIX & SCISSON INC:   COMPANY
 WELL.   NPR 3  27-S #3-3:   WELL
 FLD .             TEAPOT:   FIELD
 LOC .       S3 T38N R78W:   LOCATION
 CNTY.            NATRONA:   COUNTY
 STAT.            WYOMING:   STATE
 CTRY. UNITED STATES OF AMERICA:   COUNTRY
 SRVC.           BIRDWELL:   SERVICE COMPANY
 DATE.        07-OCT-1978:   LOGDATE
 API .       490251071600:   API NUMBER
~CURVE INFORMATION
#MNEM.UNIT       API CODE    CURVE DESCRIPTION
#----------   ------------   ------------------------------
 DEPT.F                  :   
 SPR .MV     05 010 01 00:   SPONTANEOUS POTENTIAL FROM RES.
 SN  .OHMM   05 040 16 00:   SHORT NORMAL 16"
 ILD .OHMM   05 120 46 00:   INDUCTION LOG DEEP
 GRD .GAPI   45 310 01 00:   GAMMA RAY FROM DENSITY LOG
 CALD.IN     45 280 60 00:   CALIPER
 RHOB.G/C3   45 350 01 00:   BULK DENSITY
 CORR.G/C3   45 356 01 00:   DENSITY CORRECTION
 DPHI.DEC    45 890 12 00:   DENSITY POROSITY SANDSTONE
~PARAMETER INFORMATION
#MNEM.UNIT          VALUE    DESCRIPTION
#----------   ------------   ------------------------------
 PD  .                 GL:   PERMANENT DATUM
 EPD .F              5241:   ELEVATION PERMANENT DATUM
 LMF .                 KB:   LOG MEASURED FROM
 DAPD.F                 4:   FEET ABOVE PERMANENT DATUM
 DMF .                 KB:   DRILLING MEASURED FROM
 EKB .F              5245:   KELLING BUSHING
 EGL .F              5241:   GROUND LEVEL
 DATE.            10-7-78:   RUN DATE
 RUN .                  1:   RUN NUMBER
 DD  .F               552:   DEPTH DRILLER
 DL  .F               551:   DEPTH LOGGER
 BLI .F               545:   BOTTOM LOG INTERVAL
 TLI .F                48:   TOP LOG INTERVAL
 CS  .IN            8.625:   CASING SIZE
 CBL .F                43:   CASING BOTTOM LOGGER
 BS  .IN            7.875:   BIT SIZE
 BSD .F               552:   BIT SIZE AT DEPTH
 DFT .                KCL:   DRILLING FLUID TYPE
 DFD .                8.7:   DRILLING FLUID DENSITY
 DFV .                 38:   DRILLING FLUID VISCOSITY
 DFPH.                  9:   DRILLING FLUID PH
 DFL .                 38:   DRILLING FLUID LOSS
 MSS .            MUD PIT:   MUD SAMPLE SOURCE
 RMS .OHMM            .24:   RESISTIVITY MUD SAMPLE
 MST .F                48:   MUD SAMPLE TEMPERATURE
 RMF .OHMM             .2:   RESISTIVITY MUD FILTRATE SAMPLE
 MFST.F                62:   MUD FILTRATE SAMPLE TEMPERATURE
 RMC .OHMM             .3:   RESISTIVITY MUD CAKE
 MCST.F                62:   MUD CAKE SAMPLE TEMPERATURE
 MFSS.               MEAS:   MUD FILTRATE SAMPLE SOURCE
 MCSS.               MEAS:   MUD CAKE SAMPLE SOURCE
 TCS .HRS               3:   TIME CURCULATED STOPPED
 LUN .               2958:   LOGGING UNIT NUMBER
 LUL .               CASP:   LOGGING UNIT LOCATION
 ENGI.             MILLER:   RECORDING ENGINEER
 WITN.              AMEND:   WITNESSED BY
 CLNT.            A2DTECH:   CLIENT CODE
 ORIG.       2", 5" PRINT:   ORIGIN OF DATA
 UWI .       490251071600:   UNIQUE WELL ID
 DICO. A2D Technologies, Inc.:   DIGITIZING COMPANY
~OTHER INFORMATION
~A   DEPT      SPR         SN        ILD        GRD         CALD       RHOB      CORR        DPHI 
# ...
   83.5000   -71.2700     6.1208     6.4348  -999.2500     7.8383     2.4580     0.0586     0.1397
   84.0000   -70.7709     6.1625     6.4348  -999.2500     7.8412     2.4812     0.0452     0.1347
   84.5000   -70.2775     6.2044     6.5383  -999.2500     7.9300     2.4754     0.0292     0.1297
   85.0000   -69.8033     6.2593     6.6553  -999.2500     8.1013     2.4702     0.0281     0.1247
   85.5000   -69.3408     6.2509     6.8840  -999.2500     8.2843     2.4753     0.0274     0.1198
   86.0000   -68.8953     6.2389     7.3923  -999.2500     7.8397     2.4836     0.0265     0.1189
   86.5000   -68.4562     6.2269     7.8818  -999.2500     8.1063     2.4850     0.0633     0.1201
   87.0000   -67.9732     6.2150     7.9548  -999.2500     8.2981     2.4690     0.1104     0.1282
   87.5000   -66.5706     6.2030     8.0285  -999.2500     8.5012     2.4514     0.1575     0.1395
   88.0000   -65.2370     6.1911     8.0077  -999.2500     8.6957     2.4355     0.2170     0.1432
   88.5000   -64.5114     6.1793     7.9847  -999.2500     7.9375     2.4363     0.2994     0.1281
   89.0000   -63.8476     6.1674     7.9617  -999.2500     8.0800     2.5071     0.2959     0.1068
   89.5000   -63.5332     6.1555     7.7909  -999.2500     8.1523     2.5450     0.2599     0.0880
   90.0000   -63.2345     6.1453     7.5626  -999.2500     7.8312     2.5249     0.2032     0.0976
   90.5000   -62.9349     6.1659     7.3410  -999.2500     7.6351     2.5047     0.1466     0.1067
   91.0000   -62.6355     6.1850     7.1259  -999.2500     7.8323     2.4951     0.0896     0.1101
   91.5000   -62.3355     6.2018     6.9171  -999.2500     7.4390     2.4580     0.0513     0.1277
   92.0000   -62.0301     6.2407     6.7144  -999.2500     7.7204     2.4177     0.0259     0.1523
   92.5000   -61.4045     6.2762     6.6153  -999.2500     7.7331     2.4121     0.0162     0.1628
   93.0000   -60.2357     6.3119     6.6810  -999.2500     7.1886     2.4153     0.0102     0.1568
   93.5000   -59.1048     6.3478     6.9046  -999.2500     7.8388     2.4288     0.0041     0.1491
   94.0000   -59.0561     6.3839     7.1357  -999.2500     7.8951     2.4452     0.0034     0.1415
   94.5000   -59.0621     6.4202     7.2660  -999.2500     7.9989     2.4617     0.0039     0.1338
   95.0000   -59.0638     6.4568     7.3055  -999.2500     8.1698     2.4687     0.0044     0.1279
   95.5000   -59.0639     6.4935     7.3458  -999.2500     8.0369     2.4739     0.0049     0.1231
   96.0000   -59.0647     6.5305     7.3873  -999.2500     7.8169     2.4827     0.0042     0.1189
   96.5000   -59.0647     6.5676     7.5103  -999.2500     7.7366     2.4787     0.0033     0.1221
   97.0000   -59.0017     6.6051     7.6452  -999.2500     8.3319     2.4698     0.0055     0.1257
   97.5000   -58.5320     6.6424     7.7835  -999.2500     8.1939     2.4689     0.0110     0.1261
   98.0000   -58.0613     6.6770     7.9243  -999.2500     8.0566     2.4693     0.0190     0.1265
   98.5000   -57.5980     6.6744     8.0676  -999.2500     7.9350     2.4697     0.0279     0.1285
   99.0000   -57.2457     6.6726     8.2136  -999.2500     8.4491     2.4652     0.0432     0.1305
   99.5000   -57.1866     6.6707     8.3622  -999.2500     8.1145     2.4605     0.0693     0.1324
  100.0000   -57.1107     6.6688     8.4072  -999.2500     8.0395     2.4572     0.1212     0.1343
  100.5000   -56.6847     6.6669     8.2525  -999.2500     8.0253     2.4578     0.1997     0.1353
  101.0000   -55.4141     6.6650     8.1123  -999.2500     8.0131     2.4892     0.2535     0.1174
  101.5000   -55.1608     6.6631     7.9752  -999.2500     8.0002     2.5419     0.2748     0.0976
  102.0000   -54.8803     6.6612     7.8407  -999.2500     7.9868     2.5892     0.2626     0.0778
  102.5000   -54.0095     6.6593     7.7084  -999.2500     7.9451     2.5858     0.2050     0.0683
  103.0000   -52.9103     6.6574     7.5783  -999.2500     7.8359     2.5682     0.1462     0.0776
  103.5000   -52.8893     6.6555     7.4504  -999.2500     7.7589     2.5468     0.0940     0.0881
  104.0000   -52.8866     6.6536     7.3247  -999.2500     7.7997     2.5152     0.0469     0.1060
  104.5000   -52.8885     6.6517     7.2011  -999.2500     7.4599     2.4832     0.0144     0.1239
  105.0000   -52.8885     6.6498     7.0796  -999.2500     7.5011     2.4506     0.0150     0.1428
  105.5000   -52.8885     6.6479     6.9274  -999.2500     7.5227     2.4363     0.0157     0.1480
  106.0000   -52.8885     6.6460     6.9336  -999.2500     7.5286     2.4267     0.0168     0.1515
  106.5000   -52.8885     6.6441     6.9423  -999.2500     7.5354     2.4278     0.0155     0.1506
  107.0000   -52.8885     6.6422     6.9510  -999.2500     7.5516     2.4287     0.0143     0.1504
  107.5000   -52.8885     6.6403     6.9597  -999.2500     7.5893     2.4273     0.0128     0.1516
  108.0000   -52.8885     6.6384     6.9684  -999.2500     7.6724     2.4259     0.0064     0.1524
  108.5000   -52.8889     6.6365     6.9771  -999.2500     7.7729     2.4295     0.0046     0.1494
  109.0000   -52.8880     6.6346     6.9863  -999.2500     7.9219     2.4399     0.0039     0.1441
  109.5000   -52.8905     6.6328     7.0481  -999.2500     8.1652     2.4502     0.0032     0.1388
  110.0000   -52.4581     6.6309     7.2185  -999.2500     8.3215     2.4605     0.0082     0.1336
  110.5000   -51.6575     6.6290     7.3931  -999.2500     7.8529     2.4674     0.0172     0.1283
  111.0000   -51.2656     6.6271     7.5718  -999.2500     7.8447     2.4687     0.0214     0.1266
  111.5000   -51.1918     6.6252     7.7549  -999.2500     7.6314     2.4697     0.0231     0.1275
  112.0000   -51.1273     6.6233     7.9424  -999.2500     8.4401     2.4643     0.0257     0.1305
  112.5000   -50.7279     6.6214     8.1033  -999.2500     8.2660     2.4554     0.0543     0.1366
  113.0000   -50.0438     6.6195     8.0972  -999.2500     8.2901     2.4464     0.0858     0.1428
  113.5000   -49.9024     6.6178     8.0902  -999.2500     8.5559     2.4372     0.1527     0.1453
  114.0000   -49.8998     6.6151     8.0835  -999.2500     8.7064     2.4355     0.2435     0.1397
  114.5000   -49.8933     6.6599     8.0770  -999.2500     8.1861     2.4855     0.3697     0.1105
  115.0000   -49.4805     6.7193     8.0704  -999.2500     8.1108     2.5445     0.3929     0.0771
  115.5000   -48.2831     6.7793     8.0639  -999.2500     8.0197     2.6033     0.3662     0.0205
  116.0000   -47.5502     6.8398     8.0573  -999.2500     7.8993     2.6482     0.2685     0.0230
  116.5000   -47.7048     6.9008     8.0508  -999.2500     8.0187     2.6206     0.1370     0.0411
  117.0000   -47.8508     6.9657     8.0443  -999.2500     7.9851     2.5705     0.0588     0.0778
  117.5000   -47.1578     7.0338     8.0379  -999.2500     7.9218     2.5197     0.0105     0.1077
  118.0000   -46.9479     7.1025     8.0294  -999.2500     7.8880     2.4900     0.0031     0.1168
  118.5000   -47.0036     7.1719     8.0937  -999.2500     7.9736     2.4721     0.0031     0.1266
  119.0000   -47.0629     7.1983     8.2100  -999.2500     8.0533     2.4649     0.0032     0.1296
  119.5000   -47.0322     7.2122     8.3301  -999.2500     8.0152     2.4635     0.0033     0.1290
  120.0000   -46.5230     7.2261     8.3301  -999.2500     7.9974     2.4623     0.0033     0.1312
  120.5000   -46.3210     7.2400     8.3301  -999.2500     8.1207     2.4629     0.0034     0.1307
  121.0000   -46.3136     7.2540     8.3301  -999.2500     8.2033     2.4687     0.0035     0.1278
  121.5000   -46.1100     7.2680     8.4662  -999.2500     8.2159     2.4718     0.0035     0.1268
  122.0000   -44.9616     7.2820     8.7041  -999.2500     8.2297     2.4722     0.0036     0.1265
  122.5000   -44.9131     7.2960     8.8039  -999.2500     8.2432     2.4729     0.0037     0.1230
  123.0000   -44.9189     7.3100     8.8039  -999.2500     8.2571     2.4781     0.0037     0.1213
  123.5000   -44.9217     7.3411     8.8039  -999.2500     8.2767     2.4833     0.0038     0.1201
