~VERSION INFORMATION
 VERS.                2.0:   CWLS LOG ASCII STANDARD - VERSION 2.0
 WRAP.                 NO:   ONE LINE PER DEPTH STEP
~WELL INFORMATION
#MNEM.UNIT      DATA TYPE    INFORMATION
#----------   ------------   ------------------------------
 STRT.F           16.5000:   START DEPTH
 STOP.F          640.0000:   STOP DEPTH
 STEP.F            0.5000:   STEP LENGTH
 NULL.          -999.2500:   NO VALUE
 COMP. FENIX & SCISSON INC:   COMPANY
 WELL.     11 SX 14 #3-14:   WELL
 FLD .             TEAPOT:   FIELD
 LOC .      S14 T38N R78W:   LOCATION
 CNTY.            NATRONA:   COUNTY
 STAT.            WYOMING:   STATE
 CTRY. UNITED STATES OF AMERICA:   COUNTRY
 SRVC.            Unknown:   SERVICE COMPANY
 DATE.        18-DEC-1978:   LOGDATE
 API .       490251075700:   API NUMBER
~CURVE INFORMATION
#MNEM.UNIT       API CODE    CURVE DESCRIPTION
#----------   ------------   ------------------------------
 DEPT.F                  :   
 SPR .MV     05 010 01 00:   SPONTANEOUS POTENTIAL FROM RES.
 SN  .OHMM   05 040 16 00:   SHORT NORMAL 16"
 IL  .OHMM   05 120 00 00:   INDUCTION LOG
 GRD .GAPI   45 310 01 00:   GAMMA RAY FROM DENSITY LOG
 CALD.IN     45 280 60 00:   CALIPER
 RHOB.G/C3   45 350 01 00:   BULK DENSITY
 DPHI.DEC    45 890 12 00:   DENSITY POROSITY SANDSTONE
 CORR.G/C3   45 356 01 00:   DENSITY CORRECTION
~PARAMETER INFORMATION
#MNEM.UNIT          VALUE    DESCRIPTION
#----------   ------------   ------------------------------
 PD  .                 GL:   PERMANENT DATUM
 EPD .F              5217:   ELEVATION PERMANENT DATUM
 LMF .                 KB:   LOG MEASURED FROM
 DAPD.F                 4:   FEET ABOVE PERMANENT DATUM
 DMF .                 KB:   DRILLING MEASURED FROM
 EKB .F              5221:   KELLING BUSHING
 EGL .F              5217:   GROUND LEVEL
 DATE.           12-18-78:   RUN DATE
 RUN .                  1:   RUN NUMBER
 DD  .F               653:   DEPTH DRILLER
 DL  .F               640:   DEPTH LOGGER
 BLI .F               634:   BOTTOM LOG INTERVAL
 TLI .F                32:   TOP LOG INTERVAL
 CS  .IN            8.625:   CASING SIZE
 CBD .F                40:   CASING BOTTOM DRILLER
 CBL .F                30:   CASING BOTTOM LOGGER
 BS  .IN            7.875:   BIT SIZE
 BSD .F               653:   BIT SIZE AT DEPTH
 DFT .                KCL:   DRILLING FLUID TYPE
 DFD .                8.3:   DRILLING FLUID DENSITY
 DFV .                 36:   DRILLING FLUID VISCOSITY
 DFPH.               12.5:   DRILLING FLUID PH
 DFL .               12.3:   DRILLING FLUID LOSS
 MSS .           FLOWLINE:   MUD SAMPLE SOURCE
 MST .F                56:   MUD SAMPLE TEMPERATURE
 RMF .OHMM            .44:   RESISTIVITY MUD FILTRATE SAMPLE
 MFST.F                58:   MUD FILTRATE SAMPLE TEMPERATURE
 RMC .OHMM            .58:   RESISTIVITY MUD CAKE
 MCST.F                66:   MUD CAKE SAMPLE TEMPERATURE
 MFSS.           MEASURED:   MUD FILTRATE SAMPLE SOURCE
 MCSS.           MEASURED:   MUD CAKE SAMPLE SOURCE
 BHT .F                58:   BOTTOM HOLE TEMPERATURE
 TCS .HRS               4:   TIME CURCULATED STOPPED
 MRT .F                58:   MAXIMUM RECORDED TEMPERATURE
 LUL .             CASPER:   LOGGING UNIT LOCATION
 ENGI.         B. ROLLINS:   RECORDING ENGINEER
 WITN.              AMEND:   WITNESSED BY
 CLNT.            A2DTECH:   CLIENT CODE
 ORIG.           5" PRINT:   ORIGIN OF DATA
 UWI .       490251075700:   UNIQUE WELL ID
 DICO. A2D Technologies, Inc.:   DIGITIZING COMPANY
~OTHER INFORMATION
~A   DEPT      SPR         SN         IL         GRD      CALD       RHOB       DPHI       CORR   
# ...
  178.5000   -45.4020     9.8260     9.3640   102.3280     7.9840     2.5030     0.1140     0.0100
  179.0000   -45.4290     9.8600     9.3910   102.3300     8.0060     2.5010     0.1130     0.0100
  179.5000   -45.4600     9.8940     9.4650   102.3400     8.0160     2.5000     0.1120     0.0090
  180.0000   -45.5170     9.9280     9.5350   102.6570     8.0560     2.5010     0.1070     0.0090
  180.5000   -44.1540     9.9620     9.6040   103.8100     8.1100     2.5100     0.1010     0.0090
  181.0000   -41.8920     9.9960     9.6740   104.4020     8.1420     2.5160     0.1000     0.0080
  181.5000   -41.1300    10.0300     9.7440   104.5620     8.1570     2.5170     0.1030     0.0080
  182.0000   -40.8630    10.0640     9.8140   104.6340     8.1080     2.5160     0.1080     0.0080
  182.5000   -40.7480    10.0980     9.8840   104.1410     8.0430     2.5090     0.1150     0.0100
  183.0000   -40.8660    10.1320     9.9390   104.2240     8.0240     2.4990     0.1190     0.0130
  183.5000   -40.9830    10.1660     9.9720   104.3390     8.0970     2.4900     0.1190     0.0250
  184.0000   -41.1020    10.2000    10.0060   104.4550     8.1680     2.4900     0.1190     0.0390
  184.5000   -41.2230    10.2340    10.0400   104.5730     8.1950     2.4890     0.1190     0.0470
  185.0000   -41.4060    10.2680    10.0730   104.7050     8.1900     2.4890     0.1170     0.0550
  185.5000   -41.7760    10.3230    10.1100   104.0780     8.1860     2.4920     0.1140     0.0620
  186.0000   -43.7930    10.5420    10.2960   103.2850     8.1810     2.4960     0.1110     0.0630
  186.5000   -43.5060    10.7610    10.4980   102.9500     8.1930     2.5000     0.1130     0.0540
  187.0000   -42.6860    10.9840    10.7000   102.7230     8.2330     2.5010     0.1180     0.0450
  187.5000   -41.8260    11.0980    10.8140   102.4940     8.2490     2.4940     0.1210     0.0440
  188.0000   -41.3090    11.2010    10.8660   102.0080     8.2060     2.4870     0.1220     0.0470
  188.5000   -40.9910    11.2580    10.9180   100.3720     8.1280     2.4840     0.1230     0.0550
  189.0000   -40.6730    11.3150    10.9700    99.2570     8.0490     2.4810     0.1110     0.0740
  189.5000   -40.5590    11.3720    11.0220    98.6600     8.0410     2.4920     0.0950     0.0920
  190.0000   -40.6800    11.4300    11.0740    98.1830     8.0750     2.5200     0.0910     0.1040
  190.5000   -40.8010    11.4870    11.1250    97.7100     8.0490     2.5370     0.0920     0.0910
  191.0000   -41.0270    11.5540    11.1770    97.2370     8.0130     2.5380     0.0930     0.0700
  191.5000   -41.9260    11.6260    11.2290    97.0110     8.0000     2.5380     0.0970     0.0490
  192.0000   -42.6530    11.6970    11.2920    97.1150     8.0000     2.5350     0.1010     0.0330
  192.5000   -43.0540    11.7690    11.2080    97.9300     8.0000     2.5180     0.1020     0.0320
  193.0000   -43.2990    11.8250    11.1000    98.8310     8.0050     2.5160     0.1020     0.0320
  193.5000   -43.2770    11.7030    10.9920    99.4300     8.0520     2.5170     0.1020     0.0330
  194.0000   -42.8180    11.6020    10.8840    99.6280     8.1940     2.5170     0.1050     0.0340
  194.5000   -42.3590    11.5010    10.7770    99.8320     8.1690     2.5130     0.1090     0.0280
  195.0000   -42.3020    11.4010    10.6690   100.0320     8.0240     2.5060     0.1130     0.0210
  195.5000   -42.3020    11.2920    10.5610   100.4010     8.1260     2.5010     0.1130     0.0140
  196.0000   -42.3020    11.2450    10.4800   100.9740     8.2240     2.5000     0.1130     0.0120
  196.5000   -42.2960    11.1940    10.4520   101.5690     8.2720     2.5000     0.1130     0.0130
  197.0000   -42.4420    11.1430    10.4240   101.4410     8.2610     2.5000     0.1130     0.0130
  197.5000   -43.1940    11.0920    10.3960   101.0440     8.2520     2.5010     0.1100     0.0200
  198.0000   -44.0610    11.0410    10.3680   100.9280     8.2410     2.5030     0.1080     0.0260
  198.5000   -44.8760    10.9900    10.3400   101.7320     8.2310     2.5050     0.1090     0.0260
  199.0000   -44.8980    10.9390    10.3120   102.5130     8.2210     2.5050     0.1120     0.0270
  199.5000   -44.8960    10.8890    10.2840   102.8130     8.1770     2.5020     0.1140     0.0290
  200.0000   -44.5850    10.8380    10.2560   101.7100     8.1010     2.5000     0.1140     0.0330
  200.5000   -43.9510    10.7840    10.2280    99.6800     7.9560     2.5010     0.1130     0.0360
  201.0000   -43.3170    10.7910    10.2000    98.3460     7.9460     2.5010     0.1120     0.0360
  201.5000   -42.6640    10.7980    10.1720    98.1150     7.9790     2.5020     0.1120     0.0370
  202.0000   -42.6000    10.8060    10.1440    98.0360     8.0150     2.5020     0.1110     0.0370
  202.5000   -42.7600    10.8130    10.1160    99.1510     7.9260     2.5030     0.1110     0.0390
  203.0000   -43.2110    10.8210    10.0880   100.9190     7.7970     2.5020     0.1110     0.0420
  203.5000   -43.6670    10.8280    10.0610   102.6690     8.1320     2.5020     0.1110     0.0450
  204.0000   -44.1240    10.8360    10.0330   104.2650     7.9030     2.5010     0.1100     0.0480
  204.5000   -44.5870    10.8430    10.0050   104.8180     7.6950     2.5020     0.1070     0.0500
  205.0000   -44.8070    10.8510     9.9770   105.4110     7.5830     2.5040     0.1050     0.0530
  205.5000   -44.9600    10.8580     9.9490   104.9510     7.5630     2.5090     0.1030     0.0510
  206.0000   -45.1110    10.8660     9.9160   103.8120     7.6300     2.5130     0.1040     0.0480
  206.5000   -45.2670    10.8730     9.8530   100.7020     7.7190     2.5110     0.1170     0.0450
  207.0000   -45.2150    10.8830     9.7910    97.6170     7.8090     2.4970     0.1210     0.0440
  207.5000   -45.0750    10.8280     9.7290    96.0110     7.9950     2.4860     0.1180     0.0490
  208.0000   -43.9600    10.7430     9.6670    97.7900     8.0190     2.4920     0.1080     0.0580
  208.5000   -42.7570    10.6570     9.6050   100.7030     8.0200     2.5030     0.1040     0.0560
  209.0000   -42.5420    10.5870     9.5430   102.1800     8.0200     2.5110     0.1050     0.0520
  209.5000   -42.5740    10.4960     9.4810   102.2940     8.0200     2.5120     0.1060     0.0450
  210.0000   -42.6120    10.3810     9.4180   102.4280     8.0190     2.5110     0.1080     0.0400
  210.5000   -42.6510    10.2660     9.3560   102.8340     8.0190     2.5080     0.1110     0.0360
  211.0000   -42.6920    10.1510     9.2940   104.8360     7.9770     2.5040     0.1130     0.0320
  211.5000   -42.7320    10.0360     9.2320   106.8450     7.8520     2.5000     0.1160     0.0280
  212.0000   -42.7710     9.9210     9.1350   107.9430     7.7270     2.4960     0.1190     0.0250
  212.5000   -42.8100     9.8220     9.1470   108.1090     7.7190     2.4920     0.1190     0.0250
  213.0000   -42.8530     9.7730     9.1770   108.2840     7.7350     2.4890     0.1190     0.0280
  213.5000   -42.9140     9.7240     9.2060   108.2530     7.8090     2.4890     0.1170     0.0310
  214.0000   -42.2200     9.6540     9.2360   107.3560     7.9140     2.4900     0.1160     0.0340
  214.5000   -41.3990     9.7220     9.2650   106.4470     8.0200     2.4980     0.1150     0.0370
  215.0000   -40.9070     9.8400     9.2950   106.1890     8.0860     2.4970     0.1150     0.0380
  215.5000   -41.1300     9.9580     9.3240   106.0460     8.1030     2.4940     0.1100     0.0390
  216.0000   -41.6630    10.0170     9.3530   105.9030     8.1130     2.4980     0.1030     0.0390
  216.5000   -42.1930     9.9940     9.3830   105.7710     8.0140     2.5080     0.1040     0.0340
  217.0000   -42.5570     9.9760     9.4120   105.2300     8.0250     2.5130     0.1050     0.0250
  217.5000   -42.6920     9.9590     9.4420   102.4480     8.1740     2.5110     0.1060     0.0160
  218.0000   -42.8290     9.9410     9.4710    99.6560     7.8320     2.5080     0.1090     0.0140
  218.5000   -42.9660     9.9240     9.5010    99.0800     7.9470     2.5060     0.1110     0.0140
