~VERSION INFORMATION
 VERS.                2.0:   CWLS LOG ASCII STANDARD - VERSION 2.0
 WRAP.                 NO:   ONE LINE PER DEPTH STEP
~WELL INFORMATION
#MNEM.UNIT      DATA TYPE    INFORMATION
#----------   ------------   ------------------------------
 STRT.F          390.0000:   START DEPTH
 STOP.F         2628.0000:   STOP DEPTH
 STEP.F            0.5000:   STEP LENGTH
 NULL.          -999.2500:   NO VALUE
 COMP. FENIX & SCISSON INC:   COMPANY
 WELL.    25 SHX 11 #3-11:   WELL
 FLD .             TEAPOT:   FIELD
 LOC .      S11 T38N R78W:   LOCATION
 CNTY.            NATRONA:   COUNTY
 STAT.            WYOMING:   STATE
 CTRY. UNITED STATES OF AMERICA:   COUNTRY
 SRVC.              Welex:   SERVICE COMPANY
 DATE.        15-MAY-1980:   LOGDATE
 API .       490251081900:   API NUMBER
~CURVE INFORMATION
#MNEM.UNIT       API CODE    CURVE DESCRIPTION
#----------   ------------   ------------------------------
 DEPT.F                  :   
 CALD.IN     45 280 60 00:   CALIPER
 GRD .GAPI   45 310 01 00:   GAMMA RAY FROM DENSITY LOG
 RHOB.G/C3   45 350 01 00:   BULK DENSITY
 DPHI.DEC    45 890 12 00:   DENSITY POROSITY SANDSTONE
 CORR.G/C3   45 356 01 00:   DENSITY CORRECTION
~PARAMETER INFORMATION
#MNEM.UNIT          VALUE    DESCRIPTION
#----------   ------------   ------------------------------
 PD  .                 GL:   PERMANENT DATUM
 EPD .F              5163:   ELEVATION PERMANENT DATUM
 LMF .                 KB:   LOG MEASURED FROM
 DAPD.F                10:   FEET ABOVE PERMANENT DATUM
 DMF .                 KB:   DRILLING MEASURED FROM
 EKB .F              5173:   KELLING BUSHING
 EGL .F              5163:   GROUND LEVEL
 DATE.            5-15-80:   RUN DATE
 RUN .                  1:   RUN NUMBER
 DD  .F              2625:   DEPTH DRILLER
 DL  .F              2630:   DEPTH LOGGER
 BLI .F              2628:   BOTTOM LOG INTERVAL
 TLI .F               400:   TOP LOG INTERVAL
 CS  .IN            9.625:   CASING SIZE
 CBD .F               645:   CASING BOTTOM DRILLER
 BS  .IN             8.75:   BIT SIZE
 BSD .F              2625:   BIT SIZE AT DEPTH
 DFT .        AIR DRILLED:   DRILLING FLUID TYPE
 TCS .HRS               2:   TIME CURCULATED STOPPED
 MRT .F               116:   MAXIMUM RECORDED TEMPERATURE
 ENGI.            BENTSEN:   RECORDING ENGINEER
 WITN.           DINSMORE:   WITNESSED BY
 CLNT.            A2DTECH:   CLIENT CODE
 ORIG.           5" PRINT:   ORIGIN OF DATA
 UWI .       490251081900:   UNIQUE WELL ID
 DICO. A2D Technologies, Inc.:   DIGITIZING COMPANY
~OTHER INFORMATION
~A   DEPT     CALD         GRD      RHOB       DPHI       CORR   
# ...
 2464.0000     8.7527    95.7426     2.4731     0.0455     0.0162
 2464.5000     8.8042    95.3323     2.4633     0.0530     0.0053
 2465.0000     8.8390    95.6529     2.4895     0.0381     0.0240
 2465.5000     8.8438    97.0124     2.4893     0.0397     0.0337
 2466.0000     8.8603    97.9440     2.4989     0.0339     0.0345
 2466.5000     8.8766    97.0610     2.4933     0.0334     0.0374
 2467.0000     8.8929    95.5423     2.4672     0.0528     0.0196
 2467.5000     8.9091    94.0024     2.4568     0.0602     0.0069
 2468.0000     8.9193    93.3708     2.4714     0.0490     0.0071
 2468.5000     8.9193    93.0114     2.5018     0.0340     0.0182
 2469.0000     8.9126    92.6453     2.5305     0.0180     0.0376
 2469.5000     8.9044    92.2811     2.5441     0.0014     0.0543
 2470.0000     8.8961    91.9155     2.5438     0.0014     0.0506
 2470.5000     8.8878    91.7123     2.5354     0.0071     0.0415
 2471.0000     8.8797    91.5421     2.5265     0.0121     0.0325
 2471.5000     8.8711    91.3729     2.5148     0.0191     0.0238
 2472.0000     8.8611    91.2064     2.5032     0.0413     0.0277
 2472.5000     8.8012    91.0286     2.4944     0.0196     0.0291
 2473.0000     8.8103    90.6286     2.5014     0.0343     0.0189
 2473.5000     8.8242    89.2337     2.5162     0.0215     0.0437
 2474.0000     8.8369    89.1647     2.5247     0.0164     0.0500
 2474.5000     8.8342    90.5423     2.5071     0.0240     0.0372
 2475.0000     8.8164    91.9104     2.5126     0.0216     0.0398
 2475.5000     8.7985    93.3161     2.4892     0.0341     0.0244
 2476.0000     8.8160    93.9937     2.4659     0.0522     0.0069
 2476.5000     8.8414    93.9696     2.4674     0.0470     0.0226
 2477.0000     8.8671    94.4242     2.5066     0.0349     0.0381
 2477.5000     8.8486    95.0289     2.5192     0.0192     0.0534
 2478.0000     8.7940    95.6459     2.5164     0.0240     0.0476
 2478.5000     8.7612    96.0929     2.4958     0.0309     0.0343
 2479.0000     8.7899    96.1025     2.4645     0.0476     0.0014
 2479.5000     8.8170    96.1032     2.4586     0.0575    -0.0039
 2480.0000     8.8090    96.0954     2.4618     0.0562    -0.0001
 2480.5000     8.7824    96.4297     2.4573     0.0571     0.0034
 2481.0000     8.7930    96.8488     2.4632     0.0546     0.0057
 2481.5000     8.8182    97.0070     2.4690     0.0501     0.0088
 2482.0000     8.8391    96.7676     2.4717     0.0483     0.0068
 2482.5000     8.8142    95.4806     2.4710     0.0505    -0.0001
 2483.0000     8.7770    93.4050     2.4837     0.0399     0.0124
 2483.5000     8.8434    90.6216     2.4972     0.0342     0.0252
 2484.0000     8.9183    88.4619     2.5137     0.0240     0.0479
 2484.5000     8.9361    88.4985     2.5352     0.0080     0.0728
 2485.0000     8.9626    88.5609     2.5446     0.0034     0.0909
 2485.5000     8.9140    89.7013     2.5554    -0.0027     0.1128
 2486.0000     8.7932    90.8408     2.5582    -0.0071     0.1186
 2486.5000     8.6783    91.9757     2.5356     0.0041     0.0858
 2487.0000     8.6109    93.1133     2.5047     0.0202     0.0589
 2487.5000     8.6833    94.0044     2.4808     0.0380     0.0319
 2488.0000     8.7165    93.5357     2.4736     0.0490     0.0064
 2488.5000     8.7171    93.5299     2.4801     0.0409     0.0049
 2489.0000     8.7376    95.1470     2.4918     0.0383     0.0130
 2489.5000     8.7768    95.8221     2.5062     0.0293     0.0296
 2490.0000     8.8158    96.5128     2.5134     0.0244     0.0424
 2490.5000     8.8597    97.6100     2.5013     0.0264     0.0492
 2491.0000     8.8533    97.2744     2.5169     0.0213     0.0520
 2491.5000     8.8146    96.9648     2.5078     0.0255     0.0529
 2492.0000     8.7760    96.7043     2.4942     0.0367     0.0361
 2492.5000     8.7381    96.7052     2.4842     0.0443     0.0212
 2493.0000     8.7588    96.4592     2.4914     0.0383     0.0264
 2493.5000     8.7869    95.8201     2.5047     0.0300     0.0358
 2494.0000     8.7978    95.7958     2.5101     0.0248     0.0361
 2494.5000     8.7980    95.7076     2.4931     0.0367     0.0249
 2495.0000     8.7980    95.2114     2.4784     0.0450     0.0153
 2495.5000     8.7980    94.7227     2.4774     0.0399     0.0206
 2496.0000     8.7980    94.2398     2.4945     0.0365     0.0254
 2496.5000     8.7980    93.7645     2.4688     0.0498     0.0137
 2497.0000     8.7980    93.3851     2.4693     0.0490     0.0191
 2497.5000     8.8002    93.5072     2.5019     0.0315     0.0460
 2498.0000     8.8051    93.6314     2.5232     0.0175     0.0663
 2498.5000     8.8100    93.4873     2.5223     0.0179     0.0611
 2499.0000     8.8147    92.6652     2.5137     0.0219     0.0486
 2499.5000     8.8119    91.8712     2.5049     0.0273     0.0364
 2500.0000     8.7851    91.0782     2.5026     0.0320     0.0260
 2500.5000     8.7591    90.2800     2.5243     0.0183     0.0466
 2501.0000     8.7802    89.4533     2.5470     0.0058     0.0516
 2501.5000     8.8060    89.1903     2.5388     0.0010     0.0533
 2502.0000     8.7947    89.1648     2.5227     0.0167     0.0382
 2502.5000     8.7505    89.7262     2.5103     0.0252     0.0275
 2503.0000     8.7067    90.2011     2.5143     0.0244     0.0325
 2503.5000     8.6861    91.2961     2.5197     0.0218     0.0416
 2504.0000     8.7186    92.4174     2.5044     0.0196     0.0381
 2504.5000     8.7682    93.4731     2.4857     0.0388     0.0205
 2505.0000     8.7892    93.6661     2.4902     0.0380     0.0243
 2505.5000     8.8194    93.5372     2.4811     0.0421     0.0197
 2506.0000     8.8375    93.3901     2.4923     0.0341     0.0322
 2506.5000     8.8591    93.2425     2.4964     0.0392     0.0378
 2507.0000     8.8254    93.0998     2.4729     0.0487     0.0257
 2507.5000     8.7915    92.5561     2.4582     0.0567     0.0198
 2508.0000     8.7582    91.6975     2.4545     0.0567     0.0266
 2508.5000     8.7571    90.8322     2.4497     0.0616     0.0233
 2509.0000     8.8084    89.9655     2.4362     0.0700     0.0068
 2509.5000     8.8625    89.1511     2.4282     0.0744    -0.0004
 2510.0000     8.8590    89.7514     2.4424     0.0683     0.0131
 2510.5000     8.8282    90.0799     2.4608     0.0543     0.0264
 2511.0000     8.7978    89.4724     2.4701     0.0490     0.0398
 2511.5000     8.8330    90.9535     2.4637     0.0532     0.0390
 2512.0000     8.8752    92.7798     2.4679     0.0549     0.0485
 2512.5000     8.8944    92.2545     2.4611     0.0555     0.0650
 2513.0000     8.8835    91.2293     2.4703     0.0491     0.0806
 2513.5000     8.8727    90.8849     2.4744     0.0466     0.0989
 2514.0000     8.8627    89.9137     2.4703     0.0494     0.1113
 2514.5000     8.8146    88.9324     2.5066     0.0344     0.1412
 2515.0000     8.7506    88.8533     2.5445     0.0094     0.1932
 2515.5000     8.6855    89.3551     2.5576    -0.0014     0.1475
 2516.0000     8.6217    92.6346     2.5196     0.0126     0.0704
 2516.5000     8.6023    97.1000     2.4842     0.0384     0.0112
 2517.0000     8.7164   101.1246     2.4490     0.0638    -0.0039
 2517.5000     8.8265   103.6624     2.4289     0.0764    -0.0012
 2518.0000     8.8930   104.5991     2.4443     0.0764     0.0131
 2518.5000     8.8994   104.7758     2.4585     0.0579     0.0299
 2519.0000     8.8961   103.5470     2.4661     0.0535     0.0270
 2519.5000     8.8925   102.3101     2.4737     0.0488     0.0252
 2520.0000     8.8891   100.9237     2.4785     0.0458     0.0317
 2520.5000     8.8857   100.2605     2.4742     0.0482     0.0281
 2521.0000     8.8826   100.0490     2.4825     0.0428     0.0355
 2521.5000     8.8780   100.0643     2.4931     0.0369     0.0431
 2522.0000     8.8303    99.4001     2.4925     0.0377     0.0505
 2522.5000     8.7793    98.5623     2.4908     0.0329     0.0572
 2523.0000     8.7278    98.9605     2.4985     0.0325     0.0593
 2523.5000     8.6767    99.3628     2.4855     0.0407     0.0481
 2524.0000     8.6966    99.1251     2.4667     0.0498     0.0370
 2524.5000     8.6539    98.8979     2.4565     0.0600     0.0260
