~VERSION INFORMATION
 VERS.                2.0:   CWLS LOG ASCII STANDARD - VERSION 2.0
 WRAP.                 NO:   ONE LINE PER DEPTH STEP
~WELL INFORMATION
#MNEM.UNIT      DATA TYPE    INFORMATION
#----------   ------------   ------------------------------
 STRT.F            0.1000:   START DEPTH
 STOP.F          550.8000:   STOP DEPTH
 STEP.F            0.1000:   STEP LENGTH
 NULL.          -999.2500:   NO VALUE
 COMP.       F D SERV INC:   COMPANY
 WELL.  82-1 SX 10 #82-10:   WELL
 FLD .             TEAPOT:   FIELD
 LOC .      S10 T38N R78W:   LOCATION
 CNTY.            NATRONA:   COUNTY
 STAT.            WYOMING:   STATE
 CTRY. UNITED STATES OF AMERICA:   COUNTRY
 SRVC.     Atlas Wireline:   SERVICE COMPANY
 DATE.        11-DEC-1992:   LOGDATE
 API .       490252257600:   API NUMBER
~CURVE INFORMATION
#MNEM.UNIT       API CODE    CURVE DESCRIPTION
#----------   ------------   ------------------------------
 DEPT.F                  :   
 GRR .GAPI   07 310 01 00:   GAMMA RAY
 RILD.OHMM   07 120 46 00:   INDUCTION LOG DEEP RESISTIVITY
 RILM.OHMM   07 120 44 00:   INDUCTION LOG MEDIUM RESISTIVITY
~PARAMETER INFORMATION
#MNEM.UNIT          VALUE    DESCRIPTION
#----------   ------------   ------------------------------
 PD  .                 GL:   PERMANENT DATUM
 EPD .F              5136:   ELEVATION PERMANENT DATUM
 LMF .                 KB:   LOG MEASURED FROM
 DAPD.F                10:   FEET ABOVE PERMANENT DATUM
 DMF .                 KB:   DRILLING MEASURED FROM
 EKB .F              5146:   KELLING BUSHING
 EDF .F              5145:   DRILLING FLOOR
 EGL .F              5136:   GROUND LEVEL
 DATE.        11-DEC-1992:   RUN DATE
 RUN .                  1:   RUN NUMBER
 DD  .F               560:   DEPTH DRILLER
 DL  .F               560:   DEPTH LOGGER
 BLI .F               551:   BOTTOM LOG INTERVAL
 CS  .IN            8.625:   CASING SIZE
 CBD .F                53:   CASING BOTTOM DRILLER
 CBL .F                54:   CASING BOTTOM LOGGER
 BS  .IN            7.875:   BIT SIZE
 BSD .F               560:   BIT SIZE AT DEPTH
 DFT .           AIR FOAM:   DRILLING FLUID TYPE
 BHT .F                60:   BOTTOM HOLE TEMPERATURE
 MRT .F                60:   MAXIMUM RECORDED TEMPERATURE
 LUN .           HL- 6274:   LOGGING UNIT NUMBER
 LUL .             CASPER:   LOGGING UNIT LOCATION
 ENGI.       P. RASMUSSEN:   RECORDING ENGINEER
 WITN.          G. STRONG:   WITNESSED BY
 CLNT.            A2DTECH:   CLIENT CODE
 ORIG.           5" PRINT:   ORIGIN OF DATA
 UWI .       490252257600:   UNIQUE WELL ID
 DICO. A2D Technologies, Inc.:   DIGITIZING COMPANY
~OTHER INFORMATION
~A    DEPT      GRR      RILD       RILM   
# ...
  436.9000   103.2347    12.1455    12.2188
  437.0000   102.9352    12.1880    12.2190
  437.1000   102.7162    12.1883    12.2192
  437.2000   102.6334    12.1887    12.2193
  437.3000   102.5656    12.1890    12.2195
  437.4000   102.4357    12.1893    12.2197
  437.5000   102.3309    12.1897    12.2199
  437.6000   102.6390    12.1900    12.2200
  437.7000   102.9311    12.1904    12.1667
  437.8000   102.9305    12.1907    12.1362
  437.9000   103.1124    12.1910    12.1363
  438.0000   103.3704    12.1914    12.1365
  438.1000   103.6285    12.1076    12.1367
  438.2000   103.8865    12.1079    12.1368
  438.3000   104.1445    12.1082    12.1370
  438.4000   104.4306    12.1086    12.0828
  438.5000   104.6606    12.1089    12.0537
  438.6000   104.9187    12.0974    12.0539
  438.7000   105.3231    12.0260    12.0540
  438.8000   105.7356    12.0264    12.0542
  438.9000   105.9936    12.0267    12.0544
  439.0000   106.2516    12.0270    12.0545
  439.1000   106.5317    12.0273    12.0547
  439.2000   106.5311    12.0020    12.0112
  439.3000   106.7250    11.9449    11.9720
  439.4000   106.6783    11.9453    11.9721
  439.5000   106.5293    11.9457    11.9723
  439.6000   106.5287    11.9460    11.9725
  439.7000   106.5020    11.9463    11.9048
  439.8000   106.2267    11.9467    11.8903
  439.9000   105.9836    11.9470    11.8904
  440.0000   105.7243    11.9473    11.8906
  440.1000   105.6235    11.9477    11.8695
  440.2000   105.5066    11.9480    11.8090
  440.3000   105.2473    11.9483    11.8092
  440.4000   105.0201    11.8954    11.7280
  440.5000   105.0195    11.8665    11.7281
  440.6000   104.7703    11.8668    11.7283
  440.7000   104.5111    11.8484    11.6949
  440.8000   104.4162    11.7856    11.6478
  440.9000   104.2934    11.7859    11.6372
  441.0000   104.1143    11.7201    11.5678
  441.1000   104.0756    11.6507    11.5680
  441.2000   103.8123    11.5818    11.5682
  441.3000   103.8116    11.5132    11.5228
  441.4000   103.8111    11.4655    11.4888
  441.5000   103.6401    11.4658    11.4660
  441.6000   103.5092    11.4662    11.4099
  441.7000   103.4223    11.3874    11.4101
  441.8000   103.2072    11.3877    11.4103
  441.9000   103.2066    11.3880    11.3532
  442.0000   103.2059    11.3883    11.3319
  442.1000   102.9869    11.3886    11.3321
  442.2000   102.7276    11.3772    11.3322
  442.3000   102.6027    11.3106    11.3324
  442.4000   102.5099    11.3110    11.3325
  442.5000   102.3008    11.3113    11.3327
  442.6000   102.3001    11.3116    11.2749
  442.7000   102.2995    11.3119    11.2549
  442.8000   102.2989    11.3122    11.2551
  442.9000   102.4808    11.3125    11.2552
  443.0000   102.8791    11.3128    11.2554
  443.1000   103.3958    11.3132    11.2525
  443.2000   103.8565    11.2539    11.1782
  443.3000   104.1285    11.2357    11.1783
  443.4000   104.7013    11.2360    11.1784
  443.5000   104.9313    11.2363    11.1786
  443.6000   105.1893    11.2366    11.1788
  443.7000   105.4474    11.2369    11.1638
  443.8000   105.8098    11.2373    11.1020
  443.9000   106.2642    11.1761    11.1022
  444.0000   106.5023    11.1603    11.1023
  444.1000   106.2009    11.1606    11.1025
  444.2000   105.9637    11.1609    11.1026
  444.3000   105.7045    11.1612    11.1028
  444.4000   105.5976    11.1616    11.0868
  444.5000   105.4867    11.1619    11.0266
  444.6000   105.2956    11.0989    11.0268
  444.7000   105.2950    11.0854    11.0269
  444.8000   105.2944    11.0858    11.0271
  444.9000   105.2938    11.0861    11.0272
  445.0000   105.2932    11.0864    11.0274
  445.1000   105.2926    11.0867    11.0275
  445.2000   105.2920    11.0870    11.0277
  445.3000   105.2914    11.0873    11.0278
  445.4000   105.2588    11.0876    11.0280
  445.5000   104.9895    11.0879    11.0281
  445.6000   104.9889    11.0882    11.0283
  445.7000   104.9883    11.0885    11.0284
  445.8000   104.9877    11.0888    11.0286
  445.9000   104.9871    11.0891    11.0287
  446.0000   104.9865    11.0895    11.0289
  446.1000   104.9859    11.0897    11.0290
  446.2000   104.9853    11.0901    11.0811
  446.3000   104.9846    11.0904    11.1059
  446.4000   104.9841    11.1157    11.1366
  446.5000   105.1538    11.1681    11.1832
  446.6000   105.2836    11.1684    11.1924
  446.7000   105.3693    11.1687    11.2611
  446.8000   105.6273    11.1690    11.2613
  446.9000   105.8874    11.1693    11.2615
  447.0000   106.4841    11.1696    11.2616
  447.1000   106.9206    11.1699    11.2618
  447.2000   107.4374    11.1702    11.2619
  447.3000   107.8198    11.1705    11.2621
  447.4000   108.1700    11.1709    11.2622
  447.5000   108.6366    11.1711    11.2624
  447.6000   108.8947    11.1715    11.2625
  447.7000   109.1867    11.1718    11.2627
  447.8000   108.9616    11.1721    11.2629
  447.9000   108.7024    11.1724    11.2407
  448.0000   108.4431    11.1727    11.1855
  448.1000   108.1838    11.1730    11.1857
  448.2000   107.9808    11.1734    11.1859
  448.3000   107.9661    11.1736    11.1860
  448.4000   107.6787    11.1739    11.1862
  448.5000   107.4476    11.1742    11.1863
  448.6000   106.9999    11.1745    11.1632
  448.7000   106.4820    11.1749    11.1095
  448.8000   105.8599    11.1752    11.1097
  448.9000   105.2076    11.0984    11.1099
  449.0000   104.9484    11.0987    11.1100
  449.1000   104.6670    11.0990    11.1102
  449.2000   104.6665    11.0993    11.1103
  449.3000   104.6659    11.0996    11.1105
  449.4000   104.6653    11.0999    11.0971
  449.5000   104.6647    11.0981    11.0342
  449.6000   104.7322    11.0239    11.0344
  449.7000   104.9643    11.0242    11.0345
  449.8000   104.9636    11.0245    11.0347
  449.9000   105.4482    11.0248    11.0348
  450.0000   105.9648    10.9998    11.0350
  450.1000   106.3332    10.9420    11.0205
  450.2000   106.6077    10.9097    10.9592
  450.3000   106.8821    10.8744    10.9594
  450.4000   107.1566    10.8747    10.9596
  450.5000   107.4311    10.8750    10.9597
  450.6000   107.7056    10.8753    10.9599
  450.7000   108.0002    10.8756    10.9600
  450.8000   108.5569    10.8759    10.9602
  450.9000   108.7976    10.8762    10.9603
  451.0000   109.0567    10.8765    10.9605
  451.1000   108.9905    10.8768    10.9013
  451.2000   108.7278    10.8771    10.8852
  451.3000   108.3824    10.8774    10.8854
  451.4000   107.8590    10.8777    10.8582
  451.5000   107.3353    10.8590    10.8107
  451.6000   106.7378    10.8032    10.8108
  451.7000   106.2883    10.8035    10.8110
  451.8000   105.3966    10.8039    10.8111
  451.9000   104.4957    10.7984    10.7621
  452.0000   103.7114    10.7974    10.7369
  452.1000   102.9912    10.7239    10.7371
  452.2000   102.4677    10.6686    10.7196
  452.3000   101.9133    10.6499    10.6634
  452.4000   101.6662    10.6144    10.6635
  452.5000   101.6090    10.5764    10.6637
  452.6000   101.7728    10.5605    10.6142
  452.7000   101.9062    10.5034    10.5905
  452.8000   102.0760    10.5034    10.5618
  452.9000   102.5499    10.4440    10.5178
  453.0000   102.8091    10.4309    10.5097
  453.1000   103.1017    10.3911    10.4456
  453.2000   103.3271    10.3589    10.4458
  453.3000   103.7733    10.3383    10.4459
  453.4000   104.4403    10.2875    10.4064
  453.5000   105.3282    10.2875    10.3742
  453.6000   106.3698    10.2875    10.3744
  453.7000   107.3567    10.2875    10.3745
  453.8000   107.9013    10.2431    10.3746
  453.9000   108.6447    10.2165    10.3748
  454.0000   109.0085    10.2165    10.3244
  454.1000   109.2676    10.2165    10.2634
  454.2000   109.5266    10.2098    10.2327
  454.3000   109.7857    10.1460    10.2128
  454.4000   110.0447    10.1460    10.1625
  454.5000   110.3127    10.0972    10.2268
  454.6000   110.8942    10.0759    10.2062
  454.7000   111.1226    10.0759    10.1563
  454.8000   111.3816    10.0552    10.1563
  454.9000   111.4905    10.0064    10.1563
  455.0000   111.4887    10.0064    10.1563
