~VERSION INFORMATION
 VERS.                2.0:   CWLS LOG ASCII STANDARD - VERSION 2.0
 WRAP.                 NO:   ONE LINE PER DEPTH STEP
~WELL INFORMATION
#MNEM.UNIT      DATA TYPE    INFORMATION
#----------   ------------   ------------------------------
 STRT.F            2.0000:   START DEPTH
 STOP.F          592.0000:   STOP DEPTH
 STEP.F            0.1000:   STEP LENGTH
 NULL.          -999.2500:   NO VALUE
 COMP. BROWN JOHN E&C INC:   COMPANY
 WELL. NAVAL PETROLEUM RESERVE 3 SX-3 #73-3:   WELL
 FLD .             TEAPOT:   FIELD
 LOC .       S3 T38N R78W:   LOCATION
 CNTY.            NATRONA:   COUNTY
 STAT.            WYOMING:   STATE
 CTRY. UNITED STATES OF AMERICA:   COUNTRY
 SRVC.     Atlas Wireline:   SERVICE COMPANY
 DATE.        22-APR-1992:   LOGDATE
 API .       490252251000:   API NUMBER
~CURVE INFORMATION
#MNEM.UNIT       API CODE    CURVE DESCRIPTION
#----------   ------------   ------------------------------
 DEPT.F                  :   
 GRR .GAPI   07 310 01 00:   GAMMA RAY
 RILD.OHMM   07 120 46 00:   INDUCTION LOG DEEP RESISTIVITY
 RILM.OHMM   07 120 44 00:   INDUCTION LOG MEDIUM RESISTIVITY
~PARAMETER INFORMATION
#MNEM.UNIT          VALUE    DESCRIPTION
#----------   ------------   ------------------------------
 PD  .                 GL:   PERMANENT DATUM
 EPD .F              5148:   ELEVATION PERMANENT DATUM
 LMF .                 KB:   LOG MEASURED FROM
 DAPD.F                 5:   FEET ABOVE PERMANENT DATUM
 DMF .                 KB:   DRILLING MEASURED FROM
 EKB .F              5153:   KELLING BUSHING
 EDF .F              5152:   DRILLING FLOOR
 EGL .F              5148:   GROUND LEVEL
 DATE.        22-APR-1992:   RUN DATE
 RUN .                  1:   RUN NUMBER
 DD  .F               600:   DEPTH DRILLER
 DL  .F               601:   DEPTH LOGGER
 BLI .F               592:   BOTTOM LOG INTERVAL
 TLI .F                51:   TOP LOG INTERVAL
 CS  .IN            8.625:   CASING SIZE
 CBD .F                48:   CASING BOTTOM DRILLER
 CBL .F                51:   CASING BOTTOM LOGGER
 BS  .IN            7.875:   BIT SIZE
 BSD .F               600:   BIT SIZE AT DEPTH
 DFT .                AIR:   DRILLING FLUID TYPE
 LUN .            HL-5272:   LOGGING UNIT NUMBER
 LUL .             CASPER:   LOGGING UNIT LOCATION
 ENGI.       P. RAGMUSSEN:   RECORDING ENGINEER
 WITN.          G. STRONG:   WITNESSED BY
 CLNT.            A2DTECH:   CLIENT CODE
 ORIG.           5" PRINT:   ORIGIN OF DATA
 UWI .       490252251000:   UNIQUE WELL ID
 DICO. A2D Technologies, Inc.:   DIGITIZING COMPANY
~OTHER INFORMATION
~A    DEPT      GRR      RILD       RILM   
# ...
  529.8000   113.6850    10.9199    10.9964
  529.9000   114.0335    10.9210    10.9972
  530.0000   114.3820    10.9218    10.9981
  530.1000   114.7537    10.9227    10.9990
  530.2000   114.7560    10.9236    10.9999
  530.3000   114.7584    10.9245    11.0009
  530.4000   114.8766    10.9254    11.0018
  530.5000   115.2426    10.8652    11.0027
  530.6000   115.9860    10.8515    10.9717
  530.7000   117.2142    10.8524    10.9282
  530.8000   118.6338    10.8344    10.9291
  530.9000   119.5676    10.7788    10.9302
  531.0000   119.9035    10.7799    10.8799
  531.1000   119.9277    10.7287    10.8193
  531.2000   120.2103    10.6690    10.7816
  531.3000   120.2124    10.6095    10.7739
  531.4000   120.2148    10.5403    10.7086
  531.5000   120.2172    10.4154    10.6542
  531.6000   120.1787    10.3056    10.6360
  531.7000   119.9205    10.2315    10.6095
  531.8000   118.7748    10.1745    10.5504
  531.9000   117.3790    10.1178    10.4916
  532.0000   115.6767    10.0632    10.4925
  532.1000   113.8365    10.0643    10.4934
  532.2000   112.3687    10.0650    10.4943
  532.3000   110.9009    10.0329    10.4766
  532.4000   110.0089     9.9968    10.4231
  532.5000   109.4117     9.9976    10.4970
  532.6000   108.9239     9.9985    10.4470
  532.7000   108.4586     9.9993    10.4258
  532.8000   108.1825    10.0381    10.4267
  532.9000   108.1846    10.0708    10.4276
  533.0000   108.1870    10.0717    10.4285
  533.1000   108.1894    10.0725    10.4293
  533.2000   108.2337    10.0733    10.4301
  533.3000   108.4961    10.0742    10.4024
  533.4000   108.9591    10.0750    10.3595
  533.5000   109.4518    10.0758    10.3604
  533.6000   110.0621    10.0724    10.2895
  533.7000   110.8612    10.0078    10.2902
  533.8000   111.8437    10.0085    10.2579
  533.9000   112.8263    10.0093    10.2206
  534.0000   113.6166     9.9880    10.2148
  534.1000   114.3544     9.9414    10.1514
  534.2000   115.0123     9.9424    10.1014
  534.3000   115.4582     9.8905    10.0826
  534.4000   115.4610     9.8751    10.0348
  534.5000   115.2509     9.8490     9.9336
  534.6000   115.1638     9.7941     9.8767
  534.7000   115.0670     9.7394     9.8233
  534.8000   114.8246     9.6743     9.7686
  534.9000   114.5679     9.6312     9.7142
  535.0000   114.1074     9.5775     9.6601
  535.1000   113.7943     9.5242     9.6094
  535.2000   113.5515     9.4711     9.6104
  535.3000   113.3089     9.4125     9.5660
  535.4000   113.0663     9.3659     9.5452
  535.5000   112.8235     9.3137     9.5259
  535.6000   112.7747     9.2846     9.4728
  535.7000   112.6396     9.2854     9.4156
  535.8000   112.4778     9.2862     9.4163
  535.9000   112.5046     9.2355     9.3806
  536.0000   112.7846     9.1840     9.3043
  536.1000   112.7867     9.1328     9.2121
  536.2000   112.9455     9.0972     9.1607
  536.3000   113.1930     9.0945     9.1098
  536.4000   113.4840     9.0358     9.0197
  536.5000   114.0031     8.9934     8.9462
  536.6000   114.2375     8.9433     8.8963
  536.7000   114.6603     8.8741     8.8468
  536.8000   115.0342     8.7825     8.7906
  536.9000   115.3442     8.7302     8.7062
  537.0000   115.8367     8.6849     8.6395
  537.1000   116.3302     8.6022     8.6109
  537.2000   116.8225     8.5288     8.6032
  537.3000   117.5912     8.4813     8.5527
  537.4000   118.4930     8.4339     8.4623
  537.5000   119.2312     8.3870     8.4016
  537.6000   120.0631     8.3028     8.3548
  537.7000   120.7069     8.2099     8.2842
  537.8000   121.4446     8.1180     8.1464
  537.9000   122.0816     8.0219     8.0373
  538.0000   122.6189     7.8718     7.9652
  538.1000   123.3932     7.7164     7.8508
  538.2000   123.8612     7.5721     7.7191
  538.3000   124.1776     7.4449     7.5894
  538.4000   124.4252     7.3280     7.4479
  538.5000   124.5459     7.2439     7.3371
  538.6000   124.3033     7.1255     7.1875
  538.7000   124.0605     6.9766     7.0102
  538.8000   123.8178     6.8406     6.8221
  538.9000   123.7140     6.7039     6.6656
  539.0000   123.6340     6.5120     6.5209
  539.1000   123.4169     6.2184     6.3755
  539.2000   123.4199     6.1023     6.2332
  539.3000   123.4220     5.9661     6.0938
  539.4000   123.4244     5.8576     5.9574
  539.5000   123.4268     5.7868     5.8022
  539.6000   123.4743     5.6827     5.7482
  539.7000   123.7334     5.6533     5.6839
  539.8000   124.2027     5.6218     5.6322
  539.9000   124.6959     5.5905     5.6008
  540.0000   125.3097     5.5670     5.5671
  540.1000   125.9831     5.5675     5.5386
  540.2000   126.4984     5.5680     5.5510
  540.3000   127.9715     5.5935     5.5684
  540.4000   129.3476     5.6078     5.5689
  540.5000   132.0450     5.6190     5.5695
  540.6000   135.6469     5.6480     5.6017
  540.7000   139.3830     5.6485     5.6092
  540.8000   141.8597     5.6489     5.6271
  540.9000   142.5082     5.6493     5.6596
  541.0000   142.9282     5.6498     5.6893
  541.1000   143.0733     5.6503     5.6898
  541.2000   143.0757     5.6508     5.7462
  541.3000   143.0782     5.6513     5.7913
  541.4000   143.0805     5.6517     5.8381
  541.5000   142.9050     5.6522     5.9051
  541.6000   142.5407     5.6526     5.9764
  541.7000   142.0530     5.6551     6.0091
  541.8000   141.5482     5.6932     6.0685
  541.9000   140.3781     5.6936     6.1555
  542.0000   138.9999     5.7137     6.2521
  542.1000   137.4270     5.7466     6.3225
  542.2000   135.9592     5.7848     6.3661
  542.3000   134.5186     5.8563     6.4547
  542.4000   133.1502     5.8876     6.5659
  542.5000   132.0718     5.9451     6.6789
  542.6000   130.3706     5.9974     6.7892
  542.7000   128.7203     6.0486     6.8756
  542.8000   127.2145     6.1518     6.9815
  542.9000   124.4140     6.1873     7.1018
  543.0000   122.7695     6.2790     7.2241
  543.1000   121.5919     6.3873     7.3484
  543.2000   120.1244     6.5098     7.4778
  543.3000   118.2318     6.6594     7.6463
  543.4000   116.4892     6.8319     7.8226
  543.5000   113.5691     6.9701     7.9788
  543.6000   112.1852     7.1043     8.1298
  543.7000   111.1789     7.2267     8.3133
  543.8000   110.7761     7.3594     8.4804
  543.9000   110.5333     7.5344     8.5618
  544.0000   110.2627     7.6601     8.6601
  544.1000   110.4819     7.7923     8.7407
  544.2000   110.5689     7.9267     8.7910
  544.3000   110.7792     8.0502     8.8458
  544.4000   111.3196     8.1426     8.8928
  544.5000   112.0846     8.2523     8.9090
  544.6000   112.7950     8.3310     8.9097
  544.7000   113.8919     8.3980     8.9105
  544.8000   114.8743     8.4645     8.9112
  544.9000   115.4790     8.5545     8.9119
  545.0000   115.7164     8.6079     8.9127
  545.1000   115.7193     8.6535     8.9413
  545.2000   115.5226     8.7034     8.9764
  545.3000   115.1378     8.7536     8.9819
  545.4000   114.6502     8.8041     9.0408
  545.5000   114.1623     8.8546     9.0859
  545.6000   113.6196     8.8553     9.1054
  545.7000   113.1860     8.8954     9.1272
  545.8000   112.8594     8.9187     9.1798
  545.9000   112.6166     8.9360     9.2354
  546.0000   112.3741     8.9875     9.2861
  546.1000   112.1232     9.0461     9.3396
  546.2000   111.8886     9.0916     9.3934
  546.3000   111.6458     9.1440     9.4476
  546.4000   111.5270     9.1968     9.5001
  546.5000   111.4619     9.2498     9.5011
  546.6000   111.2301     9.3053     9.5893
  546.7000   111.5347     9.3570     9.6357
  546.8000   111.7361     9.3719     9.6557
  546.9000   111.9837     9.3996     9.7114
  547.0000   112.2312     9.4389     9.7734
  547.1000   112.5384     9.4424     9.7741
  547.2000   113.3565     9.5066     9.8119
  547.3000   114.0143     9.5518     9.8685
  547.4000   114.9141     9.6070     9.9136
  547.5000   116.6061     9.6422     9.9145
  547.6000   117.1015     9.6508     9.9705
  547.7000   117.5971     9.7112     9.9854
  547.8000   118.2261     9.7625    10.0159
  547.9000   119.0446     9.7807    10.0568
