~VERSION INFORMATION
 VERS.                2.0:   CWLS LOG ASCII STANDARD - VERSION 2.0
 WRAP.                 NO:   ONE LINE PER DEPTH STEP
~WELL INFORMATION
#MNEM.UNIT      DATA TYPE    INFORMATION
#----------   ------------   ------------------------------
 STRT.F           20.0000:   START DEPTH
 STOP.F          468.0000:   STOP DEPTH
 STEP.F            0.1000:   STEP LENGTH
 NULL.          -999.2500:   NO VALUE
 COMP. LAWRENCE/ALLISON INC:   COMPANY
 WELL.    63-51 SX #10-10:   WELL
 FLD .             TEAPOT:   FIELD
 LOC .      S10 T38N R78W:   LOCATION
 CNTY.            NATRONA:   COUNTY
 STAT.            WYOMING:   STATE
 CTRY. UNITED STATES OF AMERICA:   COUNTRY
 SRVC.           Gearhart:   SERVICE COMPANY
 DATE.        01-OCT-1988:   LOGDATE
 API .       490251125100:   API NUMBER
~CURVE INFORMATION
#MNEM.UNIT       API CODE    CURVE DESCRIPTION
#----------   ------------   ------------------------------
 DEPT.F                  :   
 GRR .GAPI   07 310 01 00:   GAMMA RAY
 RILD.OHMM   07 120 46 00:   INDUCTION LOG DEEP RESISTIVITY
 RILM.OHMM   07 120 44 00:   INDUCTION LOG MEDIUM RESISTIVITY
~PARAMETER INFORMATION
#MNEM.UNIT          VALUE    DESCRIPTION
#----------   ------------   ------------------------------
 PD  .                 GL:   PERMANENT DATUM
 EPD .F              5157:   ELEVATION PERMANENT DATUM
 LMF .                 KB:   LOG MEASURED FROM
 DAPD.F                 5:   FEET ABOVE PERMANENT DATUM
 DMF .                 KB:   DRILLING MEASURED FROM
 EKB .F              5162:   KELLING BUSHING
 EGL .F              5157:   GROUND LEVEL
 DATE.        01-OCT-1988:   RUN DATE
 RUN .                  1:   RUN NUMBER
 DD  .F               475:   DEPTH DRILLER
 DL  .F               476:   DEPTH LOGGER
 BLI .F               468:   BOTTOM LOG INTERVAL
 TLI .F                20:   TOP LOG INTERVAL
 CS  .IN            9.625:   CASING SIZE
 CBD .F                45:   CASING BOTTOM DRILLER
 CBL .F                46:   CASING BOTTOM LOGGER
 BS  .IN             7.87:   BIT SIZE
 BSD .F               475:   BIT SIZE AT DEPTH
 TLAB.HRS            1630:   TIME LOGGER AT BOTTOM
 MRT .F                75:   MAXIMUM RECORDED TEMPERATURE
 LUN .               7597:   LOGGING UNIT NUMBER
 LUL .           GILLETTE:   LOGGING UNIT LOCATION
 ENGI.              BENCK:   RECORDING ENGINEER
 WITN.             STRONG:   WITNESSED BY
 CLNT.            A2DTECH:   CLIENT CODE
 ORIG.           5" PRINT:   ORIGIN OF DATA
 UWI .       490251125100:   UNIQUE WELL ID
 DICO. A2D Technologies, Inc.:   DIGITIZING COMPANY
~OTHER INFORMATION
~A   DEPT       GRR      RILD       RILM   
# ...
  347.6000    96.9650    21.0655    20.5201
  347.7000    97.3392    20.9448    20.4159
  347.8000    97.6965    20.8044    20.2989
  347.9000    97.7070    20.8039    20.2305
  348.0000    98.0032    20.7331    20.2088
  348.1000    98.2015    20.6144    20.0867
  348.2000    98.3096    20.5106    20.0859
  348.3000    98.3102    20.5100    20.0039
  348.4000    98.2451    20.4060    19.8893
  348.5000    97.3955    20.3646    19.8023
  348.6000    96.7659    20.3159    19.8014
  348.7000    96.1777    20.2203    19.8006
  348.8000    95.4992    20.2197    19.7134
  348.9000    94.5470    20.2192    19.6599
  349.0000    93.7344    20.1371    19.6591
  349.1000    93.0682    20.0758    19.6514
  349.2000    92.3285    20.0482    19.5192
  349.3000    91.5889    19.9335    19.5185
  349.4000    90.8959    19.9329    19.5177
  349.5000    90.3787    19.9324    19.5169
  349.6000    89.4410    19.8716    19.5160
  349.7000    88.8067    19.7910    19.5151
  349.8000    88.3139    19.7838    19.5144
  349.9000    87.8916    19.6507    19.5136
  350.0000    87.6960    19.6498    19.5265
  350.1000    87.5004    19.6488    19.5589
  350.2000    87.3048    19.6477    19.5914
  350.3000    87.1092    19.6467    19.6239
  350.4000    86.9136    19.6456    19.6474
  350.5000    86.7206    19.6445    19.6438
  350.6000    86.9692    19.6435    19.5321
  350.7000    87.2147    19.6424    19.5070
  350.8000    87.4602    19.6414    19.5062
  350.9000    87.7057    19.6401    19.5053
  351.0000    87.9511    19.5406    19.5045
  351.1000    88.1966    19.4999    19.5035
  351.2000    88.6327    19.4545    19.4141
  351.3000    88.9930    19.3605    19.3650
  351.4000    89.3080    19.3594    19.3294
  351.5000    89.7988    19.2581    19.2274
  351.6000    90.2891    19.2211    19.2265
  351.7000    90.3920    19.2201    19.2258
  351.8000    90.5258    19.1987    19.1613
  351.9000    90.7713    19.0827    19.0892
  352.0000    91.0168    19.0816    19.0778
  352.1000    91.3107    19.0806    18.9535
  352.2000    91.3111    19.0300    18.9528
  352.3000    91.3118    18.9211    18.9520
  352.4000    91.2367    18.8099    18.9118
  352.5000    91.0076    18.8089    18.8173
  352.6000    91.0084    18.7300    18.8164
  352.7000    90.8092    18.6745    18.7221
  352.8000    90.5648    18.6476    18.6156
  352.9000    90.3205    18.5411    18.5508
  353.0000    90.0763    18.5401    18.5344
  353.1000    89.7900    18.5390    18.4189
  353.2000    89.5878    18.5380    18.4182
  353.3000    89.3436    18.5082    18.4174
  353.4000    89.0993    18.4023    18.3732
  353.5000    88.8550    18.2970    18.2686
  353.6000    88.5717    18.2740    18.1573
  353.7000    88.3665    18.2729    18.1566
  353.8000    88.2675    18.2406    18.0855
  353.9000    88.2681    18.1362    17.9825
  354.0000    88.2687    18.0136    17.9002
  354.1000    88.2694    18.0127    17.8994
  354.2000    88.4788    18.0117    17.8987
  354.3000    88.5759    17.9769    17.8261
  354.4000    88.5765    17.8740    17.7246
  354.5000    88.6045    17.7561    17.6237
  354.6000    88.8831    17.7553    17.5213
  354.7000    89.0955    17.6936    17.5206
  354.8000    89.1896    17.6284    17.4470
  354.9000    89.1902    17.6156    17.3960
  355.0000    89.2215    17.5023    17.3466
  355.1000    89.4969    17.5015    17.1507
  355.2000    89.7124    17.5005    17.0531
  355.3000    89.8034    17.4609    17.0293
  355.4000    89.8980    17.3755    16.9789
  355.5000    90.1434    17.3744    16.9083
  355.6000    90.4159    17.2845    16.9076
  355.7000    90.4165    17.1857    16.9069
  355.8000    90.5745    17.1280    16.7566
  355.9000    90.8201    17.1100    16.6178
  356.0000    91.0290    17.0056    16.5511
  356.1000    91.0297    17.0047    16.5452
  356.2000    91.0302    17.0037    16.4333
  356.3000    91.1914    16.9597    16.4328
  356.4000    91.3368    16.8626    16.3795
  356.5000    91.3374    16.7625    16.2862
  356.6000    91.3381    16.6703    16.1934
  356.7000    91.1146    16.6428    16.0862
  356.8000    91.0339    16.5969    16.0097
  356.9000    90.8278    16.5239    15.9720
  357.0000    90.4243    16.5229    15.9713
  357.1000    90.4251    16.5220    15.9613
  357.2000    89.9712    16.4510    15.8577
  357.3000    89.6489    16.3570    15.7801
  357.4000    89.4046    16.2634    15.7451
  357.5000    89.1145    16.1722    15.7113
  357.6000    88.5961    16.1713    15.6218
  357.7000    88.1363    16.1704    15.5227
  357.8000    87.6472    16.1205    15.5221
  357.9000    87.1581    16.0548    15.5215
  358.0000    86.6689    16.0540    15.4860
  358.1000    86.1564    16.0529    15.3978
  358.2000    85.6902    16.0521    15.3023
  358.3000    85.2011    16.0000    15.3017
  358.4000    84.7120    15.9084    15.2434
  358.5000    84.2748    15.8244    15.1566
  358.6000    84.0220    15.8234    15.0856
  358.7000    84.0226    15.7478    15.0849
  358.8000    84.1990    15.7105    15.0844
  358.9000    84.3292    15.7096    15.0248
  359.0000    84.4399    15.7087    14.9393
  359.1000    84.9411    15.7077    14.8714
  359.2000    85.4203    15.6301    14.8707
  359.3000    85.7319    15.5956    14.7895
  359.4000    86.0960    15.5948    14.7053
  359.5000    86.5283    15.5939    14.6607
  359.6000    86.7762    15.5929    14.6602
  359.7000    87.2616    15.5921    14.6595
  359.8000    87.5700    15.5912    14.5774
  359.9000    87.8155    15.5543    14.4944
  360.0000    88.1220    15.4799    14.4525
  360.1000    88.6128    15.4789    14.4312
  360.2000    89.1031    15.4781    14.3498
  360.3000    89.4084    15.4772    14.3492
  360.4000    89.6539    15.4380    14.2866
  360.5000    89.9635    15.3666    14.2473
  360.6000    90.4464    15.3657    14.2466
  360.7000    90.4471    15.3649    14.2433
  360.8000    90.8237    15.3640    14.1622
  360.9000    91.3141    15.3631    14.1448
  361.0000    91.7374    15.3428    14.1442
  361.1000    91.9895    15.2533    14.1193
  361.2000    92.4798    15.2525    14.0437
  361.3000    92.7793    15.2516    14.0430
  361.4000    93.0248    15.2508    14.0425
  361.5000    93.2702    15.2499    14.0419
  361.6000    93.5255    15.2491    14.0413
  361.7000    94.0159    15.2482    14.0407
  361.8000    94.3121    15.1812    14.0400
  361.9000    94.5575    15.1392    14.0395
  362.0000    94.8762    15.1384    14.0390
  362.1000    95.3410    15.1376    14.0384
  362.2000    95.3418    15.1367    14.0377
  362.3000    95.7368    15.1358    14.0371
  362.4000    95.9536    15.1350    14.0365
  362.5000    96.0306    15.1341    14.0359
  362.6000    96.2601    15.1332    14.0354
  362.7000    95.9555    15.1323    14.0348
  362.8000    95.9560    15.1316    14.0341
  362.9000    95.8168    15.1307    14.0336
  363.0000    95.5725    15.1298    14.0330
  363.1000    95.3282    15.1290    14.0324
  363.2000    95.0425    15.1280    14.0318
  363.3000    94.8396    15.1273    14.0312
  363.4000    94.4524    15.1265    14.0306
  363.5000    94.0457    15.1256    14.0300
  363.6000    93.7795    15.1139    14.0295
  363.7000    93.2135    15.0174    14.0289
  363.8000    93.0076    15.0167    14.0282
  363.9000    92.6174    15.0158    14.0277
  364.0000    92.1283    14.9812    14.0271
  364.1000    91.6393    14.9086    14.0265
  364.2000    91.0792    14.9076    14.0259
  364.3000    90.6607    14.9069    14.0253
  364.4000    90.1714    14.9060    13.9483
  364.5000    89.7709    14.8691    13.9256
  364.6000    89.5266    14.7995    13.9250
  364.7000    89.2502    14.7986    13.9245
  364.8000    88.8256    14.7190    13.9239
  364.9000    88.4885    14.6929    13.9233
  365.0000    88.3359    14.6921    13.9227
  365.1000    88.3676    14.6912    13.9221
  365.2000    88.6425    14.6904    13.9215
  365.3000    89.2895    14.6896    13.9197
  365.4000    90.3353    14.6888    13.8406
  365.5000    91.4660    14.6476    13.8220
  365.6000    92.4461    14.5838    13.8214
  365.7000    93.5311    14.5830    13.8208
