~VERSION INFORMATION
 VERS.                2.0:   CWLS LOG ASCII STANDARD - VERSION 2.0
 WRAP.                 NO:   ONE LINE PER DEPTH STEP
~WELL INFORMATION
#MNEM.UNIT      DATA TYPE    INFORMATION
#----------   ------------   ------------------------------
 STRT.F           14.0000:   START DEPTH
 STOP.F          513.0000:   STOP DEPTH
 STEP.F            0.1000:   STEP LENGTH
 NULL.          -999.2500:   NO VALUE
 COMP.       F D SERV INC:   COMPANY
 WELL.    52-1 SX-3 #52-3:   WELL
 FLD .             TEAPOT:   FIELD
 LOC .       S3 T38N R78W:   LOCATION
 CNTY.            NATRONA:   COUNTY
 STAT.            WYOMING:   STATE
 CTRY. UNITED STATES OF AMERICA:   COUNTRY
 SRVC.     Atlas Wireline:   SERVICE COMPANY
 DATE.        21-APR-1992:   LOGDATE
 API .       490252251400:   API NUMBER
~CURVE INFORMATION
#MNEM.UNIT       API CODE    CURVE DESCRIPTION
#----------   ------------   ------------------------------
 DEPT.F                  :   
 GRR .GAPI   07 310 01 00:   GAMMA RAY
 RILD.OHMM   07 120 46 00:   INDUCTION LOG DEEP RESISTIVITY
 RILM.OHMM   07 120 44 00:   INDUCTION LOG MEDIUM RESISTIVITY
~PARAMETER INFORMATION
#MNEM.UNIT          VALUE    DESCRIPTION
#----------   ------------   ------------------------------
 PD  .                 GL:   PERMANENT DATUM
 EPD .F              5115:   ELEVATION PERMANENT DATUM
 LMF .                 KB:   LOG MEASURED FROM
 DAPD.F                 5:   FEET ABOVE PERMANENT DATUM
 DMF .                 KB:   DRILLING MEASURED FROM
 EKB .F              5120:   KELLING BUSHING
 EDF .F              5119:   DRILLING FLOOR
 EGL .F              5115:   GROUND LEVEL
 DATE.        21-APR-1992:   RUN DATE
 RUN .                  1:   RUN NUMBER
 DD  .F               515:   DEPTH DRILLER
 DL  .F               520:   DEPTH LOGGER
 BLI .F               517:   BOTTOM LOG INTERVAL
 TLI .F                50:   TOP LOG INTERVAL
 CS  .IN            9.625:   CASING SIZE
 CBD .F                45:   CASING BOTTOM DRILLER
 CBL .F                50:   CASING BOTTOM LOGGER
 BS  .IN            7.875:   BIT SIZE
 BSD .F               515:   BIT SIZE AT DEPTH
 DFT .                AIR:   DRILLING FLUID TYPE
 LUN .            HL-6272:   LOGGING UNIT NUMBER
 LUL .             CASPER:   LOGGING UNIT LOCATION
 ENGI.       P. RASMUSSEN:   RECORDING ENGINEER
 WITN.          G. STRONG:   WITNESSED BY
 CLNT.            A2DTECH:   CLIENT CODE
 ORIG.           5" PRINT:   ORIGIN OF DATA
 UWI .       490252251400:   UNIQUE WELL ID
 DICO. A2D Technologies, Inc.:   DIGITIZING COMPANY
~OTHER INFORMATION
~A   DEPT      GRR       RILD       RILM   
# ...
  396.2000    98.7493    17.5596    16.1894
  396.3000    98.0031    17.9117    16.5623
  396.4000    97.2569    18.2617    16.9434
  396.5000    96.4591    18.6846    17.3606
  396.6000    95.5335    19.1169    17.7341
  396.7000    94.7160    19.5815    18.1434
  396.8000    93.9698    20.1575    18.6149
  396.9000    93.2919    20.7349    19.1522
  397.0000    92.7936    21.2428    19.7310
  397.1000    92.2147    21.6647    20.9412
  397.2000    92.0049    22.0832    21.4502
  397.3000    91.9082    22.5767    22.2305
  397.4000    91.8062    23.0020    22.9725
  397.5000    91.6012    23.4882    23.5263
  397.6000    91.5987    24.0324    24.2292
  397.7000    91.5964    24.5198    24.6325
  397.8000    91.4090    24.9826    25.1653
  397.9000    91.1587    25.5675    25.7455
  398.0000    90.9083    26.4311    26.3383
  398.1000    90.6356    26.9452    26.9442
  398.2000    90.0734    27.4697    27.6454
  398.3000    89.6391    28.0113    27.9216
  398.4000    89.1408    28.6915    28.2413
  398.5000    88.5348    29.5390    28.5645
  398.6000    87.7350    30.2105    28.8912
  398.7000    86.7384    30.7743    29.2224
  398.8000    85.2522    31.3069    29.3884
  398.9000    83.7622    31.7862    29.6879
  399.0000    82.2720    32.1739    29.8357
  399.1000    80.7818    32.7823    29.8932
  399.2000    79.3531    33.1244    30.0422
  399.3000    78.2644    33.5053    30.0412
  399.4000    77.5892    33.8903    30.0404
  399.5000    76.8429    34.2275    30.0396
  399.6000    76.2126    34.4230    30.0388
  399.7000    75.7762    34.6525    30.0379
  399.8000    75.5259    34.4868    30.0371
  399.9000    75.2285    34.2889    30.0361
  400.0000    75.2266    34.0932    29.8274
  400.1000    75.5755    33.8658    29.8286
  400.2000    76.1647    33.4672    29.6993
  400.3000    76.5649    33.2878    29.6245
  400.4000    76.8097    33.2370    29.5715
  400.5000    77.0544    33.1442    29.4054
  400.6000    77.3303    32.9578    29.2193
  400.7000    77.3287    32.7724    29.0762
  400.8000    77.4864    32.5544    29.0191
  400.9000    77.8352    32.4049    28.9512
  401.0000    78.2780    32.3303    28.7885
  401.1000    78.5299    32.3312    28.6221
  401.2000    78.5281    32.3321    28.4662
  401.3000    78.5263    32.3331    28.3064
  401.4000    78.5245    32.3339    28.2304
  401.5000    78.5227    32.3348    28.1847
  401.6000    78.5209    32.3357    28.0263
  401.7000    78.5188    32.3366    27.8443
  401.8000    78.5172    32.3375    27.7126
  401.9000    78.5154    32.3384    27.5570
  402.0000    78.6103    32.3393    27.4632
  402.1000    78.8142    32.3402    27.4643
  402.2000    78.8120    32.3411    27.4655
  402.3000    79.2743    32.3420    27.3205
  402.4000    79.4127    32.3430    27.1672
  402.5000    79.5317    32.3438    27.0897
  402.6000    79.8417    32.3447    27.0503
  402.7000    80.3329    32.3456    26.8983
  402.8000    80.9157    32.3465    26.7192
  402.9000    81.5159    32.3475    26.7201
  403.0000    82.2536    32.3483    26.7212
  403.1000    83.0808    32.3492    26.7223
  403.2000    84.0314    32.3501    26.7235
  403.3000    84.8343    32.3510    26.7247
  403.4000    85.5070    32.3519    26.7257
  403.5000    85.9063    32.3530    26.9363
  403.6000    86.1511    32.3537    27.1732
  403.7000    86.3378    32.3546    27.3288
  403.8000    86.3335    32.3555    27.4885
  403.9000    86.0852    32.3564    27.9622
  404.0000    85.8369    32.3574    28.1906
  404.1000    85.5886    32.3582    28.4427
  404.2000    85.2581    32.2359    28.7134
  404.3000    84.7631    32.1357    28.8779
  404.4000    84.2101    32.1366    29.0629
  404.5000    83.3383    32.1375    29.3569
  404.6000    82.3504    32.1384    29.5823
  404.7000    81.3624    32.0005    29.7517
  404.8000    80.3744    31.9174    29.9222
  404.9000    79.3673    31.9182    30.0969
  405.0000    78.3987    31.9044    30.2661
  405.1000    77.5970    31.6989    30.3093
  405.2000    76.7252    31.6996    30.3106
  405.3000    75.8122    31.7005    30.2598
  405.4000    75.0900    31.6299    30.1030
  405.5000    74.5224    31.4824    30.1046
  405.6000    74.1003    31.4834    30.1057
  405.7000    73.7602    31.4843    30.0001
  405.8000    73.6109    31.3576    29.8317
  405.9000    73.6526    31.1813    29.6641
  406.0000    73.9093    31.0059    29.4893
  406.1000    74.1420    30.8314    29.1746
  406.2000    74.5656    30.6247    28.9653
  406.3000    74.9335    30.4858    28.7216
  406.4000    75.3136    30.3144    28.4425
  406.5000    76.0635    30.0843    28.2749
  406.6000    77.2214    29.7873    27.9013
  406.7000    78.8440    29.7883    27.6434
  406.8000    79.6350    29.4884    27.3327
  406.9000    79.6332    29.1570    27.0255
  407.0000    79.5952    28.9009    26.7436
  407.1000    79.3273    28.7037    26.5816
  407.2000    78.8712    28.3764    26.3067
  407.3000    78.3764    28.2191    26.1136
  407.4000    77.8816    27.8212    25.8299
  407.5000    77.4471    27.4347    25.4646
  407.6000    77.1988    27.0800    25.3159
  407.7000    76.9504    26.6349    24.8905
  407.8000    76.7021    26.2905    24.6925
  407.9000    76.5940    25.9154    24.3972
  408.0000    76.6767    25.4794    24.0324
  408.1000    76.9214    25.1058    23.7464
  408.2000    77.1926    24.8233    23.3036
  408.3000    77.6308    24.5271    22.9544
  408.4000    78.9438    24.1402    22.5682
  408.5000    80.8854    23.9253    22.2432
  408.6000    82.8363    23.6616    21.9402
  408.7000    83.8302    23.3301    21.4430
  408.8000    85.5374    23.1988    21.2047
  408.9000    88.0153    23.0426    20.9665
  409.0000    89.7945    22.8351    20.7940
  409.1000    90.6241    22.6516    20.6772
  409.2000    91.0721    22.4803    20.5611
  409.3000    90.4656    22.2422    20.4298
  409.4000    90.2514    22.1036    20.3309
  409.5000    89.6889    21.9928    20.2899
  409.6000    89.1505    21.8692    20.2907
  409.7000    88.8561    21.8000    20.2916
  409.8000    88.3419    21.7748    20.2924
  409.9000    88.3402    21.6501    20.2932
  410.0000    88.3384    21.5306    20.2941
  410.1000    88.5879    21.5012    20.2949
  410.2000    89.0791    21.5018    20.2958
  410.3000    89.5993    21.5024    20.2966
  410.4000    90.7477    21.4942    20.2976
  410.5000    91.9789    21.3546    20.2983
  410.6000    93.1565    21.3551    20.2992
  410.7000    94.2349    21.3557    20.3000
  410.8000    95.5429    21.3563    20.3009
  410.9000    97.3854    21.3569    20.3018
  411.0000    98.3022    21.3575    20.3026
  411.1000    99.2866    21.2453    20.3034
  411.2000    99.6785    21.2106    20.2491
  411.3000    99.3674    21.1537    20.1644
  411.4000    98.8870    21.0347    20.1653
  411.5000    98.8848    20.9193    20.1663
  411.6000    98.6852    20.9199    20.1670
  411.7000    98.1516    20.8263    20.1678
  411.8000    97.6713    20.7760    20.1686
  411.9000    97.6067    20.7766    20.1695
  412.0000    97.0633    20.7637    20.1704
  412.1000    96.6170    20.6338    20.0683
  412.2000    96.1221    20.6343    20.0323
  412.3000    95.6272    20.5580    20.0331
  412.4000    95.0767    20.4423    20.0340
  412.5000    94.3354    20.3509    20.0348
  412.6000    93.8404    20.3514    20.0356
  412.7000    93.1546    20.3520    19.9487
  412.8000    92.2779    20.3526    19.8985
  412.9000    91.2900    20.2931    19.8993
  413.0000    90.3022    20.2126    19.9002
  413.1000    89.1883    20.2132    19.9011
  413.2000    88.3263    20.2138    19.9018
  413.3000    87.6574    20.2143    19.9026
  413.4000    87.1626    20.2148    19.8561
  413.5000    86.7644    20.2154    19.7663
  413.6000    86.7625    20.2160    19.7673
  413.7000    86.7607    20.2166    19.7681
  413.8000    86.9426    20.2171    19.7689
  413.9000    87.3155    20.2177    19.7697
  414.0000    87.7341    20.2182    19.7705
  414.1000    87.9788    20.2188    19.7714
  414.2000    88.2620    20.2193    19.7723
  414.3000    88.4683    20.2199    19.6788
