~VERSION INFORMATION
 VERS.                2.0:   CWLS LOG ASCII STANDARD - VERSION 2.0
 WRAP.                 NO:   ONE LINE PER DEPTH STEP
~WELL INFORMATION
#MNEM.UNIT      DATA TYPE    INFORMATION
#----------   ------------   ------------------------------
 STRT.F           20.0000:   START DEPTH
 STOP.F          710.0000:   STOP DEPTH
 STEP.F            0.5000:   STEP LENGTH
 NULL.          -999.2500:   NO VALUE
 COMP. FENIX & SCISSON INC:   COMPANY
 WELL.     NPR-3 #42SX-34:   WELL
 FLD .             TEAPOT:   FIELD
 LOC .      S34 T39N R78W:   LOCATION
 CNTY.            NATRONA:   COUNTY
 STAT.            WYOMING:   STATE
 CTRY. UNITED STATES OF AMERICA:   COUNTRY
 SRVC.           BIRDWELL:   SERVICE COMPANY
 DATE.        30-AUG-1978:   LOGDATE
 API .       490251070800:   API NUMBER
~CURVE INFORMATION
#MNEM.UNIT       API CODE    CURVE DESCRIPTION
#----------   ------------   ------------------------------
 DEPT.F                  :   
 SPR .MV     05 010 01 00:   SPONTANEOUS POTENTIAL
 SN  .OHMM   05 040 16 00:   SHORT NORMAL 16'
 ILD .OHMM   05 120 46 00:   INDUCTION LOG DEEP RESISTIVITY
 GRD .GAPI   45 310 01 00:   GAMMA RAY FROM DENSITY LOG
 CALD.IN     45 280 60 00:   CALIPER
 RHOB.G/C3   45 350 01 00:   BULK DENSITY
 DPHI.DEC    45 890 12 00:   DENSITY POROSITY SANDSTONE
 CORR.G/C3   45 356 01 00:   DENSITY CORRECTION
~PARAMETER INFORMATION
#MNEM.UNIT          VALUE    DESCRIPTION
#----------   ------------   ------------------------------
 PD  .                 GL:   PERMANENT DATUM
 EPD .F              5079:   ELEVATION PERMANENT DATUM
 LMF .                 KB:   LOG MEASURED FROM
 DAPD.F                 4:   FEET ABOVE PERMANENT DATUM
 DMF .                 KB:   DRILLING MEASURED FROM
 EKB .F              5083:   KELLING BUSHING
 EGL .F              5079:   GROUND LEVEL
 DATE.            8-30-78:   RUN DATE
 RUN .                  1:   RUN NUMBER
 DD  .F               705:   DEPTH DRILLER
 DL  .F               708:   DEPTH LOGGER
 BLI .F               702:   BOTTOM LOG INTERVAL
 TLI .F                50:   TOP LOG INTERVAL
 CS  .IN            8.625:   CASING SIZE
 CBD .F                40:   CASING BOTTOM DRILLER
 CBL .F                40:   CASING BOTTOM LOGGER
 BS  .IN            7.875:   BIT SIZE
 BSD .F               705:   BIT SIZE AT DEPTH
 DFT .                KCL:   DRILLING FLUID TYPE
 DFD .                8.6:   DRILLING FLUID DENSITY
 DFV .                 34:   DRILLING FLUID VISCOSITY
 DFPH.                  9:   DRILLING FLUID PH
 DFL .                7.4:   DRILLING FLUID LOSS
 MSS .           FLOWLINE:   MUD SAMPLE SOURCE
 RMS .OHMM             .3:   RESISTIVITY MUD SAMPLE
 MST .F                80:   MUD SAMPLE TEMPERATURE
 RMF .OHMM             .4:   RESISTIVITY MUD FILTRATE SAMPLE
 MFST.F                80:   MUD FILTRATE SAMPLE TEMPERATURE
 RMC .OHMM             .5:   RESISTIVITY MUD CAKE
 MCST.F                82:   MUD CAKE SAMPLE TEMPERATURE
 MFSS.               MEAS:   MUD FILTRATE SAMPLE SOURCE
 MCSS.               MEAS:   MUD CAKE SAMPLE SOURCE
 RMB .OHMM            .32:   RESISTIVITY MUD AT BHT
 BHT .F                73:   BOTTOM HOLE TEMPERATURE
 TCS .HRS               3:   TIME CURCULATED STOPPED
 MRT .F                73:   MAXIMUM RECORDED TEMPERATURE
 LUN .               3006:   LOGGING UNIT NUMBER
 LUL .               CASP:   LOGGING UNIT LOCATION
 ENGI.            POINTER:   RECORDING ENGINEER
 WITN.              AMEND:   WITNESSED BY
 CLNT.            A2DTECH:   CLIENT CODE
 ORIG.           5" PRINT:   ORIGIN OF DATA
 UWI .       490251070800:   UNIQUE WELL ID
 DICO. A2D Technologies, Inc.:   DIGITIZING COMPANY
~OTHER INFORMATION
~A   DEPT      SPR         SN        ILD         GRD      CALD       RHOB       DPHI       CORR   
# ...
  587.0000   -34.1191    16.7321    18.7506    57.2228     8.7513     2.3420     0.2038     0.0276
  587.5000   -34.1936    16.6577    18.7512    58.6479     8.7509     2.3431     0.2035     0.0264
  588.0000   -34.1146    16.5837    18.7512    58.8382     8.7511     2.3430     0.2033     0.0265
  588.5000   -34.0499    16.4850    18.7512    57.5054     8.7510     2.3430     0.2032     0.0275
  589.0000   -33.9786    16.5726    18.7512    54.8787     8.7595     2.3430     0.2030     0.0284
  589.5000   -33.9094    16.7318    18.7512    52.8572     8.7716     2.3429     0.2029     0.0293
  590.0000   -33.8368    16.8225    18.7512    54.4134     8.7836     2.3444     0.2028     0.0303
  590.5000   -33.7917    16.8767    18.7512    55.6491     8.7955     2.3495     0.1979     0.0312
  591.0000   -33.8393    16.9310    18.7512    57.1069     8.8075     2.3546     0.1941     0.0321
  591.5000   -33.9136    16.9854    18.7512    58.6362     8.8195     2.3582     0.1943     0.0330
  592.0000   -33.9824    17.0397    18.7512    58.7562     8.8314     2.3601     0.1946     0.0339
  592.5000   -34.0482    17.0941    18.7512    56.9269     8.8434     2.3621     0.1948     0.0327
  593.0000   -34.1238    17.1484    18.7512    55.1488     8.8553     2.3642     0.1927     0.0313
  593.5000   -34.2053    17.2029    18.7512    53.7374     8.8673     2.3662     0.1909     0.0299
  594.0000   -34.5915    17.2589    18.7512    52.9273     8.8792     2.3682     0.1891     0.0285
  594.5000   -35.0358    17.3130    18.7512    54.3208     8.8912     2.3702     0.1874     0.0271
  595.0000   -35.4852    17.3661    18.7512    53.3475     8.9031     2.3723     0.1856     0.0258
  595.5000   -35.9300    17.4161    18.7512    52.5383     8.9159     2.3734     0.1838     0.0244
  596.0000   -36.3759    17.3345    18.7514    52.0397     8.9304     2.3739     0.1835     0.0226
  596.5000   -36.8224    17.2600    18.7514    55.0379     8.9450     2.3745     0.1852     0.0254
  597.0000   -37.2682    17.1848    18.7519    56.7571     8.9595     2.3752     0.1839     0.0304
  597.5000   -37.7143    17.1086    18.7516    55.8818     8.9739     2.3783     0.1824     0.0357
  598.0000   -38.1600    17.0324    18.7506    58.2768     8.9890     2.3814     0.1809     0.0406
  598.5000   -38.6057    16.9571    18.7495    61.0031     8.9862     2.3845     0.1795     0.0457
  599.0000   -39.0514    16.8822    18.7484    61.8464     8.9675     2.3864     0.1805     0.0493
  599.5000   -39.4973    16.8077    18.7479    62.7385     8.9490     2.3821     0.1836     0.0508
  600.0000   -39.9431    16.7334    18.5807    62.4651     8.9309     2.3812     0.1823     0.0688
  600.5000   -40.3892    16.6595    18.4097    61.5678     8.9133     2.3886     0.1637     0.0787
  601.0000   -40.8349    16.5859    18.2400    60.6681     8.8931     2.4102     0.1430     0.0773
  601.5000   -41.2803    16.5126    18.0715    62.7586     8.8751     2.4370     0.1408     0.0761
  602.0000   -41.7279    16.4397    17.9042    64.9225     8.7955     2.4492     0.1382     0.0753
  602.5000   -42.1719    16.3671    17.7382    67.6068     8.6712     2.4538     0.1421     0.0747
  603.0000   -42.5969    16.2948    17.5739    67.4285     8.6321     2.4543     0.1462     0.0790
  603.5000   -42.8699    16.2228    17.4110    66.2629     8.6456     2.4434     0.1493     0.0865
  604.0000   -43.1322    16.1511    17.2496    63.3633     8.6568     2.4357     0.1498     0.1067
  604.5000   -43.3905    16.0798    17.0898    60.6047     8.6671     2.4361     0.1333     0.1294
  605.0000   -43.6505    16.0088    16.9314    61.4524     8.6644     2.4571     0.1202     0.1364
  605.5000   -43.9106    15.9380    16.7745    62.0099     8.6523     2.4770     0.1132     0.1398
  606.0000   -44.1702    15.8695    16.6191    70.0937     8.6411     2.4894     0.1087     0.1415
  606.5000   -44.4301    15.8063    16.4828    67.9683     8.6305     2.5031     0.1045     0.1197
  607.0000   -44.6900    15.7433    16.2641    67.2515     8.6192     2.5235     0.0988     0.0965
  607.5000   -44.9501    15.6806    16.0705    66.3532     8.6081     2.5173     0.1054     0.0725
  608.0000   -45.2103    15.6182    15.8792    64.6011     8.5971     2.5012     0.1158     0.0479
  608.5000   -45.4703    15.5560    15.6903    61.8475     8.5859     2.4866     0.1258     0.0371
  609.0000   -45.7300    15.4940    15.5035    59.1324     8.5749     2.4756     0.1240     0.0379
  609.5000   -45.9914    15.4321    15.3119    56.2980     8.5638     2.4774     0.1212     0.0386
  610.0000   -46.2501    15.3705    15.3342    55.7046     8.5527     2.4823     0.1185     0.0400
  610.5000   -46.5052    15.3094    15.3729    58.1799     8.5416     2.4875     0.1171     0.0417
  611.0000   -46.6971    15.2487    15.4117    59.9743     8.5305     2.4884     0.1172     0.0433
  611.5000   -46.8558    15.1876    15.4506    60.6067     8.5194     2.4871     0.1172     0.0449
  612.0000   -47.0098    15.1254    15.4896    62.8604     8.5102     2.4880     0.1171     0.0465
  612.5000   -47.1631    15.0352    15.5287    66.2110     8.5101     2.4894     0.1172     0.0480
  613.0000   -47.3176    15.0543    15.5679    69.9655     8.5099     2.4907     0.1139     0.0496
  613.5000   -47.4715    15.1171    15.5966    69.2095     8.5100     2.4922     0.1116     0.0498
  614.0000   -47.6256    15.1783    15.5076    71.6827     8.5100     2.4938     0.1118     0.0493
  614.5000   -47.7794    15.2395    15.4075    75.3396     8.5100     2.4954     0.1121     0.0488
  615.0000   -47.9338    15.3005    15.3081    76.5768     8.5100     2.4969     0.1123     0.0483
  615.5000   -48.0888    15.3616    15.2094    72.9830     8.5100     2.4991     0.1124     0.0478
  616.0000   -48.2237    15.4224    15.1112    69.3934     8.5100     2.5031     0.1078     0.0472
  616.5000   -48.3097    15.4831    15.0138    67.7058     8.5101     2.5201     0.1038     0.0466
  617.0000   -48.3976    15.5439    14.9169    70.0189     8.5101     2.5213     0.0999     0.0462
  617.5000   -48.4842    15.5935    14.8207    74.2457     8.5100     2.5224     0.0970     0.0387
  618.0000   -48.5723    15.5048    14.7251    78.3865     8.5102     2.5228     0.0964     0.0283
  618.5000   -48.6581    15.4314    14.6301    78.3125     8.5099     2.5166     0.1027     0.0184
  619.0000   -48.7438    15.3584    14.5357    78.3119     8.5096     2.5087     0.1080     0.0185
  619.5000   -48.8387    15.2859    14.4419    76.9035     8.4992     2.5006     0.1133     0.0195
  620.0000   -48.9123    15.2143    14.3487    72.5704     8.4889     2.4919     0.1156     0.0209
  620.5000   -48.9758    15.1436    14.2562    68.6773     8.4782     2.4915     0.1112     0.0227
  621.0000   -48.5612    15.0685    14.2243    63.9041     8.4674     2.4974     0.1068     0.0263
  621.5000   -48.1584    14.8431    14.1563    64.7183     8.4572     2.4981     0.1116     0.0301
  622.0000   -47.7364    14.4715    14.0214    68.6746     8.4465     2.4946     0.1156     0.0336
  622.5000   -47.3178    14.1091    13.7098    78.7774     8.4348     2.4911     0.1141     0.0375
  623.0000   -46.8975    13.7559    13.3854    81.0962     8.4297     2.4910     0.1147     0.0414
  623.5000   -46.5984    13.4115    12.9943    80.9966     8.4308     2.4916     0.1224     0.0436
  624.0000   -46.6019    13.0757    12.6147    81.6607     8.4815     2.4808     0.1307     0.0566
  624.5000   -46.5967    12.7359    12.2462    83.7669     8.5418     2.4664     0.1262     0.0762
  625.0000   -46.5979    12.3363    11.8889    86.1745     8.5901     2.4811     0.1197     0.0887
  625.5000   -46.5993    11.9339    11.5409    88.5256     8.6124     2.4890     0.1215     0.0932
  626.0000   -46.5988    11.5447    11.2034    91.0950     8.6414     2.4825     0.1268     0.0990
  626.5000   -46.5995    11.1682    10.8758    90.5001     8.6694     2.4737     0.1229     0.1176
  627.0000   -46.5999    10.7902    10.7891    89.9647     8.6981     2.4779     0.1105     0.1345
