~VERSION INFORMATION
 VERS.                2.0:   CWLS LOG ASCII STANDARD - VERSION 2.0
 WRAP.                 NO:   ONE LINE PER DEPTH STEP
~WELL INFORMATION
#MNEM.UNIT      DATA TYPE    INFORMATION
#----------   ------------   ------------------------------
 STRT.F           20.0000:   START DEPTH
 STOP.F          565.0000:   STOP DEPTH
 STEP.F            0.5000:   STEP LENGTH
 NULL.          -999.2500:   NO VALUE
 COMP. FENIX & SCISSON INC:   COMPANY
 WELL.     NPR-3 #12-SX-3:   WELL
 FLD .        TEAPOT DOME:   FIELD
 LOC .       S3 T38N R78W:   LOCATION
 CNTY.            NATRONA:   COUNTY
 STAT.            WYOMING:   STATE
 CTRY. UNITED STATES OF AMERICA:   COUNTRY
 SRVC.           BIRDWELL:   SERVICE COMPANY
 DATE.        29-JUL-1978:   LOGDATE
 API .       490251067000:   API NUMBER
~CURVE INFORMATION
#MNEM.UNIT       API CODE    CURVE DESCRIPTION
#----------   ------------   ------------------------------
 DEPT.F                  :   
 SPR .MV     05 010 01 00:   SPONTANEOUS POTENTIAL FROM RES.
 SN  .OHMM   05 040 16 00:   SHORT NORMAL 16"
 IL  .OHMM   05 120 00 00:   INDUCTION LOG
 GRD .GAPI   45 310 01 00:   GAMMA RAY FROM DENSITY LOG
 CALD.IN     45 280 60 00:   CALIPER
 CORR.G/C3   45 356 01 00:   DENSITY CORRECTION
 RHOB.G/C3   45 350 01 00:   BULK DENSITY
 DPHI.DEC    45 890 12 00:   DENSITY POROSITY SANDSTONE
~PARAMETER INFORMATION
#MNEM.UNIT          VALUE    DESCRIPTION
#----------   ------------   ------------------------------
 PD  .                 GL:   PERMANENT DATUM
 EPD .F              5191:   ELEVATION PERMANENT DATUM
 LMF .                 KB:   LOG MEASURED FROM
 DAPD.F                 4:   FEET ABOVE PERMANENT DATUM
 DMF .                 KB:   DRILLING MEASURED FROM
 EKB .F              5195:   KELLING BUSHING
 EGL .F              5191:   GROUND LEVEL
 DATE.            7-29-78:   RUN DATE
 RUN .                  1:   RUN NUMBER
 DD  .F               565:   DEPTH DRILLER
 DL  .F               571:   DEPTH LOGGER
 BLI .F               565:   BOTTOM LOG INTERVAL
 TLI .F                40:   TOP LOG INTERVAL
 CS  .IN            8.625:   CASING SIZE
 CBD .F                40:   CASING BOTTOM DRILLER
 CBL .F                40:   CASING BOTTOM LOGGER
 BS  .IN            7.875:   BIT SIZE
 BSD .F               565:   BIT SIZE AT DEPTH
 DFT .                KCL:   DRILLING FLUID TYPE
 DFD .                8.6:   DRILLING FLUID DENSITY
 DFV .                 31:   DRILLING FLUID VISCOSITY
 DFPH.                  9:   DRILLING FLUID PH
 RMS .OHMM            .32:   RESISTIVITY MUD SAMPLE
 MST .F                70:   MUD SAMPLE TEMPERATURE
 TCS .HRS               1:   TIME CURCULATED STOPPED
 LUN .               2958:   LOGGING UNIT NUMBER
 LUL .               CASP:   LOGGING UNIT LOCATION
 ENGI.              HONEA:   RECORDING ENGINEER
 WITN.              AMEND:   WITNESSED BY
 CLNT.            A2DTECH:   CLIENT CODE
 ORIG.           5" PRINT:   ORIGIN OF DATA
 UWI .       490251067000:   UNIQUE WELL ID
 DICO. A2D Technologies, Inc.:   DIGITIZING COMPANY
~OTHER INFORMATION
~A   DEPT      SPR         SN         IL         GRD      CALD       CORR       RHOB       DPHI   
# ...
  425.0000   -14.8682    19.5796    24.0000    47.8441     7.2952     0.0403     2.2943     0.2136
  425.5000   -14.9301    19.5715    23.7492    49.9364     7.2750     0.0390     2.3073     0.2090
  426.0000   -14.9920    19.5633    23.5009    52.3931     7.2760     0.0378     2.3118     0.2044
  426.5000   -15.0539    19.5555    23.2825    54.8473     7.2764     0.0378     2.3280     0.2036
  427.0000   -15.1158    19.5438    23.0691    57.3489     7.2763     0.0327     2.3275     0.2041
  427.5000   -15.1778    19.5561    22.8576    57.9059     7.2763     0.0250     2.3273     0.2056
  428.0000   -15.2394    19.3504    22.6030    57.3248     7.2763     0.0180     2.3377     0.2111
  428.5000   -15.3011    19.2282    22.3297    56.6616     7.2763     0.0179     2.3271     0.2164
  429.0000   -15.3231    19.1068    22.0596    56.6721     7.2763     0.0179     2.3136     0.2216
  429.5000   -15.6594    18.9862    21.8288    56.7109     7.2763     0.0179     2.2912     0.2226
  430.0000   -16.1061    18.8663    21.2798    54.0001     7.2771     0.0179     2.2898     0.2163
  430.5000   -16.5534    18.7472    20.6462    50.3884     7.3126     0.0179     2.3018     0.1982
  431.0000   -16.9405    18.6289    20.0313    50.4615     7.3782     0.0179     2.3498     0.1885
  431.5000   -16.9239    18.5112    19.4348    54.2369     7.4422     0.0179     2.3490     0.1834
  432.0000   -17.1343    18.3944    18.8561    56.8904     7.5070     0.0179     2.3704     0.1782
  432.5000   -17.3462    18.2782    18.4940    59.5457     7.5718     0.0179     2.3737     0.1761
  433.0000   -17.3387    18.1628    18.4940    59.5645     7.5750     0.0162     2.3831     0.1836
  433.5000   -17.3344    18.0481    18.4940    58.6289     7.5746     0.0120     2.3697     0.1877
  434.0000   -17.3322    17.9341    18.5107    57.1481     7.5746     0.0079     2.3611     0.1878
  434.5000   -17.3166    17.8207    18.6087    55.7203     7.5746     0.0038     2.3630     0.1884
  435.0000   -17.3011    17.7087    18.7073    56.2404     7.5746     0.0002     2.3630     0.1920
  435.5000   -17.2856    17.6616    18.8065    57.1057     7.5746     0.0078     2.3611     0.1977
  436.0000   -17.2701    17.6616    18.9061    57.9768     7.5746     0.0159     2.3508     0.2040
  436.5000   -17.2546    17.8250    19.0063    58.8390     7.5746     0.0158     2.3342     0.2040
  437.0000   -17.2392    17.5651    19.1070    59.4598     7.5746     0.0192     2.3296     0.2040
  437.5000   -17.2237    17.4442    19.2249    58.5360     7.5744     0.0238     2.3224     0.2040
  438.0000   -17.2082    17.3241    19.4109    56.6462     7.5741     0.0253     2.3255     0.1925
  438.5000   -17.1927    17.2048    19.5988    54.7660     7.5786     0.0239     2.3441     0.1949
  439.0000   -17.1772    17.0863    19.7885    53.7176     7.6312     0.0223     2.3485     0.1985
  439.5000   -17.1616    16.9687    19.9800    54.9677     7.6836     0.0225     2.3466     0.2111
  440.0000   -17.1458    16.8519    20.0923    56.6087     7.6943     0.0432     2.3200     0.2207
  440.5000   -17.1341    16.7359    20.0923    59.6473     7.6958     0.0579     2.2884     0.2031
  441.0000   -17.1774    16.6206    20.0923    62.1080     7.6970     0.0577     2.3046     0.1963
  441.5000   -17.3983    16.5062    20.0923    61.9381     7.6983     0.0575     2.3403     0.1936
  442.0000   -17.6144    16.3925    19.7405    61.0083     7.6996     0.0495     2.3339     0.1886
  442.5000   -17.8300    16.2797    19.4024    59.6888     7.7010     0.0321     2.3571     0.1861
  443.0000   -18.0455    16.1676    19.0711    59.1595     7.7023     0.0191     2.3680     0.1861
  443.5000   -18.2633    16.0563    18.7459    58.9140     7.7036     0.0159     2.3635     0.1863
  444.0000   -18.3357    15.9457    18.4261    58.6757     7.7050     0.0090     2.3645     0.1869
  444.5000   -18.3369    15.8359    18.1117    59.8066     7.7063     0.0110     2.3660     0.1905
  445.0000   -18.3323    15.7269    17.8025    62.9481     7.7076     0.0202     2.3589     0.1891
  445.5000   -18.3114    15.5249    17.4985    64.2722     7.7090     0.0280     2.3495     0.1877
  446.0000   -18.2913    15.2416    17.3375    65.0988     7.7103     0.0273     2.3545     0.1836
  446.5000   -18.2713    15.1651    17.3414    65.0106     7.7117     0.0263     2.3671     0.1789
  447.0000   -18.2512    15.0891    17.0955    63.0927     7.7132     0.0254     2.3732     0.1770
  447.5000   -18.2311    15.0157    16.6798    61.1209     7.7123     0.0244     2.3733     0.1752
  448.0000   -18.2111    14.9428    16.1859    59.1735     7.6709     0.0238     2.3749     0.1734
  448.5000   -18.1910    14.8703    15.7067    58.5103     7.6300     0.0241     2.3827     0.1733
  449.0000   -18.1709    14.7981    15.2417    60.3968     7.5947     0.0251     2.3888     0.1732
  449.5000   -18.1509    14.7262    15.0884    59.3863     7.5711     0.0272     2.3831     0.1730
  450.0000   -18.1308    14.6903    15.0608    58.0777     7.5518     0.0325     2.3802     0.1729
  450.5000   -18.1107    14.5556    15.0338    56.7408     7.5338     0.0377     2.3873     0.1727
  451.0000   -18.0907    14.3675    15.0068    56.9174     7.5160     0.0430     2.3854     0.1726
  451.5000   -18.0706    14.2646    14.9797    59.0598     7.4981     0.0482     2.3844     0.1729
  452.0000   -18.0505    14.1599    14.9527    60.0077     7.4802     0.0518     2.3919     0.1761
  452.5000   -18.0305    14.0563    14.9257    59.8212     7.4624     0.0545     2.3852     0.1808
  453.0000   -18.0104    13.9535    14.8987    60.4665     7.4445     0.0593     2.3759     0.1854
  453.5000   -17.9903    13.8514    14.8713    62.7810     7.4268     0.0694     2.3665     0.1865
  454.0000   -17.9703    13.7501    14.8463    64.4822     7.4154     0.0795     2.3570     0.1861
  454.5000   -17.9502    13.6495    14.7496    64.6380     7.4155     0.0896     2.3553     0.1853
  455.0000   -17.9301    13.5497    14.4971    64.5816     7.4155     0.0996     2.3572     0.1832
  455.5000   -17.9101    13.4506    14.2489    62.9301     7.4155     0.1054     2.3637     0.1809
  456.0000   -17.8900    13.3522    13.9647    61.3068     7.4155     0.1049     2.3737     0.1824
  456.5000   -17.8699    13.2545    13.5395    61.0396     7.4155     0.1226     2.3736     0.1813
  457.0000   -17.8499    13.1575    13.1878    61.1060     7.4155     0.1185     2.3635     0.1747
  457.5000   -17.8298    13.0613    12.8453    62.4804     7.4155     0.1086     2.3788     0.1726
  458.0000   -17.8097    12.7947    12.5117    63.8686     7.4155     0.1037     2.3944     0.1930
  458.5000   -17.7896    12.5612    12.2188    65.2866     7.4155     0.1115     2.3469     0.1940
  459.0000   -17.7696    12.1669    12.2188    63.3687     7.4157     0.1078     2.3497     0.1940
  459.5000   -17.7498    11.6327    12.5623    60.3532     7.4153     0.0970     2.3513     0.1962
  460.0000   -17.7353    11.1219    12.0352    60.2790     7.4002     0.0860     2.3442     0.2019
  460.5000   -17.7353    10.6336    11.4809    61.8735     7.3277     0.0899     2.3363     0.2222
  461.0000   -17.7224    10.1667    10.9501    61.9536     7.2526     0.1094     2.3097     0.2437
  461.5000   -17.6687     9.7203    10.4439    61.3857     7.1772     0.1445     2.2658     0.2652
  462.0000   -17.6173     9.2935     9.9611    61.2997     7.1006     0.2090     2.2203     0.2736
  462.5000   -17.5659     8.8855     9.5016    61.6212     7.0060     0.2326     2.1828     0.2793
  463.0000   -17.5145     8.6105     9.0562    61.7397     6.9990     0.2314     2.1930     0.2815
  463.5000   -17.4628     8.6902     8.8377    61.0435     7.0058     0.2305     2.1828     0.2795
  464.0000   -17.4122     8.6949     8.7788    60.3568     7.0119     0.2321     2.1781     0.2662
  464.5000   -17.3649     8.7042     8.7246    60.7821     7.0178     0.1094     2.1934     0.2527
  465.0000   -17.5070     8.7135     8.6702    62.7010     7.0237     0.0613     2.3603     0.2396
