~VERSION INFORMATION
 VERS.                2.0:   CWLS LOG ASCII STANDARD - VERSION 2.0
 WRAP.                 NO:   ONE LINE PER DEPTH STEP
~WELL INFORMATION
#MNEM.UNIT      DATA TYPE    INFORMATION
#----------   ------------   ------------------------------
 STRT.F           26.0000:   START DEPTH
 STOP.F         1071.0000:   STOP DEPTH
 STEP.F            0.5000:   STEP LENGTH
 NULL.          -999.2500:   NO VALUE
 COMP. FENIX & SCISSON INC:   COMPANY
 WELL.       NRP 3 #61-14:   WELL
 FLD .        TEAPOT DOME:   FIELD
 LOC .      S14 T38N R78W:   LOCATION
 CNTY.            NATRONA:   COUNTY
 STAT.            WYOMING:   STATE
 CTRY. UNITED STATES OF AMERICA:   COUNTRY
 SRVC.            Unknown:   SERVICE COMPANY
 DATE.        09-JAN-1979:   LOGDATE
 API .       490251076300:   API NUMBER
~CURVE INFORMATION
#MNEM.UNIT       API CODE    CURVE DESCRIPTION
#----------   ------------   ------------------------------
 DEPT.F                  :   
 SPR .MV     05 010 01 00:   SPONTANEOUS POTENTIAL FROM RES.
 SN  .OHMM   05 040 16 00:   SHORT NORMAL 16"
 IL  .OHMM   05 120 00 00:   INDUCTION LOG
 CALD.IN     45 280 60 00:   CALIPER
 GRD .GAPI   45 310 01 00:   GAMMA RAY FROM DENSITY LOG
 RHOB.G/C3   45 350 01 00:   BULK DENSITY
 DPHI.DEC    45 890 12 00:   DENSITY POROSITY SANDSTONE
 CORR.G/C3   45 356 01 00:   DENSITY CORRECTION
~PARAMETER INFORMATION
#MNEM.UNIT          VALUE    DESCRIPTION
#----------   ------------   ------------------------------
 PD  .                 GL:   PERMANENT DATUM
 EPD .F              5240:   ELEVATION PERMANENT DATUM
 LMF .                 KB:   LOG MEASURED FROM
 DAPD.F                 4:   FEET ABOVE PERMANENT DATUM
 DMF .                 KB:   DRILLING MEASURED FROM
 EKB .F              5244:   KELLING BUSHING
 EGL .F              5240:   GROUND LEVEL
 DATE.             1-9-79:   RUN DATE
 RUN .                  1:   RUN NUMBER
 DD  .F              1061:   DEPTH DRILLER
 DL  .F              1071:   DEPTH LOGGER
 BLI .F              1064:   BOTTOM LOG INTERVAL
 TLI .F                50:   TOP LOG INTERVAL
 CS  .IN            8.625:   CASING SIZE
 CBD .F                40:   CASING BOTTOM DRILLER
 CBL .F                38:   CASING BOTTOM LOGGER
 BS  .IN            7.875:   BIT SIZE
 BSD .F              1061:   BIT SIZE AT DEPTH
 DFT .                KCL:   DRILLING FLUID TYPE
 DFD .                8.8:   DRILLING FLUID DENSITY
 DFV .                 36:   DRILLING FLUID VISCOSITY
 DFPH.                9.2:   DRILLING FLUID PH
 MSS .           FLOWLINE:   MUD SAMPLE SOURCE
 RMS .OHMM             .3:   RESISTIVITY MUD SAMPLE
 MST .F                58:   MUD SAMPLE TEMPERATURE
 RMF .OHMM             .3:   RESISTIVITY MUD FILTRATE SAMPLE
 MFST.F                58:   MUD FILTRATE SAMPLE TEMPERATURE
 RMC .OHMM            .34:   RESISTIVITY MUD CAKE
 MCST.F                62:   MUD CAKE SAMPLE TEMPERATURE
 MFSS.           MEASURED:   MUD FILTRATE SAMPLE SOURCE
 MCSS.           MEASURED:   MUD CAKE SAMPLE SOURCE
 RMB .OHMM            .29:   RESISTIVITY MUD AT BHT
 BHT .F                61:   BOTTOM HOLE TEMPERATURE
 TCS .HRS               4:   TIME CURCULATED STOPPED
 MRT .F                61:   MAXIMUM RECORDED TEMPERATURE
 LUN .               3006:   LOGGING UNIT NUMBER
 LUL .             CASPER:   LOGGING UNIT LOCATION
 ENGI.            ROLLINS:   RECORDING ENGINEER
 WITN.           DINSMORE:   WITNESSED BY
 CLNT.            A2DTECH:   CLIENT CODE
 ORIG.           5" PRINT:   ORIGIN OF DATA
 UWI .       490251076300:   UNIQUE WELL ID
 DICO. A2D Technologies, Inc.:   DIGITIZING COMPANY
~OTHER INFORMATION
~A   DEPT      SPR         SN         IL       CALD         GRD      RHOB       DPHI       CORR   
# ...
  917.0000   -56.5540    10.6210    13.1420     7.7150    79.7380     2.3670     0.1900     0.1000
  917.5000   -56.6860    10.6280    13.2230     7.7140    78.6590     2.3680     0.1910     0.1040
  918.0000   -56.7120    10.6170    13.3290     7.7130    77.5770     2.3680     0.1880     0.1080
  918.5000   -56.7380    10.6010    13.4350     7.7120    77.0210     2.3680     0.1840     0.1070
  919.0000   -56.7630    10.5850    13.5420     7.7120    77.2390     2.3680     0.1900     0.1050
  919.5000   -56.7880    10.5700    13.6280     7.7110    78.1720     2.3610     0.1980     0.1070
  920.0000   -56.8140    10.5540    13.5570     7.7100    79.0750     2.3540     0.2030     0.1120
  920.5000   -56.8390    10.5380    13.4860     7.7090    79.6420     2.3510     0.2020     0.1160
  921.0000   -56.8650    10.5220    13.4150     7.7090    77.3750     2.3510     0.1960     0.1140
  921.5000   -56.8940    10.5070    13.3430     7.7110    74.4120     2.3590     0.1900     0.1110
  922.0000   -56.9260    10.4910    13.2720     7.7130    71.1370     2.3690     0.1900     0.1080
  922.5000   -56.9580    10.4750    13.2010     7.7150    72.4170     2.3720     0.1880     0.1050
  923.0000   -56.9890    10.4590    13.1290     7.7160    75.6290     2.3730     0.1810     0.1040
  923.5000   -57.0210    10.4440    13.0580     7.7180    77.7150     2.3810     0.1730     0.1040
  924.0000   -57.0530    10.4350    12.9870     7.7200    79.2190     2.3900     0.1690     0.1040
  924.5000   -57.0850    10.4420    12.9150     7.7220    81.6320     2.3920     0.1770     0.1030
  925.0000   -57.1170    10.4470    12.9020     7.7230    84.0750     2.3860     0.1840     0.1030
  925.5000   -57.1490    10.4520    12.9020     7.7250    84.5220     2.3780     0.1890     0.1030
  926.0000   -57.1800    10.4570    12.9020     7.7270    84.6030     2.3720     0.1900     0.1030
  926.5000   -57.2120    10.4620    12.9020     7.7290    86.5440     2.3720     0.1900     0.1020
  927.0000   -57.2440    10.4670    12.9020     7.7080    88.5810     2.3720     0.1890     0.1030
  927.5000   -57.2900    10.4720    12.9020     7.6820    90.6250     2.3720     0.1870     0.1030
  928.0000   -57.4050    10.4770    12.9020     7.6570    91.2870     2.3720     0.1850     0.1030
  928.5000   -57.5210    10.4820    12.9020     7.6310    88.7790     2.3730     0.1840     0.1030
  929.0000   -57.6320    10.4870    12.9020     7.6080    84.8240     2.3730     0.1830     0.1050
  929.5000   -58.0260    10.4930    12.9020     7.6060    81.1640     2.3720     0.1850     0.1070
  930.0000   -58.5170    10.4980    12.9020     7.6040    80.6600     2.3680     0.1870     0.1090
  930.5000   -59.0040    10.5030    12.9020     7.6020    80.3830     2.3640     0.1890     0.1110
  931.0000   -59.0510    10.5080    12.9020     7.5990    80.4520     2.3600     0.1910     0.1130
  931.5000   -59.0410    10.5130    12.9020     7.5970    83.6940     2.3570     0.1930     0.1140
  932.0000   -59.0290    10.5180    12.9010     7.5950    87.3470     2.3560     0.1950     0.1150
  932.5000   -59.0180    10.5230    12.9030     7.5920    88.1400     2.3550     0.1980     0.1140
  933.0000   -59.0060    10.5280    12.8880     7.5900    88.0980     2.3550     0.2000     0.1140
  933.5000   -58.9940    10.6110    13.0210     7.6060    87.7020     2.3540     0.1990     0.1120
  934.0000   -58.9820    10.7960    13.3810     7.6290    86.1540     2.3540     0.1980     0.1060
  934.5000   -58.9700    10.9800    13.9550     7.6510    84.6410     2.3580     0.1830     0.1000
  935.0000   -58.9580    11.1650    14.5300     7.6740    83.1450     2.3800     0.1660     0.1010
  935.5000   -58.9460    11.3500    15.1040     7.6970    82.6190     2.4020     0.1480     0.1020
  936.0000   -58.9340    11.5340    15.6780     7.7200    81.9090     2.4230     0.1310     0.1110
  936.5000   -58.9230    11.7190    15.8060     7.7430    80.0670     2.4450     0.1150     0.1240
  937.0000   -58.9110    11.8730    15.6690     7.7670    78.2900     2.4670     0.1140     0.1650
  937.5000   -58.8990    11.8730    15.4910     7.7900    77.1600     2.4840     0.1150     0.2050
  938.0000   -58.8870    11.6230    15.3380     7.8120    76.8430     2.4820     0.1230     0.2440
  938.5000   -58.8750    11.3590    15.0780     7.8350    77.4460     2.4770     0.1420     0.2840
  939.0000   -58.8660    11.0480    14.6580     7.8590    79.1840     2.4560     0.1600     0.3080
  939.5000   -58.9420    10.6930    14.0920     7.8620    81.6090     2.4270     0.1710     0.3080
  940.0000   -59.0270    10.3380    13.5260     7.8550    86.3260     2.4030     0.1680     0.2910
  940.5000   -59.1110     9.9840    12.9610     7.8470    91.0130     2.4050     0.1580     0.2530
  941.0000   -59.1960     9.6290    12.3950     7.8390    92.2370     2.4140     0.1420     0.2190
  941.5000   -59.2800     9.5140    11.9840     7.8320    92.1050     2.4360     0.1260     0.1910
  942.0000   -59.3650     9.5010    12.0060     7.8100    92.7810     2.4590     0.1180     0.1620
  942.5000   -59.4490     9.4520    12.0240     7.7660    92.9990     2.4830     0.1180     0.1530
  943.0000   -59.5340     9.4030    12.0420     7.7460    92.9120     2.4890     0.1330     0.1570
  943.5000   -59.6180     9.3530    12.0590     7.7420    92.4910     2.4680     0.1510     0.1670
  944.0000   -59.7030     9.3040    12.0770     7.7380    89.8080     2.4370     0.1690     0.1780
  944.5000   -59.7870     9.2550    12.0950     7.7350    86.6980     2.4050     0.1820     0.1830
  945.0000   -59.8720     9.2460    11.9900     7.7310    83.5700     2.3820     0.1890     0.1830
  945.5000   -59.9560     9.2380    11.8860     7.7270    80.3990     2.3730     0.1910     0.1840
  946.0000   -60.0410     9.2300    11.7820     7.7240    78.7720     2.3700     0.1900     0.1840
  946.5000   -60.1030     9.2220    11.6790     7.7200    81.8230     2.3710     0.1850     0.1810
  947.0000   -60.1600     9.2140    11.5750     7.7160    86.0030     2.3770     0.1810     0.1690
  947.5000   -60.2160     9.2060    11.4710     7.7120    89.8080     2.3830     0.1820     0.1520
  948.0000   -60.2730     9.1980    11.3670     7.7080    90.3270     2.3850     0.1790     0.1360
  948.5000   -60.3290     9.1900    11.2640     7.6900    90.3860     2.3860     0.1750     0.1190
  949.0000   -60.3850     9.1820    11.1310     7.6690    90.4660     2.3910     0.1700     0.1090
  949.5000   -60.4420     9.1740    11.1410     7.6490    90.8940     2.3960     0.1700     0.1050
  950.0000   -60.4980     9.1660    11.1560     7.6290    92.3690     2.3960     0.1730     0.1030
  950.5000   -60.5540     9.1570    11.1710     7.6090    93.6070     2.3880     0.1750     0.1020
  951.0000   -60.6110     9.1490    11.1860     7.5890    92.7520     2.3850     0.1780     0.1000
  951.5000   -60.6670     9.1410    11.2010     7.5690    91.3150     2.3820     0.1820     0.0980
  952.0000   -60.7230     9.1330    11.2160     7.5510    89.6080     2.3750     0.1870     0.0980
  952.5000   -60.7800     9.1250    11.2330     7.5650    88.2250     2.3670     0.1920     0.0980
  953.0000   -60.8360     9.1170    11.2090     7.5700    88.0070     2.3630     0.1940     0.0980
  953.5000   -60.8930     9.1090    11.1780     7.5790    87.7620     2.3620     0.1940     0.0970
  954.0000   -60.9490     9.1010    11.1460     7.5990    87.5410     2.3620     0.1950     0.0970
  954.5000   -61.0040     9.0930    11.1150     7.6200    87.9190     2.3620     0.1940     0.0970
  955.0000   -61.0650     9.0850    11.0830     7.6410    88.3190     2.3630     0.1890     0.0970
  955.5000   -61.2560     9.0830    11.0520     7.6620    88.6390     2.3670     0.1860     0.0970
  956.0000   -61.4400     9.0810    11.0200     7.6820    86.8520     2.3740     0.1860     0.0980
  956.5000   -61.6200     9.0790    10.9890     7.7030    84.9700     2.3760     0.1860     0.0980
  957.0000   -61.7800     9.0780    10.9570     7.7240    83.7620     2.3770     0.1830     0.0980
