~VERSION INFORMATION
 VERS.                2.0:   CWLS LOG ASCII STANDARD - VERSION 2.0
 WRAP.                 NO:   ONE LINE PER DEPTH STEP
~WELL INFORMATION
#MNEM.UNIT      DATA TYPE    INFORMATION
#----------   ------------   ------------------------------
 STRT.F           27.0000:   START DEPTH
 STOP.F          992.0000:   STOP DEPTH
 STEP.F            0.5000:   STEP LENGTH
 NULL.          -999.2500:   NO VALUE
 COMP. FENIX & SCISSON INC:   COMPANY
 WELL. NPR 3  77- S -27 #77-27:   WELL
 FLD .             TEAPOT:   FIELD
 LOC .      S27 T39N R78W:   LOCATION
 CNTY.            NATRONA:   COUNTY
 STAT.            WYOMING:   STATE
 CTRY. UNITED STATES OF AMERICA:   COUNTRY
 SRVC.            Unknown:   SERVICE COMPANY
 DATE.        09-SEP-1978:   LOGDATE
 API .       490251069700:   API NUMBER
~CURVE INFORMATION
#MNEM.UNIT       API CODE    CURVE DESCRIPTION
#----------   ------------   ------------------------------
 DEPT.F                  :   
 SPR .MV     05 010 01 00:   SPONTANEOUS POTENTIAL FROM RES.
 SN  .OHMM   05 040 16 00:   SHORT NORMAL 16"
 ILD .OHMM   05 120 46 00:   INDUCTION LOG DEEP
 CALD.IN     45 280 60 00:   CALIPER
 GRD .GAPI   45 310 01 00:   GAMMA RAY FROM DENSITY LOG
 RHOB.G/C3   45 350 01 00:   BULK DENSITY
 CORR.G/C3   45 356 01 00:   DENSITY CORRECTION
 DPHI.DEC    45 890 12 00:   DENSITY POROSITY SANDSTONE
~PARAMETER INFORMATION
#MNEM.UNIT          VALUE    DESCRIPTION
#----------   ------------   ------------------------------
 PD  .                 GL:   PERMANENT DATUM
 EPD .F              5069:   ELEVATION PERMANENT DATUM
 LMF .                 KB:   LOG MEASURED FROM
 DAPD.F                 4:   FEET ABOVE PERMANENT DATUM
 DMF .                 KB:   DRILLING MEASURED FROM
 EKB .F              5073:   KELLING BUSHING
 EGL .F              5069:   GROUND LEVEL
 DATE.           9-9-1978:   RUN DATE
 RUN .                  1:   RUN NUMBER
 DD  .F               990:   DEPTH DRILLER
 DL  .F               998:   DEPTH LOGGER
 BLI .F               992:   BOTTOM LOG INTERVAL
 TLI .F                50:   TOP LOG INTERVAL
 CS  .IN            8.625:   CASING SIZE
 CBD .F                40:   CASING BOTTOM DRILLER
 BS  .IN            7.875:   BIT SIZE
 BSD .F               990:   BIT SIZE AT DEPTH
 DFT .                KCL:   DRILLING FLUID TYPE
 DFD .                8.7:   DRILLING FLUID DENSITY
 DFV .                 34:   DRILLING FLUID VISCOSITY
 DFPH.                  9:   DRILLING FLUID PH
 DFL .                  8:   DRILLING FLUID LOSS
 MSS .          FLOW LINE:   MUD SAMPLE SOURCE
 RMS .OHMM             .4:   RESISTIVITY MUD SAMPLE
 MST .F                79:   MUD SAMPLE TEMPERATURE
 RMF .OHMM            .12:   RESISTIVITY MUD FILTRATE SAMPLE
 MFST.F                84:   MUD FILTRATE SAMPLE TEMPERATURE
 RMC .OHMM            .34:   RESISTIVITY MUD CAKE
 MCST.F                84:   MUD CAKE SAMPLE TEMPERATURE
 MFSS.               MEAS:   MUD FILTRATE SAMPLE SOURCE
 MCSS.               MEAS:   MUD CAKE SAMPLE SOURCE
 TCS .HRS               3:   TIME CURCULATED STOPPED
 LUN .               2958:   LOGGING UNIT NUMBER
 LUL .               CASP:   LOGGING UNIT LOCATION
 ENGI.             MILLER:   RECORDING ENGINEER
 WITN.              AMEND:   WITNESSED BY
 CLNT.            A2DTECH:   CLIENT CODE
 ORIG.           5" PRINT:   ORIGIN OF DATA
 UWI .       490251069700:   UNIQUE WELL ID
 DICO. A2D Technologies, Inc.:   DIGITIZING COMPANY
~OTHER INFORMATION
~A   DEPT      SPR         SN        ILD       CALD        GRD       RHOB       CORR       DPHI   
# ...
  877.5000   -30.1175     9.0998    11.2468     7.7571   116.3735     2.5308     0.0394     0.1082
  878.0000   -30.1029     8.9808    11.2468     7.7157   113.7425     2.5047     0.0486     0.1185
  878.5000   -30.6842     8.9337    11.2468     7.6741   109.0747     2.4784     0.0778     0.1220
  879.0000   -31.3417     8.9356    11.2468     7.6324   104.4339     2.4727     0.1055     0.1022
  879.5000   -32.0012     8.6812    10.9363     7.5914    99.7609     2.4878     0.1278     0.0935
  880.0000   -32.6590     8.3759    10.4383     7.5126    98.7731     2.5063     0.1137     0.0894
  880.5000   -33.3158     8.0809     9.9630     7.4128    99.2227     2.5145     0.0949     0.0853
  881.0000   -34.0451     7.7964     9.5286     7.3772   100.8150     2.5185     0.0757     0.0840
  881.5000   -35.1370     7.5213     9.3849     7.3090   103.1211     2.5161     0.0566     0.0872
  882.0000   -36.2485     7.3832     9.2492     7.2366   107.4646     2.5128     0.0377     0.0907
  882.5000   -37.3480     7.3125     9.1155     7.2021   114.7465     2.5120     0.0315     0.0928
  883.0000   -38.1065     7.2425     8.9837     7.2437   122.0308     2.5129     0.0314     0.0891
  883.5000   -38.1640     7.1730     8.8538     7.2839   128.8833     2.5172     0.0315     0.0857
  884.0000   -38.2352     7.1042     8.7258     7.3241   130.0895     2.5237     0.0314     0.0819
  884.5000   -38.3040     7.0312     8.5996     7.3643   127.3049     2.5303     0.0294     0.0817
  885.0000   -38.3732     7.0312     8.4753     7.4044   124.5834     2.5292     0.0212     0.0941
  885.5000   -38.4425     7.0354     8.3528     7.4420   125.1347     2.5181     0.0154     0.1031
  886.0000   -38.5117     7.0410     8.2926     7.4726   127.6130     2.5076     0.0159     0.1036
  886.5000   -38.5809     7.0467     8.2809     7.5029   129.6751     2.4998     0.0163     0.0976
  887.0000   -38.6502     7.0524     8.2692     7.5333   130.2572     2.5001     0.0167     0.0930
  887.5000   -38.7195     7.0581     8.2575     7.5636   129.9206     2.5041     0.0171     0.0884
  888.0000   -38.7889     7.0637     8.2458     7.5940   129.6104     2.5130     0.0175     0.0838
  888.5000   -38.8579     7.0694     8.2342     7.6243   129.9424     2.5215     0.0158     0.0792
  889.0000   -38.8722     7.0751     8.2226     7.6548   133.7661     2.5299     0.0139     0.0758
  889.5000   -38.8782     7.0808     8.2110     7.6848   137.0481     2.5387     0.0119     0.0779
  890.0000   -38.8842     7.0864     8.1994     7.7289   136.4037     2.5426     0.0143     0.0804
  890.5000   -38.8902     7.0924     8.1878     7.7785   135.0829     2.5378     0.0180     0.0830
  891.0000   -38.8963     7.0959     8.1763     7.8169   135.6956     2.5308     0.0216     0.0855
  891.5000   -38.9023     7.0259     8.1647     7.8181   136.6830     2.5236     0.0204     0.0881
  892.0000   -38.9084     6.9717     8.1533     7.8200   136.2199     2.5200     0.0191     0.0895
  892.5000   -38.9144     6.9177     8.1476     7.8219   135.8642     2.5230     0.0177     0.0843
  893.0000   -38.9204     6.8642     8.1476     7.8239   136.2596     2.5261     0.0200     0.0788
  893.5000   -38.9265     6.8111     8.0729     7.8258   136.6487     2.5272     0.0262     0.0728
  894.0000   -38.9325     6.7769     7.9189     7.8277   136.9089     2.5374     0.0325     0.0724
  894.5000   -38.9386     6.7854     7.7591     7.8297   137.2465     2.5499     0.0371     0.0811
  895.0000   -38.9446     6.7917     7.6025     7.8316   137.2996     2.5492     0.0353     0.0890
  895.5000   -38.9507     6.7981     7.4490     7.8334   136.6307     2.5346     0.0334     0.0976
  896.0000   -38.9567     6.8044     7.2987     7.8348   136.0433     2.5203     0.0342     0.1003
  896.5000   -38.9628     6.8108     7.1514     7.8568   136.1633     2.5057     0.0371     0.1016
  897.0000   -38.9688     6.8171     7.0963     7.8807   138.2513     2.4999     0.0398     0.0957
  897.5000   -38.9749     6.8234     7.1619     7.9046   139.2448     2.5007     0.0430     0.0904
  898.0000   -38.9809     6.8298     7.2282     7.9288   140.9508     2.5154     0.0316     0.0884
  898.5000   -38.9870     6.8362     7.2730     7.9358   142.7670     2.5200     0.0154     0.0894
  899.0000   -38.9930     6.8800     7.3715     7.9359   144.0680     2.5201     0.0032     0.0908
  899.5000   -38.9991     6.9667     7.4714     7.9359   143.7519     2.5192     0.0019     0.0912
  900.0000   -39.0051     7.0545     7.5727     7.9359   141.4814     2.5182     0.0004     0.0896
  900.5000   -39.0112     7.1434     7.6753     7.9359   139.2642     2.5189    -0.0011     0.0860
  901.0000   -39.0172     7.2334     7.7794     7.9359   137.0936     2.5229    -0.0026     0.0865
  901.5000   -39.0233     7.2947     7.8848     7.9359   136.7292     2.5269    -0.0041     0.0874
  902.0000   -39.0293     7.2913     7.9989     7.9359   137.1750     2.5262    -0.0045     0.0883
  902.5000   -39.0354     7.2885     8.0044     7.9359   138.2500     2.5237    -0.0038     0.0892
  903.0000   -39.0414     7.2857     8.0103     7.9359   139.3261     2.5211    -0.0007     0.0900
  903.5000   -39.0475     7.2829     8.0162     7.9359   139.8631     2.5208     0.0022     0.0904
  904.0000   -39.0538     7.2801     8.0221     7.9359   138.7203     2.5207     0.0051     0.0902
  904.5000   -39.0609     7.2773     8.0280     7.9359   134.6381     2.5205     0.0080     0.0900
  905.0000   -39.0596     7.2744     8.0339     7.9359   133.4789     2.5204     0.0096     0.0899
  905.5000   -38.8661     7.2716     8.0399     7.9359   133.5649     2.5202     0.0099     0.0897
  906.0000   -38.6643     7.2688     8.0458     7.9359   134.2933     2.5201     0.0102     0.0889
  906.5000   -38.4629     7.2660     8.0517     7.9359   134.9991     2.5199     0.0104     0.0878
  907.0000   -38.2614     7.2632     8.0577     7.9359   135.6399     2.5211     0.0107     0.0868
  907.5000   -38.0749     7.2604     8.0639     7.9359   135.4743     2.5235     0.0109     0.0856
  908.0000   -38.0705     7.2576     8.0693     7.9361   135.0821     2.5259     0.0112     0.0839
  908.5000   -38.0714     7.2548     8.0738     7.9276   134.6885     2.5287     0.0114     0.0812
  909.0000   -38.0716     7.2520     7.9513     7.9181   135.0480     2.5315     0.0148     0.0804
  909.5000   -38.0717     7.2492     7.8544     7.9086   135.5066     2.5340     0.0186     0.0806
  910.0000   -38.0720     7.2464     7.7584     7.8988   135.8588     2.5350     0.0225     0.0810
  910.5000   -38.0709     7.2436     7.6636     7.9013   135.8603     2.5346     0.0232     0.0815
  911.0000   -37.9782     7.2408     7.5700     7.9093   136.3067     2.5343     0.0229     0.0820
  911.5000   -37.8750     7.2380     7.4776     7.9175   137.3072     2.5340     0.0226     0.0824
  912.0000   -37.7719     7.2351     7.4307     7.9257   138.3409     2.5338     0.0223     0.0840
  912.5000   -37.6689     7.2324     7.4383     7.9338   137.1501     2.5301     0.0220     0.0855
  913.0000   -37.5658     7.2284     7.4537     7.9420   134.9117     2.5265     0.0216     0.0870
  913.5000   -37.4626     7.2336     7.4691     7.9502   133.6184     2.5229     0.0213     0.0885
  914.0000   -37.3598     7.2441     7.4845     7.9583   134.4547     2.5192     0.0210     0.0896
  914.5000   -37.2805     7.2546     7.4999     7.9665   135.4059     2.5189     0.0207     0.0896
  915.0000   -37.3201     7.2651     7.5154     7.9748   136.3635     2.5220     0.0203     0.0878
  915.5000   -37.3577     7.2757     7.5310     7.9713   137.3147     2.5253     0.0200     0.0858
  916.0000   -37.3949     7.2862     7.5465     7.9643   137.8759     2.5286     0.0197     0.0838
  916.5000   -37.4326     7.2968     7.5620     7.9571   137.9505     2.5319     0.0196     0.0818
  917.0000   -37.4727     7.3074     7.5778     7.9500   138.0249     2.5320     0.0202     0.0808
  917.5000   -37.3643     7.3180     7.5936     7.9428   138.3358     2.5320     0.0207     0.0824
