~VERSION INFORMATION
 VERS.                2.0:   CWLS LOG ASCII STANDARD - VERSION 2.0
 WRAP.                 NO:   ONE LINE PER DEPTH STEP
~WELL INFORMATION
#MNEM.UNIT      DATA TYPE    INFORMATION
#----------   ------------   ------------------------------
 STRT.F           40.0000:   START DEPTH
 STOP.F          950.5000:   STOP DEPTH
 STEP.F            0.5000:   STEP LENGTH
 NULL.          -999.2500:   NO VALUE
 COMP. FENIX & SCISSON INC:   COMPANY
 WELL.       NPR 3 #44-14:   WELL
 FLD .             TEAPOT:   FIELD
 LOC .      S14 T38N R78W:   LOCATION
 CNTY.            NATRONA:   COUNTY
 STAT.            WYOMING:   STATE
 CTRY. UNITED STATES OF AMERICA:   COUNTRY
 SRVC.            Unknown:   SERVICE COMPANY
 DATE.        05-JAN-1979:   LOGDATE
 API .       490251076100:   API NUMBER
~CURVE INFORMATION
#MNEM.UNIT       API CODE    CURVE DESCRIPTION
#----------   ------------   ------------------------------
 DEPT.F                  :   
 SPR .MV     05 010 01 00:   SPONTANEOUS POTENTIAL FROM RES.
 SN  .OHMM   05 040 16 00:   SHORT NORMAL 16"
 IL  .OHMM   05 120 00 00:   INDUCTION LOG
 CALD.IN     45 280 60 00:   CALIPER
 GRD .GAPI   45 310 01 00:   GAMMA RAY FROM DENSITY LOG
 RHOB.G/C3   45 350 01 00:   BULK DENSITY
 DPHI.DEC    45 890 12 00:   DENSITY POROSITY SANDSTONE
 CORR.G/C3   45 356 01 00:   DENSITY CORRECTION
~PARAMETER INFORMATION
#MNEM.UNIT          VALUE    DESCRIPTION
#----------   ------------   ------------------------------
 PD  .                 GL:   PERMANENT DATUM
 EPD .F              5266:   ELEVATION PERMANENT DATUM
 LMF .                 KB:   LOG MEASURED FROM
 DAPD.F                 4:   FEET ABOVE PERMANENT DATUM
 DMF .                 KB:   DRILLING MEASURED FROM
 EKB .F              5270:   KELLING BUSHING
 EGL .F              5266:   GROUND LEVEL
 DATE.             1-5-79:   RUN DATE
 RUN .                  1:   RUN NUMBER
 DD  .F               950:   DEPTH DRILLER
 DL  .F               943:   DEPTH LOGGER
 BLI .F               937:   BOTTOM LOG INTERVAL
 TLI .F                40:   TOP LOG INTERVAL
 CS  .IN            8.625:   CASING SIZE
 CBL .F                40:   CASING BOTTOM LOGGER
 BS  .IN            7.875:   BIT SIZE
 BSD .F               950:   BIT SIZE AT DEPTH
 DFT .                KCL:   DRILLING FLUID TYPE
 DFV .                 42:   DRILLING FLUID VISCOSITY
 DFL .               10.5:   DRILLING FLUID LOSS
 MSS .           FLOWLINE:   MUD SAMPLE SOURCE
 RMS .OHMM            .23:   RESISTIVITY MUD SAMPLE
 RMF .OHMM            .23:   RESISTIVITY MUD FILTRATE SAMPLE
 RMC .OHMM             .2:   RESISTIVITY MUD CAKE
 MFSS.           MEASURED:   MUD FILTRATE SAMPLE SOURCE
 MCSS.           MEASURED:   MUD CAKE SAMPLE SOURCE
 RMB .OHMM             .2:   RESISTIVITY MUD AT BHT
 BHT .F                70:   BOTTOM HOLE TEMPERATURE
 TCS .HRS               5:   TIME CURCULATED STOPPED
 MRT .F                70:   MAXIMUM RECORDED TEMPERATURE
 LUL .             CASPER:   LOGGING UNIT LOCATION
 ENGI.             MILLER:   RECORDING ENGINEER
 WITN.           DINSMORE:   WITNESSED BY
 CLNT.            A2DTECH:   CLIENT CODE
 ORIG.           5" PRINT:   ORIGIN OF DATA
 UWI .       490251076100:   UNIQUE WELL ID
 DICO. A2D Technologies, Inc.:   DIGITIZING COMPANY
~OTHER INFORMATION
~A   DEPT      SPR           SN         IL     CALD        GRD       RHOB       DPHI       CORR   
# ...
  769.0000   -20.8070    10.0270    14.9080     7.8640    60.3930     2.3760     0.1930     0.0840
  769.5000   -21.5330    10.0170    14.8560     7.8530    63.4560     2.3670     0.1960     0.0820
  770.0000   -22.2420    10.0170    14.8050     7.8380    68.2220     2.3620     0.1990     0.0820
  770.5000   -22.8560    10.1090    14.7530     7.8220    72.9950     2.3630     0.1960     0.0870
  771.0000   -23.1170    10.2390    14.7020     7.8060    75.7460     2.3910     0.1810     0.0970
  771.5000   -23.3870    10.3750    14.6510     7.7910    75.3140     2.4080     0.1680     0.1060
  772.0000   -23.6580    10.5100    14.6120     7.7750    72.6230     2.4190     0.1640     0.0920
  772.5000   -23.9070    10.6460    14.8760     7.7590    67.0870     2.4180     0.1660     0.0750
  773.0000   -24.1420    10.7810    15.1520     7.7440    67.3930     2.4150     0.1650     0.0580
  773.5000   -24.3760    10.9170    15.0720     7.7280    71.0650     2.4190     0.1620     0.0440
  774.0000   -24.6110    11.0520    14.8970     7.7120    70.8510     2.4320     0.1600     0.0310
  774.5000   -24.8460    11.1850    14.7230     7.6970    68.2780     2.4310     0.1580     0.0170
  775.0000   -25.0830    11.0730    14.5490     7.6810    66.4150     2.4260     0.1590     0.0140
  775.5000   -25.3110    10.9620    14.3740     7.6660    66.8110     2.4280     0.1600     0.0130
  776.0000   -24.8550    10.8520    14.2000     7.6500    73.4250     2.4230     0.1610     0.0130
  776.5000   -24.3740    10.7420    14.0260     7.6340    82.0710     2.4170     0.1620     0.0120
  777.0000   -23.9730    10.6310    13.8510     7.6180    84.7510     2.4230     0.1610     0.0160
  777.5000   -23.5710    10.5210    13.6770     7.6040    83.1810     2.4290     0.1590     0.0200
  778.0000   -23.2010    10.4880    13.5030     7.6160    79.6160     2.4120     0.1680     0.0150
  778.5000   -23.5180    10.4880    13.3280     7.6290    75.2850     2.3920     0.1780     0.0100
  779.0000   -22.9960    10.4880    13.1990     7.6420    72.4800     2.3770     0.1870     0.0040
  779.5000   -22.3380    10.4880    13.2750     7.6550    69.6310     2.3770     0.1900     0.0060
  780.0000   -22.1780    10.4880    13.3900     7.6680    67.6450     2.3770     0.1910     0.0090
  780.5000   -22.0080    10.4880    13.5060     7.6800    72.0310     2.3760     0.1910     0.0110
  781.0000   -22.3750    10.4880    13.6220     7.6120    77.3010     2.3740     0.1920     0.0120
  781.5000   -22.6260    10.4880    13.6940     7.5320    76.6040     2.3730     0.1930     0.0120
  782.0000   -22.7150    10.4880    13.5190     7.4980    75.6930     2.3720     0.1890     0.0180
  782.5000   -22.8040    10.4880    13.3690     7.4880    77.9220     2.3840     0.1810     0.0270
  783.0000   -22.8920    10.4880    13.2200     7.4710    79.2400     2.3960     0.1780     0.0330
  783.5000   -22.9900    10.4880    13.0700     7.4500    78.8260     2.3890     0.1830     0.0260
  784.0000   -23.3330    10.4880    12.8400     7.4280    79.5010     2.3800     0.1890     0.0190
  784.5000   -23.6770    10.4880    12.9670     7.4070    80.1770     2.3710     0.1960     0.0130
  785.0000   -23.9660    10.4880    13.2390     7.3860    78.8580     2.3620     0.2030     0.0090
  785.5000   -23.9210    10.4880    13.5110     7.4030    76.2620     2.3580     0.2000     0.0120
  786.0000   -23.8820    10.4880    13.7830     7.4790    78.3620     2.3690     0.1940     0.0160
  786.5000   -23.8450    10.4880    13.9940     7.5540    83.0140     2.3820     0.1830     0.0250
  787.0000   -23.8080    10.4880    14.1090     7.6280    85.5400     2.3940     0.1730     0.0280
  787.5000   -23.7650    10.4880    14.2240     7.7020    83.0440     2.4050     0.1720     0.0240
  788.0000   -23.4760    10.4880    14.3390     7.7630    80.9950     2.3990     0.1760     0.0230
  788.5000   -23.1540    10.4880    14.4540     7.8240    78.2940     2.3920     0.1800     0.0250
  789.0000   -22.8370    10.4880    14.6050     7.8850    78.1620     2.3850     0.1840     0.0280
  789.5000   -22.6760    10.4890    14.4150     7.9460    78.8690     2.3810     0.1870     0.0310
  790.0000   -23.1360    10.4880    14.2150     8.0000    80.4200     2.3850     0.1840     0.0370
  790.5000   -23.5910    10.4880    14.0150     8.0010    77.2880     2.3830     0.1790     0.0420
  791.0000   -23.5700    10.6940    13.8210     8.0010    72.6500     2.3820     0.1820     0.0510
  791.5000   -23.4210    10.9400    14.2630     8.0010    70.5520     2.3840     0.1860     0.0610
  792.0000   -23.5730    11.1860    14.8760     8.0010    75.1660     2.3990     0.1780     0.0750
  792.5000   -23.7190    11.4310    14.8320     7.9980    75.3650     2.4230     0.1620     0.1010
  793.0000   -23.8640    11.6770    14.7570     7.9190    71.8350     2.4890     0.1250     0.1340
  793.5000   -23.9670    12.0400    14.6810     7.8390    66.1750     2.5630     0.0880     0.1650
  794.0000   -23.9560    11.8820    14.6060     7.8200    62.4370     2.6120     0.0480     0.1370
  794.5000   -23.7890    11.5820    14.5310     7.9520    64.7160     2.5780     0.0700     0.0740
  795.0000   -23.6180    11.2830    14.4550     8.0790    68.9280     2.5330     0.0930     0.0420
  795.5000   -23.7260    10.9830    14.3800     8.2040    74.9450     2.4970     0.1190     0.0370
  796.0000   -23.9530    10.6840    14.3390     8.2200    80.2870     2.4640     0.1440     0.0380
  796.5000   -24.1820    10.3920    14.0970     8.2200    77.3010     2.4310     0.1690     0.0390
  797.0000   -24.4100    10.3080    13.8660     8.2200    73.7630     2.4000     0.1720     0.0410
  797.5000   -24.4500    10.2250    13.6350     8.2200    71.8990     2.3960     0.1730     0.0420
  798.0000   -24.1830    10.1430    13.4260     8.2200    73.7570     2.4000     0.1730     0.0460
  798.5000   -24.5350    10.0610    13.3170     8.2200    75.4110     2.4050     0.1720     0.0460
  799.0000   -24.9180     9.9780    13.2090     8.2200    73.3930     2.4040     0.1720     0.0410
  799.5000   -24.6520     9.8960    13.1000     8.1980    76.7770     2.3960     0.1740     0.0340
  800.0000   -24.1240     9.8140    12.9920     8.1560    79.4300     2.3880     0.1760     0.0290
  800.5000   -23.7730     9.7320    12.9590     8.1150    81.4210     2.3880     0.1770     0.0260
  801.0000   -23.4360     9.6550    12.9590     8.0730    81.7040     2.3940     0.1780     0.0280
  801.5000   -23.2540     9.6440    12.9590     8.0380    82.7820     2.4030     0.1740     0.0340
  802.0000   -23.6370     9.6340    12.9590     8.0280    81.5230     2.4050     0.1710     0.0380
  802.5000   -23.6510     9.6240    12.9590     8.0170    79.9770     2.3950     0.1780     0.0340
  803.0000   -23.4720     9.6140    12.9590     8.0060    79.1140     2.3870     0.1840     0.0300
  803.5000   -23.2940     9.6040    12.9590     7.9950    78.1930     2.3800     0.1910     0.0270
  804.0000   -23.3640     9.5940    12.9510     7.9840    78.4450     2.3740     0.1880     0.0300
  804.5000   -23.8770     9.5830    12.9010     7.9740    78.0170     2.3830     0.1830     0.0380
  805.0000   -24.3850     9.5730    12.8520     7.9620    76.3970     2.3930     0.1770     0.0460
  805.5000   -24.8900     9.5630    12.8020     7.9510    77.2700     2.4040     0.1700     0.0510
  806.0000   -25.2760     9.5490    12.7520     7.9400    78.9380     2.4200     0.1590     0.0560
  806.5000   -24.7580     9.5360    12.7030     7.9290    80.3520     2.4370     0.1460     0.0610
  807.0000   -24.2340     9.5220    12.6530     7.9210    79.3070     2.4500     0.1440     0.0590
  807.5000   -24.4290     9.5090    12.6040     7.9210    79.1590     2.4330     0.1540     0.0420
  808.0000   -24.7300     9.4960    12.5540     7.9210    78.9030     2.4160     0.1650     0.0250
  808.5000   -25.0360     9.4820    12.5040     7.9210    76.2760     2.3990     0.1780     0.0100
  809.0000   -25.1450     9.4690    12.4550     7.9210    76.9760     2.3940     0.1790     0.0100
