~VERSION INFORMATION
 VERS.                2.0:   CWLS LOG ASCII STANDARD - VERSION 2.0
 WRAP.                 NO:   ONE LINE PER DEPTH STEP
~WELL INFORMATION
#MNEM.UNIT      DATA TYPE    INFORMATION
#----------   ------------   ------------------------------
 STRT.F          502.0000:   START DEPTH
 STOP.F         5661.0000:   STOP DEPTH
 STEP.F            0.5000:   STEP LENGTH
 NULL.          -999.2500:   NO VALUE
 COMP. FENIX & SCISSON INC:   COMPANY
 WELL.   NPR 3 #32DX22-22:   WELL
 FLD .             TEAPOT:   FIELD
 LOC .      S22 T38N R78W:   LOCATION
 CNTY.            NATRONA:   COUNTY
 STAT.            WYOMING:   STATE
 CTRY. UNITED STATES OF AMERICA:   COUNTRY
 SRVC.       Schlumberger:   SERVICE COMPANY
 DATE.        29-NOV-1978:   LOGDATE
 API .       490251073100:   API NUMBER
~CURVE INFORMATION
#MNEM.UNIT       API CODE    CURVE DESCRIPTION
#----------   ------------   ------------------------------
 DEPT.F                  :   
 SPR .MV     07 010 01 00:   SPONTANEOUS POTENTIAL
 GRR .GAPI   07 310 01 00:   GAMMA RAY FROM RES. LOG.
 SFL .OHMM   07 220 01 00:   SHALLOW FOCUSED LOG RESISTIVITY
 ILD .OHMM   07 120 46 00:   INDUCTION LOG DEEP
 ILM .OHMM   07 120 44 00:   INDUCTION LOG MEDIUM
 NPHI.DEC    42 890 03 00:   NEUTRON POROSITY SANDSTONE
 DPHI.DEC    45 890 12 00:   DENSITY POROSITY SANDSTONE
 RHOB.G/C3   45 350 01 00:   BULK DENSITY
 CORR.G/C3   45 356 01 00:   DENSITY CORRECTION
 CALD.IN     45 280 60 00:   CALIPER
~PARAMETER INFORMATION
#MNEM.UNIT          VALUE    DESCRIPTION
#----------   ------------   ------------------------------
 PD  .                 GL:   PERMANENT DATUM
 EPD .F              5514:   ELEVATION PERMANENT DATUM
 LMF .                 KB:   LOG MEASURED FROM
 DAPD.F                10:   FEET ABOVE PERMANENT DATUM
 DMF .                 KB:   DRILLING MEASURED FROM
 EKB .F              5524:   KELLING BUSHING
 EGL .F              5514:   GROUND LEVEL
 DATE.           11-29-78:   RUN DATE
 RUN .                  1:   RUN NUMBER
 DD  .F              5680:   DEPTH DRILLER
 DL  .F              5667:   DEPTH LOGGER
 BLI .F              5661:   BOTTOM LOG INTERVAL
 TLI .F               530:   TOP LOG INTERVAL
 CS  .IN            8.625:   CASING SIZE
 CBD .F               513:   CASING BOTTOM DRILLER
 CBL .F               530:   CASING BOTTOM LOGGER
 BS  .IN            7.875:   BIT SIZE
 BSD .F              5680:   BIT SIZE AT DEPTH
 DFT .                FGM:   DRILLING FLUID TYPE
 DFD .                9.2:   DRILLING FLUID DENSITY
 DFV .                 50:   DRILLING FLUID VISCOSITY
 DFPH.               11.5:   DRILLING FLUID PH
 DFL .                6.8:   DRILLING FLUID LOSS
 MSS .               TANK:   MUD SAMPLE SOURCE
 RMS .OHMM           1.45:   RESISTIVITY MUD SAMPLE
 MST .F                56:   MUD SAMPLE TEMPERATURE
 RMF .OHMM           1.16:   RESISTIVITY MUD FILTRATE SAMPLE
 MFST.F                56:   MUD FILTRATE SAMPLE TEMPERATURE
 MFSS.               MEAS:   MUD FILTRATE SAMPLE SOURCE
 RMB .OHMM            .62:   RESISTIVITY MUD AT BHT
 BHT .F               132:   BOTTOM HOLE TEMPERATURE
 TCS .HRS            0700:   TIME CURCULATED STOPPED
 TLAB.HRS            1200:   TIME LOGGER AT BOTTOM
 MRT .F               132:   MAXIMUM RECORDED TEMPERATURE
 LUN .               8039:   LOGGING UNIT NUMBER
 LUL .               CSPR:   LOGGING UNIT LOCATION
 ENGI.           STADULIS:   RECORDING ENGINEER
 WITN.           DINSMORE:   WITNESSED BY
 CLNT.            A2DTECH:   CLIENT CODE
 ORIG.       2", 5" PRINT:   ORIGIN OF DATA
 UWI .       490251073100:   UNIQUE WELL ID
 DICO. A2D Technologies, Inc.:   DIGITIZING COMPANY
~OTHER INFORMATION
~A   DEPT      SPR         GRR       SFL        ILD        ILM       NPHI       DPHI       RHOB       CORR       CALD   
# ...
  535.5000   -11.0083    99.1213     7.7940   350.9920    12.8708  -999.2500  -999.2500  -999.2500  -999.2500  -999.2500
  536.0000   -11.0708   103.7799     7.4186     8.8734     9.5937  -999.2500  -999.2500  -999.2500  -999.2500  -999.2500
  536.5000   -11.1436   108.4666     7.0857     7.1372     7.1533  -999.2500  -999.2500  -999.2500  -999.2500  -999.2500
  537.0000   -11.2023   108.0786     6.9928     7.0832     7.4332  -999.2500  -999.2500  -999.2500  -999.2500  -999.2500
  537.5000   -10.9228   103.4423     6.9070     7.0209     7.9521  -999.2500  -999.2500  -999.2500  -999.2500  -999.2500
  538.0000   -10.6221   100.9521     6.6966     7.9111     8.9142  -999.2500  -999.2500  -999.2500  -999.2500  -999.2500
  538.5000   -10.5462   100.7303     6.4640     9.0006     8.2528  -999.2500  -999.2500  -999.2500  -999.2500  -999.2500
  539.0000   -10.4686   100.3990     6.4049     9.4191     7.4158  -999.2500  -999.2500  -999.2500  -999.2500  -999.2500
  539.5000   -10.3888    98.2153     6.8744     8.7474     6.9567  -999.2500  -999.2500  -999.2500  -999.2500  -999.2500
  540.0000   -10.3088    95.8700     7.6346     8.2403     7.9111  -999.2500  -999.2500  -999.2500  -999.2500  -999.2500
  540.5000   -10.2287    94.5728     8.4788     8.0546     7.7949  -999.2500  -999.2500  -999.2500  -999.2500  -999.2500
  541.0000   -10.1487    93.5593     8.7520     8.0549     7.6557  -999.2500  -999.2500  -999.2500  -999.2500  -999.2500
  541.5000   -10.0686    92.4886     8.3187     8.2626     7.5164  -999.2500  -999.2500  -999.2500  -999.2500  -999.2500
  542.0000    -9.9879    89.8378     7.6231     8.6574     7.3941  -999.2500  -999.2500  -999.2500  -999.2500  -999.2500
  542.5000    -9.9093    87.2314     7.0290     8.5500     7.2215  -999.2500  -999.2500  -999.2500  -999.2500  -999.2500
  543.0000    -9.8222    87.8094     6.6905     8.4166     7.0536  -999.2500  -999.2500  -999.2500  -999.2500  -999.2500
  543.5000   -10.2961    90.2501     6.4049     8.2851     6.9570  -999.2500  -999.2500  -999.2500  -999.2500  -999.2500
  544.0000   -11.0842    93.1119     6.4976     8.1559     7.0281  -999.2500  -999.2500  -999.2500  -999.2500  -999.2500
  544.5000   -11.8813    93.8908     6.5818     8.1173     7.1251  -999.2500  -999.2500  -999.2500  -999.2500  -999.2500
  545.0000   -12.6801    92.2744     6.6671     8.0991     7.2235  -999.2500  -999.2500  -999.2500  -999.2500  -999.2500
  545.5000   -13.2581    90.2158     6.7545     8.0808     7.2836  -999.2500  -999.2500  -999.2500  -999.2500  -999.2500
  546.0000   -13.7885    89.2446     6.8398     8.0578     7.2491  -999.2500  -999.2500  -999.2500  -999.2500  -999.2500
  546.5000   -14.3182    88.4551     6.9548     8.1657     7.2245  -999.2500  -999.2500  -999.2500  -999.2500  -999.2500
  547.0000   -14.8485    86.9655     7.0217     8.2825     7.2000  -999.2500  -999.2500  -999.2500  -999.2500  -999.2500
  547.5000   -15.3788    85.4660     6.9985     8.2442     7.1758  -999.2500  -999.2500  -999.2500  -999.2500  -999.2500
  548.0000   -15.9095    84.7823     6.9249     8.2129     7.1508  -999.2500  -999.2500  -999.2500  -999.2500  -999.2500
  548.5000   -16.4402    86.4844     6.8520     8.0827     7.0399  -999.2500  -999.2500  -999.2500  -999.2500  -999.2500
  549.0000   -16.9676    88.2827     6.6847     7.9324     6.9305  -999.2500  -999.2500  -999.2500  -999.2500  -999.2500
  549.5000   -17.2753    88.0113     6.4817     7.7849     6.8228  -999.2500  -999.2500  -999.2500  -999.2500  -999.2500
  550.0000   -17.2731    85.8890     6.2849     7.6401     6.7168  -999.2500  -999.2500  -999.2500  -999.2500  -999.2500
  550.5000   -17.2811    84.3432     6.0940     7.4882     6.6127  -999.2500  -999.2500  -999.2500  -999.2500  -999.2500
  551.0000   -16.8960    85.6888     5.9732     7.5075     6.5133  -999.2500  -999.2500  -999.2500  -999.2500  -999.2500
  551.5000   -16.3681    87.7542     5.9113     7.5312     6.4450  -999.2500  -999.2500  -999.2500  -999.2500  -999.2500
  552.0000   -16.2412    88.6412     5.8969     7.5561     6.4049  -999.2500  -999.2500  -999.2500  -999.2500  -999.2500
  552.5000   -16.2131    89.5507     5.9331     7.7910     6.8742  -999.2500  -999.2500  -999.2500  -999.2500  -999.2500
  553.0000   -16.1872    93.3894     6.2887     8.0380     7.1858  -999.2500  -999.2500  -999.2500  -999.2500  -999.2500
  553.5000   -16.1602    94.3773     6.8860     8.2828     7.4347  -999.2500  -999.2500  -999.2500  -999.2500  -999.2500
  554.0000   -16.1327    94.5034     7.5401     8.4869     7.6258  -999.2500  -999.2500  -999.2500  -999.2500  -999.2500
  554.5000   -16.1047    89.8069     7.9111     8.6879     7.6258  -999.2500  -999.2500  -999.2500  -999.2500  -999.2500
  555.0000   -16.0805    85.8099     7.4738     8.7528     7.4837  -999.2500  -999.2500  -999.2500  -999.2500  -999.2500
  555.5000   -16.2274    85.6403     6.8795     8.7327     7.3525  -999.2500  -999.2500  -999.2500  -999.2500  -999.2500
  556.0000   -16.7499    91.2151     6.3981     8.5635     7.2244  -999.2500  -999.2500  -999.2500  -999.2500  -999.2500
  556.5000   -17.2662    97.5848     6.3483     8.3977     7.0987  -999.2500  -999.2500  -999.2500  -999.2500  -999.2500
  557.0000   -17.7791   103.3064     6.2990     8.2354     7.0209  -999.2500  -999.2500  -999.2500  -999.2500  -999.2500
  557.5000   -18.0502   100.3962     6.2309     8.0763     7.0413  -999.2500  -999.2500  -999.2500  -999.2500  -999.2500
  558.0000   -17.9662    94.3120     6.3718     7.9794     7.0587  -999.2500  -999.2500  -999.2500  -999.2500  -999.2500
  558.5000   -17.8776    91.5419     6.6106     7.9681     7.0761  -999.2500  -999.2500  -999.2500  -999.2500  -999.2500
  559.0000   -18.2467    93.7687     6.8931     7.9568     7.0857  -999.2500  -999.2500  -999.2500  -999.2500  -999.2500
  559.5000   -18.6702    95.4756     6.8140     7.9455     6.9876  -999.2500  -999.2500  -999.2500  -999.2500  -999.2500
  560.0000   -19.0933    97.0416     6.6467     7.9343     6.9208  -999.2500  -999.2500  -999.2500  -999.2500  -999.2500
  560.5000   -19.5170    97.7967     6.4066     7.9229     6.8546  -999.2500  -999.2500  -999.2500  -999.2500  -999.2500
  561.0000   -19.7860    94.3890     6.1175     7.9111     6.7891  -999.2500  -999.2500  -999.2500  -999.2500  -999.2500
  561.5000   -19.9499    90.0366     6.1569     7.8114     6.7242  -999.2500  -999.2500  -999.2500  -999.2500  -999.2500
  562.0000   -20.0892    85.6414     6.2309     7.6795     6.6599  -999.2500  -999.2500  -999.2500  -999.2500  -999.2500
  562.5000   -19.8387    84.0525     6.1506     7.6258     6.5962  -999.2500  -999.2500  -999.2500  -999.2500  -999.2500
  563.0000   -19.5775    85.9458     6.0498     7.7391     6.5838  -999.2500  -999.2500  -999.2500  -999.2500  -999.2500
  563.5000   -19.3187    88.6909     5.9506     8.0213     6.6911  -999.2500  -999.2500  -999.2500  -999.2500  -999.2500
  564.0000   -19.0732    91.2023     5.8969     8.3138     7.1668  -999.2500  -999.2500  -999.2500  -999.2500  -999.2500
  564.5000   -18.9860    89.3795     6.7603     8.5927     7.6764  -999.2500  -999.2500  -999.2500  -999.2500  -999.2500
  565.0000   -18.8926    80.4410     7.7316     8.7239     8.2071  -999.2500  -999.2500  -999.2500  -999.2500  -999.2500
  565.5000   -18.7991    73.8843     8.8425     8.8473     8.1321  -999.2500  -999.2500  -999.2500  -999.2500  -999.2500
  566.0000   -18.7086    71.9369     9.4191     8.9725     8.0270  -999.2500  -999.2500  -999.2500  -999.2500  -999.2500
  566.5000   -18.4603    75.0520     7.9894     9.0995     7.9232  -999.2500  -999.2500  -999.2500  -999.2500  -999.2500
  567.0000   -18.1718    81.3430     6.8931     9.2282     7.8388  -999.2500  -999.2500  -999.2500  -999.2500  -999.2500
  567.5000   -18.3431    86.3426     6.7059     9.3322     7.9402  -999.2500  -999.2500  -999.2500  -999.2500  -999.2500
  568.0000   -18.7306    86.2108     7.1420     9.1603     8.0275  -999.2500  -999.2500  -999.2500  -999.2500  -999.2500
  568.5000   -19.1242    83.1505     7.4876     8.9970     8.1157  -999.2500  -999.2500  -999.2500  -999.2500  -999.2500
