~VERSION INFORMATION
 VERS.                2.0:   CWLS LOG ASCII STANDARD - VERSION 2.0
 WRAP.                 NO:   ONE LINE PER DEPTH STEP
~WELL INFORMATION
#MNEM.UNIT      DATA TYPE    INFORMATION
#----------   ------------   ------------------------------
 STRT.F            0.0000:   START DEPTH
 STOP.F          547.0000:   STOP DEPTH
 STEP.F            0.1000:   STEP LENGTH
 NULL.          -999.2500:   NO VALUE
 COMP.     BROWN JOHN E&C:   COMPANY
 WELL.    NPR 3 #86-1-X-3:   WELL
 FLD .             TEAPOT:   FIELD
 LOC .       S3 T38N R78W:   LOCATION
 CNTY.            NATRONA:   COUNTY
 STAT.            WYOMING:   STATE
 CTRY. UNITED STATES OF AMERICA:   COUNTRY
 SRVC.     Atlas Wireline:   SERVICE COMPANY
 DATE.        09-FEB-1992:   LOGDATE
 API .       490252249800:   API NUMBER
~CURVE INFORMATION
#MNEM.UNIT       API CODE    CURVE DESCRIPTION
#----------   ------------   ------------------------------
 DEPT.F                  :   
 GRR .GAPI   07 310 01 00:   GAMMA RAY
 RFOC.OHMM   07 220 04 00:   RESISTIVITY FOCUSED LOG
 RILD.OHMM   07 120 46 00:   INDUCTION LOG DEEP RESISTIVITY
 RILM.OHMM   07 120 44 00:   INDUCTION LOG MEDIUM RESISTIVITY
 SPR .MV     07 010 01 00:   SPONTANEOUS POTENTIAL
~PARAMETER INFORMATION
#MNEM.UNIT          VALUE    DESCRIPTION
#----------   ------------   ------------------------------
 PD  .                 GL:   PERMANENT DATUM
 EPD .F              5145:   ELEVATION PERMANENT DATUM
 LMF .                 KB:   LOG MEASURED FROM
 DAPD.F                10:   FEET ABOVE PERMANENT DATUM
 DMF .                 KB:   DRILLING MEASURED FROM
 EKB .F              5155:   KELLING BUSHING
 EDF .F              5154:   DRILLING FLOOR
 EGL .F              5145:   GROUND LEVEL
 DATE.        09-FEB-1992:   RUN DATE
 RUN .                  1:   RUN NUMBER
 DD  .F               562:   DEPTH DRILLER
 DL  .F               550:   DEPTH LOGGER
 BLI .F               547:   BOTTOM LOG INTERVAL
 CS  .IN            8.625:   CASING SIZE
 CBD .F               183:   CASING BOTTOM DRILLER
 CBL .F               181:   CASING BOTTOM LOGGER
 BS  .IN            7.875:   BIT SIZE
 BSD .F               562:   BIT SIZE AT DEPTH
 DFT .            GEL BAR:   DRILLING FLUID TYPE
 DFD .               17.8:   DRILLING FLUID DENSITY
 DFV .                 52:   DRILLING FLUID VISCOSITY
 DFPH.                  9:   DRILLING FLUID PH
 DFL .                5.2:   DRILLING FLUID LOSS
 MSS .           FLOWLINE:   MUD SAMPLE SOURCE
 RMS .OHMM           1.78:   RESISTIVITY MUD SAMPLE
 MST .F                68:   MUD SAMPLE TEMPERATURE
 RMF .OHMM          1.335:   RESISTIVITY MUD FILTRATE SAMPLE
 MFST.F                68:   MUD FILTRATE SAMPLE TEMPERATURE
 RMC .OHMM          2.225:   RESISTIVITY MUD CAKE
 MCST.F                68:   MUD CAKE SAMPLE TEMPERATURE
 MFSS.               MEAS:   MUD FILTRATE SAMPLE SOURCE
 MCSS.               MEAS:   MUD CAKE SAMPLE SOURCE
 TCS .HRS               3:   TIME CURCULATED STOPPED
 LUN .            HL 6274:   LOGGING UNIT NUMBER
 LUL .             CASPER:   LOGGING UNIT LOCATION
 ENGI.       P. RASMUSSEN:   RECORDING ENGINEER
 WITN.          G. STRONG:   WITNESSED BY
 CLNT.            A2DTECH:   CLIENT CODE
 ORIG.           5" PRINT:   ORIGIN OF DATA
 UWI .       490252249800:   UNIQUE WELL ID
 DICO. A2D Technologies, Inc.:   DIGITIZING COMPANY
~OTHER INFORMATION
~A    DEPT      GRR      RFOC       RILD       RILM        SPR   
# ...
  439.2000    62.8514    17.2018    23.0567    19.2781   -34.5074
  439.3000    62.8531    17.1785    23.0576    19.3235   -34.3927
  439.4000    63.2145    16.9620    23.0587    19.3692   -34.3572
  439.5000    63.4600    16.9616    23.1830    19.4827   -34.3575
  439.6000    63.4618    16.9611    23.2222    19.5969   -34.3578
  439.7000    63.4341    16.9607    23.2232    19.7119   -34.3433
  439.8000    63.1639    16.9602    23.2674    20.0138   -34.2076
  439.9000    62.9345    16.9597    23.3880    20.2953   -34.0923
  440.0000    62.8658    16.9592    23.3891    20.5818   -34.0573
  440.1000    62.8676    17.0500    23.5158    20.9446   -33.9267
  440.2000    62.7076    17.1492    23.5550    21.3133   -33.7563
  440.3000    62.2064    17.3018    23.5560    21.6138   -33.7412
  440.4000    61.6665    17.5041    23.6015    21.8169   -33.6061
  440.5000    61.2037    17.7217    23.7232    22.0730   -33.4902
  440.6000    60.7023    18.0570    23.7242    22.3319   -33.4558
  440.7000    60.2009    18.3516    23.8535    22.5673   -33.3900
  440.8000    59.8636    18.9165    23.8925    22.6995   -33.2645
  440.9000    59.8655    19.7133    23.9671    22.7003   -33.1550
  441.0000    59.8674    20.6112    24.0621    22.8069   -33.1554
  441.1000    59.8691    21.4328    24.0812    22.8605   -33.0389
  441.2000    60.0543    22.1099    24.2329    22.8612   -32.9134
  441.3000    60.3077    22.7188    24.3657    22.8618   -32.8546
  441.4000    60.6444    23.2903    24.4048    22.8624   -32.8549
  441.5000    61.1493    23.7643    24.4817    22.8631   -32.8386
  441.6000    61.6882    24.1825    24.6739    22.8637   -32.7047
  441.7000    62.6286    24.6078    24.9445    22.8644   -32.7050
  441.8000    63.6368    25.0693    25.1009    22.8120   -32.6130
  441.9000    64.5105    25.2056    25.2391    22.7065   -32.5547
  442.0000    65.2671    25.2437    25.3877    22.7072   -32.5551
  442.1000    66.0579    25.2430    25.5372    22.7078   -32.5725
  442.2000    67.1289    25.2423    25.6875    22.7084   -32.7065
  442.3000    67.6024    25.1613    25.8387    22.7091   -32.9427
  442.4000    68.1074    24.5451    26.0000    22.7097   -33.2875
  442.5000    68.4766    23.4990    26.0010    22.6840   -33.5973
  442.6000    68.7300    22.4302    26.0021    22.5529   -33.8492
  442.7000    69.0190    21.3429    26.0032    22.5536   -34.1011
  442.8000    69.5530    20.3669    25.9526    22.4496   -34.3674
  442.9000    69.5547    19.7289    25.8241    22.3979   -34.6048
  443.0000    69.7436    19.4868    25.8254    22.3985   -34.8567
  443.1000    69.8600    19.2733    25.6849    22.3732   -35.0401
  443.2000    69.8618    19.2153    25.6477    22.2439   -35.1228
  443.3000    69.8637    19.2147    25.5674    22.2445   -35.1231
  443.4000    69.8656    19.2142    25.4199    22.1419   -35.1234
  443.5000    69.6290    19.2136    25.2732    22.0909   -35.2428
  443.6000    69.5674    19.2131    25.1199    22.0403   -35.2748
  443.7000    69.5692    19.2126    24.9824    21.9130   -35.2751
  443.8000    69.3949    19.2120    24.7304    21.7864   -35.2754
  443.9000    68.9693    19.2115    24.4449    21.6607   -35.2757
  444.0000    68.9714    19.1717    24.2118    21.5356   -35.2760
  444.1000    68.9732    19.0766    24.0720    21.4113   -35.2763
  444.2000    68.9750    19.0761    23.9267    21.2876   -35.2766
  444.3000    68.8374    18.9699    23.7951    21.1403   -35.2769
  444.4000    68.6769    18.8592    23.5544    20.8960   -35.2772
  444.5000    68.6395    18.7491    23.2825    20.7513   -35.2775
  444.6000    68.3790    18.6012    23.0136    20.5599   -35.2778
  444.7000    68.3807    18.4185    22.7476    20.3933   -35.2781
  444.8000    68.5732    18.4180    22.4738    20.1822   -35.2784
  444.9000    68.8266    18.2131    22.3496    19.8788   -35.3490
  445.0000    68.9894    18.0017    22.0259    19.7640   -35.4299
  445.1000    68.9913    17.7926    21.7859    19.4905   -35.4302
  445.2000    68.9931    17.5859    21.6150    19.4006   -35.4305
  445.3000    69.2368    17.4142    21.3852    19.2885   -35.4308
  445.4000    69.4902    17.4137    21.2573    19.1329   -35.4311
  445.5000    69.6018    17.2190    21.1392    18.9337   -35.4314
  445.6000    69.6953    17.1710    21.0173    18.8243   -35.4775
  445.7000    69.9071    17.0582    20.8960    18.8248   -35.5828
  445.8000    69.9090    16.9318    20.7754    18.8254   -35.5831
  445.9000    70.1539    16.8986    20.6754    18.7604   -35.5834
  446.0000    70.2142    16.6958    20.6765    18.6954   -35.5837
  446.1000    70.2160    16.6954    20.5611    18.6527   -35.5840
  446.2000    70.2178    16.6949    20.4425    18.4372   -35.5843
  446.3000    70.2196    16.6944    20.3245    18.4377   -35.5846
  446.4000    70.2215    16.6940    20.2509    18.4382   -35.5849
  446.5000    70.2232    16.7103    20.2315    18.4387   -35.5852
  446.6000    70.2250    16.8101    20.1116    18.3965   -35.5855
  446.7000    70.2268    16.8096    19.9988    18.3114   -35.5858
  446.8000    70.2287    16.8852    19.9732    18.3119   -35.5861
  446.9000    70.2305    16.9266    19.8411    18.3126   -35.5864
  447.0000    70.2323    16.9261    19.6976    18.3130   -35.5867
  447.1000    70.2341    16.9256    19.6782    18.2498   -35.5870
  447.2000    70.0404    16.9251    19.5621    18.1865   -35.5873
  447.3000    69.9361    17.0214    19.4518    18.1871   -35.5876
  447.4000    69.8425    17.1205    19.4275    18.1876   -35.6356
  447.5000    69.6377    17.1619    19.3629    18.1882   -35.7391
  447.6000    69.6399    17.1614    19.2938    18.1886   -35.7394
  447.7000    69.1480    17.1975    19.2946    18.1258   -35.6163
  447.8000    68.6468    17.4020    19.2955    18.0630   -35.5891
  447.9000    68.1454    17.4015    19.2963    18.0587   -35.5894
  448.0000    67.7406    17.4010    19.2971    18.0352   -35.5897
  448.1000    67.4908    17.4005    19.2979    18.0117   -35.5900
  448.2000    67.2374    17.4000    19.2987    17.9882   -35.5904
  448.3000    67.2392    17.3996    19.2995    17.9647   -35.5906
  448.4000    67.2410    17.3991    19.3003    17.9412   -35.5910
  448.5000    67.2428    17.3986    19.3011    17.9177   -35.5913
  448.6000    67.2446    17.3981    19.3019    17.8942   -35.5427
  448.7000    67.2465    17.3976    19.3027    17.8706   -35.4410
  448.8000    67.2483    17.3186    19.3035    17.8471   -35.4413
  448.9000    67.2501    17.1552    19.3259    17.8236   -35.3170
  449.0000    67.2519    17.1547    19.4405    17.8001   -35.2911
  449.1000    67.2537    17.0554    19.4414    17.7766   -35.2914
  449.2000    67.2555    16.9558    19.4422    17.7531   -35.2917
  449.3000    67.2573    16.8569    19.4430    17.7296   -35.2920
  449.4000    67.2591    16.7584    19.4887    17.7061   -35.2923
  449.5000    67.0105    16.6795    19.5810    17.6970   -35.2926
  449.6000    66.9611    16.6790    19.5818    17.6975   -35.1927
  449.7000    66.9629    16.6786    19.6968    17.7186   -35.1424
  449.8000    66.9647    16.6781    19.7208    17.8225   -35.1427
  449.9000    66.9665    16.6776    19.7216    17.8230   -35.1430
  450.0000    66.9683    16.7554    19.7224    17.8235   -35.1433
  450.1000    66.9705    16.9114    19.7366    17.8864   -34.9928
  450.2000    66.7704    16.9110    19.8037    17.9907   -34.9931
  450.3000    66.6721    16.9104    19.8709    18.0945   -34.9934
  450.4000    66.6739    16.9100    19.9380    18.1983   -34.9937
  450.5000    66.6757    16.9692    20.0052    18.3021   -34.9940
  450.6000    66.6775    17.0276    20.0723    18.4059   -34.9949
  450.7000    66.6797    17.0476    20.1395    18.4495   -35.1455
  450.8000    66.6811    17.1461    20.1560    18.4485   -35.1457
  450.9000    66.5303    17.1455    20.2253    18.4475   -35.1460
  451.0000    66.4857    17.1451    20.3450    18.4464   -35.1463
  451.1000    66.6866    17.2671    20.4457    18.5484   -35.1466
  451.2000    66.6884    17.3855    20.4478    18.5736   -35.1469
  451.3000    66.6905    17.3850    20.5642    18.5726   -35.1473
