~VERSION INFORMATION
 VERS.                2.0:   CWLS LOG ASCII STANDARD - VERSION 2.0
 WRAP.                 NO:   ONE LINE PER DEPTH STEP
~WELL INFORMATION
#MNEM.UNIT      DATA TYPE    INFORMATION
#----------   ------------   ------------------------------
 STRT.F            9.0000:   START DEPTH
 STOP.F          512.0000:   STOP DEPTH
 STEP.F            0.5000:   STEP LENGTH
 NULL.          -999.2500:   NO VALUE
 COMP. LAWRENCE-ALLISON &AS:   COMPANY
 WELL. NPR 3 #61-21SX10UP2:   WELL
 FLD .             TEAPOT:   FIELD
 LOC .      S10 T38N R78W:   LOCATION
 CNTY.            NATRONA:   COUNTY
 STAT.            WYOMING:   STATE
 CTRY. UNITED STATES OF AMERICA:   COUNTRY
 SRVC.      Dresser Atlas:   SERVICE COMPANY
 DATE.        13-DEC-1984:   LOGDATE
 API .       490251100500:   API NUMBER
~CURVE INFORMATION
#MNEM.UNIT       API CODE    CURVE DESCRIPTION
#----------   ------------   ------------------------------
 DEPT.F                  :   
 PORD.DEC    45 890 12 00:   POROSITY DENSITY SANDSTONE
 CNCF.DEC    42 890 03 00:   NEUTRON POROSITY SANDSTONE
 GRD .GAPI   45 310 01 00:   GAMMA RAY FROM DENSITY LOG
 CALD.IN     45 280 60 00:   CALIPER FROM DENSITY LOG
 CORR.G/C3   45 356 01 00:   DENSITY CORRECTION
 DEN .G/C3   45 350 01 00:   COMPENSATED BULK DENSTIY
 AC  .US/F   60 520 00 00:   ACCOUSTIC
 RILD.OHMM   07 120 46 00:   INDUCTION LOG DEEP RESISTIVITY
 RILM.OHMM   07 120 44 00:   INDUCTION LOG MEDIUM RESISTIVITY
 RFOC.OHMM   07 220 04 00:   RESISTIVITY FOCUSED LOG
 SPR .MV     11 010 01 00:   SPONTANEOUS POTENTIAL FROM RES.
 RS  .OHMM   11 220 09 00:   RESISTIVITY SHALLOW
 RD  .OHMM   11 220 10 00:   RESISTIVITY DEEP
~PARAMETER INFORMATION
#MNEM.UNIT          VALUE    DESCRIPTION
#----------   ------------   ------------------------------
 PD  .                 GL:   PERMANENT DATUM
 EPD .F              5157:   ELEVATION PERMANENT DATUM
 LMF .                 GL:   LOG MEASURED FROM
 DMF .                 GL:   DRILLING MEASURED FROM
 EGL .F              5157:   GROUND LEVEL
 DATE.         12-13-1984:   RUN DATE
 RUN .                  1:   RUN NUMBER
 DD  .F               514:   DEPTH DRILLER
 DL  .F               513:   DEPTH LOGGER
 BLI .F               512:   BOTTOM LOG INTERVAL
 TLI .F                20:   TOP LOG INTERVAL
 CS  .IN            8.625:   CASING SIZE
 CBD .F                20:   CASING BOTTOM DRILLER
 CBL .F                20:   CASING BOTTOM LOGGER
 BS  .IN            7.875:   BIT SIZE
 BSD .F               514:   BIT SIZE AT DEPTH
 DFT .          KCL WATER:   DRILLING FLUID TYPE
 MSS .           FLOWLINE:   MUD SAMPLE SOURCE
 RMS .OHMM            .17:   RESISTIVITY MUD SAMPLE
 MST .F                95:   MUD SAMPLE TEMPERATURE
 RMF .OHMM            .08:   RESISTIVITY MUD FILTRATE SAMPLE
 MFST.F                95:   MUD FILTRATE SAMPLE TEMPERATURE
 RMC .OHMM            .14:   RESISTIVITY MUD CAKE
 MCST.F                95:   MUD CAKE SAMPLE TEMPERATURE
 MFSS.               CALC:   MUD FILTRATE SAMPLE SOURCE
 MCSS.               CALC:   MUD CAKE SAMPLE SOURCE
 TCS .HRS              10:   TIME CURCULATED STOPPED
 MRT .F               100:   MAXIMUM RECORDED TEMPERATURE
 LUN .               6270:   LOGGING UNIT NUMBER
 LUL .                 FM:   LOGGING UNIT LOCATION
 ENGI.            LEBSOCK:   RECORDING ENGINEER
 WITN.        GREG GROOMS:   WITNESSED BY
 CLNT.            A2DTECH:   CLIENT CODE
 ORIG.           5" PRINT:   ORIGIN OF DATA
 UWI .       490251100500:   UNIQUE WELL ID
 DICO. A2D Technologies, Inc.:   DIGITIZING COMPANY
~OTHER INFORMATION
~A    DEPT    PORD       CNCF        GRD       CALD       CORR        DEN          AC      RILD       RILM       RFOC        SPR         RS         RD   
# ...
  477.0000     0.1273     0.2784   108.5118     7.6278    -0.0007     2.4738   101.4882     8.7667     7.4001     9.6945   -71.9892    10.3225    10.7597
  477.5000     0.1252     0.3074   108.8100     7.6274    -0.0159     2.4663   101.5696     8.7014     7.7672     9.7046   -71.9952    10.3176    10.7553
  478.0000     0.1210     0.3050   110.6142     7.6271    -0.0129     2.4718   101.6511     8.5768     8.0960     9.7061   -72.0012    10.3126    10.6764
  478.5000     0.1171     0.2997   110.0088     7.6117     0.0112     2.4800   101.7325     8.3953     8.2075     9.7699   -72.0071    10.3076    10.6720
  479.0000     0.1203     0.2999   106.3914     7.6114     0.0292     2.4834   101.7384     8.2750     7.7592     9.6971   -72.1630    10.2314    10.4475
  479.5000     0.1250     0.2894   101.8703     7.6111     0.0339     2.4743   101.7444     8.2708     7.3360     9.4928   -72.1690    10.1557    10.2991
  480.0000     0.1252     0.2861   104.5782     7.6108     0.0200     2.4683   101.7504     8.2092     7.0824     9.2927   -72.0251    10.0109    10.0825
  480.5000     0.1234     0.2831   109.0932     7.6105     0.0124     2.4721   101.9072     8.2633     6.9336     9.0338   -72.0311     9.7998    10.0086
  481.0000     0.1213     0.2765   111.4999     7.6254     0.0168     2.4774   102.1395     8.3156     7.0284     8.7821   -72.0370     9.5932     9.9352
  481.5000     0.1195     0.2696   111.1957     7.6250     0.0183     2.4812   102.3717     8.3113     7.1252     8.7176   -72.0430     9.5223     9.8623
  482.0000     0.1183     0.2678   109.6867     7.6247     0.0151     2.4820   102.3008     8.3661     7.2227     8.9650   -72.0490     9.7179     9.9961
  482.5000     0.1174     0.2684   108.4789     7.6396     0.0136     2.4820   102.0066     8.3028     7.2702     9.2177   -72.0550     9.9176    10.1318
  483.0000     0.1187     0.2699   109.6807     7.6392     0.0119     2.4828   101.7109     8.2985     7.2675     9.3998   -72.0600    10.1214    10.3419
  483.5000     0.1178     0.2732   112.3946     7.6389     0.0087     2.4851   101.3399     8.3521     7.2146     9.5276   -72.0636    10.1882    10.5553
  484.0000     0.1166     0.2796   113.7410     7.6235     0.0058     2.4849   100.9688     8.3478     7.1620     9.5892   -72.0649    10.2542    10.6974
  484.5000     0.1199     0.2852   111.9969     7.6081     0.0057     2.4812   100.6716     8.4604     7.1099     9.5188   -72.0661    10.1771    10.6189
  485.0000     0.1181     0.2908   107.1987     7.6078     0.0056     2.4806   100.9053     8.5764     7.0091     9.3182   -72.0674    10.1019    10.6145
  485.5000     0.1115     0.2965   105.9006     7.6075     0.0161     2.4916   101.3638     8.6901     6.9097     9.0586   -72.0687    10.0970    10.5366
  486.0000     0.1058     0.2984   107.3253     7.6223     0.0402     2.5035   101.5206     8.6855     6.8060     8.9920   -72.0699    10.0921    10.3870
  486.5000     0.1031     0.2945   110.3765     7.6371     0.0386     2.5078   101.6020     8.6809     6.6609     8.9883   -72.0712    10.0872    10.3108
  487.0000     0.1034     0.2848   112.6681     7.6368     0.0310     2.5061   101.6080     8.5557     6.5278     9.0483   -72.0724    10.0126    10.3065
  487.5000     0.1073     0.2806   112.2133     7.6365     0.0219     2.5024   101.6140     8.4331     6.3906     9.1078   -72.0737     9.9386    10.2309
  488.0000     0.1116     0.2885   110.5537     7.6356     0.0127     2.4964   101.6954     8.1975     6.2562     9.1676   -72.0750     9.7968    10.0856
  488.5000     0.1100     0.3078   108.1411     7.6208     0.0081     2.4928   102.0031     7.8038     6.1247     8.9735   -72.0762     9.7244     9.9423
  489.0000     0.1079     0.3060   107.0846     7.6205     0.0081     2.4958   102.6889     7.3776     5.9960     8.6630   -72.0775     9.4535     9.4665
  489.5000     0.1086     0.2973   108.4363     7.6202     0.0140     2.4973   103.6097     6.8783     5.9110     8.2475   -72.0788     8.9386     8.9511
  490.0000     0.1192     0.3046   110.3911     7.6198     0.0200     2.4891   104.9172     6.5480     5.7867     7.5308   -72.0800     8.2776     8.4052
  490.5000     0.1328     0.3027   113.2496     7.6347     0.0260     2.4627   106.4231     6.5903     5.7847     6.7812   -72.0813     7.6124     7.8926
  491.0000     0.1370     0.2967   114.0003     7.6343     0.0244     2.4484   107.1709     6.7266     5.8232     6.5923   -72.0825     7.2479     7.4112
  491.5000     0.1325     0.2895   111.2858     7.6340     0.0213     2.4529   106.1044     6.9120     6.0275     6.7980   -72.0838     7.1912     7.1057
  492.0000     0.1226     0.2865   107.0659     7.6337     0.0182     2.4725   104.1618     7.1529     6.3266     7.8333   -72.0851     7.8154     7.3538
  492.5000     0.1180     0.2859   108.4183     7.6184     0.0151     2.4809   102.6558     7.4023     6.6405     8.6371   -72.0863     8.5492     8.2148
  493.0000     0.1165     0.2871   109.4703     7.6030     0.0105     2.4847   102.2093     7.7138     7.0187     8.8167   -72.0876     9.2243     8.9251
  493.5000     0.1157     0.2853   109.0148     7.6027     0.0059     2.4854   101.6874     8.1510     7.4184     8.9981   -72.0889     9.7449     9.4312
  494.0000     0.1153     0.2896   109.3130     7.6024     0.0058     2.4877   100.9392     8.5534     7.7324     9.1852   -72.0901    10.0144     9.8285
  494.5000     0.1106     0.2938   109.7626     7.6172     0.0088     2.4923   100.1156     9.1013     7.8931     9.3742   -72.0914    10.0793    10.1012
  495.0000     0.1079     0.2935   109.3070     7.6169     0.0132     2.4975    99.3675     9.5505     7.9456     9.5681   -72.0926    10.3006    10.3814
  495.5000     0.1076     0.2911   108.4004     7.6166     0.0207     2.4991    98.6947     9.8835     7.9427     9.7660   -72.0939    10.8024    10.6695
  496.0000     0.1085     0.2794   107.4938     7.6163     0.0236     2.4961    98.1728    10.0168     7.8849    10.1077   -72.0952    11.1690    11.0420
  496.5000     0.1112     0.2721   108.3944     7.6160     0.0219     2.4916    97.8017    10.0815     7.8821    10.3889   -72.0964    11.3329    11.3483
  497.0000     0.1139     0.2697   109.1444     7.6157     0.0158     2.4878    97.5800    10.0762     7.9385    10.5313   -72.0977    11.4724    11.4228
  497.5000     0.1143     0.2712   107.4848     7.6154     0.0035     2.4893    97.7383     9.9317     7.9936    10.5259   -72.0990    11.4655    11.4179
  498.0000     0.1107     0.2685   104.7710     7.6151     0.0066     2.4946    97.9705     9.8469     8.0965    10.5215   -72.1002    11.4599    11.4132
  498.5000     0.1067     0.2661   107.1776     7.6148     0.0368     2.5007    98.2027     9.6482     8.2073    10.5172   -72.1015    11.4544    11.4085
  499.0000     0.1043     0.2698   112.8916     7.6145     0.0443     2.5045    98.3596     9.5763     8.3770    10.5129   -72.1027    11.4489    11.4037
  499.5000     0.1035     0.2704   115.7530     7.6293     0.0382     2.5053    98.2886     9.5714     8.4924    10.5085   -72.1040    11.4433    11.3990
  500.0000     0.1053     0.2676   116.5060     7.6290     0.0300     2.5017    98.0699     9.5604     8.6680    10.5042   -72.1053    11.4503    11.4737
  500.5000     0.1083     0.2671   113.6446     7.6287     0.0225     2.4992    97.6988     9.4714     8.7866    10.7113   -72.1065    11.5840    11.4689
  501.0000     0.1059     0.2748   110.4819     7.6133     0.0140     2.5007    97.4031     9.4220     8.9068    11.0125   -72.1078    11.6679    11.5490
  501.5000     0.1026     0.2821   111.3855     7.5979     0.0094     2.5052    96.9566     9.4154     8.9668    11.2372   -72.1090    11.6645    11.5541
  502.0000     0.0995     0.2860   112.1386     7.5976     0.0125     2.5112    96.7364     9.4078     8.9629    11.2296   -72.1103    11.6623    11.5591
  502.5000     0.0965     0.2831   110.7831     7.5972     0.0245     2.5172    96.6669     9.4672     8.8976    11.1441   -72.1116    11.6601    11.5641
