~VERSION INFORMATION
 VERS.                2.0:   CWLS LOG ASCII STANDARD - VERSION 2.0
 WRAP.                 NO:   ONE LINE PER DEPTH STEP
~WELL INFORMATION
#MNEM.UNIT      DATA TYPE    INFORMATION
#----------   ------------   ------------------------------
 STRT.F           12.0000:   START DEPTH
 STOP.F          563.5000:   STOP DEPTH
 STEP.F            0.5000:   STEP LENGTH
 NULL.          -999.2500:   NO VALUE
 COMP.       F D SERV INC:   COMPANY
 WELL. N P R 3 SX-3 #52-3:   WELL
 FLD .             TEAPOT:   FIELD
 LOC .       S3 T38N R78W:   LOCATION
 CNTY.            NATRONA:   COUNTY
 STAT.            WYOMING:   STATE
 CTRY. UNITED STATES OF AMERICA:   COUNTRY
 SRVC.     Atlas Wireline:   SERVICE COMPANY
 DATE.        27-APR-1992:   LOGDATE
 API .       490252252000:   API NUMBER
~CURVE INFORMATION
#MNEM.UNIT       API CODE    CURVE DESCRIPTION
#----------   ------------   ------------------------------
 DEPT.F                  :   
 PORZ.DEC    45 890 12 00:   DENSITY POROSITY
 CNC .DEC    42 890 03 00:   NEUTRON POROSITY SANDSTONE
 CALD.IN     45 280 60 00:   CALIPER FROM DENSITY
 GRD .GAPI   45 310 01 00:   GAMMA RAY FROM DENSITY LOG
 ZCOR.G/C3   45 356 01 00:   DENSITY CORRECTION
 ZDEN.G/C3   45 350 01 00:   BULK DENSITY
 RILD.OHMM   07 120 46 00:   INDUCTION LOG DEEP RESISTIVITY
 RILM.OHMM   07 120 44 00:   INDUCTION LOG MEDIUM RESISTIVITY
 RFOC.OHMM   07 220 04 00:   RESISTIVITY FOCUSED LOG
~PARAMETER INFORMATION
#MNEM.UNIT          VALUE    DESCRIPTION
#----------   ------------   ------------------------------
 PD  .                 GL:   PERMANENT DATUM
 EPD .F              5145:   ELEVATION PERMANENT DATUM
 LMF .                 KB:   LOG MEASURED FROM
 DAPD.F                 5:   FEET ABOVE PERMANENT DATUM
 DMF .                 KB:   DRILLING MEASURED FROM
 EKB .F              5150:   KELLING BUSHING
 EDF .F              5149:   DRILLING FLOOR
 EGL .F              5145:   GROUND LEVEL
 DATE.        27-APR-1992:   RUN DATE
 RUN .                  1:   RUN NUMBER
 DD  .F               565:   DEPTH DRILLER
 DL  .F               565:   DEPTH LOGGER
 BLI .F               563:   BOTTOM LOG INTERVAL
 CS  .IN            8.625:   CASING SIZE
 CBD .F                48:   CASING BOTTOM DRILLER
 CBL .F                51:   CASING BOTTOM LOGGER
 BS  .IN            7.875:   BIT SIZE
 BSD .F               565:   BIT SIZE AT DEPTH
 DFT .              WATER:   DRILLING FLUID TYPE
 TCS .HRS            0200:   TIME CURCULATED STOPPED
 MRT .F                88:   MAXIMUM RECORDED TEMPERATURE
 LUN .           HL- 6274:   LOGGING UNIT NUMBER
 LUL .             CASPER:   LOGGING UNIT LOCATION
 ENGI.             RAUTIO:   RECORDING ENGINEER
 WITN.        GARY STRONG:   WITNESSED BY
 CLNT.            A2DTECH:   CLIENT CODE
 ORIG.           5" PRINT:   ORIGIN OF DATA
 UWI .       490252252000:   UNIQUE WELL ID
 DICO. A2D Technologies, Inc.:   DIGITIZING COMPANY
~OTHER INFORMATION
~A   DEPT     PORZ        CNC       CALD        GRD       ZCOR       ZDEN       RILD       RILM       RFOC   
# ...
  377.0000     0.1712     0.2928     8.2165    91.4796     0.0356     2.3642    20.1279    19.7760    19.3010
  377.5000     0.1702     0.2874     8.2158    92.9795     0.0356     2.3642    19.8480    19.2302    18.6389
  378.0000     0.1693     0.2799     8.2002    92.0841     0.0311     2.3650    19.5714    19.0773    17.6287
  378.5000     0.1681     0.2766     8.1997    89.3923     0.0281     2.3665    19.5688    18.8252    17.5033
  379.0000     0.1666     0.2765     8.1991    82.4612     0.0236     2.3680    19.4310    18.6912    17.4998
  379.5000     0.1654     0.2768     8.1834    78.3209     0.0237     2.3711    19.4284    18.5581    17.4962
  380.0000     0.1675     0.2768     8.1828    78.0236     0.0222     2.3743    19.4258    18.5544    17.3718
  380.5000     0.1735     0.2759     8.1823    80.1230     0.0177     2.3734    19.4226    18.5507    17.7329
  381.0000     0.1738     0.2729     8.1817    82.5210     0.0117     2.3644    19.4200    18.9376    17.9781
  381.5000     0.1705     0.2650     8.1810    84.9511     0.0087     2.3614    19.4175    19.1977    17.6032
  382.0000     0.1660     0.2563     8.1804    86.1202     0.0102     2.3674    19.4149    19.1939    16.6491
  382.5000     0.1654     0.2557     8.1799    84.9255     0.0148     2.3743    19.5475    19.0573    16.4162
  383.0000     0.1687     0.2578     8.1793    82.8325     0.0193     2.3735    19.5442    19.0535    16.5274
  383.5000     0.1738     0.2605     8.1786    80.1407     0.0224     2.3667    19.6776    19.0487    16.9884
  384.0000     0.1807     0.2649     8.1780    78.9460     0.0239     2.3585    19.8126    19.0449    17.3424
  384.5000     0.1810     0.2749     8.1775    79.8477     0.0240     2.3525    19.8094    19.0411    18.0762
  385.0000     0.1765     0.2810     8.1919    81.6470     0.0240     2.3495    19.8067    19.0373    18.5814
  385.5000     0.1713     0.2785     8.1913    84.0450     0.0270     2.3623    19.5307    18.9018    17.2113
  386.0000     0.1695     0.2773     8.1906    86.1437     0.0301     2.3699    19.3931    18.4946    16.9706
  386.5000     0.1704     0.2800     8.1900    87.3448     0.0301     2.3684    19.2565    17.9967    16.8499
  387.0000     0.1686     0.2833     8.1895    87.6471     0.0226     2.3684    18.9888    17.2586    16.7300
  387.5000     0.1641     0.2830     8.1889    87.3505     0.0181     2.3692    18.7247    17.1358    16.3820
  388.0000     0.1599     0.2809     8.1882    86.4552     0.0227     2.3767    18.3361    17.1324    16.1528
  388.5000     0.1566     0.2800     8.1876    85.5319     0.0332     2.3865    18.0812    17.1289    15.9263
  389.0000     0.1542     0.2806     8.1871    84.9639     0.0408     2.3956    17.9538    17.1247    15.9231
  389.5000     0.1532     0.2893     8.1865    84.3679     0.0363     2.3964    17.8274    17.1213    15.9199
  390.0000     0.1529     0.2917     8.1858    83.4732     0.0303     2.3956    17.8250    16.9994    15.8067
  390.5000     0.1532     0.2893     8.1852    82.5778     0.0273     2.3949    17.8221    16.8784    15.4779
  391.0000     0.1553     0.2878     8.1998    82.5814     0.0289     2.3934    17.6966    16.7582    15.0350
  391.5000     0.1677     0.2887     8.1991    82.8837     0.0304     2.3874    17.6942    16.7548    14.8399
  392.0000     0.1738     0.2911     8.2135    82.5871     0.0320     2.3656    17.5696    16.6356    14.8369
  392.5000     0.1740     0.2923     8.2278    81.9912     0.0350     2.3596    17.3253    16.6314    15.2516
  393.0000     0.1698     0.2926     8.2272    80.1858     0.0335     2.3649    16.9657    16.5130    16.1191
  393.5000     0.1643     0.2917     8.2567    78.7034     0.0290     2.3762    16.7298    16.2820    16.5738
  394.0000     0.1532     0.2892     8.2861    84.0962     0.0245     2.3883    16.4972    16.0540    16.1119
  394.5000     0.1499     0.2886     8.2404    89.4883     0.0184     2.3988    16.2678    15.6103    15.1332
  395.0000     0.1477     0.2883     8.1649    88.8923     0.0125     2.4042    15.8206    15.3919    13.9211
  395.5000     0.1460     0.2892     8.1343    86.1527     0.0080     2.4057    15.4923    14.9672    13.9183
  396.0000     0.1438     0.2904     8.1171    83.5095     0.0126     2.4080    15.2768    14.6556    13.9155
  396.5000     0.1423     0.2925     8.1031    82.0153     0.0202     2.4125    15.1692    14.5513    13.9127
  397.0000     0.1423     0.2949     8.1025    81.1200     0.0247     2.4133    15.1672    14.4470    13.8131
  397.5000     0.1444     0.2985     8.0869    81.1228     0.0247     2.4125    15.2708    14.4441    13.8103
  398.0000     0.1462     0.2985     8.1014    82.6667     0.0248     2.4073    15.2683    14.4412    14.0006
  398.5000     0.1489     0.3030     8.1006    83.5244     0.0248     2.4013    15.3730    14.4383    14.0960
  399.0000     0.1531     0.3033     8.1001    83.8267     0.0294     2.3975    15.3705    14.4355    14.1906
  399.5000     0.1552     0.3018     8.0845    85.0271     0.0311     2.3938    15.3684    14.1205    14.3021
  400.0000     0.1541     0.3000     8.0840    86.2275     0.0341     2.3938    15.1547    13.8673    14.2611
  400.5000     0.1528     0.2940     8.0719    87.1351     0.0325     2.3948    14.8285    13.7393    13.9872
  401.0000     0.1519     0.2913     8.0684    88.0479     0.0265     2.3969    14.5022    13.6113    13.7922
  401.5000     0.1489     0.2879     8.0831    89.8490     0.0145     2.4015    14.1760    13.3621    13.3200
  402.0000     0.1435     0.2873     8.0827    91.0552     0.0055     2.4147    13.8361    13.1760    12.6866
  402.5000     0.1371     0.2900     8.0824    91.0638     0.0070     2.4256    13.5485    13.0831    12.2523
  403.0000     0.1359     0.2932     8.0821    90.1742     0.0146     2.4264    13.4522    13.0813    12.0818
  403.5000     0.1383     0.2940     8.0819    87.4882     0.0222     2.4197    13.3566    13.0796    12.0801
  404.0000     0.1404     0.2925     8.0816    86.2754     0.0298     2.4167    13.3539    12.7986    12.5917
  404.5000     0.1401     0.2903     8.0812    85.4096     0.0343     2.4175    13.3511    12.6293    12.8554
  405.0000     0.1392     0.2882     8.0809    85.4204     0.0344     2.4198    13.3479    12.6277    12.8533
  405.5000     0.1379     0.2879     8.0806    86.3272     0.0284     2.4221    13.3452    12.6260    12.7627
  406.0000     0.1341     0.2888     8.0803    87.5334     0.0224     2.4259    13.3425    12.6243    12.5850
  406.5000     0.1299     0.2885     8.0801    89.9372     0.0134     2.4350    13.3399    12.6226    12.2246
  407.0000     0.1229     0.2873     8.0797    94.5210     0.0074     2.4508    13.2450    12.6209    12.0681
  407.5000     0.1175     0.2846     8.0794    95.3436     0.0075     2.4577    13.2423    12.6188    12.0665
  408.0000     0.1154     0.2812     8.0791    94.4562     0.0123     2.4584    13.3312    12.6172    12.0649
  408.5000     0.1172     0.2831     8.0638    94.1632     0.0181     2.4562    13.3286    12.6155    12.0633
  409.0000     0.1232     0.2913     8.0636    93.8743     0.0197     2.4510    13.4193    12.6138    12.1457
  409.5000     0.1322     0.2925     8.0620    92.6716     0.0197     2.4382    13.4159    12.6121    12.3138
  410.0000     0.1374     0.2928     8.0479    90.0017     0.0198     2.4252    13.5066    12.6983    12.3117
  410.5000     0.1370     0.2940     8.0476    90.0103     0.0198     2.4225    13.5979    13.1449    12.3101
  411.0000     0.1352     0.2931     8.0473    90.0189     0.0229     2.4240    13.7844    13.5134    12.4809
  411.5000     0.1337     0.2870     8.0471    89.7260     0.0229     2.4278    13.8782    13.5116    13.0095
  412.0000     0.1325     0.2837     8.0468    89.4373     0.0215     2.4301    13.7789    13.5098    13.0078
  412.5000     0.1325     0.2852     8.0615    89.1465     0.0200     2.4317    13.7761    13.6022    12.7087
  413.0000     0.1340     0.2867     8.0611    89.1573     0.0155     2.4272    13.7734    13.5999    12.3872
