~VERSION INFORMATION
 VERS.                2.0:   CWLS LOG ASCII STANDARD - VERSION 2.0
 WRAP.                 NO:   ONE LINE PER DEPTH STEP
~WELL INFORMATION
#MNEM.UNIT      DATA TYPE    INFORMATION
#----------   ------------   ------------------------------
 STRT.F           10.0000:   START DEPTH
 STOP.F          472.5000:   STOP DEPTH
 STEP.F            0.5000:   STEP LENGTH
 NULL.          -999.2500:   NO VALUE
 COMP. FENIX & SCISSON INC:   COMPANY
 WELL. NAVAL PETROLEUM RESERVE 3 SX-1 #67-10:   WELL
 FLD .             TEAPOT:   FIELD
 LOC .      S10 T38N R78W:   LOCATION
 CNTY.            NATRONA:   COUNTY
 STAT.            WYOMING:   STATE
 CTRY. UNITED STATES OF AMERICA:   COUNTRY
 SRVC.           BIRDWELL:   SERVICE COMPANY
 DATE.        05-DEC-1978:   LOGDATE
 API .       490251075000:   API NUMBER
~CURVE INFORMATION
#MNEM.UNIT       API CODE    CURVE DESCRIPTION
#----------   ------------   ------------------------------
 DEPT.F                  :   
 SPR .MV     05 010 01 00:   SPONTANEOUS POTENTIAL FROM RES.
 SN  .OHMM   05 040 16 00:   SHORT NORMAL 16"
 IL  .OHMM   05 120 00 00:   INDUCTION LOG
 CALD.IN     45 280 60 00:   CALIPER
 GRD .GAPI   45 310 01 00:   GAMMA RAY FROM DENSITY LOG
 RHOB.G/C3   45 350 01 00:   BULK DENSITY
 DPHI.DEC    45 890 12 00:   DENSITY POROSITY SANDSTONE
 CORR.G/C3   45 356 01 00:   DENSITY CORRECTION
~PARAMETER INFORMATION
#MNEM.UNIT          VALUE    DESCRIPTION
#----------   ------------   ------------------------------
 PD  .                 GL:   PERMANENT DATUM
 EPD .F              5189:   ELEVATION PERMANENT DATUM
 LMF .                 KB:   LOG MEASURED FROM
 DAPD.F                 4:   FEET ABOVE PERMANENT DATUM
 DMF .                 KB:   DRILLING MEASURED FROM
 EKB .F              5193:   KELLING BUSHING
 EGL .F              5189:   GROUND LEVEL
 DATE.            12-5-78:   RUN DATE
 RUN .                  1:   RUN NUMBER
 DD  .F               475:   DEPTH DRILLER
 DL  .F               471:   DEPTH LOGGER
 BLI .F               465:   BOTTOM LOG INTERVAL
 TLI .F                40:   TOP LOG INTERVAL
 CS  .IN            8.625:   CASING SIZE
 CBD .F                40:   CASING BOTTOM DRILLER
 CBL .F                40:   CASING BOTTOM LOGGER
 BS  .IN            7.875:   BIT SIZE
 BSD .F               475:   BIT SIZE AT DEPTH
 DFT .                KCL:   DRILLING FLUID TYPE
 DFD .                8.8:   DRILLING FLUID DENSITY
 DFV .                 42:   DRILLING FLUID VISCOSITY
 DFPH.               12.2:   DRILLING FLUID PH
 DFL .               11.6:   DRILLING FLUID LOSS
 MSS .          FLOW LINE:   MUD SAMPLE SOURCE
 RMS .OHMM            .31:   RESISTIVITY MUD SAMPLE
 MST .F                60:   MUD SAMPLE TEMPERATURE
 RMF .OHMM            .29:   RESISTIVITY MUD FILTRATE SAMPLE
 MFST.F                61:   MUD FILTRATE SAMPLE TEMPERATURE
 RMC .OHMM            .42:   RESISTIVITY MUD CAKE
 MCST.F                63:   MUD CAKE SAMPLE TEMPERATURE
 MFSS.           MEASURED:   MUD FILTRATE SAMPLE SOURCE
 MCSS.           MEASURED:   MUD CAKE SAMPLE SOURCE
 RMB .OHMM            .33:   RESISTIVITY MUD AT BHT
 BHT .F                57:   BOTTOM HOLE TEMPERATURE
 TCS .HRS               3:   TIME CURCULATED STOPPED
 MRT .F                57:   MAXIMUM RECORDED TEMPERATURE
 LUN .               2958:   LOGGING UNIT NUMBER
 LUL .                CPR:   LOGGING UNIT LOCATION
 ENGI.            ROLLINS:   RECORDING ENGINEER
 WITN.              AMEND:   WITNESSED BY
 CLNT.            A2DTECH:   CLIENT CODE
 ORIG.       2", 5" PRINT:   ORIGIN OF DATA
 UWI .       490251075000:   UNIQUE WELL ID
 DICO. A2D Technologies, Inc.:   DIGITIZING COMPANY
~OTHER INFORMATION
~A   DEPT      SPR         SN         IL       CALD         GRD      RHOB       DPHI       CORR   
# ...
  415.0000   -60.5480    12.0610    13.3260     8.8190    89.4910     2.4660     0.1300     0.0290
  415.5000   -60.6980    12.0150    13.2220     8.8180    89.6640     2.4610     0.1350     0.0250
  416.0000   -61.1520    11.9700    13.1590     8.8170    89.5380     2.4550     0.1390     0.0240
  416.5000   -61.6060    11.9220    13.1080     8.8160    89.4220     2.4530     0.1430     0.0240
  417.0000   -61.7130    11.9220    13.0640     8.8150    89.2820     2.4550     0.1430     0.0240
  417.5000   -61.8050    11.9220    13.0310     8.8150    88.3660     2.4580     0.1370     0.0240
  418.0000   -61.7940    11.9190    12.9980     8.8140    86.1900     2.4660     0.1310     0.0240
  418.5000   -61.7580    11.9000    12.9650     8.8130    83.7770     2.4730     0.1260     0.0240
  419.0000   -61.7210    11.8810    12.9320     8.8120    82.9640     2.4740     0.1250     0.0240
  419.5000   -61.6840    11.8610    12.8990     8.8110    83.9730     2.4740     0.1250     0.0240
  420.0000   -61.6480    11.8420    12.8660     8.8070    86.9070     2.4700     0.1300     0.0240
  420.5000   -61.6990    11.8230    12.8330     8.7180    91.3510     2.4640     0.1360     0.0240
  421.0000   -61.9060    11.8040    12.8000     8.6370    90.9510     2.4580     0.1390     0.0240
  421.5000   -62.1110    11.7850    12.7670     8.7570    88.9160     2.4590     0.1390     0.0240
  422.0000   -62.3150    11.7650    12.7340     8.8060    88.0800     2.4590     0.1380     0.0240
  422.5000   -62.5200    11.7460    12.7010     8.8020    87.3040     2.4630     0.1360     0.0240
  423.0000   -62.7250    11.7270    12.6680     8.7970    86.3120     2.4670     0.1330     0.0240
  423.5000   -62.9290    11.7080    12.6350     8.7930    85.3110     2.4720     0.1280     0.0240
  424.0000   -63.1340    11.6440    12.6020     8.7880    84.8480     2.4740     0.1290     0.0240
  424.5000   -63.3390    11.5680    12.4370     8.7830    85.7520     2.4740     0.1290     0.0240
  425.0000   -63.5440    11.4930    12.2710     8.7790    85.6680     2.4740     0.1290     0.0240
  425.5000   -63.7480    11.4170    12.1050     8.7740    84.9660     2.4750     0.1290     0.0240
  426.0000   -63.9530    11.3410    11.9400     8.7690    84.5440     2.4750     0.1290     0.0240
  426.5000   -64.1580    11.2660    11.7740     8.7640    84.3550     2.4760     0.1290     0.0240
  427.0000   -64.3620    11.1900    11.6090     8.7590    85.6380     2.4760     0.1290     0.0240
  427.5000   -64.5670    11.0490    11.4430     8.7550    86.9910     2.4770     0.1270     0.0240
  428.0000   -64.7720    10.8930    11.2790     8.7500    87.1830     2.4800     0.1250     0.0240
  428.5000   -64.9760    10.7360    11.0390     8.7450    86.6570     2.4840     0.1240     0.0240
  429.0000   -65.1810    10.5800    10.8020     8.7400    85.3160     2.4830     0.1230     0.0240
  429.5000   -65.3860    10.4230    10.5650     8.7350    83.9570     2.4830     0.1230     0.0240
  430.0000   -65.5910    10.2670    10.3270     8.7300    83.8260     2.4830     0.1230     0.0290
  430.5000   -65.7960    10.1100    10.0900     8.7670    85.8700     2.4850     0.1200     0.0350
  431.0000   -65.8460     9.9540     9.8530     8.8090    90.2630     2.4870     0.1160     0.0410
  431.5000   -65.8670     9.7970     9.6160     8.8100    93.6680     2.4880     0.1150     0.0460
  432.0000   -65.8860     9.6410     9.3780     8.8100    96.2480     2.4870     0.1180     0.0480
  432.5000   -65.9050     9.4080     9.0820     8.8100    97.1510     2.4830     0.1210     0.0470
  433.0000   -65.9250     9.0730     8.7500     8.8100    96.0110     2.4790     0.1250     0.0460
  433.5000   -65.9440     8.7380     8.1340     8.8100    95.8290     2.4690     0.1340     0.0450
  434.0000   -65.9640     8.3570     7.3510     8.8100    96.3810     2.4500     0.1440     0.0440
  434.5000   -65.9830     7.9170     6.1300     8.8100    98.3700     2.4320     0.1540     0.0430
  435.0000   -66.0040     7.4550     6.1430     8.8100   100.8970     2.4220     0.1640     0.0420
  435.5000   -66.0230     6.9260     6.1720     8.8100   104.0350     2.4190     0.1630     0.0410
  436.0000   -66.2720     6.4200     6.2000     8.8100   108.9330     2.4210     0.1540     0.0390
  436.5000   -66.8180     6.5160     6.2290     8.8100   113.8920     2.4420     0.1330     0.0320
  437.0000   -67.2460     6.7500     6.3460     8.8100   117.6480     2.4910     0.1120     0.0270
  437.5000   -67.2360     7.3530     6.5720     8.8100   118.3450     2.5080     0.1050     0.0290
  438.0000   -67.2340     8.2470     6.7860     8.8100   112.9170     2.5120     0.1060     0.0320
  438.5000   -67.2340     9.0740     7.8940     8.8100   102.0150     2.5110     0.1060     0.0340
  439.0000   -67.2340     9.5510     8.9470     8.8090    95.2690     2.5110     0.1060     0.0370
  439.5000   -67.2340    10.0280     9.7970     8.8080    95.2630     2.5100     0.1060     0.0400
  440.0000   -67.2340    10.2420    10.0590     8.8080    96.1300     2.5100     0.1070     0.0410
  440.5000   -67.2340    10.4130    10.1940     8.8070    97.0170     2.5120     0.1050     0.0410
  441.0000   -67.2340    10.5730    10.3080     8.8060    96.0900     2.5140     0.1010     0.0410
  441.5000   -67.2340    10.7060    10.4210     8.8050    94.9170     2.5150     0.1000     0.0410
  442.0000   -67.2340    10.8310    10.5350     8.8050    93.7340     2.5150     0.1000     0.0420
  442.5000   -67.2350    10.9570    10.7090     8.8040    92.5660     2.5150     0.1000     0.0420
  443.0000   -67.2630    11.0730    10.9120     8.8030    91.7360     2.5130     0.1030     0.0420
  443.5000   -67.2960    11.2890    11.1150     8.8030    93.2360     2.5120     0.1050     0.0420
  444.0000   -67.3290    11.4900    11.3180     8.8020    94.9310     2.5120     0.1050     0.0420
  444.5000   -67.3620    11.6920    11.5080     8.8010    96.7710     2.5120     0.1050     0.0420
  445.0000   -67.3950    11.8940    11.6910     8.8010    98.6060     2.5140     0.1050     0.0420
  445.5000   -67.4280    12.0950    11.8740     8.8000   100.4450     2.5170     0.1050     0.0420
  446.0000   -67.4610    12.2970    12.0570     8.7990   103.3940     2.5170     0.1050     0.0410
  446.5000   -67.4940    12.4980    12.2400     8.7980   104.1780     2.5180     0.1050     0.0400
  447.0000   -67.5270    12.7040    12.3970     8.7980    98.4900     2.5170     0.1050     0.0380
  447.5000   -67.5600    12.9150    12.4850     8.7970    97.6570     2.5110     0.1050     0.0340
  448.0000   -67.5920    13.1260    12.5740     8.7960    99.3790     2.5040     0.1090     0.0300
  448.5000   -67.6200    13.4440    12.6600     8.7960   100.5350     2.4970     0.1130     0.0250
  449.0000   -67.9060    13.4340    12.7780     8.7950    99.2860     2.4930     0.1160     0.0240
  449.5000   -68.2890    13.4140    12.8970     8.7940    96.5920     2.4900     0.1170     0.0240
  450.0000   -68.6420    13.3940    12.9560     8.7940    94.0760     2.4890     0.1180     0.0240
  450.5000   -68.8150    13.3740    12.9560     8.7930    91.8690     2.4890     0.1190     0.0240
  451.0000   -68.9760    13.3550    12.9340     8.7920    90.7290     2.4890     0.1190     0.0240
  451.5000   -69.1380    13.3350    12.8880     8.7910    90.8820     2.4890     0.1200     0.0240
  452.0000   -69.2990    13.2920    12.8420     8.7910    91.0580     2.4890     0.1180     0.0240
  452.5000   -69.4610    13.1830    12.7960     8.7900    90.9200     2.4900     0.1160     0.0240
  453.0000   -69.6220    13.0730    12.7500     8.7840    90.7450     2.4900     0.1170     0.0240
  453.5000   -69.7840    12.9630    12.7040     8.7780    91.5020     2.4860     0.1220     0.0240
  454.0000   -69.9450    12.8530    12.6580     8.7710    91.8900     2.4830     0.1260     0.0240
  454.5000   -70.1060    12.7190    12.6120     8.7650    91.2810     2.4800     0.1260     0.0240
  455.0000   -70.3040    12.7260    12.5930     8.7590    90.5440     2.4810     0.1230     0.0240
