~VERSION INFORMATION
 VERS.                2.0:   CWLS LOG ASCII STANDARD - VERSION 2.0
 WRAP.                 NO:   ONE LINE PER DEPTH STEP
~WELL INFORMATION
#MNEM.UNIT      DATA TYPE    INFORMATION
#----------   ------------   ------------------------------
 STRT.F           12.0000:   START DEPTH
 STOP.F          563.5000:   STOP DEPTH
 STEP.F            0.5000:   STEP LENGTH
 NULL.          -999.2500:   NO VALUE
 COMP.       F D SERV INC:   COMPANY
 WELL. N P R 3 SX-3 #52-3:   WELL
 FLD .             TEAPOT:   FIELD
 LOC .       S3 T38N R78W:   LOCATION
 CNTY.            NATRONA:   COUNTY
 STAT.            WYOMING:   STATE
 CTRY. UNITED STATES OF AMERICA:   COUNTRY
 SRVC.     Atlas Wireline:   SERVICE COMPANY
 DATE.        27-APR-1992:   LOGDATE
 API .       490252252000:   API NUMBER
~CURVE INFORMATION
#MNEM.UNIT       API CODE    CURVE DESCRIPTION
#----------   ------------   ------------------------------
 DEPT.F                  :   
 PORZ.DEC    45 890 12 00:   DENSITY POROSITY
 CNC .DEC    42 890 03 00:   NEUTRON POROSITY SANDSTONE
 CALD.IN     45 280 60 00:   CALIPER FROM DENSITY
 GRD .GAPI   45 310 01 00:   GAMMA RAY FROM DENSITY LOG
 ZCOR.G/C3   45 356 01 00:   DENSITY CORRECTION
 ZDEN.G/C3   45 350 01 00:   BULK DENSITY
 RILD.OHMM   07 120 46 00:   INDUCTION LOG DEEP RESISTIVITY
 RILM.OHMM   07 120 44 00:   INDUCTION LOG MEDIUM RESISTIVITY
 RFOC.OHMM   07 220 04 00:   RESISTIVITY FOCUSED LOG
~PARAMETER INFORMATION
#MNEM.UNIT          VALUE    DESCRIPTION
#----------   ------------   ------------------------------
 PD  .                 GL:   PERMANENT DATUM
 EPD .F              5145:   ELEVATION PERMANENT DATUM
 LMF .                 KB:   LOG MEASURED FROM
 DAPD.F                 5:   FEET ABOVE PERMANENT DATUM
 DMF .                 KB:   DRILLING MEASURED FROM
 EKB .F              5150:   KELLING BUSHING
 EDF .F              5149:   DRILLING FLOOR
 EGL .F              5145:   GROUND LEVEL
 DATE.        27-APR-1992:   RUN DATE
 RUN .                  1:   RUN NUMBER
 DD  .F               565:   DEPTH DRILLER
 DL  .F               565:   DEPTH LOGGER
 BLI .F               563:   BOTTOM LOG INTERVAL
 CS  .IN            8.625:   CASING SIZE
 CBD .F                48:   CASING BOTTOM DRILLER
 CBL .F                51:   CASING BOTTOM LOGGER
 BS  .IN            7.875:   BIT SIZE
 BSD .F               565:   BIT SIZE AT DEPTH
 DFT .              WATER:   DRILLING FLUID TYPE
 TCS .HRS            0200:   TIME CURCULATED STOPPED
 MRT .F                88:   MAXIMUM RECORDED TEMPERATURE
 LUN .           HL- 6274:   LOGGING UNIT NUMBER
 LUL .             CASPER:   LOGGING UNIT LOCATION
 ENGI.             RAUTIO:   RECORDING ENGINEER
 WITN.        GARY STRONG:   WITNESSED BY
 CLNT.            A2DTECH:   CLIENT CODE
 ORIG.           5" PRINT:   ORIGIN OF DATA
 UWI .       490252252000:   UNIQUE WELL ID
 DICO. A2D Technologies, Inc.:   DIGITIZING COMPANY
~OTHER INFORMATION
~A   DEPT     PORZ        CNC       CALD        GRD       ZCOR       ZDEN       RILD       RILM       RFOC   
# ...
  231.0000     0.1192     0.3709     8.2116   105.3486     0.0307     2.4507     7.1347     6.9768     7.3238
  231.5000     0.1113     0.3655     8.2111   111.0458     0.0277     2.4605     7.5487     7.4854     7.4250
  232.0000     0.1104     0.3637     8.2105   117.0424     0.0248     2.4665     7.8612     7.8500     7.5802
  232.5000     0.1092     0.3679     8.2099   117.3902     0.0233     2.4689     7.9154     8.0148     7.7926
  233.0000     0.1095     0.3664     8.1942   114.6008     0.0218     2.4689     7.9148     7.9037     7.8458
  233.5000     0.1107     0.3649     8.1936   111.3818     0.0219     2.4681     7.9142     7.9032     7.8445
  234.0000     0.1104     0.3646     8.1931   108.3964     0.0234     2.4682     7.9136     7.9025     7.8984
  234.5000     0.1088     0.3640     8.1925   106.3092     0.0235     2.4697     7.9683     7.9571     7.8971
  235.0000     0.1079     0.3619     8.1919   103.6232     0.0235     2.4712     8.0232     8.1241     7.9511
  235.5000     0.1091     0.3586     8.1912   103.3244     0.0236     2.4705     8.0784     8.2372     8.0106
  236.0000     0.1097     0.3569     8.1906   105.2695     0.0251     2.4675     8.1907     8.3519     8.1725
  236.5000     0.1082     0.3569     8.1900   108.4416     0.0267     2.4691     8.3622     8.4094     8.2859
  237.0000     0.1057     0.3545     8.1895   109.0490     0.0297     2.4714     8.4784     8.4675     8.4006
  237.5000     0.1036     0.3509     8.1889   108.4588     0.0313     2.4744     8.6561     8.5261     8.4577
  238.0000     0.1018     0.3464     8.1883   107.5689     0.0313     2.4782     8.8375     8.5848     8.6343
  238.5000     0.0994     0.3440     8.1876   106.6756     0.0314     2.4835     9.0226     8.7648     8.8151
  239.0000     0.0981     0.3413     8.1870   105.1934     0.0314     2.4873     9.0220     8.8870     8.9371
  239.5000     0.0996     0.3383     8.1865   104.0022     0.0315     2.4851     9.0214     9.0734     8.9979
  240.0000     0.1002     0.3350     8.1859   102.5160     0.0345     2.4843     9.0208     9.0728     8.9967
  240.5000     0.0983     0.3362     8.2003   102.5246     0.0361     2.4866     9.0202     9.0722     8.9952
  241.0000     0.0951     0.3395     8.1997   104.0302     0.0361     2.4912     8.9571     9.0087     8.9941
  241.5000     0.0959     0.3380     8.1990   105.5519     0.0286     2.4950     8.9566     8.8838     8.9929
  242.0000     0.0953     0.3332     8.1984   106.1454     0.0225     2.4935     8.9560     8.8217     8.9917
  242.5000     0.0929     0.3302     8.1979   105.5552     0.0212     2.4950     8.8830     8.8211     8.9902
  243.0000     0.0896     0.3299     8.1973   104.3662     0.0243     2.4981     8.8587     8.8204     8.9269
  243.5000     0.0914     0.3325     8.1967   102.2790     0.0258     2.4989     8.8307     8.8198     8.9257
  244.0000     0.0931     0.3438     8.1960   103.1858     0.0228     2.4966     8.8301     8.9426     8.8628
  244.5000     0.0955     0.3559     8.1954   107.1707     0.0227     2.4899     8.8295     9.0671     8.3827
  245.0000     0.0967     0.3665     8.1948   110.9896     0.0260     2.4884     8.9524     9.1934     8.2661
  245.5000     0.0949     0.3770     8.1943   111.2955     0.0350     2.4930     9.0139     9.1926     8.2650
  246.0000     0.0901     0.3767     8.1937   107.4140     0.0502     2.5013     9.0760     9.1284     8.2639
  246.5000     0.0828     0.3750     8.1931   104.4286     0.0578     2.5149     9.0775     9.0018     8.2628
  247.0000     0.0753     0.3732     8.1924   102.9401     0.0533     2.5262     8.9457     8.8156     8.2043
  247.5000     0.0747     0.3690     8.1918   102.6494     0.0337     2.5263     8.6342     8.2234     8.0342
  248.0000     0.0825     0.3631     8.1913   105.3548     0.0217     2.5087     8.1769     7.7784     7.7591
  248.5000     0.0948     0.3611     8.1907   107.7586     0.0248     2.4871     7.7889     7.5648     7.3391
  249.0000     0.1005     0.3615     8.1901   112.5576     0.0308     2.4819     7.2163     7.3061     6.9899
  249.5000     0.1024     0.3645     8.1895   117.9555     0.0339     2.4774     6.9699     6.9968     6.7039
  250.0000     0.1054     0.3699     8.1888   119.7605     0.0354     2.4722     6.6853     6.2324     6.4065
  250.5000     0.1126     0.3847     8.1875   115.2766     0.0318     2.4624     6.2370     5.7574     6.2590
  251.0000     0.1182     0.3935     8.1861   112.2883     0.0309     2.4556     5.6595     5.1252     6.0385
  251.5000     0.1245     0.4074     8.1848   111.9931     0.0310     2.4451     4.9949     4.3379     5.7116
  252.0000     0.1348     0.4221     8.1835   111.6994     0.0310     2.4255     4.2467     3.5217     5.3650
  252.5000     0.1480     0.4466     8.1973   109.8704     0.0310     2.3954     3.3528     2.8991     4.8339
  253.0000     0.1718     0.4705     8.1957   103.3304     0.0310     2.3608     2.4445     2.3865     3.9796
  253.5000     0.1929     0.5016     8.2094   103.0353     0.0114     2.3127     2.2336     2.3699     3.4394
  254.0000     0.2190     0.5367     8.2081   103.3418    -0.0006     2.2630     2.2180     2.3862     2.9703
  254.5000     0.2537     0.5690     8.2066   103.9463     0.0009     2.2133     2.2645     2.4027     2.9515
  255.0000     0.2746     0.6037     8.2053   103.6127     0.0115     2.1802     2.3770     2.5240     3.0552
  255.5000     0.2871     0.6281     8.1890   100.6657     0.0396     2.1765     2.5475     2.8097     3.4374
  256.0000     0.2789     0.6269     8.1875   101.2702     0.0764     2.1953     2.8266     3.3295     4.2032
  256.5000     0.2533     0.5661     8.1712   103.3717     0.0718     2.2506     3.1582     3.7990     4.5995
  257.0000     0.2229     0.5355     8.1699   107.8684     0.0673     2.3444     3.5845     4.3346     5.3949
  257.5000     0.1549     0.5037     8.1687   115.5691     0.0522     2.3927     4.1006     4.9803     5.8221
  258.0000     0.1372     0.4458     8.1671   122.8513     0.0372     2.4220     4.8538     5.4128     6.2832
  258.5000     0.1248     0.4184     8.1658   123.4544     0.0342     2.4432     5.5757     6.0909     6.5951
  259.0000     0.1171     0.4022     8.1646   119.5693     0.0327     2.4546     6.3166     6.5285     6.8270
  259.5000     0.1089     0.3883     8.1783   114.4851     0.0312     2.4696     6.7698     7.0464     6.9697
  260.0000     0.1053     0.3817     8.1767   112.0956     0.0312     2.4756     7.0570     7.1943     6.7249
  260.5000     0.1059     0.3887     8.1754   113.3003     0.0312     2.4756     7.1550     7.1938     6.5913
  261.0000     0.1089     0.3841     8.1892   115.7012     0.0328     2.4704     7.1546     7.0940     6.5448
  261.5000     0.1104     0.3793     8.1729   116.3043     0.0328     2.4689     7.0555     6.9956     6.4989
  262.0000     0.1095     0.3848     8.1866   114.8144     0.0313     2.4682     6.9579     6.9467     6.6345
  262.5000     0.1089     0.3833     8.1851   113.3245     0.0313     2.4682     6.8458     6.8030     6.7731
  263.0000     0.1098     0.3797     8.1838   112.4320     0.0313     2.4682     6.4907     6.6623     6.9147
  263.5000     0.1098     0.3709     8.1822   111.5395     0.0313     2.4690     6.0135     6.2581     7.2078
  264.0000     0.1083     0.3616     8.1962   110.6456     0.0253     2.4728     5.3443     5.5607     7.3584
  264.5000     0.1104     0.3493     8.1947   111.8503     0.0176     2.4698     4.8495     5.0451     7.2560
  265.0000     0.1230     0.3553     8.2084   114.5520     0.0118     2.4563     4.5242     4.3209     6.9559
  265.5000     0.1417     0.4157     8.2068   116.3541     0.0133     2.4284     4.3697     4.2109     5.1269
  266.0000     0.1658     0.4831     8.2055   118.1562     0.0208     2.3742     4.3694     4.2993     4.1053
  266.5000     0.1808     0.5079     8.2043   120.2577     0.0315     2.3501     4.3692     4.3592     4.1911
  267.0000     0.1772     0.5200     8.2030   122.0598     0.0329     2.3652     4.4319     4.4506     4.7419
