~VERSION INFORMATION
 VERS.                2.0:   CWLS LOG ASCII STANDARD - VERSION 2.0
 WRAP.                 NO:   ONE LINE PER DEPTH STEP
~WELL INFORMATION
#MNEM.UNIT      DATA TYPE    INFORMATION
#----------   ------------   ------------------------------
 STRT.F           29.0000:   START DEPTH
 STOP.F          435.0000:   STOP DEPTH
 STEP.F            0.5000:   STEP LENGTH
 NULL.          -999.2500:   NO VALUE
 COMP. FENIX & SCISSON INC:   COMPANY
 WELL.    525 X 10 #52-10:   WELL
 FLD .             TEAPOT:   FIELD
 LOC .      S10 T38N R78W:   LOCATION
 CNTY.            NATRONA:   COUNTY
 STAT.            WYOMING:   STATE
 CTRY. UNITED STATES OF AMERICA:   COUNTRY
 SRVC.       Schlumberger:   SERVICE COMPANY
 DATE.        18-NOV-1978:   LOGDATE
 API .       490251077700:   API NUMBER
~CURVE INFORMATION
#MNEM.UNIT       API CODE    CURVE DESCRIPTION
#----------   ------------   ------------------------------
 DEPT.F                  :   
 NEUT.NAPI   35 330 01 00:   NEUTRON
 SPR .MV     07 010 01 00:   SPONTANEOUS POTENTIAL
 SFL .OHMM   07 220 01 00:   SHALLOW FOCUSED LOG RESISTIVITY
 ILD .OHMM   07 120 46 00:   INDUCTION LOG DEEP RESISTIVITY
 ILM .OHMM   07 120 44 00:   INDUCTION LOG MEDIUM
 CORR.G/C3   45 356 01 00:   DENSITY CORRECTION
 RHOB.G/C3   45 350 01 00:   BULK DENSITY
 DPHI.DEC    45 890 12 00:   DENSITY POROSITY SANDSTONE
 CALD.IN     45 280 60 00:   CALIPER
 GRD .GAPI   45 310 01 00:   GAMMA RAY FROM DENSITY LOG
~PARAMETER INFORMATION
#MNEM.UNIT          VALUE    DESCRIPTION
#----------   ------------   ------------------------------
 PD  .                 GL:   PERMANENT DATUM
 EPD .F              5176:   ELEVATION PERMANENT DATUM
 LMF .                 KB:   LOG MEASURED FROM
 DAPD.F                 4:   FEET ABOVE PERMANENT DATUM
 DMF .                 KB:   DRILLING MEASURED FROM
 EKB .F              5180:   KELLING BUSHING
 EGL .F              5176:   GROUND LEVEL
 DATE.           11-18-78:   RUN DATE
 RUN .                  1:   RUN NUMBER
 DD  .F               433:   DEPTH DRILLER
 DL  .F               435:   DEPTH LOGGER
 BLI .F               429:   BOTTOM LOG INTERVAL
 TLI .F                48:   TOP LOG INTERVAL
 CS  .IN            8.625:   CASING SIZE
 CBD .F                40:   CASING BOTTOM DRILLER
 CBL .F                48:   CASING BOTTOM LOGGER
 BS  .IN            7.875:   BIT SIZE
 BSD .F               433:   BIT SIZE AT DEPTH
 DFT .            KCL MUD:   DRILLING FLUID TYPE
 DFD .                8.5:   DRILLING FLUID DENSITY
 DFV .                 30:   DRILLING FLUID VISCOSITY
 DFPH.                9.6:   DRILLING FLUID PH
 DFL .                 16:   DRILLING FLUID LOSS
 MSS .             MUDPIT:   MUD SAMPLE SOURCE
 RMS .OHMM            .45:   RESISTIVITY MUD SAMPLE
 MST .F                50:   MUD SAMPLE TEMPERATURE
 RMF .OHMM            .37:   RESISTIVITY MUD FILTRATE SAMPLE
 MFST.F                50:   MUD FILTRATE SAMPLE TEMPERATURE
 RMC .OHMM            .43:   RESISTIVITY MUD CAKE
 MCST.F                50:   MUD CAKE SAMPLE TEMPERATURE
 MFSS.                  M:   MUD FILTRATE SAMPLE SOURCE
 MCSS.                  C:   MUD CAKE SAMPLE SOURCE
 RMB .OHMM            .42:   RESISTIVITY MUD AT BHT
 BHT .F                63:   BOTTOM HOLE TEMPERATURE
 TCS .HRS            2400:   TIME CURCULATED STOPPED
 TLAB.HRS            1300:   TIME LOGGER AT BOTTOM
 MRT .F                63:   MAXIMUM RECORDED TEMPERATURE
 LUN .               7663:   LOGGING UNIT NUMBER
 LUL .                GLT:   LOGGING UNIT LOCATION
 ENGI.        SATTERFIELD:   RECORDING ENGINEER
 WITN.              AMEND:   WITNESSED BY
 CLNT.            A2DTECH:   CLIENT CODE
 ORIG.     1", 2.5" PRINT:   ORIGIN OF DATA
 UWI .       490251077700:   UNIQUE WELL ID
 DICO. A2D Technologies, Inc.:   DIGITIZING COMPANY
~OTHER INFORMATION
~A   DEPT     NEUT        SPR        SFL        ILD        ILM       CORR       RHOB       DPHI       CALD         GRD  
# ...
  129.5000   285.2083   -51.3215     7.5850     7.3081     7.4402     0.0034     2.4053     0.1644     8.2831   114.0658
  130.0000   285.0740   -50.9350     8.0136     7.3081     7.4392     0.0044     2.4171     0.1572     8.2813   111.2679
  130.5000   284.9524   -50.5542     8.6121     7.4626     7.5788     0.0070     2.4338     0.1474     8.2795   108.9405
  131.0000   284.8307   -50.1760     9.2553     7.6270     7.7053     0.0115     2.4355     0.1474     8.2776   107.4361
  131.5000   284.7091   -49.7706     9.8407     7.7950     7.8763     0.0156     2.4456     0.1458     8.2758   107.3742
  132.0000   284.5873   -49.6001     9.8407     7.9667     8.0512     0.0130     2.4526     0.1352     8.2739   107.4163
  132.5000   284.4660   -49.6704     9.8407     8.1422     8.2296     0.0137     2.4483     0.1368     8.2721   108.8761
  133.0000   284.3696   -49.7139     9.8889     8.3215     8.4131     0.0228     2.4545     0.1385     8.2703   110.4860
  133.5000   284.3717   -49.7601     9.9546     8.4818     8.5984     0.0262     2.4657     0.1295     8.2684   110.5902
  134.0000   284.3719   -49.8106    10.0254     8.4686     8.8017     0.0111     2.4581     0.1336     8.2666   110.6584
  134.5000   284.3719   -49.8570     9.9896     8.4330     8.7727     0.0085     2.4581     0.1336     8.2648   110.5667
  135.0000   284.3719   -49.9054     9.9511     8.3979     8.7415     0.0076     2.4594     0.1336     8.2629   110.5357
  135.5000   284.3719   -49.9533     9.9128     8.3628     8.7104     0.0119     2.4693     0.1294     8.2610   108.7824
  136.0000   284.3719   -50.0012     9.8746     8.3275     8.6795     0.0162     2.4787     0.1239     8.2595   106.5700
  136.5000   284.3719   -50.0490     9.8407     8.2916     8.6486     0.0146     2.4715     0.1287     8.2569   106.3908
  137.0000   284.3719   -50.0969     9.5914     8.2574     8.6396     0.0126     2.4523     0.1343     8.2551   108.2158
  137.5000   284.3719   -50.1454     9.3719     8.2227     8.4149     0.0126     2.4523     0.1399     8.2318   109.7599
  138.0000   284.3719   -50.1916     9.1353     8.1882     8.2860     0.0136     2.4594     0.1321     8.2045   111.5304
  138.5000   284.3719   -50.2423     9.0936     8.1708     8.1591     0.0145     2.4566     0.1341     8.1786   111.7843
  139.0000   284.3719   -50.2887     9.0097     7.6122     8.0202     0.0061     2.4541     0.1405     8.1493   110.3139
  139.5000   284.3719   -50.3309     8.9267     7.1343     7.5266     0.0000     2.4388     0.1469     8.1243   110.0527
  140.0000   284.3719   -50.4045     8.8444     6.6865     7.0068    -0.0050     2.4237     0.1533     8.1037   110.6157
  140.5000   284.3719   -50.2047     8.8017     6.2668     6.5229    -0.0013     2.4136     0.1603     8.1373   109.9167
  141.0000   284.3719   -49.7757     7.8724     5.8734     6.0725     0.0022     2.4113     0.1632     8.1471   109.1435
  141.5000   284.3719   -49.3776     7.1090     5.5292     5.8464     0.0067     2.4061     0.1664     8.1746   108.3567
  142.0000   284.3718   -48.9815     5.9528     5.5720     5.7387     0.0132     2.4027     0.1694     8.1749   107.6023
  142.5000   284.3711   -48.5810     5.0382     5.6369     5.7387     0.0221     2.3928     0.1769     8.1744   106.7342
  143.0000   284.3752   -48.1870     4.9454     5.7025     5.7387     0.0201     2.3744     0.1861     8.1743   107.0683
  143.5000   284.4992   -47.7936     5.9271     5.7387     5.9706     0.0220     2.3923     0.1768     8.1558   108.1177
  144.0000   284.6295   -47.4008     7.3244     5.9561     6.3118     0.0291     2.4375     0.1612     8.1329   109.0544
  144.5000   284.7593   -47.0078     8.9669     6.3060     6.7058     0.0285     2.4581     0.1457     8.1106   110.0017
  145.0000   284.8889   -46.6143     9.0415     6.7490     7.1251     0.0232     2.4566     0.1352     8.0954   110.9423
  145.5000   285.0186   -46.2225     9.1838     7.2205     7.5722     0.0320     2.4725     0.1276     8.1505   111.8959
  146.0000   285.1482   -45.8288     9.3303     7.7246     8.0464     0.0345     2.4817     0.1216     8.1718   112.3367
  146.5000   285.2778   -45.4329     9.4921     8.0593     8.3286     0.0254     2.4759     0.1207     8.0768   111.5441
  147.0000   285.4074   -45.0963     9.4757     8.1333     8.3833     0.0172     2.4637     0.1290     7.9430   109.8163
  147.5000   285.5371   -44.9111     9.4746     8.2212     8.4362     0.0087     2.4518     0.1364     7.9370   108.2481
  148.0000   285.6667   -44.7220     9.6691     8.3286     8.6371     0.0014     2.4422     0.1449     8.0148   108.3133
  148.5000   285.7964   -44.5374    10.0028     8.4368     8.7490     0.0060     2.4451     0.1429     8.1050   108.8566
  149.0000   285.9260   -44.3513    10.4053     8.5491     8.8850     0.0220     2.4571     0.1385     8.1179   109.4490
  149.5000   286.0554   -44.1649    10.4053     8.6629     9.0233     0.0244     2.4711     0.1341     8.0791   110.0237
  150.0000   286.1845   -43.9802    10.4745     8.8017     9.1353     0.0167     2.4782     0.1287     8.0538   110.6237
  150.5000   286.3095   -43.7924    10.5438     8.8247     9.1814     0.0089     2.4596     0.1300     8.0996   111.1185
  151.0000   286.8310   -43.6080    10.6006     8.8830     9.2199     0.0030     2.4486     0.1331     8.1544   112.3370
  151.5000   287.4886   -43.4241    10.6838     8.9417     9.2587     0.0069     2.4528     0.1362     8.2128   114.1606
  152.0000   288.1468   -43.2226    10.7544     9.0008     9.2976     0.0105     2.4527     0.1393     8.2094   115.8217
  152.5000   288.8078   -43.1043    10.8256     9.0603     9.3368     0.0125     2.4487     0.1409     8.1996   117.5302
  153.0000   289.3641   -43.0663    10.8967     9.1202     9.3760     0.0110     2.4456     0.1414     8.1880   119.3854
  153.5000   290.9200   -43.0079    10.9686     9.1616     9.4154     0.0122     2.4534     0.1417     8.1780   120.4553
  154.0000   293.4791   -42.9515    11.0606     9.1969     9.4550     0.0172     2.4636     0.1304     8.1673   120.5560
  154.5000   295.8828   -42.8962    11.1703     9.2323     9.4947     0.0134     2.4584     0.1327     8.1565   118.7636
  155.0000   301.9946   -42.8397    11.2809     9.2679     9.5347     0.0073     2.4536     0.1376     8.1465   116.0310
  155.5000   309.8369   -42.7884    11.3926     9.3067     9.5749     0.0145     2.4619     0.1347     8.1346   113.2649
  156.0000   314.2825   -42.7181    11.5056     9.3067     9.6153     0.0210     2.4756     0.1263     8.1388   113.1600
  156.5000   277.4480   -42.8092    11.6320     9.2830     9.6596     0.0283     2.4929     0.1077     8.1495   114.1442
  157.0000   277.6342   -42.9758    11.4855     9.2622     9.6180     0.0305     2.5191     0.0955     8.1602   114.7821
  157.5000   277.6778   -43.1262    11.3244     9.2404     9.5330     0.0249     2.5148     0.0994     8.1707   114.4123
  158.0000   277.8418   -43.2990    11.1657     9.2198     9.4487     0.0270     2.5041     0.1051     8.1813   113.4717
  158.5000   277.9737   -43.4054    11.0091     9.2012     9.3653     0.0314     2.4949     0.1107     8.1918   112.6052
  159.0000   278.1055   -43.8567    10.8548     9.1787     9.2825     0.0291     2.4913     0.1164     8.2024   113.4073
  159.5000   278.2374   -43.9253    10.7156     9.1475     9.2004     0.0199     2.4872     0.1211     8.2130   114.2557
  160.0000   278.3692   -43.9366    10.5855     9.1614     9.1188     0.0121     2.4750     0.1231     8.2251   114.2535
  160.5000   278.5011   -43.9207    10.4529     8.9308     9.0384     0.0075     2.4745     0.1254     8.2376   112.8612
  161.0000   278.6330   -43.9288    10.3251     8.7954     8.9586     0.0107     2.4718     0.1262     8.2503   111.5579
  161.5000   278.7648   -43.9272    10.1989     8.6368     8.8795     0.0144     2.4734     0.1262     8.2627   112.2411
  162.0000   278.8967   -43.9282    10.0743     8.4223     8.8017     0.0136     2.4737     0.1229     8.2753   113.0152
  162.5000   279.0285   -43.9179     9.6530     8.1654     8.4672     0.0105     2.4654     0.1266     8.2882   113.9279
