~VERSION INFORMATION
 VERS.                2.0:   CWLS LOG ASCII STANDARD - VERSION 2.0
 WRAP.                 NO:   ONE LINE PER DEPTH STEP
~WELL INFORMATION
#MNEM.UNIT      DATA TYPE    INFORMATION
#----------   ------------   ------------------------------
 STRT.F            2.0000:   START DEPTH
 STOP.F          564.0000:   STOP DEPTH
 STEP.F            0.5000:   STEP LENGTH
 NULL.          -999.2500:   NO VALUE
 COMP.       F D SERV INC:   COMPANY
 WELL. NAVAL PETROLEUM RESERVE 3 SX-3 #88-2-3:   WELL
 FLD .             TEAPOT:   FIELD
 LOC .       S3 T38N R78W:   LOCATION
 CNTY.            NATRONA:   COUNTY
 STAT.            WYOMING:   STATE
 CTRY. UNITED STATES OF AMERICA:   COUNTRY
 SRVC.      Western Atlas:   SERVICE COMPANY
 DATE.        29-OCT-1992:   LOGDATE
 API .       490252255900:   API NUMBER
~CURVE INFORMATION
#MNEM.UNIT       API CODE    CURVE DESCRIPTION
#----------   ------------   ------------------------------
 DEPT.F                  :   
 GRR .GAPI   07 310 01 00:   GAMMA RAY
 RILD.OHMM   07 120 46 00:   INDUCTION LOG DEEP RESISTIVITY
 RILM.OHMM   07 120 44 00:   INDUCTION LOG MEDIUM RESISTIVITY
~PARAMETER INFORMATION
#MNEM.UNIT          VALUE    DESCRIPTION
#----------   ------------   ------------------------------
 PD  .                 GL:   PERMANENT DATUM
 EPD .F              5138:   ELEVATION PERMANENT DATUM
 LMF .                 KB:   LOG MEASURED FROM
 DAPD.F                10:   FEET ABOVE PERMANENT DATUM
 DMF .                 KB:   DRILLING MEASURED FROM
 EKB .F              5148:   KELLING BUSHING
 EDF .F              5147:   DRILLING FLOOR
 EGL .F              5138:   GROUND LEVEL
 DATE.        29-OCT-1992:   RUN DATE
 RUN .                  1:   RUN NUMBER
 DD  .F               570:   DEPTH DRILLER
 DL  .F               572:   DEPTH LOGGER
 BLI .F               564:   BOTTOM LOG INTERVAL
 CS  .IN            8.625:   CASING SIZE
 CBD .F                98:   CASING BOTTOM DRILLER
 CBL .F                98:   CASING BOTTOM LOGGER
 BS  .IN            7.875:   BIT SIZE
 BSD .F               570:   BIT SIZE AT DEPTH
 DFT .           AIR FOAM:   DRILLING FLUID TYPE
 TCS .HRS               2:   TIME CURCULATED STOPPED
 MRT .F                60:   MAXIMUM RECORDED TEMPERATURE
 LUN .            HL-6274:   LOGGING UNIT NUMBER
 LUL .             CASPER:   LOGGING UNIT LOCATION
 ENGI.             RAUTIO:   RECORDING ENGINEER
 WITN.     BRUCE ANDERSON:   WITNESSED BY
 CLNT.            A2DTECH:   CLIENT CODE
 ORIG.           5" PRINT:   ORIGIN OF DATA
 UWI .       490252255900:   UNIQUE WELL ID
 DICO. A2D Technologies, Inc.:   DIGITIZING COMPANY
~OTHER INFORMATION
~A    DEPT      GRR      RILD       RILM   
# ...
  457.0000    76.1530    32.2247    29.2786
  457.5000    76.1387    32.4421    28.2773
  458.0000    77.6327    31.5461    27.6909
  458.5000    81.2411    30.6769    26.9283
  459.0000    83.9446    29.8150    26.5529
  459.5000    85.4419    28.2158    26.1828
  460.0000    85.4299    26.8746    26.1776
  460.5000    85.7203    26.1340    25.4568
  461.0000    85.7060    25.5904    24.5861
  461.5000    85.9991    25.5820    24.0762
  462.0000    87.4931    25.5375    24.0715
  462.5000    89.8920    25.2172    24.0667
  463.0000    92.2939    25.2106    24.0619
  463.5000    93.4919    25.0300    24.2231
  464.0000    90.4610    25.0220    24.0513
  464.5000    85.3072    25.1891    23.8807
  465.0000    85.0054    25.1825    23.8760
  465.5000    86.5023    25.5268    24.0492
  466.0000    87.9992    25.8741    25.0499
  466.5000    87.0827    26.0486    26.1067
  467.0000    84.3117    26.4047    26.8341
  467.5000    81.6272    26.5795    26.6438
  468.0000    80.7107    26.3874    25.3601
  468.5000    81.3026    26.1986    24.0062
  469.0000    85.2288    26.0111    23.5084
  469.5000    89.4217    25.6469    22.7044
  470.0000    88.8069    24.7453    22.2336
  470.5000    87.8905    23.5893    22.2290
  471.0000    88.7840    22.9393    22.2237
  471.5000    89.9792    22.4621    21.4637
  472.0000    89.6633    21.9949    21.0185
  472.5000    89.6518    21.8360    20.8695
  473.0000    90.5454    21.2344    20.4357
  473.5000    93.2529    20.7926    19.8738
  474.0000    95.0474    20.3601    18.9304
  474.5000    90.8099    19.6479    18.4100
  475.0000    90.1980    19.1195    18.1533
  475.5000    92.2953    18.8518    18.2749
  476.0000    95.3645    18.5878    18.1453
  476.5000    96.1940    18.3275    17.8923
  477.0000    94.0681    17.9451    17.5213
  477.5000    94.3583    17.6938    17.1540
  478.0000    98.8718    17.4461    16.9045
  478.5000   102.4774    17.0831    16.6821
  479.0000   103.9742    16.7107    16.4496
  479.5000   104.5690    16.3794    16.3329
  480.0000   104.2530    16.1494    16.1052
  480.5000    98.4576    15.9233    15.9902
  481.0000    95.7808    15.7002    15.8768
  481.5000    95.4706    15.4794    15.6555
  482.0000    97.5679    15.4754    15.6524
  482.5000    97.2548    15.5798    15.6384
  483.0000    95.1289    15.4673    15.3240
  483.5000    92.4025    15.2497    15.2153
  484.0000    89.6762    15.0361    15.0033
  484.5000    89.0156    14.8256    14.8969
  485.0000    91.5436    14.6180    14.7775
  485.5000    96.2755    14.5133    14.4837
  486.0000    99.2806    14.2106    14.2818
  486.5000   101.3808    14.1806    14.0828
  487.0000   100.4644    14.0081    13.9829
  487.5000    97.4335    13.9077    13.8830
  488.0000    95.3105    13.8072    13.6895
  488.5000    92.8857    13.5200    13.4056
  489.0000    93.1760    13.5165    13.3105
  489.5000    93.7818    13.3272    13.2162
  490.0000    95.2619    13.2195    13.1218
  490.5000    96.7587    12.9557    12.9389
  491.0000    98.2556    12.8630    12.9363
  491.5000    96.4342    12.8596    12.8446
  492.0000    95.4731    12.8562    12.7535
  492.5000    93.6935    12.8521    12.7503
  493.0000    93.0816    12.9379    12.7478
  493.5000    95.1789    12.9345    12.8344
  494.0000    96.0725    13.0210    12.8313
  494.5000    96.3627    13.2906    12.9231
  495.0000    97.5550    13.4714    13.1855
  495.5000   100.8618    13.3750    13.2751
  496.0000   102.1137    13.3454    13.2719
  496.5000   101.1021    13.2684    13.2692
  497.0000   100.2214    12.9091    13.2332
  497.5000   100.8132    12.7284    13.1723
  498.0000   102.9134    12.6373    13.0785
  498.5000   105.9226    12.4603    12.5441
  499.0000   108.0159    12.4477    12.4551
  499.5000   107.0995    12.3671    12.4417
  500.0000   105.9410    12.2550    12.3486
  500.5000   104.6580    12.0998    12.1093
  501.0000   106.4538    12.0230    11.9419
  501.5000   107.6498    12.0214    11.8588
  502.0000   106.7149    11.9370    11.8580
  502.5000   106.4078    11.8531    11.8572
  503.0000   106.9969    11.6883    11.8562
  503.5000   108.1894    11.6868    11.8555
  504.0000   106.9200    11.6852    11.8547
  504.5000   103.9343    11.6837    11.8539
  505.0000   102.4119    11.6818    11.8530
  505.5000   100.2861    11.6803    11.8522
  506.0000   100.9473    11.6788    11.8514
  506.5000   103.8741    11.7583    11.9330
  507.0000   105.9716    11.7564    11.8497
  507.5000   108.6723    11.6738    11.8489
  508.0000   107.4480    11.5918    11.8482
  508.5000   105.9256    11.5903    11.6730
  509.0000   105.3116    11.5085    11.5230
  509.5000   109.8188    11.5070    11.5223
  510.0000   114.9293    11.3474    11.3632
  510.5000   116.1253    11.2677    11.2061
  511.0000   112.7894    11.1882    11.1281
  511.5000   109.1553    11.1096    11.0506
  512.0000   108.5343    11.0315    10.8980
  512.5000   109.7267    10.9540    10.8220
  513.0000   112.4275    10.8767    10.6726
  513.5000   114.5250    10.7258    10.5252
  514.0000   112.9990    10.6505    10.3799
  514.5000   112.3815    10.4223    10.3075
  515.0000   112.6725    10.2143    10.1651
  515.5000   113.2761    10.0032    10.0248
  516.0000   115.3520     9.7288     9.6770
  516.5000   117.1478     9.3791     9.4181
  517.0000   118.6420     9.0757     9.2240
  517.5000   120.1960     8.7055     8.9716
  518.0000   121.3286     8.3504     8.6998
  518.5000   120.7076     7.4739     7.7035
  519.0000   120.3917     6.9733     6.9436
  519.5000   120.3771     6.4168     6.2154
  520.0000   124.5831     5.7834     5.4117
  520.5000   128.7922     5.5473     5.1554
  521.0000   135.1128     5.4704     5.0493
  521.5000   138.1117     5.5078     5.4860
  522.0000   132.6677     5.6224     5.8786
  522.5000   125.1121     5.8598     6.1700
  523.0000   117.2548     6.0235     6.8444
  523.5000   112.1088     6.8216     7.5994
  524.0000   113.3013     7.7255     8.4807
  524.5000   114.1957     8.7488     9.0878
  525.0000   114.1780     9.1819     9.3047
  525.5000   115.0653     9.3736     9.4086
  526.0000   116.2577     9.5035     9.4712
  526.5000   120.7684     9.7678     9.6024
  527.0000   123.4692     9.9026     9.7356
  527.5000   123.4515    10.0396     9.9390
  528.0000   124.3423    10.1105    10.0769
  528.5000   126.1381    10.3180    10.2168
  529.0000   127.0289    10.4702    10.2869
  529.5000   122.4864    10.6348    10.5018
  530.0000   118.2490    10.7513    10.6475
  530.5000   116.7265    10.8993    10.7952
  531.0000   116.4107    10.9739    10.8944
  531.5000   115.1863    11.1254    11.0202
  532.0000   114.2672    11.2786    11.1729
  532.5000   113.6497    11.4343    11.2499
  533.0000   114.2353    11.5922    11.4094
  533.5000   114.5264    11.6708    11.6440
  534.0000   113.9054    11.8319    11.8056
  534.5000   113.5895    11.9125    11.8870
  535.0000   113.8770    11.9936    12.0516
  535.5000   113.8593    12.0750    12.2186
  536.0000   112.9402    12.2416    12.3028
  536.5000   111.1161    12.3250    12.3873
  537.0000   109.8917    12.4086    12.4725
  537.5000   111.6875    12.4070    12.4714
  538.0000   109.8634    12.4050    12.4706
  538.5000   108.0332    12.4036    12.4698
  539.0000   107.4218    12.3823    12.3828
  539.5000   111.0240    12.3146    12.3820
  540.0000   114.9350    12.1434    12.3812
  540.5000   112.1660    12.1418    12.2950
  541.0000   110.6763    12.0565    12.2093
  541.5000   112.4721    11.9718    12.0407
  542.0000   116.0779    11.8873    11.9569
  542.5000   116.3654    11.8860    11.8736
  543.0000   114.5377    11.8023    11.7095
  543.5000   113.9202    11.7194    11.6280
  544.0000   114.5094    11.4767    11.6272
  544.5000   116.9924    11.2395    11.6265
  545.0000   118.1010    11.0071    11.2302
  545.5000   118.6866    10.8912    11.0751
  546.0000   121.3152    10.7035    10.8469
  546.5000  -999.2500    10.5550    10.6969
  547.0000  -999.2500    10.3368    10.4765
  547.5000  -999.2500    10.1196    10.2605
