~VERSION INFORMATION
 VERS.                2.0:   CWLS LOG ASCII STANDARD - VERSION 2.0
 WRAP.                 NO:   ONE LINE PER DEPTH STEP
~WELL INFORMATION
#MNEM.UNIT      DATA TYPE    INFORMATION
#----------   ------------   ------------------------------
 STRT.F           64.0000:   START DEPTH
 STOP.F          532.0000:   STOP DEPTH
 STEP.F            0.5000:   STEP LENGTH
 NULL.          -999.2500:   NO VALUE
 COMP.       F D SERV INC:   COMPANY
 WELL.  81-3 SX 10 #81-10:   WELL
 FLD .             TEAPOT:   FIELD
 LOC .      S10 T38N R78W:   LOCATION
 CNTY.            NATRONA:   COUNTY
 STAT.            WYOMING:   STATE
 CTRY. UNITED STATES OF AMERICA:   COUNTRY
 SRVC.     Atlas Wireline:   SERVICE COMPANY
 DATE.        29-JAN-1993:   LOGDATE
 API .       490252258400:   API NUMBER
~CURVE INFORMATION
#MNEM.UNIT       API CODE    CURVE DESCRIPTION
#----------   ------------   ------------------------------
 DEPT.F                  :   
 C13 .IN     45 280 13 00:   
 ZCOR.G/C3   45 356 01 00:   DENSITY CORRECTION
 ZDEN.G/C3   45 350 01 00:   BULK DENSITY
 GRD .GAPI   45 310 01 00:   GAMMA RAY FROM DENSITY LOG
 PORS.DEC    42 890 00 00:   
 PORZ.DEC    45 890 00 00:   DENSITY POROSITY
 RILD.OHMM   07 120 46 00:   INDUCTION LOG DEEP RESISTIVITY
 RILM.OHMM   07 120 44 00:   INDUCTION LOG MEDIUM RESISTIVITY
~PARAMETER INFORMATION
#MNEM.UNIT          VALUE    DESCRIPTION
#----------   ------------   ------------------------------
 PD  .                 GL:   PERMANENT DATUM
 EPD .F              5161:   ELEVATION PERMANENT DATUM
 LMF .                 KB:   LOG MEASURED FROM
 DAPD.F                10:   FEET ABOVE PERMANENT DATUM
 DMF .                 KB:   DRILLING MEASURED FROM
 EKB .F              5171:   KELLING BUSHING
 EDF .F              5170:   DRILLING FLOOR
 EGL .F              5161:   GROUND LEVEL
 DATE.        29-JAN-1993:   RUN DATE
 RUN .                  1:   RUN NUMBER
 DD  .F               536:   DEPTH DRILLER
 DL  .F               536:   DEPTH LOGGER
 BLI .F               527:   BOTTOM LOG INTERVAL
 TLI .F                96:   TOP LOG INTERVAL
 CS  .IN            8.625:   CASING SIZE
 CBD .F                96:   CASING BOTTOM DRILLER
 CBL .F                96:   CASING BOTTOM LOGGER
 BS  .IN            7.875:   BIT SIZE
 BSD .F               536:   BIT SIZE AT DEPTH
 DFT .                AIR:   DRILLING FLUID TYPE
 MRT .F                65:   MAXIMUM RECORDED TEMPERATURE
 LUN .            HL-6274:   LOGGING UNIT NUMBER
 LUL .             CASPER:   LOGGING UNIT LOCATION
 ENGI.        P.RASMUSSEN:   RECORDING ENGINEER
 WITN.           G.STRONG:   WITNESSED BY
 CLNT.            A2DTECH:   CLIENT CODE
 ORIG.           5" PRINT:   ORIGIN OF DATA
 UWI .       490252258400:   UNIQUE WELL ID
 DICO. A2D Technologies, Inc.:   DIGITIZING COMPANY
~OTHER INFORMATION
~A   DEPT      C13       ZCOR       ZDEN        GRD       PORS       PORZ       RILD       RILM   
# ...
  388.0000     8.1844     0.0318     2.4787    91.3370     0.2526     0.1073    13.5257    13.2837
  388.5000     8.1840     0.0183     2.4912    92.5390     0.2529     0.1022    13.3414    13.1919
  389.0000     8.1838     0.0094     2.5017    92.8374     0.2530     0.0931    13.2514    13.0102
  389.5000     8.1835     0.0184     2.5093    92.2315     0.2530     0.0880    13.2536    13.0102
  390.0000     8.1982     0.0259     2.5130    90.1202     0.2530     0.0844    13.2554    12.8310
  390.5000     8.1979     0.0319     2.5100    88.3102     0.2524     0.0829    13.3492    13.0102
  391.0000     8.1976     0.0349     2.5010    87.1026     0.2509     0.0850    13.3510    13.1007
  391.5000     8.1972     0.0364     2.4807    90.1111     0.2491     0.0958    13.3528    13.1919
  392.0000     8.1970     0.0394     2.4695    90.4096     0.2472     0.1078    13.5409    13.3762
  392.5000     8.1967     0.0409     2.4567    89.5024     0.2461     0.1154    13.5427    13.6574
  393.0000     8.1964     0.0439     2.4445    88.2948     0.2464     0.1252    13.6388    13.8481
  393.5000     8.1961     0.0484     2.4402    88.5932     0.2476     0.1288    13.9270    14.0416
  394.0000     8.1808     0.0499     2.4447    89.4940     0.2500     0.1279    14.1235    14.1393
  394.5000     8.1955     0.0484     2.4523    88.5869     0.2524     0.1215    14.1253    14.2377
  395.0000     8.1952     0.0350     2.4612    87.0781     0.2551     0.1162    14.1271    14.1393
  395.5000     8.1949     0.0260     2.4650    85.8705     0.2566     0.1129    14.1290    13.9445
  396.0000     8.1946     0.0275     2.4597    86.4694     0.2571     0.1143    13.9365    13.7524
  396.5000     8.2093     0.0455     2.4567    89.4786     0.2560     0.1170    13.6521    13.4692
  397.0000     8.2090     0.0515     2.4620    91.2830     0.2567     0.1167    13.4661    13.0102
  397.5000     8.2087     0.0545     2.4718    92.7856     0.2573     0.1113    13.1819    12.7423
  398.0000     8.2084     0.0560     2.4834    93.3859     0.2591     0.1065    12.8323    12.5667
  398.5000     8.2081     0.0575     2.4928    93.6843     0.2609     0.0972    12.4837    12.3080
  399.0000     8.1928     0.0575     2.4989    93.0582     0.2621     0.0930    12.2286    12.1384
  399.5000     8.1925     0.0575     2.5004    91.8700     0.2633     0.0911    12.0620    11.9712
  400.0000     8.1921     0.0441     2.4970    90.9026     0.2645     0.0908    11.9896    11.9712
  400.5000     8.1919     0.0396     2.5008    90.6529     0.2651     0.0893    12.0205    11.9712
  401.0000     8.1916     0.0367     2.5015    91.8493     0.2657     0.0881    12.0514    11.8885
  401.5000     8.1912     0.0337     2.5015    93.6461     0.2669     0.0878    12.1452    11.9712
  402.0000     8.1910     0.0277     2.5000    93.6377     0.2681     0.0893    12.3136    12.0635
  402.5000     8.1907     0.0232     2.4970    91.8222     0.2687     0.0908    13.0140    12.6542
  403.0000     8.1904     0.0158     2.4940    88.7996     0.2693     0.0920    14.1578    13.7524
  403.5000     8.1901     0.0053     2.4902    86.3816     0.2702     0.0947    16.1418    14.9460
  404.0000     8.1898    -0.0021     2.4685    83.0600     0.2705     0.1073    18.1258    17.1698
  404.5000     8.1895    -0.0096     2.4332    78.8327     0.2696     0.1296    20.1098    19.7245
  405.0000     8.1891     0.0084     2.3814    76.1135     0.2675     0.1629    22.1033    21.7357
  405.5000     8.2157     0.0174     2.3221    73.6955     0.2651     0.1894    25.2901    23.8082
  406.0000     8.2150     0.0204     2.2853    71.8778     0.2621     0.2143    27.4798    26.2120
  406.5000     8.2144     0.0189     2.2538    70.6646     0.2597     0.2372    28.8428    28.2900
  407.0000     8.2137     0.0114     2.2357    71.2586     0.2594     0.2480    30.2730    28.8847
  407.5000     8.2132     0.0129     2.2342    73.3986     0.2621     0.2519    31.3375    28.6851
  408.0000     8.2126     0.0219     2.2523    76.0591     0.2651     0.2432    31.5537    28.4869
  408.5000     8.2119     0.0294     2.2793    78.4604     0.2687     0.2293    30.9024    27.9003
  409.0000     8.2114     0.0264     2.3026    80.5884     0.2711     0.2140    30.4749    27.5159
  409.5000     8.2108     0.0100     2.3191    80.8533     0.2724     0.2008    29.6404    27.1369
  410.0000     8.2101     0.0010     2.3131    76.9272     0.2718     0.2014    29.0291    27.1369
  410.5000     8.2096     0.0100     2.3123    73.5573     0.2699     0.2053    28.6275    26.9493
  411.0000     8.2090     0.0235     2.3183    70.2818     0.2672     0.2037    28.6257    26.7631
  411.5000     8.2083     0.0205     2.3326    72.6831     0.2675     0.1959    28.6238    26.7295
  412.0000     8.2078     0.0205     2.3559    73.8795     0.2678     0.1893    28.3211    26.5781
  412.5000     8.2072     0.0445     2.4024    73.5679     0.2654     0.1782    27.8378    26.3944
  413.0000     8.1915     0.0594     2.4977    73.2583     0.2573     0.1349    27.4531    25.6722
  413.5000     8.2061     0.0654     2.5360    73.2499     0.2379     0.1001    27.0737    25.1436
  414.0000     8.2054     0.0370     2.5353    73.5428     0.2195     0.0696    26.1502    24.4557
  414.5000     8.2047     0.0281     2.4835    75.9420     0.2210     0.0760    25.2586    23.6183
  415.0000     8.2042     0.0236     2.4362    78.6444     0.2346     0.0962    24.5670    22.8170
  415.5000     8.2036     0.0236     2.3836    82.5496     0.2498     0.1318    24.0581    22.1927
  416.0000     8.2029     0.0236     2.3709    80.1316     0.2576     0.1593    23.5637    21.8870
  416.5000     8.2024     0.0177     2.3619    78.0148     0.2615     0.1677    23.2381    22.0393
  417.0000     8.2018     0.0177     2.3566    77.4020     0.2636     0.1770    23.0762    22.0393
  417.5000     8.2011     0.0222     2.3514    77.6948     0.2621     0.1821    22.8943    21.7357
  418.0000     8.2006     0.0207     2.3453    78.5901     0.2606     0.1848    22.5984    21.4363
  418.5000     8.2000    -0.0032     2.3423    80.0856     0.2600     0.1869    22.4411    21.1410
  419.0000     8.1993     0.0013     2.3408    81.2821     0.2597     0.1878    22.2847    20.8498
  419.5000     8.1988     0.0118     2.3498    81.8782     0.2615     0.1857    22.1291    20.7057
  420.0000     8.2132     0.0208     2.3596    80.6225     0.2657     0.1815    21.9750    20.5626
  420.5000     8.2125     0.0103     2.3701    80.9537     0.2681     0.1725    21.8219    20.5626
  421.0000     8.2120    -0.0031     2.3731    81.2486     0.2702     0.1676    21.6699    20.5626
  421.5000     8.2114     0.0163     2.3476    80.0050     0.2724     0.1727    21.5187    20.2794
  422.0000     8.2107     0.0328     2.3303    79.4225     0.2733     0.1851    21.3688    20.0000
  422.5000     8.2102     0.0388     2.3258    81.5205     0.2730     0.1947    21.3674    19.8618
  423.0000     8.2171     0.0268     2.3408    82.4317     0.2708     0.1938    21.3659    19.7245
  423.5000     8.2241     0.0134     2.3491    83.3110     0.2696     0.1875    21.3643    19.7245
  424.0000     8.2234     0.0104     2.3498    82.9994     0.2690     0.1839    21.2155    19.5882
  424.5000     8.2228     0.0090     2.3483    81.7821     0.2693     0.1826    21.0677    19.5882
  425.0000     8.2221     0.0090     2.3476    79.9685     0.2693     0.1832    20.7762    19.5882
  425.5000     8.2216     0.0090     2.3468    80.5625     0.2699     0.1832    20.3477    19.4528
  426.0000     8.2210     0.0105     2.3476    81.7590     0.2711     0.1835    20.0047    19.3183
  426.5000     8.2203     0.0120     2.3468    82.0518     0.2715     0.1832    19.5168    19.0522
  427.0000     8.2198     0.0120     2.3551    80.5353     0.2711     0.1826    19.2471    18.6599
  427.5000     8.2192     0.0165     2.3679    80.2058     0.2705     0.1775    19.1130    18.4029
  428.0000     8.2185     0.0210     2.3829    81.1189     0.2702     0.1692    18.8489    18.1494
