~VERSION INFORMATION
 VERS.                2.0:   CWLS LOG ASCII STANDARD - VERSION 2.0
 WRAP.                 NO:   ONE LINE PER DEPTH STEP
~WELL INFORMATION
#MNEM.UNIT      DATA TYPE    INFORMATION
#----------   ------------   ------------------------------
 STRT.F           20.0000:   START DEPTH
 STOP.F          632.0000:   STOP DEPTH
 STEP.F            0.5000:   STEP LENGTH
 NULL.          -999.2500:   NO VALUE
 COMP. FENIX & SCISSON INC:   COMPANY
 WELL.    58 SX 34 #34-34:   WELL
 FLD .             TEAPOT:   FIELD
 LOC .      S34 T39N R78W:   LOCATION
 CNTY.            NATRONA:   COUNTY
 STAT.            WYOMING:   STATE
 CTRY. UNITED STATES OF AMERICA:   COUNTRY
 SRVC.            Unknown:   SERVICE COMPANY
 DATE.        30-JAN-1979:   LOGDATE
 API .       490251077300:   API NUMBER
~CURVE INFORMATION
#MNEM.UNIT       API CODE    CURVE DESCRIPTION
#----------   ------------   ------------------------------
 DEPT.F                  :   
 SPR .MV     05 010 01 00:   SPONTANEOUS POTENTIAL FROM RES.
 SN  .OHMM   05 040 16 00:   SHORT NORMAL 16"
 ILD .OHMM   05 120 46 00:   INDUCTION LOG DEEP
 CALD.IN     45 280 60 00:   CALIPER
 CORR.G/C3   45 356 01 00:   DENSITY CORRECTION
 RHOB.G/C3   45 350 01 00:   BULK DENSITY
 GRD .GAPI   45 310 01 00:   GAMMA RAY FROM DENSITY LOG
 DPHI.DEC    45 890 12 00:   DENSITY POROSITY SANDSTONE
~PARAMETER INFORMATION
#MNEM.UNIT          VALUE    DESCRIPTION
#----------   ------------   ------------------------------
 PD  .                 GL:   PERMANENT DATUM
 LMF .                 KB:   LOG MEASURED FROM
 DAPD.F                 4:   FEET ABOVE PERMANENT DATUM
 DMF .                 KB:   DRILLING MEASURED FROM
 DATE.            1-30-79:   RUN DATE
 RUN .                  1:   RUN NUMBER
 DD  .F               635:   DEPTH DRILLER
 DL  .F               632:   DEPTH LOGGER
 BLI .F               626:   BOTTOM LOG INTERVAL
 TLI .F                35:   TOP LOG INTERVAL
 CS  .IN            8.625:   CASING SIZE
 CBD .F                40:   CASING BOTTOM DRILLER
 CBL .F                35:   CASING BOTTOM LOGGER
 BS  .IN            7.875:   BIT SIZE
 BSD .F               635:   BIT SIZE AT DEPTH
 DFT .                KCL:   DRILLING FLUID TYPE
 DFD .                8.9:   DRILLING FLUID DENSITY
 DFV .                230:   DRILLING FLUID VISCOSITY
 DFPH.                  8:   DRILLING FLUID PH
 DFL .                 30:   DRILLING FLUID LOSS
 MSS .           FLOWLINE:   MUD SAMPLE SOURCE
 RMS .OHMM            .18:   RESISTIVITY MUD SAMPLE
 MST .F                62:   MUD SAMPLE TEMPERATURE
 RMF .OHMM            .14:   RESISTIVITY MUD FILTRATE SAMPLE
 MFST.F                59:   MUD FILTRATE SAMPLE TEMPERATURE
 RMC .OHMM            .24:   RESISTIVITY MUD CAKE
 MCST.F                60:   MUD CAKE SAMPLE TEMPERATURE
 MFSS.           MEASURED:   MUD FILTRATE SAMPLE SOURCE
 MCSS.           MEASURED:   MUD CAKE SAMPLE SOURCE
 RMB .OHMM            .17:   RESISTIVITY MUD AT BHT
 BHT .F                70:   BOTTOM HOLE TEMPERATURE
 TCS .HRS               4:   TIME CURCULATED STOPPED
 MRT .F                70:   MAXIMUM RECORDED TEMPERATURE
 LUN .               3006:   LOGGING UNIT NUMBER
 LUL .             CASPER:   LOGGING UNIT LOCATION
 ENGI.            ROLLINS:   RECORDING ENGINEER
 WITN.              AMEND:   WITNESSED BY
 CLNT.            A2DTECH:   CLIENT CODE
 ORIG.         2.5" PRINT:   ORIGIN OF DATA
 UWI .       490251077300:   UNIQUE WELL ID
 DICO. A2D Technologies, Inc.:   DIGITIZING COMPANY
~OTHER INFORMATION
~A   DEPT      SPR         SN        ILD       CALD       CORR       RHOB         GRD      DPHI   
# ...
  546.5000   -47.1796     8.1987    11.1339     8.0108     0.0362     2.4812    93.6301     0.1303
  547.0000   -47.4869     8.1752    10.9571     8.0112     0.0362     2.4781    93.7540     0.1311
  547.5000   -47.7957     8.1516    10.8234     8.0370     0.0362     2.4733    91.9799     0.1317
  548.0000   -48.1016     8.1282    10.7687     8.0605     0.0362     2.4756    90.2952     0.1302
  548.5000   -48.4089     8.1048    10.7042     8.0848     0.0362     2.4787    90.5722     0.1290
  549.0000   -48.7231     8.0815    10.6402     8.1109     0.0361     2.4821    93.6544     0.1277
  549.5000   -49.0146     8.0582    10.5765     8.1264     0.0361     2.4832    96.6641     0.1261
  550.0000   -49.3669     8.0351    10.5133     8.1248     0.0361     2.4836    99.1020     0.1261
  550.5000   -49.3876     8.0120    10.4503     8.1250     0.0361     2.4839   100.7235     0.1261
  551.0000   -49.3997     7.9890    10.3878     8.1252     0.0361     2.4843   102.1548     0.1261
  551.5000   -49.3913     7.9660    10.3255     8.1248     0.0361     2.4846   100.1340     0.1261
  552.0000   -49.3902     7.9430    10.2636     8.1250     0.0361     2.4866    97.2909     0.1242
  552.5000   -49.4035     7.9202    10.2020     8.1252     0.0361     2.4918    98.3774     0.1229
  553.0000   -49.3853     7.8973    10.1408     8.1238     0.0361     2.4930    94.4705     0.1221
  553.5000   -49.3503     7.8667    10.0800     8.1375     0.0362     2.4931    92.0050     0.1233
  554.0000   -48.7537     7.7680    10.0466     8.1631     0.0361     2.4917    92.7213     0.1245
  554.5000   -48.2579     7.6706    10.0467     8.1867     0.0362     2.4892    93.3412     0.1242
  555.0000   -47.7233     7.5744    10.0471     8.2103     0.0364     2.4875    94.0982     0.1205
  555.5000   -47.2009     7.4795    10.0471     8.2363     0.0397     2.4940    95.3818     0.1168
  556.0000   -46.6815     7.3858    10.0471     8.2379     0.0426     2.4994    97.9434     0.1140
  556.5000   -46.1549     7.2933    10.0471     8.2174     0.0443     2.5051   100.4493     0.1132
  557.0000   -45.6348     7.1883    10.0471     8.1982     0.0442     2.5047   102.9576     0.1157
  557.5000   -45.1187     7.0172    10.0471     8.1797     0.0441     2.5044   102.9029     0.1217
  558.0000   -44.7354     6.8215     8.8741     8.1726     0.0442     2.4901   101.0219     0.1278
  558.5000   -44.4325     6.6312     7.9010     8.2023     0.0443     2.4777    98.9746     0.1348
  559.0000   -44.1089     6.4462     7.0435     8.2346     0.0440     2.4688   104.9899     0.1457
  559.5000   -43.6560     6.2666     6.4608     8.2270     0.0457     2.4443   104.0928     0.1566
  560.0000   -43.1533     6.0924     6.6364     8.1808     0.0486     2.4202   100.2557     0.1663
  560.5000   -42.6538     5.9647     6.8151     8.1383     0.0528     2.4110   101.3185     0.1663
  561.0000   -42.1551     5.9689     6.9972     8.0963     0.0552     2.4304   112.7357     0.1394
  561.5000   -41.6553     5.9635     7.0847     8.0519     0.0401     2.4612   122.7339     0.1221
  562.0000   -41.1543     6.3144     7.1962     8.0117     0.0367     2.4827   127.4469     0.1189
  562.5000   -40.6552     6.7533     7.3226     7.9674     0.0379     2.5022   122.2929     0.1165
  563.0000   -40.1556     7.1546     7.8170     7.9974     0.0391     2.5021   111.6911     0.1179
  563.5000   -39.6283     7.5709     8.6970     8.0332     0.0401     2.4997   101.6199     0.1200
  564.0000   -38.9693     7.8884     9.6761     8.0711     0.0412     2.4943    93.0614     0.1222
  564.5000   -38.2725     8.0366    10.6239     8.1079     0.0423     2.4874    92.5459     0.1245
  565.0000   -37.5370     8.0594    10.6041     8.1470     0.0435     2.4849    95.8616     0.1269
  565.5000   -37.1598     8.0798    10.5477     8.1656     0.0439     2.4820   100.7450     0.1285
  566.0000   -37.1977     8.1003    10.4916     8.1598     0.0427     2.4805   100.2133     0.1285
  566.5000   -37.1941     8.1207    10.4285     8.1563     0.0416     2.4798   102.0760     0.1282
  567.0000   -37.2632     8.1413    10.4972     8.1529     0.0406     2.4790   102.7820     0.1275
  567.5000   -37.3746     8.1622    10.5771     8.1488     0.0395     2.4809   102.7168     0.1267
  568.0000   -37.4788     8.1828    10.6573     8.1451     0.0383     2.4831   103.9835     0.1260
  568.5000   -37.5832     8.1881    10.7381     8.1414     0.0373     2.4854   105.6013     0.1253
  569.0000   -37.6892     8.1811    10.8199     8.1373     0.0363     2.4894   107.1515     0.1269
  569.5000   -37.7937     8.1688    10.9024     8.1342     0.0400     2.4856   106.4035     0.1285
  570.0000   -37.8983     8.1567    10.9854     8.1306     0.0473     2.4750   104.3822     0.1285
  570.5000   -38.0028     8.1448    11.0275     8.1237     0.0563     2.4758   102.1675     0.1285
  571.0000   -38.1069     8.1330    11.0512     8.1572     0.0638     2.4767   100.0390     0.1317
  571.5000   -38.2115     8.1210    11.0842     8.2261     0.0623     2.4740    99.5061     0.1341
  572.0000   -38.3141     8.1092    11.1173     8.2953     0.0608     2.4669   103.3702     0.1341
  572.5000   -38.4195     8.0973    11.1506     8.2994     0.0684     2.4650   102.0029     0.1341
  573.0000   -38.5257     8.0855    11.1840     8.2130     0.0788     2.4648    98.1163     0.1349
  573.5000   -38.6187     8.0738    11.2176     8.2633     0.0891     2.4649    94.5336     0.1385
  574.0000   -38.7392     8.0619    11.2512     8.3273     0.0881     2.4578    90.8256     0.1427
  574.5000   -38.8554     8.0497    11.2849     8.4019     0.0852     2.4471    90.4245     0.1468
  575.0000   -39.4431     8.0361    11.3189     8.4323     0.1040     2.4432    89.8827     0.1492
  575.5000   -39.9398     7.9651    11.3530     8.3678     0.1014     2.4403    89.2594     0.1530
  576.0000   -40.4663     7.8775    11.3872     8.3125     0.0996     2.4379    91.1083     0.1550
  576.5000   -41.1120     7.7909    11.4213     8.2567     0.0967     2.4178    93.1161     0.1542
  577.0000   -42.0598     7.7051    11.4444     8.1996     0.0991     2.4223    93.3160     0.1534
  577.5000   -43.0024     7.6202    11.3979     8.1434     0.0978     2.4416    94.1249     0.1390
  578.0000   -43.9494     7.5951    11.3494     8.0853     0.0897     2.4539    96.4281     0.1357
  578.5000   -44.8973     7.5880    11.3000     8.0311     0.0819     2.4625    98.5996     0.1357
  579.0000   -45.8407     7.5807    11.2507     7.9670     0.0744     2.4628   100.0464     0.1357
  579.5000   -46.7899     7.5738    11.1640     8.0110     0.0685     2.4618   101.2437     0.1357
  580.0000   -47.7395     7.5668    10.9162     8.1525     0.0684     2.4595    99.2036     0.1381
  580.5000   -48.5815     7.5598    10.6737     8.0280     0.0682     2.4572    95.6099     0.1390
  581.0000   -49.0650     7.5529    10.4365     7.8646     0.0684     2.4586    92.5724     0.1382
  581.5000   -49.4970     7.5459    10.2047     7.8654     0.0681     2.4649    90.2801     0.1284
  582.0000   -49.9309     7.5390     9.9783     8.0237     0.0676     2.4699    96.5341     0.1191
  582.5000   -50.3918     7.5320     9.8527     8.1767     0.0565     2.4945   100.7311     0.1167
  583.0000   -50.6237     7.5251     9.8387     8.2201     0.0467     2.5023   103.1969     0.1172
  583.5000   -50.5716     7.5181     9.8250     8.1419     0.0404     2.4986   103.0726     0.1166
  584.0000   -50.5470     7.5112     9.8113     8.0627     0.0419     2.4988   103.1742     0.1148
  584.5000   -50.5242     7.5043     9.7975     8.1394     0.0436     2.5054   103.0051     0.1133
  585.0000   -50.4943     7.4974     9.7835     8.2931     0.0400     2.5059   106.8253     0.1129
  585.5000   -50.4689     7.4904     9.7695     8.3295     0.0336     2.5017   113.1481     0.1125
  586.0000   -50.4424     7.4837     9.7557     8.1998     0.0326     2.5051   114.1152     0.1104
  586.5000   -50.4156     7.4766     9.7415     8.0942     0.0336     2.5077   111.3316     0.1077
