~VERSION INFORMATION
 VERS.                2.0:   CWLS LOG ASCII STANDARD - VERSION 2.0
 WRAP.                 NO:   ONE LINE PER DEPTH STEP
~WELL INFORMATION
#MNEM.UNIT      DATA TYPE    INFORMATION
#----------   ------------   ------------------------------
 STRT.F           28.0000:   START DEPTH
 STOP.F          468.0000:   STOP DEPTH
 STEP.F            0.5000:   STEP LENGTH
 NULL.          -999.2500:   NO VALUE
 COMP. FENIX & SCISSON INC:   COMPANY
 WELL. NAVAL PETROLEUM RESERVE 3 SX3F #35-3:   WELL
 FLD .             TEAPOT:   FIELD
 LOC .       S3 T38N R78W:   LOCATION
 CNTY.            NATRONA:   COUNTY
 STAT.            WYOMING:   STATE
 CTRY. UNITED STATES OF AMERICA:   COUNTRY
 SRVC.              Welex:   SERVICE COMPANY
 DATE.        07-JUL-1980:   LOGDATE
 API .       490251081700:   API NUMBER
~CURVE INFORMATION
#MNEM.UNIT       API CODE    CURVE DESCRIPTION
#----------   ------------   ------------------------------
 DEPT.F                  :   
 CORR.G/C3   45 356 01 00:   DENSITY CORRECTION
 RHOB.G/C3   45 350 01 00:   BULK DENSITY
 CALD.IN     45 280 60 00:   CALIPER
 GRD .GAPI   45 310 01 00:   GAMMA RAY FROM DENSITY LOG
 DPHI.DEC    45 890 12 00:   DENSITY POROSITY SANDSTONE
~PARAMETER INFORMATION
#MNEM.UNIT          VALUE    DESCRIPTION
#----------   ------------   ------------------------------
 PD  .                 GL:   PERMANENT DATUM
 EPD .F              5162:   ELEVATION PERMANENT DATUM
 LMF .                 KB:   LOG MEASURED FROM
 DAPD.F                 5:   FEET ABOVE PERMANENT DATUM
 DMF .                 KB:   DRILLING MEASURED FROM
 EKB .F              5167:   KELLING BUSHING
 EGL .F              5162:   GROUND LEVEL
 DATE.             7-7-80:   RUN DATE
 RUN .                  1:   RUN NUMBER
 DD  .F               470:   DEPTH DRILLER
 DL  .F               470:   DEPTH LOGGER
 BLI .F               468:   BOTTOM LOG INTERVAL
 TLI .F                30:   TOP LOG INTERVAL
 BS  .IN             6.25:   BIT SIZE
 BSD .F               470:   BIT SIZE AT DEPTH
 DFT .        ARI DRILLED:   DRILLING FLUID TYPE
 TCS .HRS             1.5:   TIME CURCULATED STOPPED
 MRT .F                74:   MAXIMUM RECORDED TEMPERATURE
 ENGI.            TOTHILL:   RECORDING ENGINEER
 WITN.             AMENDS:   WITNESSED BY
 CLNT.            A2DTECH:   CLIENT CODE
 ORIG.           5" PRINT:   ORIGIN OF DATA
 UWI .       490251081700:   UNIQUE WELL ID
 DICO. A2D Technologies, Inc.:   DIGITIZING COMPANY
~OTHER INFORMATION
~A   DEPT      CORR        RHOB       CALD       GRD        DPHI 
# ...
  394.0000     0.0571     2.4124     6.0774    88.8718     0.1585
  394.5000     0.0498     2.4065     6.0903    89.9102     0.1616
  395.0000     0.0463     2.4026     6.1031    89.5400     0.1630
  395.5000     0.0460     2.4081     6.1157    88.5115     0.1586
  396.0000     0.0558     2.4170     6.1071    87.6479     0.1530
  396.5000     0.0512     2.4257     6.0697    88.3329     0.1505
  397.0000     0.0507     2.4278     6.0404    89.4255     0.1492
  397.5000     0.0597     2.4371     6.0449    90.5493     0.1424
  398.0000     0.0683     2.4461     6.0488    89.5442     0.1355
  398.5000     0.0658     2.4501     6.0526    87.9128     0.1377
  399.0000     0.0628     2.4464     6.0564    88.1134     0.1388
  399.5000     0.0659     2.4530     6.0602    89.1685     0.1336
  400.0000     0.0732     2.4598     6.0596    89.5717     0.1276
  400.5000     0.0770     2.4543     6.0584    88.1497     0.1315
  401.0000     0.0700     2.4567     6.0572    88.0649     0.1315
  401.5000     0.0630     2.4535     6.0560    88.2981     0.1338
  402.0000     0.0558     2.4483     6.0549    88.5918     0.1367
  402.5000     0.0487     2.4470     6.0537    89.6903     0.1371
  403.0000     0.0515     2.4519     6.0525    90.1177     0.1344
  403.5000     0.0617     2.4586     6.0514    89.8105     0.1300
  404.0000     0.0700     2.4651     6.0502    89.5412     0.1254
  404.5000     0.0710     2.4649     6.0490    90.9377     0.1269
  405.0000     0.0731     2.4643     6.0479    91.5611     0.1275
  405.5000     0.0769     2.4662     6.0467    90.7658     0.1260
  406.0000     0.0809     2.4693     6.0455    91.9910     0.1245
  406.5000     0.0757     2.4711     6.0444    93.3068     0.1238
  407.0000     0.0658     2.4663     6.0432    94.4196     0.1256
  407.5000     0.0608     2.4611     6.0420    94.2799     0.1286
  408.0000     0.0556     2.4607     6.0408    92.8909     0.1268
  408.5000     0.0541     2.4618     6.0404    91.5246     0.1273
  409.0000     0.0632     2.4674     6.0404    90.5412     0.1246
  409.5000     0.0742     2.4739     6.0404    92.0452     0.1205
  410.0000     0.0810     2.4805     6.0404    93.5387     0.1165
  410.5000     0.0720     2.4776     6.0404    94.2677     0.1203
  411.0000     0.0634     2.4718     6.0404    94.3343     0.1246
  411.5000     0.0612     2.4684     6.0404    95.1762     0.1231
  412.0000     0.0633     2.4735     6.0404    95.7821     0.1228
  412.5000     0.0530     2.4678     6.0404    96.4121     0.1255
  413.0000     0.0545     2.4654     6.0404    97.7441     0.1263
  413.5000     0.0635     2.4712     6.0404    98.3632     0.1218
  414.0000     0.0663     2.4763     6.0404    97.9020     0.1194
  414.5000     0.0570     2.4708     6.0404    96.7536     0.1253
  415.0000     0.0525     2.4626     6.0404    96.8285     0.1275
  415.5000     0.0565     2.4656     6.0404    95.6376     0.1248
  416.0000     0.0604     2.4752     6.0404    94.4562     0.1178
  416.5000     0.0642     2.4799     6.0404    94.2406     0.1191
  417.0000     0.0681     2.4742     6.0404    95.0726     0.1202
  417.5000     0.0720     2.4747     6.0404    95.9043     0.1202
  418.0000     0.0758     2.4751     6.0404    96.7370     0.1202
  418.5000     0.0787     2.4741     6.0404    97.5952     0.1208
  419.0000     0.0722     2.4717     6.0404    98.9299     0.1226
  419.5000     0.0639     2.4694     6.0404    99.8905     0.1240
  420.0000     0.0556     2.4718     6.0404    97.0831     0.1245
  420.5000     0.0474     2.4682     6.0404    96.2315     0.1250
  421.0000     0.0391     2.4683     6.0404    97.5687     0.1258
  421.5000     0.0317     2.4651     6.0404    97.9980     0.1266
  422.0000     0.0454     2.4676     6.0404    99.1120     0.1211
  422.5000     0.0628     2.4829     6.0404   100.7825     0.1157
  423.0000     0.0799     2.4891     6.0404   100.5900     0.1101
  423.5000     0.0787     2.4885     6.0404   100.4635     0.1101
  424.0000     0.0671     2.4835     6.0404   101.6045     0.1159
  424.5000     0.0619     2.4803     6.0404   102.6395     0.1169
  425.0000     0.0608     2.4777     6.0404   101.8209     0.1186
  425.5000     0.0614     2.4748     6.0404   102.8607     0.1186
  426.0000     0.0620     2.4781     6.0404   105.6141     0.1179
  426.5000     0.0598     2.4780     6.0404   108.3933     0.1194
  427.0000     0.0535     2.4716     6.0404   109.8921     0.1214
  427.5000     0.0473     2.4744     6.0404   110.3534     0.1213
  428.0000     0.0474     2.4771     6.0404   112.9221     0.1190
  428.5000     0.0529     2.4728     6.0404   113.7297     0.1206
  429.0000     0.0583     2.4790     6.0367   114.1312     0.1182
  429.5000     0.0636     2.4796     6.0261   115.2756     0.1177
  430.0000     0.0629     2.4737     6.0155   115.5984     0.1209
  430.5000     0.0597     2.4692     6.0050   115.3322     0.1226
  431.0000     0.0565     2.4693     5.9945   115.6817     0.1237
  431.5000     0.0532     2.4678     5.9839   119.4888     0.1258
  432.0000     0.0503     2.4614     5.9770   123.4805     0.1283
  432.5000     0.0505     2.4643     5.9724   127.4679     0.1271
  433.0000     0.0550     2.4631     5.9677   131.2630     0.1267
  433.5000     0.0594     2.4599     5.9631   132.4047     0.1299
  434.0000     0.0637     2.4619     5.9601   133.4624     0.1278
  434.5000     0.0682     2.4676     5.9633   130.3400     0.1247
  435.0000     0.0684     2.4794     5.9662   117.5031     0.1192
  435.5000     0.0759     2.4936     5.9692   110.4408     0.1075
  436.0000     0.0897     2.5071     5.9721   109.9790     0.1008
  436.5000     0.0760     2.4996     5.9751   109.9006     0.1066
  437.0000     0.0601     2.4870     5.9780   108.5154     0.1128
  437.5000     0.0444     2.4776     5.9810   108.8614     0.1190
  438.0000     0.0316     2.4703     5.9839   110.3880     0.1231
  438.5000     0.0443     2.4779     5.9869   111.9561     0.1181
  439.0000     0.0525     2.4809     5.9898   113.5611     0.1168
  439.5000     0.0497     2.4807     5.9928   114.1606     0.1163
  440.0000     0.0482     2.4872     5.9957   114.1129     0.1131
  440.5000     0.0532     2.4864     5.9987   113.3222     0.1120
  441.0000     0.0584     2.4853     6.0000   110.3291     0.1137
  441.5000     0.0616     2.4903     6.0000   110.1980     0.1119
  442.0000     0.0656     2.4955     6.0000   110.3557     0.1081
  442.5000     0.0683     2.4947     6.0000   106.7210     0.1092
  443.0000     0.0687     2.4946     6.0000   103.1204     0.1089
  443.5000     0.0740     2.4990     6.0000    99.5203     0.1061
  444.0000     0.0674     2.5026     6.0000    95.9806     0.1040
  444.5000     0.0604     2.5015     6.0002    94.7298     0.1060
  445.0000     0.0534     2.4966     6.0013    94.1306     0.1092
  445.5000     0.0488     2.4918     6.0023    93.8825     0.1109
  446.0000     0.0445     2.4869     6.0034    92.9006     0.1097
  446.5000     0.0421     2.4834     6.0044    92.6652     0.1137
  447.0000     0.0429     2.4887     6.0055    93.2839     0.1097
  447.5000     0.0578     2.4938     6.0066    92.4144     0.1081
  448.0000     0.0703     2.4976     6.0076    91.5193     0.1097
  448.5000     0.0679     2.4944     6.0087    90.7048     0.1069
  449.0000     0.0643     2.4908     6.0097    91.0823     0.1113
  449.5000     0.0639     2.4929     6.0108    91.3059     0.1087
  450.0000     0.0702     2.4949     6.0118    91.3340     0.1075
  450.5000     0.0738     2.4926     6.0129    92.3073     0.1095
  451.0000     0.0709     2.4914     6.0140    94.3389     0.1109
  451.5000     0.0684     2.4914     6.0150    95.4575     0.1087
  452.0000     0.0707     2.4943     6.0161    96.4671     0.1053
  452.5000     0.0742     2.4975     6.0171    96.9704     0.1059
  453.0000     0.0667     2.4934     6.0182  -999.2500     0.1087
  453.5000     0.0577     2.4878     6.0192  -999.2500     0.1113
  454.0000     0.0550     2.4936     6.0202  -999.2500     0.1095
  454.5000     0.0699     2.4960     6.0202  -999.2500     0.1077
