~VERSION INFORMATION
 VERS.                2.0:   CWLS LOG ASCII STANDARD - VERSION 2.0
 WRAP.                 NO:   ONE LINE PER DEPTH STEP
~WELL INFORMATION
#MNEM.UNIT      DATA TYPE    INFORMATION
#----------   ------------   ------------------------------
 STRT.F           30.0000:   START DEPTH
 STOP.F          626.0000:   STOP DEPTH
 STEP.F            0.5000:   STEP LENGTH
 NULL.          -999.2500:   NO VALUE
 COMP.       F D SERV INC:   COMPANY
 WELL.    63-2 SX-3 #63-3:   WELL
 FLD .             TEAPOT:   FIELD
 LOC .       S3 T38N R78W:   LOCATION
 CNTY.            NATRONA:   COUNTY
 STAT.            WYOMING:   STATE
 CTRY. UNITED STATES OF AMERICA:   COUNTRY
 SRVC.     Atlas Wireline:   SERVICE COMPANY
 DATE.        29-APR-1992:   LOGDATE
 API .       490252251900:   API NUMBER
~CURVE INFORMATION
#MNEM.UNIT       API CODE    CURVE DESCRIPTION
#----------   ------------   ------------------------------
 DEPT.F                  :   
 CALD.IN     45 280 60 00:   CALIPER FROM DENSITY
 CORR.G/C3   45 356 01 00:   DENSITY CORRECTION
 DEN .G/C3   45 350 01 00:   COMPENSATED BULK DENSTIY
 GRD .GAPI   45 310 01 00:   GAMMA RAY FROM DENSITY LOG
 PORD.DEC    45 890 12 00:   POROSITY DENSITY SANDSTONE
 RILD.OHMM   07 120 46 00:   INDUCTION LOG DEEP RESISTIVITY
 RILM.OHMM   07 120 44 00:   INDUCTION LOG MEDIUM RESISTIVITY
~PARAMETER INFORMATION
#MNEM.UNIT          VALUE    DESCRIPTION
#----------   ------------   ------------------------------
 PD  .                 GL:   PERMANENT DATUM
 EPD .F              5160:   ELEVATION PERMANENT DATUM
 LMF .                 KB:   LOG MEASURED FROM
 DAPD.F                 5:   FEET ABOVE PERMANENT DATUM
 DMF .                 KB:   DRILLING MEASURED FROM
 EKB .F              5165:   KELLING BUSHING
 EGL .F              5160:   GROUND LEVEL
 DATE.        29-APR-1992:   RUN DATE
 RUN .                  1:   RUN NUMBER
 DD  .F               630:   DEPTH DRILLER
 DL  .F               629:   DEPTH LOGGER
 BLI .F               626:   BOTTOM LOG INTERVAL
 CS  .IN            8.625:   CASING SIZE
 CBD .F                45:   CASING BOTTOM DRILLER
 CBL .F                45:   CASING BOTTOM LOGGER
 BS  .IN            7.875:   BIT SIZE
 BSD .F               630:   BIT SIZE AT DEPTH
 DFT .                AIR:   DRILLING FLUID TYPE
 LUN .            HL-6212:   LOGGING UNIT NUMBER
 LUL .             CASPER:   LOGGING UNIT LOCATION
 ENGI.             ZIEGEN:   RECORDING ENGINEER
 WITN.             STRONG:   WITNESSED BY
 CLNT.            A2DTECH:   CLIENT CODE
 ORIG.           5" PRINT:   ORIGIN OF DATA
 UWI .       490252251900:   UNIQUE WELL ID
 DICO. A2D Technologies, Inc.:   DIGITIZING COMPANY
~OTHER INFORMATION
~A   DEPT     CALD       CORR        DEN        GRD       PORD       RILD       RILM   
# ...
  121.0000     8.2133     0.0011     2.4547   180.1081     0.1158     9.5709     9.4838
  121.5000     8.1827     0.0087     2.4545   177.3831     0.1176     9.4363     9.4832
  122.0000     8.1822     0.0147     2.4653   171.3349     0.1134     9.3036     9.2870
  122.5000     8.2119     0.0207     2.4909   165.2866     0.1029     9.1094     9.2221
  123.0000     8.2266     0.0222     2.5108   164.3758     0.0821     9.0439     9.0942
  123.5000     8.2412     0.0162     2.5284   169.2022     0.0715     9.0413     9.0306
  124.0000     8.2557     0.0102     2.5331   176.1449     0.0703     9.1024     9.1563
  124.5000     8.2705     0.0026     2.5256   182.4833     0.0754     9.2907     9.2837
  125.0000     8.2699     0.0057     2.5226   182.1752     0.0791     9.6161     9.5446
  125.5000     8.2695     0.0147     2.5249   177.8911     0.0781     9.8841     9.7451
  126.0000     8.2842     0.0132     2.5377   172.8735     0.0718    10.0892    10.0190
  126.5000     8.2686     0.0041     2.5483   170.0725     0.0637    10.0167    10.0181
  127.0000     8.2530     0.0026     2.5437   175.5034     0.0625     9.9446     9.8792
  127.5000     8.2375     0.0102     2.5347   181.8418     0.0688     9.8731     9.7422
  128.0000     8.2371     0.0147     2.5272   186.6697     0.0742     9.8703     9.4746
  128.5000     8.2366     0.0147     2.5219   185.4552     0.0779     9.7316     9.2143
  129.0000     8.2362     0.0087     2.5166   183.0324     0.0800     9.5947     8.9612
  129.5000     8.2509    -0.0004     2.5159   179.7032     0.0818     9.3944     8.8370
  130.0000     8.2504    -0.0094     2.5197   179.3966     0.0803     9.3268     8.8364
  130.5000     8.2650    -0.0124     2.5182   182.1081     0.0806     9.1321     8.8975
  131.0000     8.2645    -0.0109     2.5167   184.2170     0.0815     9.0664     8.9589
  131.5000     8.2641     0.0026     2.5189   185.7231     0.0800     9.0639     9.0834
  132.0000     8.2636    -0.0004     2.5197   183.6008     0.0781     9.0614     9.0199
  132.5000     8.2632    -0.0034     2.5174   181.7822     0.0794     9.0589     8.8949
  133.0000     8.2778     0.0011     2.5129   182.3804     0.0815     9.0563     8.8327
  133.5000     8.2774     0.0132     2.5099   184.7914     0.0836     9.0538     8.8321
  134.0000     8.2769     0.0237     2.5107   186.5982     0.0842     9.1143     8.8315
  134.5000     8.2764     0.0207     2.5167   184.1673     0.0812     9.1759     8.8308
  135.0000     8.2759     0.0132     2.5258   184.5115     0.0742     9.2372     8.8302
  135.5000     8.2755     0.0039     2.5295   185.9760     0.0730     9.1707     8.8913
  136.0000     8.2750    -0.0034     2.5258   184.7090     0.0754     9.1047     8.8905
  136.5000     8.2898    -0.0004     2.5235   183.5457     0.0775     9.0392     8.9519
  137.0000     8.2892     0.0026     2.5228   183.2391     0.0775     8.9122     8.9513
  137.5000     8.2888     0.0087     2.5235   185.9507     0.0778     8.8379     8.9506
  138.0000     8.2733     0.0102     2.5212   187.7574     0.0794     8.7844     8.9500
  138.5000     8.2728     0.0057     2.5157   188.3571     0.0827     8.7820     8.9494
  139.0000     8.2573    -0.0004     2.5077   188.3497     0.0866     8.7795     8.8868
  139.5000     8.2417    -0.0019     2.5040   188.0416     0.0902     8.7771     8.8247
  140.0000     8.2262     0.0011     2.5010   187.1293     0.0905     8.7746     8.7632
  140.5000     8.2258     0.0011     2.5070   187.7276     0.0869     8.7722     8.7019
  141.0000     8.2404     0.0026     2.5131   189.2322     0.0845     8.7698     8.7013
  141.5000     8.2550     0.0011     2.5161   194.9664     0.0812     8.7673     8.7007
  142.0000     8.2546    -0.0019     2.5168   194.6583     0.0809     8.7649     8.6904
  142.5000     8.2692    -0.0064     2.5153   194.0481     0.0824     8.7018     8.5112
  143.0000     8.2688    -0.0109     2.5108   194.0422     0.0851     8.6338     8.4523
  143.5000     8.2834    -0.0062     2.5040   194.0362     0.0878     8.5178     8.3432
  144.0000     8.2830    -0.0004     2.5003   194.3324     0.0908     8.4566     8.2849
  144.5000     8.3127     0.0026     2.5003   194.9306     0.0914     8.4543     8.2843
  145.0000     8.2669     0.0057     2.5011   194.3202     0.0920     8.4519     8.2837
  145.5000     8.2363     0.0072     2.5033   193.2951     0.0901     8.4496     8.2883
  146.0000     8.2207     0.0057     2.5041   189.4732     0.0880     8.4472     8.3403
  146.5000     8.2203     0.0026     2.5041   188.2588     0.0872     8.5037     8.3978
  147.0000     8.2198    -0.0004     2.5018   188.5549     0.0890     8.5629     8.4558
  147.5000     8.2194    -0.0034     2.5049   188.8526     0.0896     8.7382     8.6332
  148.0000     8.2189    -0.0064     2.5101   189.1487     0.0863     8.8595     8.6977
  148.5000     8.2185    -0.0094     2.5147   190.0476     0.0824     8.9792     8.9371
  149.0000     8.2181    -0.0094     2.5192   191.2501     0.0784     9.1656     9.0000
  149.5000     8.2176    -0.0004     2.5222   191.8499     0.0772     9.2269     9.1876
  150.0000     8.2361     0.0026     2.5222   189.6248     0.0766     9.2740     9.1870
  150.5000     8.2616     0.0027     2.5222   185.7910     0.0766     9.2229     9.1204
  151.0000     8.2910     0.0012     2.5222   183.9694     0.0775     9.1578     9.2461
  151.5000     8.3055     0.0087     2.5215   182.4499     0.0781     9.1566     9.2429
  152.0000     8.3046     0.0087     2.5200   181.2325     0.0790     9.1553     9.2403
  152.5000     8.3039     0.0087     2.5185   181.8376     0.0793     9.1540     9.2377
  153.0000     8.3031     0.0072     2.5162   183.6840     0.0799     9.1528     9.2352
  153.5000     8.3024     0.0058     2.5154   186.4837     0.0802     9.0253     9.1687
  154.0000     8.3016     0.0028     2.5298   188.4476     0.0763     8.8997     8.9771
  154.5000     8.2858    -0.0033     2.5381   186.6238     0.0709     8.7151     8.9125
  155.0000     8.2700    -0.0063     2.5396   186.0107     0.0675     8.6536     8.7263
  155.5000     8.2693    -0.0093     2.5298   186.3061     0.0700     8.4741     8.4848
  156.0000     8.2533    -0.0107     2.5252   186.8992     0.0739     8.3561     8.4238
  156.5000     8.2374    -0.0032     2.5222   188.4009     0.0778     8.2398     8.2478
  157.0000     8.2367    -0.0032     2.5185   189.9025     0.0814     8.1816     8.2455
  157.5000     8.2512    -0.0062     2.5109   190.4979     0.0847     8.0677     8.1861
  158.0000     8.2503    -0.0092     2.5057   190.7933     0.0880     8.0108     8.1838
  158.5000     8.2648    -0.0001     2.5034   190.1779     0.0895     8.0097     8.1816
  159.0000     8.2488     0.0029     2.5034   187.7521     0.0895     8.0644     8.1793
  159.5000     8.2481     0.0014     2.5034   185.3263     0.0895     8.1760     8.1770
  160.0000     8.2323    -0.0001     2.5041   182.8802     0.0892     8.2318     8.1748
  160.5000     8.2315    -0.0001     2.5049   183.0151     0.0883     8.2306     8.2300
  161.0000     8.2308     0.0015     2.5072   187.7142     0.0865     8.4026     8.2272
  161.5000     8.2300     0.0030     2.5094   188.9160     0.0852     8.4603     8.2249
  162.0000     8.2293     0.0045     2.5109   187.3943     0.0840     8.5177     8.3963
  162.5000     8.2435     0.0045     2.5132   186.7812     0.0834     8.6359     8.5108
  163.0000     8.2881     0.0014     2.5147   188.8871     0.0813     8.6948     8.6281
  163.5000     8.2872    -0.0032     2.5192   189.1825     0.0789     8.7539     8.6858
  164.0000     8.2714    -0.0060     2.5237   186.1502     0.0774     8.8750     8.8043
  164.5000     8.2556    -0.0045     2.5268   182.8181     0.0762     8.8737     8.8638
  165.0000     8.2398     0.0016     2.5290   180.0901     0.0740     8.9343     8.8607
  165.5000     8.2390     0.0001     2.5313   178.8728     0.0728     8.9331     8.8582
  166.0000     8.2383    -0.0029     2.5313   178.8357     0.0737     8.9318     8.8558
