~VERSION INFORMATION
 VERS.                2.0:   CWLS LOG ASCII STANDARD - VERSION 2.0
 WRAP.                 NO:   ONE LINE PER DEPTH STEP
~WELL INFORMATION
#MNEM.UNIT      DATA TYPE    INFORMATION
#----------   ------------   ------------------------------
 STRT.F           30.0000:   START DEPTH
 STOP.F          444.0000:   STOP DEPTH
 STEP.F            0.5000:   STEP LENGTH
 NULL.          -999.2500:   NO VALUE
 COMP. FENIX & SCISSON INC:   COMPANY
 WELL.       SX 3FO #54-3:   WELL
 FLD .             TEAPOT:   FIELD
 LOC .       S3 T38N R78W:   LOCATION
 CNTY.            NATRONA:   COUNTY
 STAT.            WYOMING:   STATE
 CTRY. UNITED STATES OF AMERICA:   COUNTRY
 SRVC.              Welex:   SERVICE COMPANY
 DATE.        08-JUL-1980:   LOGDATE
 API .       490251082800:   API NUMBER
~CURVE INFORMATION
#MNEM.UNIT       API CODE    CURVE DESCRIPTION
#----------   ------------   ------------------------------
 DEPT.F                  :   
 GRD .GAPI   45 310 01 00:   GAMMA RAY FROM DENSITY LOG
 CALD.IN     45 280 60 00:   CALIPER
 RHOB.G/C3   45 350 01 00:   BULK DENSITY
 DPHI.DEC    45 890 12 00:   DENSITY POROSITY SANDSTONE
 CORR.G/C3   45 356 01 00:   DENSITY CORRECTION
~PARAMETER INFORMATION
#MNEM.UNIT          VALUE    DESCRIPTION
#----------   ------------   ------------------------------
 PD  .                 GL:   PERMANENT DATUM
 EPD .F              5162:   ELEVATION PERMANENT DATUM
 LMF .                 KB:   LOG MEASURED FROM
 DAPD.F                 5:   FEET ABOVE PERMANENT DATUM
 DMF .                 KB:   DRILLING MEASURED FROM
 EKB .F              5167:   KELLING BUSHING
 EGL .F              5162:   GROUND LEVEL
 DATE.             7-8-80:   RUN DATE
 RUN .                  1:   RUN NUMBER
 DD  .F               470:   DEPTH DRILLER
 DL  .F               446:   DEPTH LOGGER
 BLI .F               444:   BOTTOM LOG INTERVAL
 TLI .F                30:   TOP LOG INTERVAL
 CS  .IN                7:   CASING SIZE
 CBD .F                43:   CASING BOTTOM DRILLER
 BS  .IN             6.25:   BIT SIZE
 BSD .F               470:   BIT SIZE AT DEPTH
 DFT .        AIR DRILLED:   DRILLING FLUID TYPE
 BHT .F                75:   BOTTOM HOLE TEMPERATURE
 TCS .HRS             2.5:   TIME CURCULATED STOPPED
 MRT .F                75:   MAXIMUM RECORDED TEMPERATURE
 ENGI.               REIN:   RECORDING ENGINEER
 WITN.            RHOADES:   WITNESSED BY
 CLNT.            A2DTECH:   CLIENT CODE
 ORIG.           5" PRINT:   ORIGIN OF DATA
 UWI .       490251082800:   UNIQUE WELL ID
 DICO. A2D Technologies, Inc.:   DIGITIZING COMPANY
~OTHER INFORMATION
~A   DEPT       GRD      CALD       RHOB       DPHI       CORR   
# ...
  152.0000   111.1192     5.9252     2.5432     0.0877     0.0766
  152.5000   110.3863     5.9161     2.5534     0.0810     0.0927
  153.0000   108.9541     5.9071     2.5495     0.0806     0.0992
  153.5000   107.5183     5.8980     2.5424     0.0855     0.0950
  154.0000   106.4022     5.8889     2.5354     0.0891     0.0907
  154.5000   107.4632     5.8851     2.5292     0.0918     0.0911
  155.0000   108.6576     5.9134     2.5317     0.0908     0.0926
  155.5000   109.8511     5.9415     2.5357     0.0894     0.0942
  156.0000   109.6110     5.9517     2.5343     0.0898     0.0957
  156.5000   107.8401     5.9219     2.5310     0.0920     0.0921
  157.0000   106.1255     5.9278     2.5275     0.0942     0.0861
  157.5000   105.0385     5.9357     2.5242     0.0965     0.0838
  158.0000   104.4288     5.9332     2.5180     0.0984     0.0866
  158.5000   103.8176     5.9145     2.5115     0.1012     0.0847
  159.0000   103.1667     5.9292     2.5055     0.1040     0.0779
  159.5000   103.0269     5.8951     2.5055     0.1068     0.0758
  160.0000   104.2417     5.8949     2.5066     0.1078     0.0776
  160.5000   105.5220     5.9178     2.5108     0.1047     0.0803
  161.0000   106.5890     5.9395     2.5161     0.1017     0.0830
  161.5000   106.0831     5.9225     2.5143     0.0990     0.0860
  162.0000   105.9893     5.9036     2.5106     0.1008     0.0885
  162.5000   107.2021     5.8839     2.5132     0.1018     0.0911
  163.0000   108.3989     5.9036     2.5186     0.0988     0.0936
  163.5000   109.5988     5.9196     2.5207     0.0983     0.0961
  164.0000   110.7854     5.9152     2.5136     0.1023     0.0986
  164.5000   108.9830     5.9109     2.5098     0.1056     0.1009
  165.0000   106.8552     5.9063     2.5083     0.1038     0.1049
  165.5000   105.4931     5.9009     2.5069     0.1053     0.1089
  166.0000   107.4087     5.9289     2.5023     0.1095     0.1069
  166.5000   109.7007     5.9585     2.4975     0.1138     0.1072
  167.0000   108.9076     5.9241     2.4893     0.1180     0.1154
  167.5000   108.0272     5.8884     2.4808     0.1222     0.1105
  168.0000   108.8648     5.8598     2.4722     0.1265     0.1050
  168.5000   107.5845     5.8824     2.4707     0.1277     0.1101
  169.0000   105.6960     5.9068     2.4772     0.1239     0.1267
  169.5000   106.5542     5.9116     2.4831     0.1200     0.1311
  170.0000   108.6817     5.8919     2.4961     0.1128     0.1328
  170.5000   110.8607     5.8723     2.5098     0.1010     0.1345
  171.0000   111.3018     5.8722     2.5233     0.0986     0.1358
  171.5000   109.6409     5.8953     2.5245     0.0977     0.1357
  172.0000   108.5962     5.9178     2.5203     0.0959     0.1335
  172.5000   109.8108     5.9003     2.5238     0.0927     0.1284
  173.0000   110.1732     5.8771     2.5284     0.0931     0.1234
  173.5000   111.4081     5.8538     2.5285     0.0942     0.1184
  174.0000   111.1757     5.8540     2.5285     0.0950     0.1132
  174.5000   110.4041     5.8787     2.5306     0.0923     0.1118
  175.0000   109.6127     5.8724     2.5349     0.0886     0.1119
  175.5000   108.7722     5.8639     2.5390     0.0874     0.1156
  176.0000   107.2670     5.8848     2.5432     0.0856     0.1191
  176.5000   105.6334     5.9061     2.5474     0.0838     0.1226
  177.0000   104.0339     5.9197     2.5494     0.0822     0.1261
  177.5000   102.7350     5.9068     2.5488     0.0826     0.1267
  178.0000   101.4604     5.8939     2.5406     0.0883     0.1190
  178.5000   102.8896     5.8855     2.5303     0.0944     0.1113
  179.0000   105.6727     5.9070     2.5197     0.0986     0.1034
  179.5000   108.4309     5.9196     2.5203     0.0982     0.1021
  180.0000   109.6825     5.8831     2.5280     0.0966     0.1063
  180.5000   106.2605     5.8807     2.5357     0.0814     0.1097
  181.0000   104.1843     5.8804     2.5403     0.0850     0.1095
  181.5000   102.8579     5.8417     2.5341     0.0895     0.1036
  182.0000   100.8665     5.7865     2.5277     0.0940     0.0979
  182.5000   104.0633     5.8331     2.5212     0.0985     0.0978
  183.0000   105.1552     5.8774     2.5148     0.1030     0.0997
  183.5000   106.2036     5.9217     2.5085     0.1055     0.1015
  184.0000   104.8420     5.9409     2.5021     0.1075     0.1033
  184.5000   104.0534     5.9261     2.4985     0.1090     0.1052
  185.0000   105.3455     5.9077     2.5040     0.1083     0.1088
  185.5000   106.6211     5.8888     2.5069     0.1073     0.1133
  186.0000   106.0627     5.8808     2.5049     0.1070     0.1139
  186.5000   105.3684     5.8988     2.4983     0.1110     0.1101
  187.0000   108.7724     5.9200     2.4974     0.1113     0.1135
  187.5000   112.1736     5.9080     2.4993     0.1118     0.1189
  188.0000   114.9870     5.8741     2.4884     0.1188     0.1229
  188.5000   114.4595     5.8889     2.4763     0.1251     0.1157
  189.0000   112.1665     5.9331     2.4728     0.1280     0.1155
  189.5000   109.9086     5.9375     2.4692     0.1310     0.1185
  190.0000   108.4485     5.8814     2.4657     0.1341     0.1217
  190.5000   110.9082     5.8748     2.4532     0.1394     0.1240
  191.0000   110.5254     5.8953     2.4381     0.1451     0.1248
  191.5000   108.3810     5.9163     2.4321     0.1509     0.1259
  192.0000   110.3023     5.9378     2.4226     0.1596     0.1327
  192.5000   110.9617     5.9262     2.4061     0.1686     0.1344
  193.0000   110.4347     5.9092     2.3896     0.1776     0.1271
  193.5000   109.0470     5.8920     2.3729     0.1866     0.1200
  194.0000   106.5678     5.8748     2.3681     0.1900     0.1245
  194.5000   104.0985     5.8574     2.3660     0.1900     0.1322
  195.0000   101.6177     5.8429     2.3638     0.1900     0.1396
  195.5000    99.1580     5.8714     2.3631     0.1908     0.1329
  196.0000    99.1909     5.8999     2.3765     0.1908     0.1220
  196.5000   103.3717     5.9168     2.4119     0.1618     0.1157
  197.0000   107.9220     5.8970     2.4676     0.1338     0.1193
  197.5000   110.7359     5.8780     2.4984     0.1115     0.1234
  198.0000   111.6144     5.8632     2.5253     0.0987     0.1275
  198.5000   112.2093     5.9057     2.5323     0.0932     0.1291
  199.0000   112.7807     5.9493     2.5386     0.0862     0.1279
  199.5000   113.6612     5.9487     2.5380     0.0887     0.1266
  200.0000   115.7494     5.9326     2.5284     0.0939     0.1225
  200.5000   115.9537     5.9159     2.5191     0.0990     0.1100
  201.0000   114.7008     5.9018     2.5107     0.1027     0.1020
  201.5000   113.1966     5.9186     2.5048     0.1057     0.0982
  202.0000   115.3394     5.9360     2.4988     0.1107     0.1006
  202.5000   117.6019     5.9284     2.4928     0.1167     0.0993
  203.0000   115.9471     5.9110     2.4877     0.1186     0.0941
  203.5000   114.3609     5.9108     2.4858     0.1178     0.0955
  204.0000   116.1049     5.9318     2.4873     0.1174     0.0991
  204.5000   118.1197     5.9533     2.4888     0.1170     0.1027
  205.0000   117.3181     5.9490     2.4894     0.1177     0.1063
  205.5000   118.9444     5.9318     2.4848     0.1183     0.1098
  206.0000   121.4700     5.9146     2.4804     0.1211     0.1109
  206.5000   118.5082     5.9006     2.4759     0.1249     0.1070
  207.0000   116.2140     5.9010     2.4723     0.1281     0.1031
  207.5000   112.7038     5.9010     2.4799     0.1248     0.1023
  208.0000   109.1100     5.9010     2.4938     0.1172     0.1046
  208.5000   105.9908     5.9010     2.5064     0.1098     0.1069
  209.0000   107.3164     5.9004     2.5140     0.1032     0.1092
  209.5000   110.7895     5.9177     2.5244     0.0959     0.1116
  210.0000   114.2417     5.9389     2.5384     0.0878     0.1135
  210.5000   115.5296     5.9601     2.5475     0.0846     0.1071
  211.0000   114.5391     5.9496     2.5357     0.0913     0.1004
  211.5000   113.8665     5.9355     2.5243     0.0968     0.0938
  212.0000   115.0723     5.9212     2.5129     0.1010     0.0871
  212.5000   116.2585     5.9173     2.5074     0.1042     0.0805
