~VERSION INFORMATION
 VERS.                2.0:   CWLS LOG ASCII STANDARD - VERSION 2.0
 WRAP.                 NO:   ONE LINE PER DEPTH STEP
~WELL INFORMATION
#MNEM.UNIT      DATA TYPE    INFORMATION
#----------   ------------   ------------------------------
 STRT.F           22.0000:   START DEPTH
 STOP.F          533.0000:   STOP DEPTH
 STEP.F            0.5000:   STEP LENGTH
 NULL.          -999.2500:   NO VALUE
 COMP. FENIX & SCISSON INC:   COMPANY
 WELL.        NPR 3 #32-3:   WELL
 FLD .        TEAPOT DOME:   FIELD
 LOC .       S3 T38N R78W:   LOCATION
 CNTY.            NATRONA:   COUNTY
 STAT.            WYOMING:   STATE
 CTRY. UNITED STATES OF AMERICA:   COUNTRY
 SRVC.            Unknown:   SERVICE COMPANY
 DATE.        19-JUL-1978:   LOGDATE
 API .       490251067200:   API NUMBER
~CURVE INFORMATION
#MNEM.UNIT       API CODE    CURVE DESCRIPTION
#----------   ------------   ------------------------------
 DEPT.F                  :   
 SPR .MV     05 010 01 00:   SPONTANEOUS POTENTIAL FROM RES.
 SN  .OHMM   05 040 16 00:   SHORT NORMAL 16"
 IL  .OHMM   05 120 00 00:   INDUCTION LOG
 RHOB.G/C3   45 350 01 00:   BULK DENSITY
 DPHI.DEC    45 890 12 00:   DENSITY POROSITY SANDSTONE
 CORR.G/C3   45 356 01 00:   DENSITY CORRECTION
 CALD.IN     45 280 60 00:   CALIPER
 GRD .GAPI   45 310 01 00:   GAMMA RAY FROM DENSITY LOG
~PARAMETER INFORMATION
#MNEM.UNIT          VALUE    DESCRIPTION
#----------   ------------   ------------------------------
 PD  .                 GL:   PERMANENT DATUM
 EPD .F              5179:   ELEVATION PERMANENT DATUM
 LMF .                 KB:   LOG MEASURED FROM
 DAPD.F                 4:   FEET ABOVE PERMANENT DATUM
 DMF .                 KB:   DRILLING MEASURED FROM
 EKB .F              5183:   KELLING BUSHING
 EGL .F              5179:   GROUND LEVEL
 DATE.            7-19-78:   RUN DATE
 RUN .                  1:   RUN NUMBER
 DD  .F               520:   DEPTH DRILLER
 DL  .F               533:   DEPTH LOGGER
 BLI .F               527:   BOTTOM LOG INTERVAL
 TLI .F                50:   TOP LOG INTERVAL
 CS  .IN            8.625:   CASING SIZE
 CBD .F                40:   CASING BOTTOM DRILLER
 BS  .IN            7.875:   BIT SIZE
 BSD .F               520:   BIT SIZE AT DEPTH
 DFT .                KCL:   DRILLING FLUID TYPE
 DFD .                8.7:   DRILLING FLUID DENSITY
 DFV .                 33:   DRILLING FLUID VISCOSITY
 DFPH.                  9:   DRILLING FLUID PH
 DFL .               12.4:   DRILLING FLUID LOSS
 MSS .          FLOW LINE:   MUD SAMPLE SOURCE
 RMS .OHMM            .28:   RESISTIVITY MUD SAMPLE
 MST .F                70:   MUD SAMPLE TEMPERATURE
 RMF .OHMM            .24:   RESISTIVITY MUD FILTRATE SAMPLE
 MFST.F                76:   MUD FILTRATE SAMPLE TEMPERATURE
 RMC .OHMM             .5:   RESISTIVITY MUD CAKE
 MCST.F                78:   MUD CAKE SAMPLE TEMPERATURE
 MFSS.               MEAS:   MUD FILTRATE SAMPLE SOURCE
 MCSS.               MEAS:   MUD CAKE SAMPLE SOURCE
 TCS .HRS               2:   TIME CURCULATED STOPPED
 LUN .               2958:   LOGGING UNIT NUMBER
 LUL .               CASP:   LOGGING UNIT LOCATION
 ENGI.             MILLER:   RECORDING ENGINEER
 WITN.           MCGINLEY:   WITNESSED BY
 CLNT.            A2DTECH:   CLIENT CODE
 ORIG.           5" PRINT:   ORIGIN OF DATA
 UWI .       490251067200:   UNIQUE WELL ID
 DICO. A2D Technologies, Inc.:   DIGITIZING COMPANY
~OTHER INFORMATION
~A   DEPT      SPR         SN         IL       RHOB       DPHI       CORR       CALD         GRD  
# ...
  508.0000   -23.2032    10.8878    12.0194     2.4691     0.1347    -0.0025     7.6531    67.3882
  508.5000   -23.1898    10.8261    12.0353     2.4611     0.1356    -0.0004     7.6505    70.6381
  509.0000   -23.1765    10.7647    12.0512     2.4610     0.1349     0.0036     7.6479    73.8743
  509.5000   -23.1632    10.7037    12.0669     2.4610     0.1348     0.0077     7.6453    76.8360
  510.0000   -23.1498    10.6431    12.0811     2.4612     0.1281     0.0116     7.6427    75.8151
  510.5000   -23.1365    10.5827    11.9813     2.4717     0.1210     0.0150     7.6401    74.6211
  511.0000   -23.1232    10.5214    11.8709     2.4829     0.1155     0.0134     7.6375    74.2494
  511.5000   -23.1098    10.4500    11.7615     2.4901     0.1172     0.0119     7.6349    74.2485
  512.0000   -23.0965    10.3791    11.6467     2.4856     0.1243     0.0104     7.6323    74.1892
  512.5000   -23.0831    10.3087    11.5628     2.4782     0.1284     0.0108     7.6296    74.1286
  513.0000   -23.0698    10.2388    11.4507     2.4714     0.1240     0.0140     7.6315    74.0660
  513.5000  -999.2500    10.1693    11.3396     2.4783     0.1208     0.0171     7.6394    74.1158
  514.0000  -999.2500    10.1004    11.2275     2.4854     0.1170     0.0190     7.6473    74.7200
  514.5000  -999.2500    10.0070    10.8425     2.5024     0.1093     0.0161     7.6553    76.5740
  515.0000  -999.2500     9.8756    10.4633     2.5159     0.1052     0.0134     7.6631    78.5638
  515.5000  -999.2500     9.7458    10.2443     2.5085     0.1108     0.0117     7.6711    78.2684
  516.0000  -999.2500     9.6178    10.2050     2.4995     0.1132     0.0129     7.6790    75.1349
  516.5000  -999.2500     9.4915    10.1109     2.4902     0.1112     0.0140     7.6870    75.0613
  517.0000  -999.2500     9.3668    10.0178     2.4917     0.1105     0.0151     7.6881    75.6381
  517.5000  -999.2500     9.3006     9.9255     2.4985     0.1161     0.0162     7.6872    76.2324
  518.0000  -999.2500     9.2456     9.8340     2.4895     0.1166     0.0173     7.6862    76.8127
  518.5000  -999.2500     9.1909     9.7434     2.4891     0.1148     0.0184     7.6852    76.2858
  519.0000  -999.2500     9.1366     9.6537     2.4895     0.1157     0.0194     7.6843    74.4742
  519.5000  -999.2500     9.0825     9.5647     2.4897     0.1155     0.0187     7.6833    73.2225
  520.0000  -999.2500     9.0288     9.4766     2.4905     0.1146     0.0180     7.6823    74.3819
  520.5000  -999.2500     8.9754     9.3893     2.5027     0.1171     0.0172     7.6814    75.7008
  521.0000  -999.2500     8.9224     9.3028     2.4973     0.1176     0.0164     7.6804    77.0222
  521.5000  -999.2500     8.8471     9.2171     2.4900     0.1157     0.0155     7.6795    78.2709
  522.0000  -999.2500     8.8596     9.1321     2.4919     0.1140     0.0179     7.6785    78.4333
  522.5000  -999.2500     8.8831     9.0480     2.4925     0.1176     0.0186     7.6775  -999.2500
  523.0000  -999.2500     8.9066     8.9646     2.4906     0.1166     0.0165     7.6766  -999.2500
  523.5000  -999.2500     8.9302     8.8820     2.4886     0.1160     0.0145     7.6756  -999.2500
  524.0000  -999.2500     8.9538     8.8002     2.4887     0.1176     0.0125     7.6746  -999.2500
  524.5000  -999.2500     8.9775     8.7191     2.4917     0.1144     0.0105     7.6737  -999.2500
  525.0000  -999.2500     9.0127     8.6864     2.4946     0.1124     0.0084     7.6727  -999.2500
  525.5000  -999.2500     8.8544     8.6864     2.4969     0.1154     0.0064     7.6718  -999.2500
  526.0000  -999.2500     8.8375     8.6072     2.4916     0.1191     0.0070     7.6708  -999.2500
  526.5000  -999.2500     9.3472     8.6072     2.4856     0.1245     0.0097     7.6698  -999.2500
  527.0000  -999.2500     9.6962     8.6072     2.4795     0.1219     0.0113     7.6689  -999.2500
  527.5000  -999.2500  -999.2500  -999.2500     2.4792     0.1168     0.0106     7.6665  -999.2500
  528.0000  -999.2500  -999.2500  -999.2500     2.4846     0.1236     0.0100     7.6637  -999.2500
  528.5000  -999.2500  -999.2500  -999.2500     2.4866     0.1303     0.0094     7.6609  -999.2500
  529.0000  -999.2500  -999.2500  -999.2500     2.4729     0.1230     0.0088     7.6582  -999.2500
  529.5000  -999.2500  -999.2500  -999.2500     2.4707     0.1200     0.0082     7.6554  -999.2500
  530.0000  -999.2500  -999.2500  -999.2500     2.4810     0.1348     0.0073     7.6526  -999.2500
  530.5000  -999.2500  -999.2500  -999.2500     2.4661     0.1329     0.0159     7.6496  -999.2500
  531.0000  -999.2500  -999.2500  -999.2500     2.4605     0.1294     0.0254     7.6498  -999.2500
  531.5000  -999.2500  -999.2500  -999.2500     2.4739     0.1240     0.0344     7.6747  -999.2500
  532.0000  -999.2500  -999.2500  -999.2500     2.4848     0.1192     0.0371     7.6885  -999.2500
  532.5000  -999.2500  -999.2500  -999.2500     2.4957     0.1155     0.0365     7.6885  -999.2500
  533.0000  -999.2500  -999.2500  -999.2500     2.5019     0.1122     0.0351     7.6885  -999.2500
