~VERSION INFORMATION
 VERS.                2.0:   CWLS LOG ASCII STANDARD - VERSION 2.0
 WRAP.                 NO:   ONE LINE PER DEPTH STEP
~WELL INFORMATION
#MNEM.UNIT      DATA TYPE    INFORMATION
#----------   ------------   ------------------------------
 STRT.F          390.0000:   START DEPTH
 STOP.F         2628.0000:   STOP DEPTH
 STEP.F            0.5000:   STEP LENGTH
 NULL.          -999.2500:   NO VALUE
 COMP. FENIX & SCISSON INC:   COMPANY
 WELL.    25 SHX 11 #3-11:   WELL
 FLD .             TEAPOT:   FIELD
 LOC .      S11 T38N R78W:   LOCATION
 CNTY.            NATRONA:   COUNTY
 STAT.            WYOMING:   STATE
 CTRY. UNITED STATES OF AMERICA:   COUNTRY
 SRVC.              Welex:   SERVICE COMPANY
 DATE.        15-MAY-1980:   LOGDATE
 API .       490251081900:   API NUMBER
~CURVE INFORMATION
#MNEM.UNIT       API CODE    CURVE DESCRIPTION
#----------   ------------   ------------------------------
 DEPT.F                  :   
 CALD.IN     45 280 60 00:   CALIPER
 GRD .GAPI   45 310 01 00:   GAMMA RAY FROM DENSITY LOG
 RHOB.G/C3   45 350 01 00:   BULK DENSITY
 DPHI.DEC    45 890 12 00:   DENSITY POROSITY SANDSTONE
 CORR.G/C3   45 356 01 00:   DENSITY CORRECTION
~PARAMETER INFORMATION
#MNEM.UNIT          VALUE    DESCRIPTION
#----------   ------------   ------------------------------
 PD  .                 GL:   PERMANENT DATUM
 EPD .F              5163:   ELEVATION PERMANENT DATUM
 LMF .                 KB:   LOG MEASURED FROM
 DAPD.F                10:   FEET ABOVE PERMANENT DATUM
 DMF .                 KB:   DRILLING MEASURED FROM
 EKB .F              5173:   KELLING BUSHING
 EGL .F              5163:   GROUND LEVEL
 DATE.            5-15-80:   RUN DATE
 RUN .                  1:   RUN NUMBER
 DD  .F              2625:   DEPTH DRILLER
 DL  .F              2630:   DEPTH LOGGER
 BLI .F              2628:   BOTTOM LOG INTERVAL
 TLI .F               400:   TOP LOG INTERVAL
 CS  .IN            9.625:   CASING SIZE
 CBD .F               645:   CASING BOTTOM DRILLER
 BS  .IN             8.75:   BIT SIZE
 BSD .F              2625:   BIT SIZE AT DEPTH
 DFT .        AIR DRILLED:   DRILLING FLUID TYPE
 TCS .HRS               2:   TIME CURCULATED STOPPED
 MRT .F               116:   MAXIMUM RECORDED TEMPERATURE
 ENGI.            BENTSEN:   RECORDING ENGINEER
 WITN.           DINSMORE:   WITNESSED BY
 CLNT.            A2DTECH:   CLIENT CODE
 ORIG.           5" PRINT:   ORIGIN OF DATA
 UWI .       490251081900:   UNIQUE WELL ID
 DICO. A2D Technologies, Inc.:   DIGITIZING COMPANY
~OTHER INFORMATION
~A   DEPT     CALD         GRD      RHOB       DPHI       CORR   
# ...
 1671.0000     8.8615    86.7589     2.4699     0.0488     0.0221
 1671.5000     8.8603    87.0137     2.4769     0.0486     0.0194
 1672.0000     8.8524    86.6179     2.4921     0.0383     0.0362
 1672.5000     8.8451    85.7343     2.4933     0.0342     0.0470
 1673.0000     8.8060    84.8451     2.4991     0.0318     0.0509
 1673.5000     8.8039    83.9524     2.5027     0.0310     0.0501
 1674.0000     8.8402    83.0469     2.4939     0.0334     0.0465
 1674.5000     8.8448    82.8689     2.4816     0.0435     0.0342
 1675.0000     8.8531    83.7984     2.4704     0.0488     0.0281
 1675.5000     8.8615    85.3376     2.5010     0.0330     0.0599
 1676.0000     8.8699    85.4814     2.5288     0.0184     0.0932
 1676.5000     8.8783    85.2837     2.5347     0.0116     0.0998
 1677.0000     8.8868    85.4457     2.4952     0.0311     0.0637
 1677.5000     8.8952    84.6738     2.4671     0.0503     0.0333
 1678.0000     8.8974    84.0777     2.4737     0.0478     0.0169
 1678.5000     8.8753    84.0894     2.4776     0.0443     0.0247
 1679.0000     8.8541    84.0906     2.4732     0.0464     0.0279
 1679.5000     8.8334    84.0880     2.4582     0.0608     0.0163
 1680.0000     8.8477    84.0711     2.4525     0.0568     0.0167
 1680.5000     8.9010    84.7970     2.4598     0.0560     0.0232
 1681.0000     8.9021    85.6141     2.4544     0.0515     0.0228
 1681.5000     8.9015    86.2292     2.4756     0.0460     0.0324
 1682.0000     8.8839    86.2532     2.4524     0.0610     0.0103
 1682.5000     8.8091    84.9648     2.4332     0.0725    -0.0100
 1683.0000     8.8138    84.5138     2.4291     0.0750    -0.0063
 1683.5000     8.8321    84.2790     2.4541     0.0650     0.0091
 1684.0000     8.8412    83.2886     2.4845     0.0494     0.0325
 1684.5000     8.8476    82.4571     2.5095     0.0251     0.0561
 1685.0000     8.8599    83.0937     2.5350     0.0087     0.0771
 1685.5000     8.8721    83.8086     2.5451     0.0035     0.0772
 1686.0000     8.8843    84.5204     2.5236     0.0084     0.0632
 1686.5000     8.8966    84.9952     2.5096     0.0239     0.0497
 1687.0000     8.9086    84.2296     2.5053     0.0268     0.0388
 1687.5000     8.9198    83.4264     2.5082     0.0252     0.0401
 1688.0000     8.9412    83.3216     2.5114     0.0264     0.0373
 1688.5000     8.9417    84.6264     2.4902     0.0354     0.0196
 1689.0000     8.9420    83.7786     2.4976     0.0331     0.0285
 1689.5000     8.9411    83.9234     2.4896     0.0395     0.0206
 1690.0000     8.9154    84.6281     2.4824     0.0407     0.0152
 1690.5000     8.8881    83.1786     2.4952     0.0318     0.0283
 1691.0000     8.8609    82.8671     2.4898     0.0371     0.0253
 1691.5000     8.8336    83.4892     2.4857     0.0381     0.0185
 1692.0000     8.8058    84.3271     2.4871     0.0403     0.0184
 1692.5000     8.8093    84.0958     2.4987     0.0327     0.0309
 1693.0000     8.8195    83.3216     2.5102     0.0237     0.0471
 1693.5000     8.8212    82.5554     2.4914     0.0373     0.0318
 1694.0000     8.8205    81.7871     2.4712     0.0487     0.0116
 1694.5000     8.8551    81.7963     2.4610     0.0547    -0.0015
 1695.0000     8.8547    82.4528     2.4583     0.0552     0.0066
 1695.5000     8.8391    83.0854     2.4696     0.0499     0.0210
 1696.0000     8.8235    82.7615     2.4391     0.0708    -0.0069
 1696.5000     8.8212    81.6999     2.4301     0.0734     0.0014
 1697.0000     8.8211    83.3641     2.4705     0.0523     0.0222
 1697.5000     8.8264    85.0117     2.4956     0.0379     0.0425
 1698.0000     8.8324    86.4732     2.4972     0.0338     0.0533
 1698.5000     8.8383    85.9242     2.4862     0.0391     0.0405
 1699.0000     8.8443    85.9249     2.4860     0.0396     0.0408
 1699.5000     8.8502    86.2765     2.4796     0.0427     0.0362
 1700.0000     8.8562    86.8045     2.4857     0.0409     0.0403
 1700.5000     8.8621    86.0516     2.4878     0.0399     0.0373
 1701.0000     8.8681    84.9529     2.4887     0.0379     0.0397
 1701.5000     8.8740    83.8224     2.4964     0.0306     0.0443
 1702.0000     8.8801    84.6308     2.4736     0.0411     0.0232
 1702.5000     8.8760    85.8030     2.4515     0.0613    -0.0006
 1703.0000     8.8590    86.9603     2.4541     0.0605    -0.0072
 1703.5000     8.8420    87.5813     2.4641     0.0545     0.0046
 1704.0000     8.8244    86.8864     2.4537     0.0536     0.0080
 1704.5000     8.8379    87.4182     2.4373     0.0696    -0.0042
 1705.0000     8.8595    87.9519     2.4242     0.0786    -0.0138
 1705.5000     8.8813    87.6826     2.4300     0.0769    -0.0138
 1706.0000     8.9030    87.3502     2.4337     0.0718    -0.0036
 1706.5000     8.9247    87.0237     2.4470     0.0629     0.0098
 1707.0000     8.9422    86.7025     2.4395     0.0661     0.0032
 1707.5000     8.9375    86.5056     2.4642     0.0528     0.0156
 1708.0000     8.9144    86.5585     2.4724     0.0503     0.0184
 1708.5000     8.8919    87.8119     2.4566     0.0604    -0.0019
 1709.0000     8.8694    88.0008     2.4516     0.0592    -0.0014
 1709.5000     8.8468    88.0063     2.4692     0.0533     0.0079
 1710.0000     8.8242    88.6411     2.4882     0.0400     0.0333
 1710.5000     8.8250    89.2656     2.5002     0.0314     0.0443
 1711.0000     8.8294    89.8685     2.4912     0.0354     0.0312
 1711.5000     8.8340    90.3919     2.5044     0.0283     0.0425
 1712.0000     8.8386    90.3165     2.5117     0.0245     0.0555
 1712.5000     8.8392    90.0283     2.4987     0.0326     0.0512
 1713.0000     8.7991    89.7456     2.4820     0.0496     0.0306
 1713.5000     8.7592    89.5418     2.4718     0.0469     0.0167
 1714.0000     8.7942    89.5460     2.4796     0.0448     0.0215
 1714.5000     8.8405    89.5453     2.4470     0.0625     0.0050
 1715.0000     8.8416    89.5459     2.4612     0.0573     0.0107
 1715.5000     8.8428    89.5450     2.4848     0.0438     0.0291
 1716.0000     8.8438    89.5490     2.5084     0.0291     0.0475
 1716.5000     8.8448    89.0858     2.5152     0.0233     0.0515
 1717.0000     8.8458    88.2736     2.4801     0.0437     0.0278
 1717.5000     8.8468    87.4811     2.4587     0.0564     0.0067
 1718.0000     8.8478    87.0359     2.4632     0.0573     0.0045
 1718.5000     8.8489    87.4060     2.4510     0.0592    -0.0016
 1719.0000     8.8499    86.5298     2.4701     0.0491     0.0072
 1719.5000     8.8509    85.6239     2.4891     0.0384     0.0239
 1720.0000     8.8519    84.7191     2.5067     0.0253     0.0399
 1720.5000     8.8530    83.8017     2.4977     0.0289     0.0276
 1721.0000     8.8540    83.5316     2.4913     0.0350     0.0253
 1721.5000     8.8550    84.6314     2.4741     0.0424     0.0165
 1722.0000     8.8560    85.7551     2.4914     0.0491     0.0029
 1722.5000     8.8570    86.8737     2.5188     0.0189     0.0344
 1723.0000     8.8581    87.9955     2.5257     0.0175     0.0293
 1723.5000     8.8591    89.1160     2.5314     0.0124     0.0332
 1724.0000     8.8600    89.1887     2.5238     0.0100     0.0412
 1724.5000     8.8612    88.0127     2.4899     0.0374     0.0197
 1725.0000     8.8715    86.8449     2.4985     0.0330     0.0136
 1725.5000     8.8887    85.6687     2.5122     0.0256     0.0289
 1726.0000     8.9034    86.0790     2.5245     0.0155     0.0441
 1726.5000     8.9183    85.6253     2.5194     0.0183     0.0414
 1727.0000     8.9236    84.5336     2.5213     0.0182     0.0411
 1727.5000     8.9386    83.9578     2.5141     0.0207     0.0393
 1728.0000     8.9381    85.3306     2.5048     0.0273     0.0288
 1728.5000     8.9116    86.6877     2.4959     0.0314     0.0291
 1729.0000     8.8851    88.0634     2.4881     0.0360     0.0281
 1729.5000     8.8587    89.0568     2.4969     0.0407     0.0253
 1730.0000     8.8321    89.8637     2.5107     0.0264     0.0407
 1730.5000     8.8215    89.5558     2.4977     0.0237     0.0333
 1731.0000     8.8213    89.2197     2.4931     0.0342     0.0249
 1731.5000     8.8213    88.5581     2.4954     0.0400     0.0267
