~VERSION INFORMATION
 VERS.                2.0:   CWLS LOG ASCII STANDARD - VERSION 2.0
 WRAP.                 NO:   ONE LINE PER DEPTH STEP
~WELL INFORMATION
#MNEM.UNIT      DATA TYPE    INFORMATION
#----------   ------------   ------------------------------
 STRT.F           46.0000:   START DEPTH
 STOP.F          522.0000:   STOP DEPTH
 STEP.F            0.5000:   STEP LENGTH
 NULL.          -999.2500:   NO VALUE
 COMP.       F D SERV INC:   COMPANY
 WELL.  82-4 SX 10 #82-10:   WELL
 FLD .             TEAPOT:   FIELD
 LOC .      S10 T38N R78W:   LOCATION
 CNTY.            NATRONA:   COUNTY
 STAT.            WYOMING:   STATE
 CTRY. UNITED STATES OF AMERICA:   COUNTRY
 SRVC.     Atlas Wireline:   SERVICE COMPANY
 DATE.        04-FEB-1993:   LOGDATE
 API .       490252257900:   API NUMBER
~CURVE INFORMATION
#MNEM.UNIT       API CODE    CURVE DESCRIPTION
#----------   ------------   ------------------------------
 DEPT.F                  :   
 C13 .IN     45 280 13 00:   CALIPER FROM DENSITY LOG
 GRD .GAPI   45 310 01 00:   GAMMA RAY FROM DENSITY LOG
 PORS.DEC    42 890 03 00:   NEUTRON POROSITY SANDSTONE
 PORZ.DEC    45 890 12 00:   DENSITY POROSITY SANDSTONE
 ZCOR.G/C3   45 356 01 00:   DENSITY CORRECTION
 ZDEN.G/C3   45 350 01 00:   BULK DENSITY
 RILD.OHMM   07 120 46 00:   INDUCTION LOG DEEP RESISTIVITY
 RILM.OHMM   07 120 44 00:   INDUCTION LOG MEDIUM RESISTIVITY
~PARAMETER INFORMATION
#MNEM.UNIT          VALUE    DESCRIPTION
#----------   ------------   ------------------------------
 PD  .                 GL:   PERMANENT DATUM
 EPD .F              5145:   ELEVATION PERMANENT DATUM
 LMF .                 KB:   LOG MEASURED FROM
 DAPD.F                10:   FEET ABOVE PERMANENT DATUM
 DMF .                 KB:   DRILLING MEASURED FROM
 EKB .F              5155:   KELLING BUSHING
 EDF .F              5154:   DRILLING FLOOR
 EGL .F              5145:   GROUND LEVEL
 DATE.        04-FEB-1993:   RUN DATE
 RUN .                  1:   RUN NUMBER
 DD  .F               525:   DEPTH DRILLER
 DL  .F               525:   DEPTH LOGGER
 BLI .F               517:   BOTTOM LOG INTERVAL
 TLI .F                81:   TOP LOG INTERVAL
 CS  .IN            8.625:   CASING SIZE
 CBD .F                45:   CASING BOTTOM DRILLER
 CBL .F                81:   CASING BOTTOM LOGGER
 BS  .IN            7.875:   BIT SIZE
 BSD .F               525:   BIT SIZE AT DEPTH
 DFT .                AIR:   DRILLING FLUID TYPE
 MRT .F                58:   MAXIMUM RECORDED TEMPERATURE
 LUN .            HL 6274:   LOGGING UNIT NUMBER
 LUL .             CASPER:   LOGGING UNIT LOCATION
 ENGI.          V. RAUTIO:   RECORDING ENGINEER
 WITN.          G. STRONG:   WITNESSED BY
 CLNT.            A2DTECH:   CLIENT CODE
 ORIG.           5" PRINT:   ORIGIN OF DATA
 UWI .       490252257900:   UNIQUE WELL ID
 DICO. A2D Technologies, Inc.:   DIGITIZING COMPANY
~OTHER INFORMATION
~A   DEPT      C13         GRD      PORS       PORZ       ZCOR       ZDEN       RILD       RILM   
# ...
   86.5000     8.3913   160.3448     0.3223     0.1078    -0.0016     2.4686     6.7755     8.2074
   87.0000     8.3910   160.6447     0.3190     0.1111    -0.0045     2.4655     6.6336     8.3237
   87.5000     8.3906   159.4453     0.3148     0.1120    -0.0015     2.4678     6.6844     8.7382
   88.0000     8.3903   158.2379     0.3129     0.1090    -0.0015     2.4708     6.9205     8.4433
   88.5000     8.3900   157.9460     0.3138     0.1099    -0.0014     2.4685     8.1145     8.2141
   89.0000     8.3897   157.9460     0.3144     0.1108    -0.0014     2.4677     8.7079     8.4466
   89.5000     8.3894   161.2444     0.3144     0.1105    -0.0014     2.4677     8.8188     8.5659
   90.0000     8.3891   164.8426     0.3141     0.1093     0.0002     2.4699     8.2310     8.0510
   90.5000     8.3888   165.1424     0.3132     0.1081     0.0017     2.4744     7.9221     7.6192
   91.0000     8.3885   164.2369     0.3120     0.1066     0.0047     2.4774     7.6302     7.5681
   91.5000     8.3882   163.3433     0.3116     0.1051     0.0062     2.4767     7.6856     7.5697
   92.0000     8.3879   163.9430     0.3128     0.1051     0.0063     2.4766     7.7924     7.6769
   92.5000     8.3876   165.1424     0.3152     0.1054     0.0093     2.4766     7.7934     7.6784
   93.0000     8.3873   166.3418     0.3165     0.1057     0.0168     2.4774     7.7944     7.7332
   93.5000     8.3870   166.9415     0.3176     0.1041     0.0214     2.4833     7.7954     7.8428
   94.0000     8.3867   163.9430     0.3176     0.1014     0.0244     2.4856     7.9053     7.8987
   94.5000     8.3864   163.9300     0.3176     0.0999     0.0229     2.4825     8.0164     8.0103
   95.0000     8.3861   164.8426     0.3176     0.1020     0.0229     2.4795     8.0731     8.1234
   95.5000     8.3858   166.3418     0.3170     0.1044     0.0260     2.4773     8.1896     8.3533
   96.0000     8.3855   160.9445     0.3140     0.1053     0.0260     2.4765     8.3595     8.4712
   96.5000     8.3852   160.6447     0.3109     0.1049     0.0260     2.4795     8.4770     8.5909
   97.0000     8.3849   160.3448     0.3109     0.0987     0.0261     2.4892     8.7159     8.6966
   97.5000     8.3846   159.4453     0.3124     0.0954     0.0246     2.4922     8.9615     8.8761
   98.0000     8.3843   159.1454     0.3127     0.0948     0.0216     2.4937     9.1508     9.0556
   98.5000     8.3840   159.4453     0.3127     0.0941     0.0172     2.4944     9.2795     9.2350
   99.0000     8.3837   160.0450     0.3127     0.0941     0.0074     2.4952     9.4099     9.4145
   99.5000     8.3834   160.3448     0.3133     0.0941    -0.0053     2.4936     9.5475     9.5940
  100.0000     8.3831   159.1454     0.3136     0.0965     0.0023     2.4884     9.7438     9.8796
  100.5000     8.3828   160.0450     0.3129     0.1001     0.0068     2.4831    10.0183    10.0191
  101.0000     8.3825   161.5442     0.3102     0.0941     0.0113     2.4898    10.3006    10.2311
  101.5000     8.3822   162.4438     0.3054     0.0905     0.0053     2.5007    10.4590    10.4476
  102.0000     8.3819   159.5549     0.3030     0.0863     0.0009     2.5052    10.7401    10.6691
  102.5000     8.3816   157.3463     0.3005     0.0899    -0.0021     2.4992    10.8911    10.8949
  103.0000     8.3813   157.0465     0.2960     0.0917    -0.0036     2.4984    11.1208    11.0488
  103.5000     8.3807   155.2474     0.2924     0.0923     0.0025     2.4984    11.1995    11.2053
  104.0000     8.3799   151.3493     0.2933     0.0917     0.0085     2.4984    11.2790    11.2853
  104.5000     8.3791   151.9490     0.2924     0.0926     0.0131     2.4991    11.3587    11.3658
  105.0000     8.3783   153.1484     0.2912     0.0947     0.0145     2.4968    11.4390    11.3680
  105.5000     8.3775   153.7481     0.2903     0.0983     0.0116     2.4893    11.5199    11.3708
  106.0000     8.3767   150.4498     0.2897     0.1016     0.0071     2.4848    11.5218    11.3730
  106.5000     8.3759   148.3508     0.2906     0.1037     0.0022     2.4817    11.4435    11.3752
  107.0000     8.3751   148.3508     0.2939     0.1058    -0.0033     2.4795    11.4454    11.3775
  107.5000     8.3743   149.2504     0.2957     0.1073    -0.0078     2.4740    11.4364    11.3802
  108.0000     8.3735   151.9490     0.2963     0.1085    -0.0093     2.4696    11.2915    11.2261
  108.5000     8.3727   152.2489     0.2939     0.1097    -0.0077     2.4719    11.2148    11.0740
  109.0000     8.3719   151.3493     0.2921     0.1085    -0.0032     2.4734    10.9863    10.9141
  109.5000     8.3711   150.7496     0.2915     0.1061    -0.0017     2.4764    10.9120    10.7761
  110.0000     8.3703   150.7496     0.2933     0.1048    -0.0001     2.4756    10.7639    10.6302
  110.5000     8.3695   151.3493     0.2945     0.1097    -0.0001     2.4696    10.7653    10.5595
  111.0000     8.3687   151.9490     0.2950     0.1124     0.0014     2.4673    10.7667    10.4888
  111.5000     8.3679   151.9490     0.2938     0.1127     0.0029     2.4665    10.7684    10.4913
  112.0000     8.3671   149.2504     0.2914     0.1123     0.0046     2.4658    10.7698    10.6395
  112.5000     8.3663   147.7511     0.2896     0.1132     0.0060     2.4657    10.7712    10.7154
  113.0000     8.3655   147.1514     0.2875     0.1132     0.0030     2.4665    10.9227    10.8673
  113.5000     8.3647   146.2519     0.2860     0.1123     0.0031     2.4695    11.0766    11.0972
  114.0000     8.3639   145.3284     0.2824     0.1090     0.0063     2.4755    11.1549    11.2539
  114.5000     8.3631   142.3538     0.2727     0.1033     0.0091     2.4875    11.2337    11.4129
  115.0000     8.3623   141.1544     0.2655     0.0903     0.0047     2.5056    11.2352    11.4155
  115.5000     8.3615   140.8546     0.2610     0.0843     0.0017     2.5131    10.9305    11.1062
  116.0000     8.3606   142.4098     0.2603     0.0840     0.0032     2.5086    10.6333    10.8059
  116.5000     8.3598   144.7526     0.2778     0.0930     0.0152     2.4941    10.3446    10.5126
  117.0000     8.3590   147.1514     0.2877     0.1038     0.0243     2.4754    10.0640    10.2283
  117.5000     8.3582   148.9505     0.2898     0.1087     0.0228     2.4716     9.7911     9.9512
  118.0000     8.3574   149.5502     0.2901     0.1096     0.0228     2.4708     9.6579     9.6816
  118.5000     8.3572   149.5502     0.2898     0.1099     0.0229     2.4709     9.5265     9.4852
  119.0000     8.3575   149.5502     0.2883     0.1090     0.0229     2.4723     9.4621     9.3567
  119.5000     8.3578   149.5502     0.2858     0.1074     0.0229     2.4723     9.3336     9.2941
  120.0000     8.3582   149.5502     0.2835     0.1086     0.0214     2.4715     9.3348     9.2318
  120.5000     8.3585   150.1499     0.2817     0.1095     0.0215     2.4708     9.2714     9.2341
  121.0000     8.3589   149.5502     0.2811     0.1095     0.0215     2.4708     9.2729     9.1722
  121.5000     8.3592   147.7511     0.2811     0.1086     0.0185     2.4692     9.2744     9.1741
  122.0000     8.3595   146.5517     0.2799     0.1095     0.0186     2.4662     9.2756     9.1762
  122.5000     8.3599   146.9715     0.2783     0.1113     0.0201     2.4654     9.2768     9.1780
  123.0000     8.3602   148.1515     0.2768     0.1119     0.0216     2.4632     9.2780     9.1798
  123.5000     8.3605   149.5502     0.2762     0.1119     0.0127     2.4601     9.1521     9.1183
  124.0000     8.3609   151.3493     0.2762     0.1155     0.0022     2.4554     9.0899     9.0572
  124.5000     8.3612   154.3478     0.2783     0.1188     0.0037     2.4533     9.0285     8.9346
  125.0000     8.3616   156.1469     0.2819     0.1203     0.0097     2.4571     8.9059     8.9368
  125.5000     8.3619   156.7466     0.2846     0.1154     0.0158     2.4616     8.9074     8.9389
  126.0000     8.3622   156.1469     0.2867     0.1119     0.0158     2.4661     8.9085     8.9407
  126.5000     8.3626   155.8471     0.2879     0.1098     0.0173     2.4691     8.9097     8.9424
