~VERSION INFORMATION
 VERS.                2.0:   CWLS LOG ASCII STANDARD - VERSION 2.0
 WRAP.                 NO:   ONE LINE PER DEPTH STEP
~WELL INFORMATION
#MNEM.UNIT      DATA TYPE    INFORMATION
#----------   ------------   ------------------------------
 STRT.F            4.0000:   START DEPTH
 STOP.F          508.0000:   STOP DEPTH
 STEP.F            0.5000:   STEP LENGTH
 NULL.          -999.2500:   NO VALUE
 COMP. LAWRENCE-ALLISON &AS:   COMPANY
 WELL. NPR ##3 58-65-SX-3-UPI:   WELL
 FLD .             TEAPOT:   FIELD
 LOC .       S3 T38N R78W:   LOCATION
 CNTY.            NATRONA:   COUNTY
 STAT.            WYOMING:   STATE
 CTRY. UNITED STATES OF AMERICA:   COUNTRY
 SRVC.      Dresser Atlas:   SERVICE COMPANY
 DATE.        07-DEC-1984:   LOGDATE
 API .       490251102500:   API NUMBER
~CURVE INFORMATION
#MNEM.UNIT       API CODE    CURVE DESCRIPTION
#----------   ------------   ------------------------------
 DEPT.F                  :   
 SPR .MV     07 010 01 00:   SPONTANEOUS POTENTIAL
 RILD.OHMM   07 120 46 00:   INDUCTION LOG DEEP RESISTIVITY
 RILM.OHMM   07 120 44 00:   INDUCTION LOG MEDIUM RESISTIVITY
 RFOC.OHMM   07 220 04 00:   RESISTIVITY FOCUSED LOG
 CALS.IN     60 280 50 00:   CALIPER FROM SONIC LOG
 GRS .GAPI   60 310 01 00:   GAMMA RAY FROM SONIC LOG
 AC  .US/F   60 520 00 00:   ACCOUSTIC SONIC
~PARAMETER INFORMATION
#MNEM.UNIT          VALUE    DESCRIPTION
#----------   ------------   ------------------------------
 PD  .                 GL:   PERMANENT DATUM
 EPD .F              5184:   ELEVATION PERMANENT DATUM
 LMF .                 GL:   LOG MEASURED FROM
 DMF .                 GL:   DRILLING MEASURED FROM
 EGL .F              5184:   GROUND LEVEL
 DATE.        07-DEC-1984:   RUN DATE
 RUN .                  1:   RUN NUMBER
 DD  .F               510:   DEPTH DRILLER
 DL  .F               510:   DEPTH LOGGER
 BLI .F               508:   BOTTOM LOG INTERVAL
 TLI .F                20:   TOP LOG INTERVAL
 CS  .IN            8.625:   CASING SIZE
 CBD .F                20:   CASING BOTTOM DRILLER
 CBL .F                20:   CASING BOTTOM LOGGER
 BS  .IN            7.875:   BIT SIZE
 BSD .F               510:   BIT SIZE AT DEPTH
 DFT .          KCL WATER:   DRILLING FLUID TYPE
 MSS .            MUD PIT:   MUD SAMPLE SOURCE
 RMS .OHMM            .14:   RESISTIVITY MUD SAMPLE
 MST .F                55:   MUD SAMPLE TEMPERATURE
 RMF .OHMM             .1:   RESISTIVITY MUD FILTRATE SAMPLE
 MFST.F                55:   MUD FILTRATE SAMPLE TEMPERATURE
 RMC .OHMM            .17:   RESISTIVITY MUD CAKE
 MCST.F                55:   MUD CAKE SAMPLE TEMPERATURE
 MFSS.               CALC:   MUD FILTRATE SAMPLE SOURCE
 MCSS.               CALC:   MUD CAKE SAMPLE SOURCE
 RMB .OHMM            .08:   RESISTIVITY MUD AT BHT
 BHT .F                86:   BOTTOM HOLE TEMPERATURE
 TCS .HRS               3:   TIME CURCULATED STOPPED
 MRT .F               100:   MAXIMUM RECORDED TEMPERATURE
 LUN .               6270:   LOGGING UNIT NUMBER
 LUL .                 FM:   LOGGING UNIT LOCATION
 ENGI.          E. GOVETT:   RECORDING ENGINEER
 WITN.      GROOMS, LUERS:   WITNESSED BY
 CLNT.            A2DTECH:   CLIENT CODE
 ORIG.           5" PRINT:   ORIGIN OF DATA
 UWI .       490251102500:   UNIQUE WELL ID
 DICO. A2D Technologies, Inc.:   DIGITIZING COMPANY
~OTHER INFORMATION
~A    DEPT     SPR       RILD       RILM       RFOC       CALS         GRS        AC   
# ...
  277.0000   -31.0313    28.6587    27.7717    27.3841     7.5066    70.4100   159.3708
  277.5000   -30.5738    29.2781    29.3735    28.7666     7.4924    64.4802   146.1387
  278.0000   -30.2651    29.4987    27.2347    41.8585     7.4638    57.4759   128.1433
  278.5000   -29.8074    29.7209    23.3982    46.7907     7.4647    58.7473    92.3324
  279.0000   -29.4987    30.1533    19.6886    43.0845     7.4505    61.9863    87.1297
  279.5000   -29.3391    30.3804    18.7651    35.9958     7.4665    64.3611    88.0294
  280.0000   -29.1794    30.6092    19.6021    30.4935     7.4674    64.6854    92.3227
  280.5000   -29.1688    30.5786    19.9986    27.7964     7.4683    63.9304   100.4622
  281.0000   -29.3090    29.5326    19.7256    26.5702     7.4841    63.9159   104.5293
  281.5000   -29.2966    28.3656    18.8102    28.3555     7.4850    66.1742   106.1831
  282.0000   -29.4351    27.6336    17.8094    30.1456     7.5008    69.5992   104.4432
  282.5000   -29.4245    27.4653    17.5751    29.9455     7.5017    71.3898   102.1001
  283.0000   -29.5655    27.4808    17.4646    28.9412     7.5026    71.2487   101.1143
  283.5000   -29.5841    27.6878    17.4762    28.5581     7.4886    69.3246   100.9595
  284.0000   -29.6933    27.7034    17.3637    28.9738     7.4893    66.5089   102.4612
  284.5000   -29.8318    26.9601    16.6697    29.3950     7.4753    65.9202   103.5871
  285.0000   -29.8212    26.4194    15.3492    29.6121     7.4762    67.7126   103.8094
  285.5000   -29.9598    25.7105    14.6316    29.2247     7.4919    69.8004   103.5765
  286.0000   -30.0980    25.0206    14.0446    27.8555     7.4928    72.1853   101.9875
  286.5000   -30.0874    24.1808    13.5749    24.9438     7.4937    74.1244    99.5689
  287.0000   -30.2285    23.2075    13.3019    23.6108     7.4946    75.9150    97.8290
  287.5000   -30.3669    21.9664    13.0385    23.1344     7.5104    77.2598    96.6925
  288.0000   -30.5053    20.7917    12.9383    23.1506     7.5113    77.4159    96.2360
  288.5000   -30.6437    19.9548    12.7737    23.0003     7.5122    76.9776    96.9081
  289.0000   -30.7822    19.6880    12.6113    23.0165     7.5131    75.4992    97.2799
  289.5000   -30.9206    19.5629    12.4506    22.6799     7.4991    73.9678    97.2746
  290.0000   -30.9073    19.5743    12.3724    22.0802     7.5000    73.1350    97.1185
  290.5000   -31.0484    19.5956    12.2946    21.3589     7.5158    74.0620    96.8869
  291.0000   -31.0670    19.7325    12.3026    21.2204     7.5167    75.5591    96.7308
  291.5000   -31.1762    19.8811    12.3960    21.0883     7.5325    77.3200    96.5746
  292.0000   -31.1654    20.0308    12.5770    21.3950     7.5483    77.1769    96.8710
  292.5000   -31.1550    20.3223    12.8494    21.5561     7.5492    74.6584    97.4690
  293.0000   -31.2936    20.4753    13.0370    21.7183     7.5649    73.6256    98.1424
  293.5000   -31.1338    20.6296    13.4119    21.8818     7.5658    73.3361    98.5142
  294.0000   -31.1232    20.9297    13.8936    22.0465     7.5816    73.3436    98.5089
  294.5000   -31.1126    21.2342    14.3926    22.2124     7.5825    75.4313    98.3527
  295.0000   -31.1019    21.3942    15.0132    22.3796     7.5834    77.0733    98.5736
  295.5000   -31.0913    21.7054    15.4450    22.5480     7.5843    77.5247    98.8700
  296.0000   -31.0807    22.0212    15.9063    22.5607     7.5852    75.3053    98.9552
  296.5000   -31.0701    22.1871    16.3564    22.5734     7.5861    73.5297    99.0115
  297.0000   -31.0595    22.3542    16.6976    22.5861     7.6019    73.8344    98.9955
  297.5000   -30.8999    22.5226    16.8243    22.2875     7.6028    75.1792    98.9165
  298.0000   -30.7402    21.9183    16.8350    21.9757     7.6037    77.5641    98.7693
  298.5000   -30.7318    21.3026    17.0808    21.7305     7.6046    79.0575    98.6131
  299.0000   -30.7213    20.8833    17.0916    21.4853     7.6055    78.6192    98.4570
  299.5000   -30.7109    20.4724    17.1024    21.2401     7.6064    77.7352    98.3009
  300.0000   -30.7299    20.0695    16.9762    20.9949     7.6072    76.7207    98.2202
  300.5000   -30.7773    19.6618    16.8803    20.9456     7.6081    75.1934    98.7418
  301.0000   -30.8247    19.2541    16.7844    20.8962     7.6090    73.8963    98.6621
  301.5000   -30.8721    18.7654    16.6885    20.6059     7.6099    73.9053    98.4975
  302.0000   -30.9195    18.6454    16.5927    20.3363     7.6107    75.1031    98.3499
  302.5000   -30.9389    18.6585    16.4496    20.2064     7.5967    76.3009    98.3446
  303.0000   -30.9266    18.5424    16.1252    20.0808     7.5827    76.7534    98.3392
  303.5000   -30.9146    18.5556    15.6982    19.9560     7.5837    75.7246    98.2584
  304.0000   -31.0516    18.5685    15.2824    19.8320     7.5846    75.1371    98.2531
  304.5000   -31.0396    18.7109    14.8776    19.8494     7.5855    76.0399    98.2477
  305.0000   -31.1796    18.7240    14.5810    19.7225     7.5713    76.6433    98.7702
  305.5000   -31.3167    18.7371    14.3891    19.7398     7.5724    75.9095    99.4436
  306.0000   -31.4537    18.8809    14.2000    19.7537     7.5733    74.8784    99.8907
  306.5000   -31.5908    19.0257    14.0135    19.9051     7.5591    75.5323   100.2624
  307.0000   -31.8738    19.1717    13.8293    20.0577     7.5602    76.6944   100.5586
  307.5000   -32.0139    19.3187    13.5533    20.2115     7.5460    77.4293   100.6300
  308.0000   -32.1509    19.4669    13.2807    20.2256     7.5472    76.6954   100.6244
  308.5000   -32.2879    19.6163    12.9278    20.0999     7.5481    76.5557   100.5373
  309.0000   -32.4250    19.3594    12.6697    19.8370     7.5490    77.0107   100.3112
  309.5000   -32.5620    19.1059    12.0774    19.5507     7.5497    77.4655    99.8544
  310.0000   -32.8451    18.8557    11.5127    19.1672     7.5506    77.7718    99.1703
  310.5000   -32.9851    18.6056    10.8987    18.9219     7.5515    77.9272    98.4107
  311.0000   -33.2712    18.2382    10.5341    18.6798     7.5526    76.6012    97.8020
  311.5000   -33.5573    17.9994    10.2509    18.4412     7.5682    75.4215    98.0983
  312.0000   -33.8403    17.7606    10.1162    18.3266     7.5691    75.8764    98.1697
  312.5000   -34.1264    17.4098     9.9848    18.3394     7.5849    77.3713    97.7859
  313.0000   -34.2665    17.1819     9.9221    18.3523     7.5858    79.4606    97.1772
  313.5000   -34.5495    16.9569     9.9283    18.2377     7.5867    80.3589    97.0978
  314.0000   -34.6896    16.7319     9.9346    17.9965     7.5876    77.9928    97.8452
  314.5000   -34.8266    16.5128     9.9408    17.6413     7.5885    76.7869    97.9166
  315.0000   -34.9636    16.2966     9.9471    17.1707     7.5894    76.8499    97.8256
  315.5000   -35.1007    16.1850    10.0213    16.9431     7.6052    77.8803    97.0582
  316.0000   -35.2347    15.9775    10.0973    16.7243     7.5910    78.7697    96.0151
  316.5000   -35.3718    15.7739    10.2534    16.6204     7.5921    78.6300    95.3310
  317.0000   -35.5088    15.5674    10.4003    16.6320     7.5930    78.3421    95.0993
  317.5000   -35.6488    15.3635    10.5493    16.6437     7.5788    78.6483    95.1694
  318.0000   -35.9349    15.1624    10.7740    16.6554     7.5623    79.5489    95.3902
  318.5000   -36.2210    15.0676    10.9312    16.5490     7.5492    80.1523    96.0636
  319.0000   -36.3746    14.8702    11.1679    16.5635     7.5361    80.6072    96.8124
  319.5000   -36.6441    14.6760    11.3309    16.5751     7.5229    80.7648    97.1841
  320.0000   -36.7811    14.4839    11.4169    16.4721     7.5238    77.6535    97.6312
  320.5000   -36.9182    14.3913    11.5835    16.4836     7.5247    75.2829    98.0783
  321.0000   -37.0552    14.2028    11.7526    16.3783     7.5256    76.9287    97.7712
  321.5000   -37.1922    14.0168    12.0071    16.2765     7.5414    80.0581    96.8077
  322.0000   -37.3294    13.8333    12.1823    15.9425     7.5423    80.9564    96.3290
