~VERSION INFORMATION
 VERS.                2.0:   CWLS LOG ASCII STANDARD - VERSION 2.0
 WRAP.                 NO:   ONE LINE PER DEPTH STEP
~WELL INFORMATION
#MNEM.UNIT      DATA TYPE    INFORMATION
#----------   ------------   ------------------------------
 STRT.F            0.0000:   START DEPTH
 STOP.F          479.0000:   STOP DEPTH
 STEP.F            0.5000:   STEP LENGTH
 NULL.          -999.2500:   NO VALUE
 COMP. BROWN JOHN E&C INC:   COMPANY
 WELL.  63-3 SX-10 #63-10:   WELL
 FLD .             TEAPOT:   FIELD
 LOC .      S10 T38N R78W:   LOCATION
 CNTY.            NATRONA:   COUNTY
 STAT.            WYOMING:   STATE
 CTRY. UNITED STATES OF AMERICA:   COUNTRY
 SRVC.     Atlas Wireline:   SERVICE COMPANY
 DATE.        25-APR-1992:   LOGDATE
 API .       490252252900:   API NUMBER
~CURVE INFORMATION
#MNEM.UNIT       API CODE    CURVE DESCRIPTION
#----------   ------------   ------------------------------
 DEPT.F                  :   
 GRR .GAPI   07 310 01 00:   GAMMA RAY
 SPR .MV     07 010 01 00:   SPONTANEOUS POTENTIAL
 RILD.OHMM   07 120 46 00:   INDUCTION LOG DEEP RESISTIVITY
 RILM.OHMM   07 120 44 00:   INDUCTION LOG MEDIUM RESISTIVITY
 RFOC.OHMM   07 220 04 00:   RESISTIVITY FOCUSED LOG
 PORD.DEC    45 890 12 00:   POROSITY DENSITY SANDSTONE
 CNC .DEC    42 890 03 00:   NEUTRON POROSITY SANDSTONE
 CALD.IN     45 280 60 00:   CALIPER FROM DENSITY
 CORR.G/C3   45 356 01 00:   DENSITY CORRECTION
 DEN .G/C3   45 350 01 00:   COMPENSATED BULK DENSTIY
~PARAMETER INFORMATION
#MNEM.UNIT          VALUE    DESCRIPTION
#----------   ------------   ------------------------------
 PD  .                 GL:   PERMANENT DATUM
 EPD .F              5189:   ELEVATION PERMANENT DATUM
 LMF .                 KB:   LOG MEASURED FROM
 DAPD.F                10:   FEET ABOVE PERMANENT DATUM
 DMF .                 KB:   DRILLING MEASURED FROM
 EKB .F              5199:   KELLING BUSHING
 EGL .F              5189:   GROUND LEVEL
 DATE.        25-APR-1992:   RUN DATE
 RUN .                  1:   RUN NUMBER
 DD  .F               480:   DEPTH DRILLER
 DL  .F               482:   DEPTH LOGGER
 BLI .F               480:   BOTTOM LOG INTERVAL
 CS  .IN            8.625:   CASING SIZE
 CBD .F               130:   CASING BOTTOM DRILLER
 CBL .F               143:   CASING BOTTOM LOGGER
 BS  .IN            7.875:   BIT SIZE
 BSD .F               480:   BIT SIZE AT DEPTH
 DFT .     DISP. WEIGHTED:   DRILLING FLUID TYPE
 DFD .               15.1:   DRILLING FLUID DENSITY
 DFV .                 44:   DRILLING FLUID VISCOSITY
 DFPH.                8.4:   DRILLING FLUID PH
 DFL .                  7:   DRILLING FLUID LOSS
 MSS .           FLOWLINE:   MUD SAMPLE SOURCE
 TCS .HRS            0230:   TIME CURCULATED STOPPED
 LUN .           HL- 6272:   LOGGING UNIT NUMBER
 LUL .             CASPER:   LOGGING UNIT LOCATION
 ENGI.       P. RASMUSSEN:   RECORDING ENGINEER
 WITN.          G. STRONG:   WITNESSED BY
 CLNT.            A2DTECH:   CLIENT CODE
 ORIG.           5" PRINT:   ORIGIN OF DATA
 UWI .       490252252900:   UNIQUE WELL ID
 DICO. A2D Technologies, Inc.:   DIGITIZING COMPANY
~OTHER INFORMATION
~A    DEPT      GRR       SPR       RILD       RILM       RFOC       PORD        CNC       CALD       CORR        DEN   
# ...
  167.5000    92.3741   -90.7098     4.9646     5.2107     5.2236     0.1166     0.3961     8.1316     0.0060     2.4645
  168.0000    89.6449   -89.0567     4.4495     4.4391     4.9385     0.1281     0.4118     8.1306     0.0029     2.4540
  168.5000    89.9415   -87.4035     3.8335     3.8616     4.6331     0.1468     0.4338     8.1299    -0.0017     2.4278
  169.0000    90.8432   -86.0521     3.1129     3.1116     4.3197     0.1621     0.4556     8.1291    -0.0048     2.4092
  169.5000    92.0475   -84.8514     2.8236     2.5781     3.9343     0.1936     0.4819     8.1283    -0.0064     2.3711
  170.0000    92.9507   -83.9524     2.6705     2.3877     3.4605     0.2188     0.5241     8.1276    -0.0097     2.3215
  170.5000    92.3380   -83.5044     2.5434     2.2897     3.0736     0.2450     0.5377     8.1268    -0.0159     2.2769
  171.0000    89.0037   -83.3596     2.4735     2.3215     2.6734     0.2546     0.5315     8.1260    -0.0172     2.2429
  171.5000    82.9463   -83.6687     2.4563     2.3869     2.6731     0.2356     0.5152     8.1253    -0.0122     2.2285
  172.0000    79.9145   -83.9764     2.5258     2.5239     3.0723     0.2135     0.4921     8.1245    -0.0058     2.2458
  172.5000    80.8162   -84.4349     2.6336     2.6340     3.8124     0.1836     0.4731     8.1237     0.0007     2.3101
  173.0000    85.6514   -84.8933     2.9034     2.8939     3.9472     0.1713     0.4556     8.1230     0.0071     2.3395
  173.5000    88.3685   -85.3518     3.2685     3.2663     3.5302     0.1565     0.4266     8.1222     0.0142     2.3659
  174.0000    91.6908   -85.9611     3.6794     3.8111     3.7581     0.1226     0.3829     8.1214     0.0172     2.3939
  174.5000    95.0131   -86.5704     4.1710     4.4620     4.5436     0.1075     0.3626     8.1209     0.0140     2.4483
  175.0000    96.8225   -87.1797     5.1049     4.9181     5.4671     0.1033     0.3551     8.1201     0.0064     2.4686
  175.5000    98.9345   -87.9399     5.6673     5.4208     6.2906     0.1030     0.3485     8.1193     0.0018     2.4746
  176.0000   101.3491   -88.7000     5.9921     5.7708     6.0744     0.1003     0.3454     8.1186    -0.0013     2.4784
  176.5000   100.4353   -89.1585     6.2916     5.8103     5.9479     0.0961     0.3506     8.1178     0.0017     2.4799
  177.0000    96.7984   -89.4661     6.6525     5.8093     5.8648     0.0927     0.3515     8.1170     0.0046     2.4851
  177.5000    95.8847   -89.3213     6.7927     5.8493     5.8233     0.0900     0.3494     8.1315     0.0075     2.4927
  178.0000   100.7199   -88.8729     6.6436     5.8893     5.8632     0.0870     0.3464     8.1307     0.0120     2.4987
  178.5000   102.5293   -88.2710     6.2302     5.9296     5.9446     0.0867     0.3475     8.1451     0.0135     2.5017
  179.0000   102.2207   -87.5073     5.8536     5.9286     6.1118     0.0896     0.3590     8.1444     0.0116     2.5032
  179.5000   101.0044   -86.2821     5.6279     5.7250     6.3718     0.0993     0.3684     8.1436     0.0088     2.5009
  180.0000    98.8804   -84.7663     5.5115     5.3393     6.5057     0.1229     0.3838     8.1428     0.0072     2.4933
  180.5000    97.6398   -83.1241     5.2859     4.8428     5.9829     0.1389     0.3950     8.1421     0.0088     2.4532
  181.0000   103.1044   -81.5837     5.1353     4.7091     5.3139     0.1416     0.4040     8.1109     0.0117     2.4154
  181.5000   105.5189   -80.0193     5.0747     4.8079     4.7197     0.1380     0.4086     8.0949     0.0146     2.4176
  182.0000   103.3583   -79.1203     5.0142     4.9086     4.4945     0.1344     0.4131     8.0638     0.0143     2.4239
  182.5000   100.6253   -78.9739     4.9536     5.0466     5.0613     0.1335     0.4122     8.0478     0.0097     2.4291
  183.0000    97.5491   -79.1322     4.8959     4.9388     5.1650     0.1292     0.4034     8.0471     0.0067     2.4367
  183.5000    94.5296   -79.2891     4.8959     4.8726     4.8126     0.1184     0.3983     8.0463     0.0036     2.4557
  184.0000    93.0834   -79.4459     4.9646     5.0216     4.8856     0.1084     0.3917     8.0455    -0.0010     2.4690
  184.5000    94.6948   -79.6027     5.1049     5.4831     5.6129     0.1033     0.3840     8.0296    -0.0041     2.4764
  185.0000    97.6085   -79.7595     5.3975     5.7963     5.7731     0.1021     0.3770     8.0288    -0.0057     2.4809
  185.5000    99.7205   -79.9163     5.7069     6.0008     5.9189     0.0996     0.3663     8.0432     0.0048     2.4869
  186.0000   101.2273   -79.9223     6.0340     6.2125     6.0646     0.0948     0.3555     8.0425     0.0111     2.4952
  186.5000   103.0367   -80.2300     6.3799     6.4766     6.2343     0.0906     0.3449     8.0571     0.0052     2.5004
  187.0000   104.8462   -80.5376     6.6987     6.7051     6.4983     0.0872     0.3401     8.0713     0.0001     2.5042
  187.5000   105.7479   -80.8453     6.9847     6.9416     6.7378     0.0857     0.3404     8.0706     0.0015     2.5072
  188.0000   105.4393   -81.1529     7.2828     7.0874     7.2059     0.0869     0.3434     8.0698     0.0014     2.5056
  188.5000   103.9204   -81.3097     7.5410     7.1359     7.5128     0.0881     0.3467     8.0690     0.0014     2.5026
  189.0000   101.7964   -81.4666     7.7541     7.0852     7.1539     0.0901     0.3488     8.0531     0.0028     2.4988
  189.5000    99.6739   -81.7742     7.8629     7.1340     7.1531     0.0942     0.3531     8.0371     0.0027     2.4957
  190.0000   102.9947   -81.9295     7.8083     7.1828     7.1023     0.0954     0.3579     8.0363     0.0042     2.4927
  190.5000   101.7784   -80.7304     7.6468     7.0331     7.0031     0.0951     0.3609     8.0204     0.0116     2.4919
  191.0000    99.0492   -79.2281     7.4367     6.8868     6.9052     0.0948     0.3609     8.0196     0.0161     2.4949
  191.5000    97.5303   -77.5749     7.2828     6.6968     6.8087     0.0945     0.3612     8.0190     0.0100     2.4926
  192.0000    97.8269   -76.2234     7.1322     6.6494     6.6670     0.0960     0.3641     8.0183     0.0038     2.4873
  192.5000    96.6106   -75.1736     6.9847     6.6024     6.5738     0.0984     0.3733     8.0175     0.0023     2.4850
  193.0000    95.0917   -73.9730     6.8880     6.5557     6.5273     0.0993     0.3833     8.0167     0.0097     2.4842
  193.5000    95.9934   -73.0740     6.7878     6.4166     6.4811     0.0996     0.3881     8.0160     0.0127     2.4856
  194.0000    97.1992   -72.0242     6.6522     6.1512     6.4352     0.0996     0.3905     8.0152     0.0156     2.4856
  194.5000    95.6788   -71.2750     6.5515     6.0278     6.3453     0.0999     0.3905     8.0144     0.0125     2.4841
  195.0000    92.0420   -70.6738     6.0762     5.9434     6.3003     0.1014     0.3902     8.0137     0.0107     2.4788
  195.5000    91.7349   -70.3830     5.5501     5.3907     6.2123     0.1053     0.3930     8.0281     0.0045     2.4697
  196.0000    95.0557   -70.2382     5.2127     4.8218     6.1255     0.1183     0.4023     8.0121     0.0000     2.4553
  196.5000    97.7728   -70.2630     5.1406     4.6888     5.8326     0.1304     0.4045     8.0114    -0.0014     2.4424
  197.0000   101.3976   -70.5751     5.1766     4.7209     5.2057     0.1310     0.3975     8.0106     0.0005     2.4371
  197.5000   105.3251   -71.1890     5.2492     4.8874     4.5984     0.1225     0.3866     7.9946     0.0106     2.4467
  198.0000   108.3448   -72.2244     5.2492     5.1308     4.5690     0.1086     0.3793     7.9787     0.0089     2.4712
  198.5000   105.3130   -73.2862     5.3601     5.3863     5.9115     0.0944     0.3752     7.9627     0.0012     2.4932
  199.0000    98.6504   -74.0463     5.5501     5.7337     6.4710     0.0920     0.3770     7.9620    -0.0063     2.5012
  199.5000    95.0136   -74.6556     5.9092     6.0613     6.7935     0.0944     0.3776     7.9612    -0.0094     2.4950
  200.0000    95.3101   -75.3305     6.2672     6.3693     6.8881     0.0978     0.3748     7.9758    -0.0034     2.4853
  200.5000   101.3957   -76.1400     6.6517     6.6734     6.8681     0.1026     0.3667     7.9643     0.0023     2.4812
