~VERSION INFORMATION
 VERS.                2.0:   CWLS LOG ASCII STANDARD - VERSION 2.0
 WRAP.                 NO:   ONE LINE PER DEPTH STEP
~WELL INFORMATION
#MNEM.UNIT      DATA TYPE    INFORMATION
#----------   ------------   ------------------------------
 STRT.F            0.0000:   START DEPTH
 STOP.F          446.0000:   STOP DEPTH
 STEP.F            0.5000:   STEP LENGTH
 NULL.          -999.2500:   NO VALUE
 COMP.       F D SERV INC:   COMPANY
 WELL. NAVAL PETROLEUM RESERVE 3 SX-1 #63-5-10:   WELL
 FLD .            WILDCAT:   FIELD
 LOC .      S10 T38N R78W:   LOCATION
 CNTY.            NATRONA:   COUNTY
 STAT.            WYOMING:   STATE
 CTRY. UNITED STATES OF AMERICA:   COUNTRY
 SRVC.     Atlas Wireline:   SERVICE COMPANY
 DATE.        02-FEB-1993:   LOGDATE
 API .       490252257100:   API NUMBER
~CURVE INFORMATION
#MNEM.UNIT       API CODE    CURVE DESCRIPTION
#----------   ------------   ------------------------------
 DEPT.F                  :   
 GRR .GAPI   07 310 01 00:   GAMMA RAY
 RILD.OHMM   07 120 46 00:   INDUCTION LOG DEEP RESISTIVITY
 RILM.OHMM   07 120 44 00:   RESITIVITY LONG MEDIUM
 PORZ.DEC    45 890 12 00:   DENSITY POROSITY SANDSTONE
 ZCOR.G/C3   45 356 01 00:   DENSITY CORRECTION
 ZDEN.G/C3   45 350 01 00:   BULK DENSITY
 NPHI.DEC    42 890 03 00:   NEUTRON POROSITY SANDSTONE
 C13 .IN     45 280 13 00:   CALIPER X
~PARAMETER INFORMATION
#MNEM.UNIT          VALUE    DESCRIPTION
#----------   ------------   ------------------------------
 PD  .                 GL:   PERMANENT DATUM
 EPD .F              5182:   ELEVATION PERMANENT DATUM
 LMF .                 KB:   LOG MEASURED FROM
 DAPD.F                10:   FEET ABOVE PERMANENT DATUM
 DMF .                 KB:   DRILLING MEASURED FROM
 EKB .F              5192:   KELLING BUSHING
 EDF .F              5191:   DRILLING FLOOR
 EGL .F              5182:   GROUND LEVEL
 DATE.        02-FEB-1993:   RUN DATE
 RUN .                  1:   RUN NUMBER
 DD  .F               450:   DEPTH DRILLER
 DL  .F               450:   DEPTH LOGGER
 BLI .F               442:   BOTTOM LOG INTERVAL
 CS  .IN            8.625:   CASING SIZE
 CBD .F                84:   CASING BOTTOM DRILLER
 CBL .F                84:   CASING BOTTOM LOGGER
 BS  .IN            7.875:   BIT SIZE
 BSD .F               450:   BIT SIZE AT DEPTH
 DFT .                AIR:   DRILLING FLUID TYPE
 MRT .F                51:   MAXIMUM RECORDED TEMPERATURE
 LUN .            HL 6274:   LOGGING UNIT NUMBER
 LUL .             CASPER:   LOGGING UNIT LOCATION
 ENGI.       P. RASMUSSEN:   RECORDING ENGINEER
 WITN.          G. STRONG:   WITNESSED BY
 CLNT.            A2DTECH:   CLIENT CODE
 ORIG.           5" PRINT:   ORIGIN OF DATA
 UWI .       490252257100:   UNIQUE WELL ID
 DICO. A2D Technologies, Inc.:   DIGITIZING COMPANY
~OTHER INFORMATION
~A    DEPT      GRR      RILD       RILM       PORZ       ZCOR       ZDEN       NPHI        C13   
# ...
  364.5000   105.4441    17.2047    17.2388     0.1674     0.0005     2.3591     0.2623     8.1228
  365.0000   104.5248    16.9599    17.1142     0.1632     0.0035     2.3681     0.2614     8.1371
  365.5000   104.5069    16.8362    16.8619     0.1617     0.0049     2.3778     0.2614     8.1359
  366.0000   105.3975    16.4835    16.6343     0.1640     0.0048     2.3831     0.2602     8.1500
  366.5000   107.1931    16.2503    16.5141     0.1678     0.0003     2.3785     0.2591     8.1640
  367.0000   107.7857    16.0202    16.3947     0.1681    -0.0058     2.3747     0.2576     8.1628
  367.5000   106.8577    15.9020    16.1638     0.1666    -0.0104     2.3731     0.2558     8.1618
  368.0000   102.3200    15.6771    15.9273     0.1636    -0.0104     2.3776     0.2555     8.1608
  368.5000   101.1026    15.5627    15.6022     0.1606    -0.0060     2.3828     0.2555     8.1598
  369.0000   101.9897    15.4492    15.3825     0.1576    -0.0030     2.3858     0.2555     8.1586
  369.5000   102.2775    15.3363    15.1659     0.1564    -0.0001     2.3895     0.2550     8.1577
  370.0000   102.2424    15.1181    14.9523     0.1549    -0.0002     2.3925     0.2544     8.1566
  370.5000   100.1332    14.9043    14.6336     0.1516    -0.0017     2.3992     0.2541     8.1556
  371.0000   101.0238    14.6935    14.3332     0.1471    -0.0018     2.4059     0.2541     8.1393
  371.5000   102.8194    14.5863    14.2295     0.1426    -0.0018     2.4127     0.2532     8.1383
  372.0000   102.2018    14.4664    14.1267     0.1402     0.0011     2.4209     0.2538     8.1373
  372.5000   101.5837    14.2737    13.9278     0.1378    -0.0020     2.4223     0.2551     8.1363
  373.0000   101.5662    14.0718    13.7316     0.1375    -0.0050     2.4223     0.2569     8.1200
  373.5000   101.5519    13.7770    13.5372     0.1403    -0.0111     2.4215     0.2569     8.1190
  374.0000   101.5376    13.4884    13.3466     0.1424    -0.0157     2.4162     0.2566     8.1180
  374.5000   104.8415    13.3898    13.2501     0.1406    -0.0112     2.4161     0.2557     8.1170
  375.0000   106.6371    13.2910    13.2458     0.1379    -0.0068     2.4214     0.2567     8.1158
  375.5000   106.6192    13.2857    13.2413     0.1349    -0.0053     2.4273     0.2585     8.1148
  376.0000   106.6049    13.2805    13.2359     0.1370    -0.0054     2.4250     0.2606     8.1138
  376.5000   108.7021    13.2752    13.2316     0.1382    -0.0039     2.4220     0.2609     8.1128
  377.0000   110.1981    13.2576    13.2272     0.1358    -0.0040     2.4249     0.2609     8.1116
  377.5000   111.6865    13.1719    13.2228     0.1319    -0.0025     2.4287     0.2607     8.1106
  378.0000   113.1805    13.1667    13.2185     0.1295    -0.0041     2.4326     0.2625     8.1096
  378.5000   114.3728    13.1615    13.3059     0.1286    -0.0057     2.4384     0.2640     8.1086
  379.0000   114.4052    13.1563    13.3004     0.1278    -0.0133     2.4406     0.2646     8.1074
  379.5000   112.2151    13.1509    13.2960     0.1287    -0.0103     2.4383     0.2643     8.1064
  380.0000   111.9165    13.1445    13.2917     0.1311    -0.0029     2.4351     0.2644     8.0903
  380.5000   112.5055    13.1393    13.2873     0.1320     0.0031     2.4322     0.2641     8.1044
  381.0000   107.9627    13.1342    13.1901     0.1314     0.0045     2.4351     0.2626     8.1184
  381.5000   108.8533    13.0384    13.1858     0.1299     0.0015     2.4366     0.2614     8.1325
  382.0000   111.6179    13.0210    13.0905     0.1281    -0.0016     2.4396     0.2605     8.1313
  382.5000   115.1559    12.7589    12.9958     0.1260    -0.0017     2.4433     0.2596     8.1303
  383.0000   116.9551    12.6658    12.9915     0.1218    -0.0017     2.4492     0.2594     8.1290
  383.5000   117.5405    12.6608    12.8966     0.1176    -0.0018     2.4545     0.2591     8.1280
  384.0000   119.3362    12.5685    12.8033     0.1210    -0.0018     2.4543     0.2600     8.1271
  384.5000   120.5285    12.5633    12.7108     0.1258    -0.0079     2.4423     0.2615     8.1261
  385.0000   119.3039    12.5573    12.6189     0.1279    -0.0170     2.4393     0.2609     8.1248
  385.5000   119.2896    12.4657    12.5277     0.1267    -0.0186     2.4437     0.2588     8.1238
  386.0000   119.8786    12.2894    12.3511     0.1222    -0.0126     2.4506     0.2565     8.1380
  386.5000   120.4676    12.1997    12.2610     0.1189    -0.0052     2.4579     0.2547     8.1369
  387.0000   120.7549    12.1947    12.2569     0.1162    -0.0022     2.4609     0.2538     8.1206
  387.5000   121.3439    12.1889    12.2529     0.1132    -0.0007     2.4639     0.2532     8.1196
  388.0000   121.0243    12.1841    12.3340     0.1148    -0.0053     2.4622     0.2523     8.1186
  388.5000   118.5967    12.1792    12.3298     0.1187    -0.0069     2.4548     0.2511     8.1176
  389.0000   116.1407    12.1744    12.3255     0.1202    -0.0100     2.4510     0.2487     8.1164
  389.5000   113.1346    12.1694    12.2357     0.1205    -0.0115     2.4509     0.2476     8.1154
  390.0000   110.1037    12.1636    12.2317     0.1190    -0.0116     2.4548     0.2489     8.1144
  390.5000   109.4896    12.1588    12.2277     0.1154    -0.0011     2.4644     0.2491     8.1134
  391.0000   113.3933    12.1540    12.1391     0.1099     0.0109     2.4718     0.2473     8.1275
  391.5000   119.8009    12.1492    12.1343     0.1073     0.0198     2.4726     0.2479     8.1262
  392.0000   120.9061    12.0604    12.0465     0.1091     0.0183     2.4664     0.2501     8.1252
  392.5000   117.2682    12.0546    11.9595     0.1128     0.0122     2.4604     0.2525     8.1092
  393.0000   115.7492    11.9666    11.9555     0.1155     0.0091     2.4566     0.2528     8.1079
  393.5000   116.6363    11.8794    11.8690     0.1188     0.0090     2.4551     0.2513     8.1069
  394.0000   116.9673    11.7927    11.7823     0.1188     0.0060     2.4573     0.2510     8.1060
  394.5000   117.8143    11.6258    11.6971     0.1158    -0.0016     2.4610     0.2525     8.1050
  395.0000   118.1016    11.4603    11.5324     0.1098    -0.0062     2.4655     0.2541     8.1190
  395.5000   118.6906    11.3767    11.4491     0.1068    -0.0047     2.4707     0.2559     8.1178
  396.0000   118.9744    11.2158    11.3662     0.1086    -0.0048     2.4714     0.2577     8.1168
  396.5000   119.5597    11.1340    11.2054     0.1104    -0.0049     2.4691     0.2601     8.1158
  397.0000   120.1523    11.0526    11.1244     0.1117    -0.0034     2.4660     0.2617     8.1146
  397.5000   120.4396    10.8954    10.9677     0.1132    -0.0019     2.4622     0.2635     8.1136
  398.0000   120.4217    10.7413    10.8133     0.1126    -0.0005     2.4629     0.2653     8.1126
  398.5000   122.2394    10.5893    10.5818     0.1081     0.0009     2.4674     0.2698     8.1116
  399.0000   124.9143    10.3675    10.3655     0.1060     0.0024     2.4734     0.2756     8.1254
  399.5000   126.7100    10.1502    10.1490     0.1048    -0.0007     2.4778     0.2819     8.1244
  400.0000   129.1089     9.9367     9.9371     0.1030    -0.0038     2.4816     0.2838     8.1387
  400.5000   130.3055     9.7973     9.7972     0.1009    -0.0068     2.4815     0.2859     8.1528
  401.0000   131.1965     9.3947     9.5919     0.1027    -0.0084     2.4808     0.2898     8.1366
  401.5000   132.3922     8.9473     9.3269     0.1028    -0.0069     2.4807     0.2934     8.1358
  402.0000   131.4730     8.4040     8.8214     0.1025    -0.0010     2.4799     0.2991     8.1349
  402.5000   131.7635     7.5718     7.7844     0.1034     0.0020     2.4784     0.3032     8.1339
  403.0000   133.5622     6.9657     6.9657     0.1073     0.0019     2.4715     0.3172     8.1330
  403.5000   138.9781     6.4082     6.3201     0.1194    -0.0012     2.4558     0.3269     8.1322
  404.0000   141.0785     6.0091     5.9720     0.1323     0.0018     2.4354     0.3282     8.1162
  404.5000   141.0673     5.8930     5.7319     0.1297     0.0077     2.4294     0.3013     8.1003
