~VERSION INFORMATION
 VERS.                2.0:   CWLS LOG ASCII STANDARD - VERSION 2.0
 WRAP.                 NO:   ONE LINE PER DEPTH STEP
~WELL INFORMATION
#MNEM.UNIT      DATA TYPE    INFORMATION
#----------   ------------   ------------------------------
 STRT.F           30.0000:   START DEPTH
 STOP.F         2441.0000:   STOP DEPTH
 STEP.F            0.5000:   STEP LENGTH
 NULL.          -999.2500:   NO VALUE
 COMP. FENIX & SCISSON INC:   COMPANY
 WELL.      NPR 3 #81 S-4:   WELL
 FLD .             TEAPOT:   FIELD
 LOC .       S4 T38N R78W:   LOCATION
 CNTY.            NATRONA:   COUNTY
 STAT.            WYOMING:   STATE
 CTRY. UNITED STATES OF AMERICA:   COUNTRY
 SRVC.            Unknown:   SERVICE COMPANY
 DATE.        28-MAR-1978:   LOGDATE
 API .       490251060700:   API NUMBER
~CURVE INFORMATION
#MNEM.UNIT       API CODE    CURVE DESCRIPTION
#----------   ------------   ------------------------------
 DEPT.F                  :   
 CALD.IN     45 280 60 00:   CALIPER
 RHOB.G/C3   45 350 01 00:   BULK DENSITY
 DPHI.DEC    45 890 12 00:   DENSITY POROSITY SANDSTONE
 CORR.G/C3   45 356 01 00:   DENSITY CORRECTION
 GRD .GAPI   45 310 01 00:   GAMMA RAY FROM DENSITY LOG
~PARAMETER INFORMATION
#MNEM.UNIT          VALUE    DESCRIPTION
#----------   ------------   ------------------------------
 PD  .                 GL:   PERMANENT DATUM
 EPD .F              5169:   ELEVATION PERMANENT DATUM
 LMF .                 KB:   LOG MEASURED FROM
 DAPD.F                10:   FEET ABOVE PERMANENT DATUM
 DMF .                 KB:   DRILLING MEASURED FROM
 EKB .F              5179:   KELLING BUSHING
 EGL .F              5169:   GROUND LEVEL
 DATE.          3-28-1978:   RUN DATE
 RUN .                  1:   RUN NUMBER
 DD  .F              2454:   DEPTH DRILLER
 DL  .F              2443:   DEPTH LOGGER
 BLI .F              2441:   BOTTOM LOG INTERVAL
 TLI .F                40:   TOP LOG INTERVAL
 CS  .IN            9.625:   CASING SIZE
 CBD .F               660:   CASING BOTTOM DRILLER
 CBL .F               660:   CASING BOTTOM LOGGER
 BS  .IN             8.75:   BIT SIZE
 BSD .F              2454:   BIT SIZE AT DEPTH
 DFT .           AIR MIST:   DRILLING FLUID TYPE
 TCS .HRS               2:   TIME CURCULATED STOPPED
 LUN .               2958:   LOGGING UNIT NUMBER
 LUL .               CASP:   LOGGING UNIT LOCATION
 ENGI.             MILLER:   RECORDING ENGINEER
 CLNT.            A2DTECH:   CLIENT CODE
 ORIG.       2"  5" PRINT:   ORIGIN OF DATA
 UWI .       490251060700:   UNIQUE WELL ID
 DICO. A2D Technologies, Inc.:   DIGITIZING COMPANY
~OTHER INFORMATION
~A   DEPT     CALD       RHOB       DPHI       CORR        GRD   
# ...
 1128.0000    10.8271     2.5220     0.0767     0.0481   165.7480
 1128.5000    10.8271     2.5202     0.0843     0.0534   165.3690
 1129.0000    10.8271     2.5076     0.0926     0.0476   168.0062
 1129.5000    10.8271     2.5026     0.0931     0.0383   171.0660
 1130.0000    10.8271     2.5034     0.0934     0.0347   171.1291
 1130.5000    10.8271     2.5023     0.0939     0.0368   169.0411
 1131.0000    10.8271     2.5003     0.0954     0.0389   168.3723
 1131.5000    10.8271     2.5007     0.0966     0.0411   167.2239
 1132.0000    10.8271     2.5070     0.0858     0.0454   164.7529
 1132.5000    10.8271     2.5132     0.0826     0.0509   164.0343
 1133.0000    10.8271     2.5166     0.0877     0.0556   170.2464
 1133.5000    10.8271     2.5111     0.0925     0.0511   171.8106
 1134.0000    10.8271     2.5049     0.0950     0.0465   172.0753
 1134.5000    10.8271     2.4987     0.0977     0.0420   171.8822
 1135.0000    10.8271     2.4927     0.1002     0.0375   170.9416
 1135.5000    10.8271     2.4933     0.0995     0.0338   169.4728
 1136.0000    10.8271     2.4979     0.0954     0.0344   168.6436
 1136.5000    10.8271     2.5007     0.0914     0.0367   169.8248
 1137.0000    10.8271     2.5026     0.0948     0.0390   169.1946
 1137.5000    10.8271     2.5031     0.0970     0.0413   167.7259
 1138.0000    10.8271     2.4967     0.0953     0.0425   166.1789
 1138.5000    10.8271     2.5021     0.0919     0.0434   166.1225
 1139.0000    10.8271     2.5098     0.0876     0.0443   168.1483
 1139.5000    10.8271     2.5159     0.0858     0.0452   169.8420
 1140.0000    10.8279     2.5051     0.0904     0.0448   169.5349
 1140.5000    10.8290     2.4922     0.0980     0.0391   170.0220
 1141.0000    10.8301     2.4832     0.1006     0.0343   172.9901
 1141.5000    10.8311     2.4919     0.0988     0.0399   173.0667
 1142.0000    10.8322     2.5016     0.0980     0.0456   173.1398
 1142.5000    10.8332     2.4966     0.0988     0.0411   175.0907
 1143.0000    10.8343     2.4980     0.0866     0.0417   177.0235
 1143.5000    10.8353     2.5076     0.0921     0.0448   178.9162
 1144.0000    10.8364     2.5068     0.0954     0.0479   179.9274
 1144.5000    10.8375     2.5013     0.0882     0.0444   171.3953
 1145.0000    10.8385     2.5105     0.0946     0.0461   165.5164
 1145.5000    10.8396     2.5179     0.0782     0.0461   164.4039
 1146.0000    10.8406     2.5049     0.0932     0.0374   167.7419
 1146.5000    10.8417     2.4922     0.1015     0.0277   169.3666
 1147.0000    10.8427     2.4792     0.1050     0.0181   169.3786
 1147.5000    10.8438     2.4759     0.1070     0.0117   170.7628
 1148.0000    10.8449     2.4936     0.0988     0.0210   172.5299
 1148.5000    10.8459     2.5002     0.0923     0.0323   174.3246
 1149.0000    10.8470     2.5050     0.0875     0.0438   174.9377
 1149.5000    10.8484     2.5154     0.0822     0.0517   175.0174
 1150.0000    10.8499     2.5192     0.0869     0.0555   176.3059
 1150.5000    10.8513     2.5124     0.0932     0.0593   177.5908
 1151.0000    10.8528     2.5056     0.0950     0.0630   178.9078
 1151.5000    10.8542     2.5064     0.0962     0.0664   177.0592
 1152.0000    10.8556     2.5018     0.0964     0.0697   174.5387
 1152.5000    10.8571     2.4914     0.0998     0.0719   171.9983
 1153.0000    10.8585     2.4897     0.1005     0.0718   170.3971
 1153.5000    10.8600     2.4958     0.0981     0.0731   169.3770
 1154.0000    10.8614     2.5022     0.0958     0.0747   168.3693
 1154.5000    10.8629     2.5022     0.0975     0.0756   167.6735
 1155.0000    10.8644     2.4913     0.1001     0.0697   167.3656
 1155.5000    10.8657     2.4837     0.1014     0.0636   167.0551
 1156.0000    10.8586     2.4916     0.0949     0.0604   168.5957
 1156.5000    10.8307     2.4997     0.0917     0.0610   171.6896
 1157.0000    10.8000     2.5013     0.0985     0.0622   174.7796
 1157.5000    10.7538     2.4907     0.1026     0.0633   175.8168
 1158.0000    10.7070     2.4994     0.0919     0.0694   174.6080
 1158.5000    10.6799     2.5162     0.0835     0.0796   173.3454
 1159.0000    10.6653     2.5207     0.0837     0.0873   174.3287
 1159.5000    10.6509     2.5282     0.0759     0.0934   172.1375
 1160.0000    10.6365     2.5267     0.0867     0.0996   166.4789
 1160.5000    10.6288     2.5180     0.0833     0.1024   160.7814
 1161.0000    10.6289     2.5113     0.0797     0.1035   159.0694
 1161.5000    10.6289     2.5156     0.0862     0.1022   164.2044
 1162.0000    10.6220     2.5083     0.0937     0.0970   168.6090
 1162.5000    10.6088     2.4966     0.0974     0.0912   170.2970
 1163.0000    10.5956     2.5134     0.0804     0.0901   168.4258
 1163.5000    10.5824     2.5373     0.0643     0.0929   166.5178
 1164.0000    10.5699     2.5350     0.0838     0.0957   164.5952
 1164.5000    10.5625     2.5372     0.0687     0.0946   163.7548
 1165.0000    10.5542     2.5429     0.0769     0.0939   163.1755
 1165.5000    10.5458     2.5230     0.0854     0.0833   161.1204
 1166.0000    10.5374     2.5164     0.0855     0.0657   158.1941
 1166.5000    10.5301     2.5220     0.0780     0.0496   155.5069
 1167.0000    10.5184     2.5352     0.0699     0.0438   158.4969
 1167.5000    10.5058     2.5423     0.0694     0.0439   162.8652
 1168.0000    10.4932     2.5470     0.0652     0.0466   163.4819
 1168.5000    10.4806     2.5583     0.0592     0.0583   160.6319
 1169.0000    10.4704     2.5441     0.0761     0.0617   159.0458
 1169.5000    10.4729     2.5223     0.0867     0.0423   160.5322
 1170.0000    10.4753     2.5085     0.0888     0.0228   162.3809
 1170.5000    10.4776     2.4993     0.0910     0.0078   162.3015
 1171.0000    10.4798     2.5075     0.0899     0.0023   159.6293
 1171.5000    10.4822     2.5207     0.0775    -0.0036   157.9726
 1172.0000    10.4844     2.6207     0.0649    -0.0105   160.2533
 1172.5000    10.4867     2.7271     0.0475     0.0253   165.2105
 1173.0000    10.4890     2.6195     0.0590     0.0720   165.4793
 1173.5000    10.4913     2.5579     0.0738     0.0573   165.4646
 1174.0000    10.4936     2.5306     0.0780     0.0511   164.6691
 1174.5000    10.4959     2.5148     0.0794     0.0340   159.0368
 1175.0000    10.4982     2.5299     0.0669     0.0411   152.5766
 1175.5000    10.5005     2.5415     0.0826     0.0496   152.8638
 1176.0000    10.5028     2.5322     0.0689     0.0442   156.2044
 1176.5000    10.5051     2.5242     0.0810     0.0363   158.9389
 1177.0000    10.5073     2.5244     0.0807     0.0360   161.5362
 1177.5000    10.5093     2.5264     0.0772     0.0368   163.3556
 1178.0000    10.5220     2.5358     0.0719     0.0377   162.9340
 1178.5000    10.5357     2.5270     0.0870     0.0333   158.3030
 1179.0000    10.5493     2.5163     0.0890     0.0257   153.7439
 1179.5000    10.5630     2.5108     0.0934     0.0145   149.1443
 1180.0000    10.5766     2.5126     0.0934     0.0043   147.2178
 1180.5000    10.5903     2.5167     0.0854    -0.0001   147.8031
 1181.0000    10.6038     2.5104     0.0946    -0.0032   148.6938
 1181.5000    10.6226     2.5035     0.0970    -0.0061   148.5831
 1182.0000    10.6442     2.4969     0.0994    -0.0043   148.3552
 1182.5000    10.6658     2.4967     0.0984     0.0012   148.1492
 1183.0000    10.6693     2.5082     0.0881     0.0068   148.4770
 1183.5000    10.6701     2.5208     0.0777     0.0137   150.8529
 1184.0000    10.6708     2.5333     0.0736     0.0238   154.8329
 1184.5000    10.6716     2.5364     0.0727     0.0300   156.6730
 1185.0000    10.6725     2.5325     0.0858     0.0285   156.0914
 1185.5000    10.6733     2.5179     0.0814     0.0270   155.4120
 1186.0000    10.6741     2.5255     0.0743     0.0257   155.1364
 1186.5000    10.6749     2.5378     0.0719     0.0347   155.1318
 1187.0000    10.6757     2.5236     0.0772     0.0450   155.1395
 1187.5000    10.6765     2.5011     0.0794     0.0371   155.1920
 1188.0000    10.6774     2.4967     0.0792     0.0298   153.0711
 1188.5000    10.6782     2.5136     0.0869     0.0337   150.6240
