~VERSION INFORMATION
 VERS.                2.0:   CWLS LOG ASCII STANDARD - VERSION 2.0
 WRAP.                 NO:   ONE LINE PER DEPTH STEP
~WELL INFORMATION
#MNEM.UNIT      DATA TYPE    INFORMATION
#----------   ------------   ------------------------------
 STRT.F           20.0000:   START DEPTH
 STOP.F          508.0000:   STOP DEPTH
 STEP.F            0.5000:   STEP LENGTH
 NULL.          -999.2500:   NO VALUE
 COMP. FENIX & SCISSON INC:   COMPANY
 WELL.      NPR #3 #45-10:   WELL
 FLD .             TEAPOT:   FIELD
 LOC .      S10 T38N R78W:   LOCATION
 CNTY.            NATRONA:   COUNTY
 STAT.            WYOMING:   STATE
 CTRY. UNITED STATES OF AMERICA:   COUNTRY
 SRVC.              Welex:   SERVICE COMPANY
 DATE.        09-MAY-1980:   LOGDATE
 API .       490251081000:   API NUMBER
~CURVE INFORMATION
#MNEM.UNIT       API CODE    CURVE DESCRIPTION
#----------   ------------   ------------------------------
 DEPT.F                  :   
 SPR .MV     07 010 01 00:   SPONTANEOUS POTENTIAL
 SGRD.OHMM   07 220 05 00:   SHALLOW GUARD RESISTIVITY
 ILD .OHMM   07 120 46 00:   INDUCTION LOG DEEP RESISTIVITY
 ILM .OHMM   07 120 44 00:   INDUCTION LOG MEDIUM
 GRD .GAPI   45 310 01 00:   GAMMA RAY FROM DENSITY LOG
 CALD.IN     45 280 60 00:   CALIPER
 CORR.G/C3   45 356 01 00:   DENSITY CORRECTION
 RHOB.G/C3   45 350 01 00:   BULK DENSITY
 DPHI.DEC    45 890 12 00:   DENSITY POROSITY SANDSTONE
~PARAMETER INFORMATION
#MNEM.UNIT          VALUE    DESCRIPTION
#----------   ------------   ------------------------------
 PD  .                 GL:   PERMANENT DATUM
 EPD .F              5228:   ELEVATION PERMANENT DATUM
 LMF .                 KB:   LOG MEASURED FROM
 DAPD.F                 5:   FEET ABOVE PERMANENT DATUM
 DMF .                 KB:   DRILLING MEASURED FROM
 EKB .F              5233:   KELLING BUSHING
 EGL .F              5228:   GROUND LEVEL
 DATE.             5-9-80:   RUN DATE
 RUN .                  1:   RUN NUMBER
 DD  .F               507:   DEPTH DRILLER
 DL  .F               510:   DEPTH LOGGER
 BLI .F               508:   BOTTOM LOG INTERVAL
 TLI .F                20:   TOP LOG INTERVAL
 BS  .IN            7.875:   BIT SIZE
 BSD .F               507:   BIT SIZE AT DEPTH
 DFT .                KCL:   DRILLING FLUID TYPE
 DFD .                8.9:   DRILLING FLUID DENSITY
 DFV .                 42:   DRILLING FLUID VISCOSITY
 MSS .                PIT:   MUD SAMPLE SOURCE
 RMS .OHMM            .36:   RESISTIVITY MUD SAMPLE
 MST .F                75:   MUD SAMPLE TEMPERATURE
 RMF .OHMM            .29:   RESISTIVITY MUD FILTRATE SAMPLE
 MFST.F                75:   MUD FILTRATE SAMPLE TEMPERATURE
 RMC .OHMM            .43:   RESISTIVITY MUD CAKE
 MCST.F                75:   MUD CAKE SAMPLE TEMPERATURE
 MFSS.           MEASURED:   MUD FILTRATE SAMPLE SOURCE
 MCSS.           MEASURED:   MUD CAKE SAMPLE SOURCE
 TCS .HRS               2:   TIME CURCULATED STOPPED
 MRT .F               100:   MAXIMUM RECORDED TEMPERATURE
 LUN .               9685:   LOGGING UNIT NUMBER
 LUL .             CASPER:   LOGGING UNIT LOCATION
 ENGI.            TOTHILL:   RECORDING ENGINEER
 WITN.           DINSMORE:   WITNESSED BY
 CLNT.            A2DTECH:   CLIENT CODE
 ORIG.         2.5" PRINT:   ORIGIN OF DATA
 UWI .       490251081000:   UNIQUE WELL ID
 DICO. A2D Technologies, Inc.:   DIGITIZING COMPANY
~OTHER INFORMATION
~A   DEPT      SPR       SGRD        ILD        ILM         GRD        CALD       CORR       RHOB       DPHI 
# ...
  275.5000   -45.9852     7.1359     5.6758     6.4710   112.8082     7.9096     0.0225     2.4613     0.1285
  276.0000   -45.4315     7.1359     5.6642     6.4527   112.7697     7.9688     0.0305     2.4694     0.1232
  276.5000   -45.2568     7.1359     5.6526     6.4348   113.1661     7.9889     0.0240     2.4731     0.1193
  277.0000   -45.5787     7.1359     5.6409     6.4170   113.8317     7.9881     0.0172     2.4609     0.1251
  277.5000   -45.8720     7.1765     5.6294     6.3992   114.1511     7.9878     0.0159     2.4615     0.1289
  278.0000   -46.2236     7.2144     5.6177     6.3813   114.5298     7.9882     0.0183     2.4672     0.1258
  278.5000   -46.4510     7.2524     5.6052     6.3636   114.9177     7.9881     0.0163     2.4590     0.1279
  279.0000   -46.5366     7.2697     5.5807     6.3457   115.3047     7.9882     0.0067     2.4516     0.1320
  279.5000   -46.6354     7.2200     5.5542     6.3284   115.7041     7.9883    -0.0019     2.4368     0.1387
  280.0000   -46.7685     7.1774     5.5279     6.3108   115.8438     7.9868    -0.0110     2.4222     0.1502
  280.5000   -46.5596     7.1359     5.5016     6.2932   115.9691     7.9896    -0.0014     2.4145     0.1587
  281.0000   -46.0692     7.1359     5.4752     6.2757   116.1210     7.9882     0.0131     2.4274     0.1493
  281.5000   -45.6188     7.1359     5.4489     6.2661   116.2815     7.9819     0.0262     2.4351     0.1435
  282.0000   -45.2190     7.1359     5.4229     6.1464   116.4346     8.0048     0.0184     2.4325     0.1463
  282.5000   -45.3698     7.1359     5.3997     6.0355   116.2695     7.8688     0.0151     2.4209     0.1507
  283.0000   -45.4528     6.6745     5.2402     5.9266   115.5559     7.9012     0.0146     2.4106     0.1550
  283.5000   -46.2325     5.9684     5.1002     5.8203   114.8513     7.9561     0.0209     2.4165     0.1586
  284.0000   -46.8842     6.0537     4.9628     5.7113   114.1160     7.9847     0.0330     2.4333     0.1460
  284.5000   -46.9366     6.2268     4.8291     5.6743   113.4094     7.9616     0.0447     2.4447     0.1369
  285.0000   -47.0318     6.4051     4.6989     5.6361   112.8433     7.9497     0.0461     2.4529     0.1366
  285.5000   -47.1616     6.6263     4.5723     5.5424   113.1738     7.9793     0.0444     2.4492     0.1364
  286.0000   -47.0913     6.4247     4.4491     5.2551   113.4619     7.9856     0.0424     2.4649     0.1324
  286.5000   -46.8822     5.9286     4.3292     4.9828   113.7993     7.9398     0.0410     2.4655     0.1266
  287.0000   -46.5232     4.5019     4.2125     4.7398   113.8085     7.8726     0.0398     2.4695     0.1247
  287.5000   -45.9972     3.5897     4.0880     4.7444   113.0052     7.9082     0.0447     2.4753     0.1223
  288.0000   -45.2813     4.4443     4.1312     4.8814   112.2550     7.9488     0.0498     2.4757     0.1199
  288.5000   -44.9768     5.6315     4.2171     5.0376   111.6286     7.9803     0.0354     2.4653     0.1230
  289.0000   -45.7059     6.2958     4.3048     5.1989   111.9037     7.9468     0.0126     2.4341     0.1274
  289.5000   -46.3400     6.3502     4.3944     5.3656   112.1412     7.9582    -0.0036     2.4074     0.1554
  290.0000   -46.7420     6.4051     4.4858     5.5037   112.4097     7.9617    -0.0180     2.3896     0.1680
  290.5000   -46.6102     6.4884     4.5791     5.5827   112.6600     7.9662    -0.0266     2.3741     0.1755
  291.0000   -46.4796     6.4491     4.6743     5.6497   113.3010     7.9721    -0.0286     2.3649     0.1831
  291.5000   -46.3408     6.1570     4.7730     5.7145   114.5332     7.9767    -0.0149     2.3566     0.1901
  292.0000   -46.2051     6.2356     4.8726     5.8175   114.0352     7.9818     0.0027     2.3796     0.1852
  292.5000   -46.0715     6.3660     4.9241     5.7338   113.4343     7.9869     0.0121     2.3897     0.1700
  293.0000   -45.8795     6.5013     4.7868     5.5665   112.8061     7.9919     0.0112     2.3984     0.1716
  293.5000   -45.6447     6.6220     4.5988     5.4042   112.2444     7.9970     0.0236     2.4117     0.1615
  294.0000   -45.6302     6.3380     4.4182     5.1965   111.9315     8.0020     0.0214     2.4253     0.1506
  294.5000   -46.2738     6.0393     4.2448     4.9094   110.8281     8.0070     0.0127     2.4310     0.1455
  295.0000   -46.6660     4.4710     4.0764     4.6324   109.7786     8.0121     0.0049     2.4264     0.1472
  295.5000   -47.1735     2.9223     3.9514     4.2475   108.6881     8.0173    -0.0042     2.4185     0.1536
  296.0000   -47.0240     3.9780     4.0094     4.3488   107.6064     8.0219     0.0006     2.4240     0.1507
  296.5000   -46.6344     5.8368     4.0682     4.6226   106.7377     8.0276     0.0077     2.4329     0.1446
  297.0000   -46.2261     6.5037     4.1279     4.9141   106.5902     8.0225     0.0115     2.4262     0.1475
  297.5000   -45.8414     6.3282     4.1885     5.1246   106.4408     8.0158     0.0105     2.4309     0.1453
  298.0000   -45.4351     6.3868     4.2427     5.2972   106.2918     8.0088     0.0164     2.4391     0.1425
  298.5000   -44.9651     4.9243     4.3446     5.4753   106.1207     8.0016     0.0251     2.4319     0.1450
  299.0000   -44.3991     5.9486     4.4891     5.6585   105.2463     7.9952     0.0275     2.4364     0.1425
  299.5000   -43.8001     6.5032     4.6384     5.8471   104.3007     7.9888     0.0305     2.4300     0.1450
  300.0000   -43.5556     6.3836     4.7926     5.9266   103.3105     7.9999     0.0221     2.4253     0.1483
  300.5000   -43.5734     6.4655     4.9520     5.9266   103.2836     8.0115     0.0128     2.4144     0.1554
  301.0000   -43.5703     6.6251     5.0244     5.9266   103.7199     8.0240     0.0036     2.4021     0.1627
  301.5000   -43.3444     6.4978     5.0696     5.9266   104.1500     8.0359    -0.0043     2.3962     0.1658
  302.0000   -43.0701     6.3836     5.1151     5.9266   104.5798     8.0481     0.0040     2.4048     0.1628
  302.5000   -42.7894     6.2661     5.1611     5.9266   104.9175     8.0611     0.0081     2.4191     0.1491
  303.0000   -42.5108     6.2661     5.2077     5.9266   104.8919     8.0690     0.0103     2.4220     0.1514
  303.5000   -42.2338     6.2661     5.2541     5.9266   103.7688     8.0682    -0.0031     2.4084     0.1580
  304.0000   -41.9589     6.2864     5.3009     5.9266   102.5452     8.0683    -0.0176     2.3924     0.1644
  304.5000   -41.6766     6.3160     5.3482     5.9266   101.2861     8.0684    -0.0318     2.3708     0.1781
  305.0000   -41.4086     6.3457     5.4029     5.9266   100.1024     8.0683    -0.0441     2.3515     0.1916
  305.5000   -41.1712     6.3756     5.3999     5.9266    99.1385     8.0683    -0.0318     2.3420     0.1998
  306.0000   -41.5319     6.4056     5.3268     5.9266    98.1952     8.0683    -0.0207     2.3550     0.1966
  306.5000   -42.0485     6.4358     5.2631     5.9266    97.2809     8.0683    -0.0082     2.3640     0.1904
  307.0000   -42.5504     6.4661     5.2007     5.9116    96.4830     8.0683     0.0047     2.3738     0.1841
  307.5000   -43.0546     6.4966     5.1382     5.8684    96.5774     8.0685     0.0100     2.3773     0.1781
  308.0000   -42.9462     6.2684     5.0765     5.8260    96.9506     8.0683     0.0095     2.3698     0.1845
  308.5000   -42.6370     5.9808     5.0155     5.7846    96.6494     8.0683     0.0202     2.3753     0.1824
  309.0000   -42.3208     5.8175     4.9553     5.7434    95.2811     8.0692     0.0296     2.3815     0.1779
  309.5000   -41.9824     5.9471     4.8958     5.7113    94.5832     8.0589     0.0473     2.3933     0.1740
  310.0000   -41.2818     6.0775     4.8370     5.7614    94.0434     8.0352     0.0736     2.4115     0.1600
  310.5000   -40.3872     6.2107     4.7789     5.8207    92.2489     8.0125     0.0842     2.4130     0.1547
  311.0000   -39.7169     6.3468     4.7216     5.9125    90.2740     7.9881     0.0682     2.4019     0.1622
  311.5000   -39.2035     6.5032     4.6649     5.8404    87.1602     7.9520     0.0492     2.3921     0.1685
