~VERSION INFORMATION
 VERS.                2.0:   CWLS LOG ASCII STANDARD - VERSION 2.0
 WRAP.                 NO:   ONE LINE PER DEPTH STEP
~WELL INFORMATION
#MNEM.UNIT      DATA TYPE    INFORMATION
#----------   ------------   ------------------------------
 STRT.F            0.0000:   START DEPTH
 STOP.F          562.0000:   STOP DEPTH
 STEP.F            0.1000:   STEP LENGTH
 NULL.          -999.2500:   NO VALUE
 COMP. BROWN JOHN E&C INC:   COMPANY
 WELL.    73-1 SX-3 #73-3:   WELL
 FLD .             TEAPOT:   FIELD
 LOC .       S3 T38N R78W:   LOCATION
 CNTY.            NATRONA:   COUNTY
 STAT.            WYOMING:   STATE
 CTRY. UNITED STATES OF AMERICA:   COUNTRY
 SRVC.      Western Atlas:   SERVICE COMPANY
 DATE.        23-APR-1992:   LOGDATE
 API .       490252251200:   API NUMBER
~CURVE INFORMATION
#MNEM.UNIT       API CODE    CURVE DESCRIPTION
#----------   ------------   ------------------------------
 DEPT.F                  :   
 GRR .GAPI   07 310 01 00:   GAMMA RAY
 RILD.OHMM   07 120 46 00:   INDUCTION LOG DEEP RESISTIVITY
 RILM.OHMM   07 120 44 00:   INDUCTION LOG MEDIUM RESISTIVITY
 CILD.MMHO   07 110 46 00:   CONDUCTIVITY INDUCTION LOG DEEP
~PARAMETER INFORMATION
#MNEM.UNIT          VALUE    DESCRIPTION
#----------   ------------   ------------------------------
 PD  .                 GL:   PERMANENT DATUM
 EPD .F              5164:   ELEVATION PERMANENT DATUM
 LMF .                 KB:   LOG MEASURED FROM
 DAPD.F                 5:   FEET ABOVE PERMANENT DATUM
 DMF .                 KB:   DRILLING MEASURED FROM
 EKB .F              5169:   KELLING BUSHING
 EDF .F              5168:   DRILLING FLOOR
 EGL .F              5164:   GROUND LEVEL
 DATE.        23-APR-1992:   RUN DATE
 RUN .                  1:   RUN NUMBER
 DD  .F               561:   DEPTH DRILLER
 DL  .F               564:   DEPTH LOGGER
 BLI .F               562:   BOTTOM LOG INTERVAL
 CS  .IN            8.625:   CASING SIZE
 CBD .F                48:   CASING BOTTOM DRILLER
 CBL .F                49:   CASING BOTTOM LOGGER
 BS  .IN            7.875:   BIT SIZE
 BSD .F               561:   BIT SIZE AT DEPTH
 DFT .                AIR:   DRILLING FLUID TYPE
 TCS .HRS               2:   TIME CURCULATED STOPPED
 LUN .           HL- 6272:   LOGGING UNIT NUMBER
 LUL .             CASPER:   LOGGING UNIT LOCATION
 ENGI.            LEBSOCK:   RECORDING ENGINEER
 WITN.        GARY STRONG:   WITNESSED BY
 CLNT.            A2DTECH:   CLIENT CODE
 ORIG.       2", 5" PRINT:   ORIGIN OF DATA
 UWI .       490252251200:   UNIQUE WELL ID
 DICO. A2D Technologies, Inc.:   DIGITIZING COMPANY
~OTHER INFORMATION
~A    DEPT      GRR      RILD       RILM       CILD   
# ...
  277.4000   127.1390     7.0939     7.1236   144.2865
  277.5000   128.1160     7.0938     7.0889   144.7727
  277.6000   128.5115     7.0937     7.0885   145.2588
  277.7000   128.6200     7.0936     7.0518   145.6661
  277.8000   128.6194     7.0935     7.0387   145.9124
  277.9000   128.6004     7.0934     7.0384   146.1588
  278.0000   128.3150     7.0933     7.0380   146.4051
  278.1000   128.3145     7.0932     7.0378   146.6515
  278.2000   128.3140     7.0931     7.0375   146.8979
  278.3000   128.3134     7.0930     7.0372   147.1534
  278.4000   128.3127     7.0929     7.0369   147.6396
  278.5000   128.3120     7.0928     7.0366   148.1258
  278.6000   128.3115     7.0719     7.0363   148.6640
  278.7000   128.1554     7.0318     7.0360   148.8840
  278.8000   128.0073     6.9919     7.0357   149.1303
  278.9000   128.0067     6.9455     7.0354   149.3766
  279.0000   128.0060     6.9454     7.0351   149.6229
  279.1000   128.0055     6.9218     7.0349   149.8692
  279.2000   128.1705     6.8826     7.0345   150.1155
  279.3000   128.6284     6.8436     7.0342   150.5060
  279.4000   129.3611     6.8011     7.0079   150.9921
  279.5000   130.1242     6.7662     6.9681   151.4783
  279.6000   131.0610     6.7278     6.9211   151.8551
  279.7000   131.8622     6.7066     6.8395   152.1015
  279.8000   132.7122     6.6983     6.8023   152.3479
  279.9000   133.6311     6.6598     6.7636   152.5198
  280.0000   134.3636     6.6227     6.7065   152.5264
  280.1000   134.6074     6.5852     6.6403   152.5330
  280.2000   135.0372     6.5478     6.6026   152.6583
  280.3000   135.3982     6.5215     6.5651   153.3843
  280.4000   135.5046     6.5191     6.4985   154.1103
  280.5000   135.2497     6.4759     6.4660   154.8315
  280.6000   134.6629     6.4454     6.4537   155.3175
  280.7000   134.4664     6.4089     6.4205   155.8036
  280.8000   134.2215     6.3726     6.4202   156.3508
  280.9000   133.8189     6.3264     6.3886   156.9853
  281.0000   133.0643     6.2100     6.3297   157.7112
  281.1000   131.9326     6.1463     6.2865   158.4371
  281.2000   130.4898     6.0769     6.2802   159.3377
  281.3000   129.3678     6.0083     6.2422   160.3031
  281.4000   128.3668     5.9477     6.2090   161.2686
  281.5000   126.9607     5.9135     6.1738   162.2343
  281.6000   125.8690     5.8804     6.1386   163.2001
  281.7000   125.2199     5.8471     6.1036   164.1659
  281.8000   124.8012     5.8140     6.0684   165.3415
  281.9000   124.5562     5.7811     5.9327   166.7864
  282.0000   124.3516     5.7483     5.8250   168.2313
  282.1000   124.6539     5.7103     5.7440   169.8864
  282.2000   125.3319     5.6833     5.6693   172.0510
  282.3000   126.3999     5.6318     5.5735   174.2156
  282.4000   127.6216     5.5800     5.4646   176.3450
  282.5000   128.7932     5.5438     5.4127   178.2695
  282.6000   129.8024     5.4758     5.3332   180.1939
  282.7000   130.5107     5.3916     5.2432   182.1187
  282.8000   130.8881     5.2804     5.1629   184.2833
  282.9000   131.1320     5.2012     5.1310   186.4480
  283.0000   131.4364     5.1589     5.0521   188.9244
  283.1000   131.9206     5.0709     5.0050   190.7774
  283.2000   131.9200     5.0424     4.9891   192.9423
  283.3000   132.1073     4.9924     4.9829   195.1071
  283.4000   132.2218     4.9657     4.9540   197.6123
  283.5000   132.1505     4.9572     4.8991   200.2557
  283.6000   131.8931     4.9310     4.8850   202.8992
  283.7000   131.3108     4.9309     4.9135   204.3235
  283.8000   130.9144     4.9308     4.9612   204.8095
  283.9000   130.2853     4.9308     4.9877   205.2955
  284.0000   129.6321     4.9307     4.9874   205.4802
  284.1000   129.0984     4.9306     5.0105   205.2470
  284.2000   127.9745     4.9306     5.0387   205.0138
  284.3000   126.7252     4.9562     5.0774   204.7807
  284.4000   125.5569     4.9649     5.1313   204.5475
  284.5000   124.5787     4.9649     5.1634   204.3144
  284.6000   123.5360     4.9648     5.2420   204.1111
  284.7000   121.9109     4.9647     5.2919   204.1186
  284.8000   120.6011     4.9647     5.3346   204.1252
  284.9000   119.2936     4.9646     5.3950   204.1319
  285.0000   118.0708     4.9646     5.4587   203.4312
  285.1000   117.0600     4.9645     5.5182   202.7184
  285.2000   117.0594     4.9664     5.5578   201.8902
  285.3000   117.0588     4.9991     5.5891   201.4939
  285.4000   117.0582     5.0230     5.6290   201.0211
  285.5000   117.7240     5.0515     5.6918   200.5483
  285.6000   119.1905     5.0692     5.7240   199.9096
  285.7000   120.6927     5.0734     5.7562   199.1970
  285.8000   121.8845     5.1045     5.8073   198.4845
  285.9000   123.1060     5.1311     5.8620   197.7718
  286.0000   124.2060     5.1805     5.8950   197.0591
  286.1000   124.9954     5.2259     5.9327   196.3463
  286.2000   125.2393     5.2555     5.9911   195.6336
  286.3000   125.4831     5.2853     6.0373   194.9210
  286.4000   125.7268     5.3455     6.0852   194.2084
  286.5000   125.8394     5.4064     6.1541   193.3122
  286.6000   125.8388     5.4680     6.2284   191.8802
  286.7000   125.8382     5.5400     6.2613   190.4481
  286.8000   125.8375     5.6324     6.3472   188.9105
  286.9000   125.6369     5.7065     6.4210   186.5190
  287.0000   125.6748     5.7893     6.4748   184.1276
  287.1000   125.8358     5.8474     6.5848   181.6528
  287.2000   125.8351     5.9065     6.6219   179.5769
  287.3000   125.8345     6.0023     6.6886   177.4261
  287.4000   125.8339     6.0759     6.7437   174.8862
  287.5000   125.9848     6.1399     6.7816   172.7312
  287.6000   126.3216     6.2344     6.8198   170.1001
  287.7000   126.8101     6.3413     6.8643   167.4691
  287.8000   127.3466     6.4413     6.8969   165.3233
  287.9000   127.7864     6.5147     6.9358   163.4122
  288.0000   128.1131     6.5889     6.9749   161.5011
  288.1000   128.5629     6.6349     7.0084   159.5897
  288.2000   129.2514     6.6931     7.0081   157.6778
  288.3000   129.7678     6.7693     7.0807   155.7660
  288.4000   130.6889     6.8433     7.1335   154.0381
  288.5000   131.6660     6.8879     7.1555   152.6064
  288.6000   132.7560     6.9546     7.1639   151.1747
  288.7000   133.9773     7.0338     7.2049   149.9134
  288.8000   135.2194     7.0826     7.2853   149.2007
  288.9000   136.4209     7.0888     7.3367   148.4879
  289.0000   137.4607     7.1320     7.3564   147.7973
  289.1000   138.5607     7.1319     7.3680   147.3244
  289.2000   139.5885     7.1601     7.4073   146.8515
  289.3000   140.0710     7.2007     7.4069   146.3531
  289.4000   140.3147     7.2319     7.4759   145.6788
  289.5000   140.3667     7.2317     7.5355   144.9660
  289.6000   140.0992     7.2316     7.5627   144.1114
  289.7000   139.5351     7.2315     7.5625   143.9246
  289.8000   138.7528     7.2315     7.5621   143.6914
  289.9000   137.0308     7.2313     7.5618   143.4582
  290.0000   136.2221     7.2312     7.5615   142.9105
  290.1000   134.9569     7.2311     7.5794   142.1979
  290.2000   133.7443     7.2660     7.6138   141.4854
  290.3000   132.9310     7.2815     7.6134   141.1397
  290.4000   131.2702     7.2815     7.6131   141.1463
  290.5000   129.9970     7.2880     7.6128   141.1529
  290.6000   127.4557     7.3322     7.6125   141.0722
  290.7000   125.3210     7.3321     7.6122   140.8390
  290.8000   124.9042     7.3612     7.6119   140.6059
  290.9000   124.9036     7.4030     7.6116   140.2677
  291.0000   124.9030     7.4449     7.6112   139.5551
  291.1000   125.0660     7.4868     7.6109   138.8425
  291.2000   125.2049     7.4867     7.6106   138.1650
  291.3000   125.2971     7.4866     7.6102   137.9318
  291.4000   125.8097     7.5098     7.6099   137.6986
  291.5000   126.9709     7.5388     7.6096   137.4486
  291.6000   128.3662     7.5387     7.6092   137.2322
  291.7000   130.0622     7.5386     7.6090   136.9990
  291.8000   131.5083     7.5385     7.6337   136.7658
  291.9000   131.2612     7.5384     7.6767   136.5327
