~VERSION INFORMATION
 VERS.                2.0:   CWLS LOG ASCII STANDARD - VERSION 2.0
 WRAP.                 NO:   ONE LINE PER DEPTH STEP
~WELL INFORMATION
#MNEM.UNIT      DATA TYPE    INFORMATION
#----------   ------------   ------------------------------
 STRT.F            0.0000:   START DEPTH
 STOP.F          596.0000:   STOP DEPTH
 STEP.F            0.1000:   STEP LENGTH
 NULL.          -999.2500:   NO VALUE
 COMP. BROWN JOHN E&C INC:   COMPANY
 WELL.    72-5 SX-3 #72-3:   WELL
 FLD .             TEAPOT:   FIELD
 LOC .       S3 T38N R78W:   LOCATION
 CNTY.            NATRONA:   COUNTY
 STAT.            WYOMING:   STATE
 CTRY. UNITED STATES OF AMERICA:   COUNTRY
 SRVC.      Western Atlas:   SERVICE COMPANY
 DATE.        15-APR-1992:   LOGDATE
 API .       490252250900:   API NUMBER
~CURVE INFORMATION
#MNEM.UNIT       API CODE    CURVE DESCRIPTION
#----------   ------------   ------------------------------
 DEPT.F                  :   
 GRR .GAPI   07 310 01 00:   GAMMA RAY
 RILD.OHMM   07 120 46 00:   INDUCTION LOG DEEP RESISTIVITY
 RILM.OHMM   07 120 44 00:   INDUCTION LOG MEDIUM RESISTIVITY
~PARAMETER INFORMATION
#MNEM.UNIT          VALUE    DESCRIPTION
#----------   ------------   ------------------------------
 PD  .                 GL:   PERMANENT DATUM
 EPD .F              5132:   ELEVATION PERMANENT DATUM
 LMF .                 KB:   LOG MEASURED FROM
 DAPD.F                 5:   FEET ABOVE PERMANENT DATUM
 DMF .                 KB:   DRILLING MEASURED FROM
 EKB .F              5137:   KELLING BUSHING
 EDF .F              5136:   DRILLING FLOOR
 EGL .F              5132:   GROUND LEVEL
 DATE.        15-APR-1992:   RUN DATE
 RUN .                  1:   RUN NUMBER
 DD  .F               605:   DEPTH DRILLER
 DL  .F               599:   DEPTH LOGGER
 BLI .F               596:   BOTTOM LOG INTERVAL
 TLI .F                46:   TOP LOG INTERVAL
 CS  .IN            8.625:   CASING SIZE
 CBD .F                48:   CASING BOTTOM DRILLER
 CBL .F                46:   CASING BOTTOM LOGGER
 BS  .IN            7.875:   BIT SIZE
 BSD .F               605:   BIT SIZE AT DEPTH
 DFT .                AIR:   DRILLING FLUID TYPE
 LUN .            HL-6321:   LOGGING UNIT NUMBER
 LUL .        RK. SPRINGS:   LOGGING UNIT LOCATION
 ENGI.            TRIBBLE:   RECORDING ENGINEER
 WITN.             STRONG:   WITNESSED BY
 CLNT.            A2DTECH:   CLIENT CODE
 ORIG.           5" PRINT:   ORIGIN OF DATA
 UWI .       490252250900:   UNIQUE WELL ID
 DICO. A2D Technologies, Inc.:   DIGITIZING COMPANY
~OTHER INFORMATION
~A    DEPT     GRR       RILD       RILM   
# ...
   72.8000   127.3430     6.3135     6.1948
   72.9000   126.8463     6.3135     6.2296
   73.0000   126.3495     6.3135     6.2297
   73.1000   125.6557     6.3135     6.2297
   73.2000   125.0529     6.3489     6.2298
   73.3000   124.4703     6.3578     6.2299
   73.4000   123.7867     6.3771     6.2344
   73.5000   123.5119     6.4024     6.2738
   73.6000   123.2881     6.4024     6.3385
   73.7000   123.0388     6.4024     6.3622
   73.8000   122.7895     6.4338     6.3786
   73.9000   122.5958     6.4706     6.4152
   74.0000   122.5939     6.4925     6.4519
   74.1000   122.5921     6.4925     6.4889
   74.2000   122.5903     6.4925     6.4973
   74.3000   122.4521     6.4925     6.5179
   74.4000   122.2836     6.5198     6.5552
   74.5000   122.2818     6.5571     6.5889
   74.6000   122.2798     6.5946     6.5891
   74.7000   122.0610     6.6300     6.5891
   74.8000   121.8117     6.6300     6.5892
   74.9000   121.5624     6.6618     6.5733
   75.0000   121.2626     6.6765     6.5436
   75.1000   120.7557     6.6765     6.5437
   75.2000   120.2691     6.6703     6.5073
   75.3000   120.1461     6.6300     6.4983
   75.4000   120.1442     6.6300     6.4788
   75.5000   120.0667     6.6300     6.4420
   75.6000   119.8376     6.6116     6.4084
   75.7000   119.8355     6.5839     6.4085
   75.8000   119.6218     6.5823     6.4086
   75.9000   119.2160     6.5380     6.3857
   76.0000   118.7192     6.5380     6.3642
   76.1000   118.0860     6.5160     6.3643
   76.2000   116.7963     6.4925     6.3644
   76.3000   115.6077     6.4872     6.3645
   76.4000   114.5503     6.4473     6.3380
   76.5000   113.3060     6.4473     6.3204
   76.6000   111.8193     6.4473     6.3102
   76.7000   110.3630     6.4301     6.2744
   76.8000   109.2094     6.3935     6.2330
   76.9000   108.5867     6.3578     6.2331
   77.0000   107.9940     6.3578     6.2331
   77.1000   107.5931     6.3290     6.2332
   77.2000   107.3842     6.3135     6.2275
   77.3000   107.3823     6.3135     6.1900
   77.4000   107.6129     6.3135     6.1901
   77.5000   107.8586     6.3135     6.1902
   77.6000   108.3466     6.2813     6.1731
   77.7000   109.1529     6.2695     6.1473
   77.8000   110.1511     6.2695     6.1474
   77.9000   111.6136     6.2695     6.1475
   78.0000   112.6222     6.2695     6.1476
   78.1000   114.0042     6.2695     6.1476
   78.2000   115.3054     6.2695     6.1477
   78.3000   116.2582     6.2695     6.1478
   78.4000   117.0592     6.2695     6.1479
   78.5000   117.5121     6.2695     6.1480
   78.6000   117.6618     6.2695     6.1481
   78.7000   117.6600     6.2695     6.1482
   78.8000   117.6582     6.2695     6.1482
   78.9000   117.6462     6.2695     6.1483
   79.0000   117.1495     6.2695     6.1484
   79.1000   116.6527     6.2695     6.1485
   79.2000   116.2974     6.2695     6.1486
   79.3000   115.8764     6.2695     6.1487
   79.4000   115.1018     6.2695     6.1488
   79.5000   114.0089     6.2805     6.1489
   79.6000   113.5628     6.3135     6.1805
   79.7000   113.0660     6.3135     6.1921
   79.8000   112.7915     6.3135     6.1922
   79.9000   112.9008     6.3135     6.1923
   80.0000   113.3939     6.3135     6.1924
   80.1000   113.8871     6.3135     6.1924
   80.2000   114.1883     6.3135     6.1925
   80.3000   114.7067     6.3135     6.2121
   80.4000   115.4473     6.3135     6.2361
   80.5000   116.2131     6.3135     6.2362
   80.6000   117.3222     6.3135     6.2363
   80.7000   118.8408     6.3135     6.2364
   80.8000   120.2480     6.3135     6.2365
   80.9000   121.4836     6.3135     6.2365
   81.0000   122.6687     6.3135     6.2366
   81.1000   123.6769     6.3275     6.2367
   81.2000   124.4024     6.3578     6.2368
   81.3000   124.9561     6.3578     6.2369
   81.4000   125.3180     6.3578     6.2370
   81.5000   125.6394     6.3838     6.2371
   81.6000   126.0923     6.4024     6.2401
   81.7000   126.0900     6.4024     6.2810
   81.8000   126.0885     6.4039     6.2810
   81.9000   125.6170     6.4473     6.3039
   82.0000   124.6707     6.4473     6.3252
   82.1000   123.4315     6.4691     6.3320
   82.2000   122.1417     6.4925     6.3697
   82.3000   121.1905     6.4925     6.3698
   82.4000   120.1988     6.4925     6.3699
   82.5000   119.0808     6.4925     6.3700
   82.6000   117.9830     6.5183     6.3805
   82.7000   117.2691     6.5380     6.4148
   82.8000   116.9791     6.5472     6.4149
   82.9000   116.7705     6.5839     6.4150
   83.0000   116.6727     6.5839     6.4151
   83.1000   116.8628     6.6139     6.4294
   83.2000   117.3156     6.6300     6.4602
   83.3000   117.5762     6.6432     6.4603
   83.4000   118.2715     6.6765     6.4951
   83.5000   119.0122     6.6765     6.5057
   83.6000   119.7527     6.6765     6.5058
   83.7000   120.6903     6.6765     6.5158
   83.8000   122.1431     6.6937     6.5531
   83.9000   123.0197     6.7233     6.5976
   84.0000   123.4222     6.7233     6.5977
   84.1000   123.7689     6.7233     6.5978
   84.2000   124.0145     6.7532     6.5979
   84.3000   124.2955     6.7705     6.5980
   84.4000   124.8289     6.7705     6.5981
   84.5000   124.8273     6.7745     6.6328
   84.6000   124.9972     6.8180     6.6445
   84.7000   125.2428     6.8180     6.6446
   84.8000   125.4279     6.8435     6.6540
   84.9000   125.4261     6.8658     6.6913
   85.0000   125.4242     6.8658     6.6914
   85.1000   125.6194     6.8658     6.7220
   85.2000   125.7236     6.8658     6.7385
   85.3000   125.7218     6.8955     6.7386
   85.4000   125.7200     6.9139     6.7434
   85.5000   125.7180     6.9261     6.7860
   85.6000   125.4941     6.9657     6.7861
   85.7000   125.4115     7.0112     6.7862
   85.8000   125.4097     7.0457     6.8037
   85.9000   125.3523     7.0604     6.8427
   86.0000   125.1030     7.0604     6.8819
   86.1000   125.1012     7.0604     6.9214
   86.2000   124.9075     7.0604     6.9303
   86.3000   124.6582     7.0604     6.9523
   86.4000   124.4089     7.0901     6.9791
   86.5000   124.1091     7.1099     6.9833
   86.6000   123.2737     7.1099     7.0282
   86.7000   122.6206     7.1124     7.0636
   86.8000   121.8763     7.1598     7.0776
   86.9000   121.1321     7.1941     7.0951
   87.0000   120.5394     7.2100     7.1274
   87.1000   120.5375     7.2260     7.1275
   87.2000   120.5358     7.2605     7.1676
   87.3000   120.7208     7.2605     7.1777
   87.4000   120.9665     7.2605     7.1778
   87.5000   121.1364     7.2605     7.1779
   87.6000   121.1346     7.2809     7.1813
   87.7000   121.1325     7.3115     7.2284
   87.8000   121.1309     7.3115     7.2285
   87.9000   121.1291     7.3115     7.2547
   88.0000   121.0263     7.3456     7.2793
   88.1000   120.6861     7.3627     7.2794
   88.2000   119.9114     7.3627     7.2795
   88.3000   119.1976     7.3627     7.3196
   88.4000   118.2715     7.3627     7.3307
   88.5000   117.1535     7.4015     7.3309
   88.6000   115.7729     7.4144     7.3429
   88.7000   114.0540     7.4144     7.3824
   88.8000   112.3246     7.4144     7.3825
   88.9000   111.4948     7.4152     7.4180
   89.0000   110.3515     7.4577     7.4345
   89.1000   109.3042     7.4664     7.4346
   89.2000   108.6004     7.4664     7.4416
   89.3000   108.0732     7.4664     7.4869
   89.4000   107.8392     7.4664     7.4870
   89.5000   107.7667     7.4664     7.4871
   89.6000   107.7648     7.4664     7.4872
   89.7000   107.7630     7.4378     7.4873
   89.8000   107.7511     7.3954     7.4857
   89.9000   107.4560     7.3627     7.4354
   90.0000   107.6566     7.3627     7.4355
   90.1000   107.7558     7.3209     7.4356
   90.2000   107.7539     7.3115     7.4202
   90.3000   107.7521     7.3115     7.3841
   90.4000   107.7502     7.2979     7.3842
   90.5000   107.9758     7.2605     7.3457
   90.6000   108.2214     7.2605     7.3041
   90.7000   108.4671     7.2605     7.2434
   90.8000   108.7127     7.2336     7.1812
   90.9000   108.9534     7.2100     7.1805
