~VERSION INFORMATION
 VERS.                2.0:   CWLS LOG ASCII STANDARD - VERSION 2.0
 WRAP.                 NO:   ONE LINE PER DEPTH STEP
~WELL INFORMATION
#MNEM.UNIT      DATA TYPE    INFORMATION
#----------   ------------   ------------------------------
 STRT.F           20.0000:   START DEPTH
 STOP.F         2420.0000:   STOP DEPTH
 STEP.F            0.5000:   STEP LENGTH
 NULL.          -999.2500:   NO VALUE
 COMP. FENIX & SCISSON INC:   COMPANY
 WELL.    SHX 15 #71-1-15:   WELL
 FLD .             TEAPOT:   FIELD
 LOC .      S15 T38N R78W:   LOCATION
 CNTY.            NATRONA:   COUNTY
 STAT.            WYOMING:   STATE
 CTRY. UNITED STATES OF AMERICA:   COUNTRY
 SRVC.           BIRDWELL:   SERVICE COMPANY
 DATE.        03-SEP-1978:   LOGDATE
 API .       490251081800:   API NUMBER
~CURVE INFORMATION
#MNEM.UNIT       API CODE    CURVE DESCRIPTION
#----------   ------------   ------------------------------
 DEPT.F                  :   
 CALD.IN     45 280 60 00:   CALIPER
 GRD .GAPI   45 310 01 00:   GAMMA RAY FROM DENSITY LOG
 RHOB.G/C3   45 350 01 00:   BULK DENSITY
 DPHI.DEC    45 890 12 00:   DENSITY POROSITY SANDSTONE
 CORR.G/C3   45 356 01 00:   DENSITY CORRECTION
 NPHI.DEC    42 890 03 00:   NEUTRON POROSITY
~PARAMETER INFORMATION
#MNEM.UNIT          VALUE    DESCRIPTION
#----------   ------------   ------------------------------
 PD  .                 GL:   PERMANENT DATUM
 EPD .F              5249:   ELEVATION PERMANENT DATUM
 LMF .                 KB:   LOG MEASURED FROM
 DAPD.F                10:   FEET ABOVE PERMANENT DATUM
 DMF .                 KB:   DRILLING MEASURED FROM
 EKB .F              5259:   KELLING BUSHING
 EGL .F              5249:   GROUND LEVEL
 DATE.             9-3-78:   RUN DATE
 RUN .                  1:   RUN NUMBER
 DD  .F              2450:   DEPTH DRILLER
 DL  .F              2422:   DEPTH LOGGER
 BLI .F              2420:   BOTTOM LOG INTERVAL
 TLI .F                50:   TOP LOG INTERVAL
 CS  .IN            9.625:   CASING SIZE
 CBD .F               650:   CASING BOTTOM DRILLER
 CBL .F               676:   CASING BOTTOM LOGGER
 BS  .IN             8.75:   BIT SIZE
 BSD .F              2450:   BIT SIZE AT DEPTH
 DFT .           AIR MIST:   DRILLING FLUID TYPE
 LUN .               2958:   LOGGING UNIT NUMBER
 LUL .               CASP:   LOGGING UNIT LOCATION
 ENGI.             MILLER:   RECORDING ENGINEER
 WITN.           MCGINLEY:   WITNESSED BY
 CLNT.            A2DTECH:   CLIENT CODE
 ORIG.         2.5" PRINT:   ORIGIN OF DATA
 UWI .       490251081800:   UNIQUE WELL ID
 DICO. A2D Technologies, Inc.:   DIGITIZING COMPANY
~OTHER INFORMATION
~A   DEPT     CALD        GRD       RHOB       DPHI       CORR         NPHI 
# ...
 1580.0000    11.6501   111.4287     2.5442     0.0653     0.0847  -999.2500
 1580.5000    11.6483   110.9935     2.5526     0.0653     0.0933  -999.2500
 1581.0000    11.6465   110.8623     2.5501     0.0674     0.0872  -999.2500
 1581.5000    11.6447   110.8675     2.5485     0.0691     0.0815  -999.2500
 1582.0000    11.6430   110.9193     2.5472     0.0710     0.0784  -999.2500
 1582.5000    11.6412   110.5352     2.5486     0.0706     0.0816  -999.2500
 1583.0000    11.6394   110.0199     2.5499     0.0699     0.0804  -999.2500
 1583.5000    11.6376   109.1204     2.5399     0.0694     0.0753  -999.2500
 1584.0000    11.6358   110.2285     2.5281     0.0747     0.0704  -999.2500
 1584.5000    11.6341   111.4745     2.5298     0.0773     0.0654  -999.2500
 1585.0000    11.6323   112.9157     2.5309     0.0749     0.0635  -999.2500
 1585.5000    11.6305   114.4263     2.5380     0.0673     0.0663  -999.2500
 1586.0000    11.6287   115.1339     2.5456     0.0599     0.0688  -999.2500
 1586.5000    11.6269   114.3624     2.5531     0.0524     0.0708  -999.2500
 1587.0000    11.6252   113.7405     2.5607     0.0510     0.0687  -999.2500
 1587.5000    11.6234   114.2325     2.5702     0.0528     0.0593  -999.2500
 1588.0000    11.6216   116.2607     2.5632     0.0625     0.0549  -999.2500
 1588.5000    11.6201   117.8988     2.5547     0.0756     0.0579  -999.2500
 1589.0000    11.6200   117.1580     2.5274     0.0837     0.0600  -999.2500
 1589.5000    11.6200   116.5136     2.5201     0.0804     0.0699  -999.2500
 1590.0000    11.6200   116.4484     2.5217     0.0753     0.0872  -999.2500
 1590.5000    11.6200   116.4710     2.5427     0.0738     0.1052  -999.2500
 1591.0000    11.6200   116.2434     2.5457     0.0712     0.1044  -999.2500
 1591.5000    11.6199   115.4124     2.5387     0.0681     0.0938  -999.2500
 1592.0000    11.6199   114.8926     2.5377     0.0645     0.0857  -999.2500
 1592.5000    11.6201   114.8322     2.5497     0.0697     0.0667  -999.2500
 1593.0000    11.6195   114.8091     2.5407     0.0765     0.0490  -999.2500
 1593.5000    11.6206   113.2410     2.5217     0.0765     0.0448  -999.2500
 1594.0000    11.6211   111.5530     2.5222     0.0757     0.0481  -999.2500
 1594.5000    11.6597   111.2167     2.5263     0.0725     0.0737  -999.2500
 1595.0000    11.6943   112.5360     2.5312     0.0700     0.0825  -999.2500
 1595.5000    11.7278   114.4044     2.5417     0.0697     0.0821  -999.2500
 1596.0000    11.7628   113.4825     2.5461     0.0693     0.0803  -999.2500
 1596.5000    11.7810   111.7277     2.5522     0.0673     0.0774  -999.2500
 1597.0000    11.7771   110.8440     2.5476     0.0658     0.0742  -999.2500
 1597.5000    11.7758   112.4210     2.5428     0.0678     0.0743  -999.2500
 1598.0000    11.7742   114.2982     2.5370     0.0718     0.0792  -999.2500
 1598.5000    11.7722   116.1966     2.5280     0.0758     0.0836  -999.2500
 1599.0000    11.7705   117.5452     2.5258     0.0769     0.0912  -999.2500
 1599.5000    11.7687   117.4154     2.5288     0.0764     0.1006  -999.2500
 1600.0000    11.7669   116.3258     2.5254     0.0757     0.1098  -999.2500
 1600.5000    11.7652   114.3949     2.5360     0.0735     0.1189  -999.2500
 1601.0000    11.7634   112.7582     2.5466     0.0707     0.1255  -999.2500
 1601.5000    11.7617   110.2441     2.5479     0.0680     0.1241  -999.2500
 1602.0000    11.7599   110.1361     2.5502     0.0640     0.1222  -999.2500
 1602.5000    11.7582   112.1641     2.5518     0.0454     0.1310  -999.2500
 1603.0000    11.7564   112.5408     2.5594     0.0538     0.1264  -999.2500
 1603.5000    11.7547   110.8666     2.5529     0.0669     0.1051  -999.2500
 1604.0000    11.7529   109.7260     2.5490     0.0707     0.0854  -999.2500
 1604.5000    11.7511   110.6968     2.5431     0.0745     0.0668  -999.2500
 1605.0000    11.7494   111.9898     2.5352     0.0774     0.0606  -999.2500
 1605.5000    11.7476   114.6093     2.5271     0.0781     0.0575  -999.2500
 1606.0000    11.7459   115.8705     2.5235     0.0789     0.0583  -999.2500
 1606.5000    11.7441   116.0206     2.5126     0.0781     0.0576  -999.2500
 1607.0000    11.7422   115.7147     2.4994     0.0772     0.0609  -999.2500
 1607.5000    11.7413   115.3136     2.4909     0.0764     0.0657  -999.2500
 1608.0000    11.7326   115.8808     2.4875     0.0755     0.0750  -999.2500
 1608.5000    11.7191   116.9212     2.5041     0.0750     0.0837  -999.2500
 1609.0000    11.7059   117.9274     2.5253     0.0744     0.0900  -999.2500
 1609.5000    11.6995   117.8892     2.5358     0.0753     0.0900  -999.2500
 1610.0000    11.7001   116.1601     2.5309     0.0779     0.0899  -999.2500
 1610.5000    11.7000   113.3716     2.5405     0.0805     0.0921  -999.2500
 1611.0000    11.6999   111.4372     2.5364     0.0767     0.0968  -999.2500
 1611.5000    11.7000   110.5814     2.5365     0.0728     0.1015  -999.2500
 1612.0000    11.7000   109.6173     2.5430     0.0717     0.1058  -999.2500
 1612.5000    11.7000   109.8411     2.5443     0.0654     0.1095  -999.2500
 1613.0000    11.7000   110.5269     2.5430     0.0606     0.1037  -999.2500
 1613.5000    11.7000   115.0098     2.5421     0.0582     0.0984  -999.2500
 1614.0000    11.7000   119.6761     2.5519     0.0596     0.0927  -999.2500
 1614.5000    11.7000   121.4710     2.5601     0.0644     0.0863  -999.2500
 1615.0000    11.7000   121.8675     2.5610     0.0691     0.0786  -999.2500
 1615.5000    11.7000   121.5666     2.5410     0.0733     0.0704  -999.2500
 1616.0000    11.7000   119.9687     2.5207     0.0730     0.0661  -999.2500
 1616.5000    11.7000   117.6627     2.5279     0.0727     0.0682  -999.2500
 1617.0000    11.7000   115.0995     2.5408     0.0735     0.0701  -999.2500
 1617.5000    11.7000   113.8627     2.5351     0.0765     0.0681  -999.2500
 1618.0000    11.7000   113.7811     2.5294     0.0763     0.0633  -999.2500
 1618.5000    11.7000   115.2421     2.5256     0.0733     0.0659  -999.2500
 1619.0000    11.7000   116.8544     2.5391     0.0701     0.0747  -999.2500
 1619.5000    11.7000   118.7239     2.5412     0.0638     0.0832  -999.2500
 1620.0000    11.7000   119.4717     2.5461     0.0542     0.0910  -999.2500
 1620.5000    11.7000   118.4645     2.5628     0.0574     0.0967  -999.2500
 1621.0000    11.7000   118.0069     2.5554     0.0630     0.0810  -999.2500
 1621.5000    11.7000   118.1240     2.5491     0.0687     0.0704  -999.2500
 1622.0000    11.7000   118.4165     2.5413     0.0698     0.0666  -999.2500
 1622.5000    11.7000   119.0652     2.5480     0.0694     0.0637  -999.2500
 1623.0000    11.7000   115.8407     2.5427     0.0709     0.0609  -999.2500
 1623.5000    11.7000   110.9303     2.5368     0.0729     0.0580  -999.2500
 1624.0000    11.7000   108.4737     2.5333     0.0749     0.0549  -999.2500
 1624.5000    11.7000   109.4483     2.5306     0.0741     0.0556  -999.2500
 1625.0000    11.7000   111.4809     2.5233     0.0733     0.0593  -999.2500
 1625.5000    11.7000   115.7119     2.5215     0.0725     0.0636  -999.2500
 1626.0000    11.7000   118.5175     2.5331     0.0717     0.0716  -999.2500
 1626.5000    11.7000   119.3226     2.5255     0.0708     0.0820  -999.2500
 1627.0000    11.7000   118.2527     2.5313     0.0694     0.0988  -999.2500
 1627.5000    11.7000   117.5277     2.5504     0.0679     0.1150  -999.2500
 1628.0000    11.7000   117.1369     2.5462     0.0665     0.1307  -999.2500
 1628.5000    11.7000   115.9806     2.5519     0.0645     0.1417  -999.2500
 1629.0000    11.7000   114.5068     2.5514     0.0612     0.1427  -999.2500
 1629.5000    11.7000   113.7253     2.5502     0.0604     0.1343  -999.2500
 1630.0000    11.7000   113.6726     2.5601     0.0613     0.1166  -999.2500
 1630.5000    11.7000   113.6490     2.5167     0.0670     0.0707  -999.2500
 1631.0000    11.7000   113.6795     2.4995     0.0733     0.0501  -999.2500
 1631.5000    11.7000   113.6535     2.5006     0.0805     0.0546  -999.2500
