~VERSION INFORMATION
 VERS.                2.0:   CWLS LOG ASCII STANDARD - VERSION 2.0
 WRAP.                 NO:   ONE LINE PER DEPTH STEP
~WELL INFORMATION
#MNEM.UNIT      DATA TYPE    INFORMATION
#----------   ------------   ------------------------------
 STRT.F           14.0000:   START DEPTH
 STOP.F          513.0000:   STOP DEPTH
 STEP.F            0.1000:   STEP LENGTH
 NULL.          -999.2500:   NO VALUE
 COMP.       F D SERV INC:   COMPANY
 WELL.    52-1 SX-3 #52-3:   WELL
 FLD .             TEAPOT:   FIELD
 LOC .       S3 T38N R78W:   LOCATION
 CNTY.            NATRONA:   COUNTY
 STAT.            WYOMING:   STATE
 CTRY. UNITED STATES OF AMERICA:   COUNTRY
 SRVC.     Atlas Wireline:   SERVICE COMPANY
 DATE.        21-APR-1992:   LOGDATE
 API .       490252251400:   API NUMBER
~CURVE INFORMATION
#MNEM.UNIT       API CODE    CURVE DESCRIPTION
#----------   ------------   ------------------------------
 DEPT.F                  :   
 GRR .GAPI   07 310 01 00:   GAMMA RAY
 RILD.OHMM   07 120 46 00:   INDUCTION LOG DEEP RESISTIVITY
 RILM.OHMM   07 120 44 00:   INDUCTION LOG MEDIUM RESISTIVITY
~PARAMETER INFORMATION
#MNEM.UNIT          VALUE    DESCRIPTION
#----------   ------------   ------------------------------
 PD  .                 GL:   PERMANENT DATUM
 EPD .F              5115:   ELEVATION PERMANENT DATUM
 LMF .                 KB:   LOG MEASURED FROM
 DAPD.F                 5:   FEET ABOVE PERMANENT DATUM
 DMF .                 KB:   DRILLING MEASURED FROM
 EKB .F              5120:   KELLING BUSHING
 EDF .F              5119:   DRILLING FLOOR
 EGL .F              5115:   GROUND LEVEL
 DATE.        21-APR-1992:   RUN DATE
 RUN .                  1:   RUN NUMBER
 DD  .F               515:   DEPTH DRILLER
 DL  .F               520:   DEPTH LOGGER
 BLI .F               517:   BOTTOM LOG INTERVAL
 TLI .F                50:   TOP LOG INTERVAL
 CS  .IN            9.625:   CASING SIZE
 CBD .F                45:   CASING BOTTOM DRILLER
 CBL .F                50:   CASING BOTTOM LOGGER
 BS  .IN            7.875:   BIT SIZE
 BSD .F               515:   BIT SIZE AT DEPTH
 DFT .                AIR:   DRILLING FLUID TYPE
 LUN .            HL-6272:   LOGGING UNIT NUMBER
 LUL .             CASPER:   LOGGING UNIT LOCATION
 ENGI.       P. RASMUSSEN:   RECORDING ENGINEER
 WITN.          G. STRONG:   WITNESSED BY
 CLNT.            A2DTECH:   CLIENT CODE
 ORIG.           5" PRINT:   ORIGIN OF DATA
 UWI .       490252251400:   UNIQUE WELL ID
 DICO. A2D Technologies, Inc.:   DIGITIZING COMPANY
~OTHER INFORMATION
~A   DEPT      GRR       RILD       RILM   
# ...
  487.2000   117.6886    11.9627    11.6699
  487.3000   117.4298    11.9632    11.6699
  487.4000   116.8444    11.9549    11.6283
  487.5000   116.4400    11.8812    11.5891
  487.6000   115.9452    11.8816    11.5891
  487.7000   115.3601    11.8821    11.5891
  487.8000   114.6534    11.8826    11.5257
  487.9000   114.1165    11.8831    11.5088
  488.0000   112.5357    11.8836    11.5088
  488.1000   110.8082    11.8841    11.5088
  488.2000   109.7672    11.8846    11.5088
  488.3000   109.5776    11.8851    11.5088
  488.4000   109.5822    11.8675    11.4529
  488.5000   110.0735    11.8036    11.4291
  488.6000   110.7590    11.8042    11.4291
  488.7000   111.6354    11.8046    11.4291
  488.8000   112.7026    11.8050    11.4291
  488.9000   113.9334    11.7830    11.3662
  489.0000   115.3049    11.7240    11.3499
  489.1000   116.6134    11.7246    11.3160
  489.2000   118.2535    11.6673    11.2713
  489.3000   119.6558    11.6441    11.2713
  489.4000   120.7431    11.6446    11.2713
  489.5000   122.2447    11.6451    11.2161
  489.6000   122.4853    11.6456    11.1932
  489.7000   122.1694    11.5841    11.1932
  489.8000   121.0178    11.5657    11.1932
  489.9000   118.9871    11.5662    11.1932
  490.0000   116.3140    11.5506    11.1312
  490.1000   113.7744    11.4860    11.1157
  490.2000   113.1396    11.4217    11.0820
  490.3000   112.7092    11.3578    11.0387
  490.4000   112.5607    11.3293    11.0330
  490.5000   112.5589    11.3298    10.9622
  490.6000   112.5570    11.3249    10.9622
  490.7000   112.7905    11.2521    10.9622
  490.8000   112.8556    11.2525    10.9357
  490.9000   113.1019    11.2530    10.8863
  491.0000   113.5931    11.2290    10.8863
  491.1000   114.0587    11.1661    10.8863
  491.2000   114.2155    11.0987    10.8392
  491.3000   114.6664    11.0416    10.8109
  491.4000   115.3566    11.0226    10.7913
  491.5000   115.8640    11.0230    10.7360
  491.6000   116.8162    11.0096    10.7360
  491.7000   117.6177    10.9474    10.6826
  491.8000   118.3554    10.9479    10.6220
  491.9000   119.0931    10.9483    10.5877
  492.0000   119.8308    10.9164    10.5750
  492.1000   120.6867    10.8732    10.5144
  492.2000   120.8923    10.8699    10.4554
  492.3000   120.8340    10.7987    10.3960
  492.4000   120.6816    10.7991    10.3371
  492.5000   120.5993    10.7633    10.2974
  492.6000   120.0736    10.7250    10.2974
  492.7000   119.1471    10.7255    10.2974
  492.8000   118.1590    10.7260    10.2459
  492.9000   117.2911    10.6721    10.1877
  493.0000   116.6143    10.6523    10.1552
  493.1000   116.1194    10.6528    10.1427
  493.2000   115.5308    10.6532    10.0849
  493.3000   115.3295    10.6537    10.0279
  493.4000   115.2254    10.6541    10.0150
  493.5000   115.3122    10.6104    10.0150
  493.6000   115.5569    10.5810     9.9962
  493.7000   115.8240    10.5815     9.9394
  493.8000   116.0463    10.5819     9.8768
  493.9000   116.2910    10.5824     9.8270
  494.0000   116.4230    10.5348     9.8084
  494.1000   116.4212    10.4759     9.7835
  494.2000   116.4193    10.4372     9.7404
  494.3000   116.6656    10.4377     9.7402
  494.4000   116.7178    10.4382     9.6850
  494.5000   116.7160    10.3871     9.6729
  494.6000   116.7142    10.3665     9.6422
  494.7000   116.7124    10.3669     9.5875
  494.8000   116.7104    10.3570     9.5394
  494.9000   116.7088    10.2958     9.5394
  495.0000   116.7069    10.2962     9.4909
  495.1000   116.5996    10.2143     9.4733
  495.2000   116.4012    10.1546     9.4733
  495.3000   116.3994    10.1550     9.4609
  495.4000   111.8209    10.1555     9.4072
  495.5000    74.8865    10.0979     9.3538
  495.6000     0.0000    10.0858     9.3007
  495.7000     0.0000    10.0550     9.2778
  495.8000     0.0000     9.9987     9.2596
  495.9000     0.0000     9.9428     9.2135
  496.0000     0.0000     9.8789     9.2135
  496.1000  -999.2500     9.8318     9.2135
  496.2000  -999.2500     9.8111     9.1780
  496.3000  -999.2500     9.7901     9.1497
  496.4000  -999.2500     9.7353     9.1497
  496.5000  -999.2500     9.6766     9.1489
  496.6000  -999.2500     9.6267     9.0970
  496.7000  -999.2500     9.6102     9.0454
  496.8000  -999.2500     9.5858     8.9941
  496.9000  -999.2500     9.5442     8.9609
  497.0000  -999.2500     9.5446     8.9609
  497.1000  -999.2500     9.4917     8.9609
  497.2000  -999.2500     9.3984     8.9147
  497.3000  -999.2500     9.3484     8.8988
  497.4000  -999.2500     9.3333     8.8753
  497.5000  -999.2500     9.2842     8.8372
  497.6000  -999.2500     9.2847     8.8360
  497.7000  -999.2500     9.1986     8.7760
  497.8000  -999.2500     9.1262     8.7361
  497.9000  -999.2500     9.0937     8.7152
  498.0000  -999.2500     9.0874     8.7152
  498.1000  -999.2500     9.0314     8.7084
  498.2000  -999.2500     9.0317     8.6548
  498.3000  -999.2500     9.0321     8.6548
  498.4000  -999.2500     9.0104     8.6548
  498.5000  -999.2500     8.9702     8.6548
  498.6000  -999.2500     8.9705     8.6548
  498.7000  -999.2500     8.9709     8.6534
  498.8000  -999.2500     8.9341     8.5948
  498.9000  -999.2500     8.8841     8.5948
  499.0000  -999.2500     8.8479     8.5948
  499.1000  -999.2500     8.8483     8.5948
  499.2000  -999.2500     8.8487     8.5948
  499.3000  -999.2500     8.8490     8.5948
  499.4000  -999.2500     8.8494     8.5948
  499.5000  -999.2500     8.8497     8.5948
  499.6000  -999.2500     8.8501     8.5948
  499.7000  -999.2500     8.8505     8.5948
  499.8000  -999.2500     8.8508     8.5948
  499.9000  -999.2500     8.8512     8.5948
  500.0000  -999.2500     8.8516     8.5948
  500.1000  -999.2500     8.8520     8.5948
  500.2000  -999.2500     8.8523     8.5948
  500.3000  -999.2500     8.8527     8.5948
  500.4000  -999.2500     8.8531     8.5948
  500.5000  -999.2500     8.8534     8.5948
  500.6000  -999.2500     8.8538     8.5948
  500.7000  -999.2500     8.8542     8.5948
  500.8000  -999.2500     8.8545     8.5948
  500.9000  -999.2500     8.8549     8.5948
  501.0000  -999.2500     8.8553     8.5948
  501.1000  -999.2500     8.8557     8.5948
  501.2000  -999.2500     8.8560     8.5948
  501.3000  -999.2500     8.8564     8.5948
  501.4000  -999.2500     8.8568     8.5948
  501.5000  -999.2500     8.8571     8.5948
  501.6000  -999.2500     8.8575     8.5493
  501.7000  -999.2500     8.8579     8.5353
  501.8000  -999.2500     8.8583     8.5593
  501.9000  -999.2500     8.8586     8.5948
  502.0000  -999.2500     8.8590     8.5948
  502.1000  -999.2500     8.8365     8.5948
  502.2000  -999.2500     8.7982     8.5948
  502.3000  -999.2500     8.7986     8.5653
  502.4000  -999.2500     8.7990     8.5353
  502.5000  -999.2500     8.7993     8.5353
  502.6000  -999.2500     8.7218     8.5353
  502.7000  -999.2500     8.5613     8.4897
  502.8000  -999.2500     8.3263     8.4762
  502.9000  -999.2500     7.2917     8.4762
  503.0000  -999.2500     4.9865     8.4629
  503.1000  -999.2500  -999.2500     8.4175
  503.2000  -999.2500  -999.2500     8.4175
  503.3000  -999.2500  -999.2500     8.3777
  503.4000  -999.2500  -999.2500     8.3301
  503.5000  -999.2500  -999.2500     8.3012
  503.6000  -999.2500  -999.2500     8.2933
  503.7000  -999.2500  -999.2500     8.2437
  503.8000  -999.2500  -999.2500     8.2437
  503.9000  -999.2500  -999.2500     8.2437
  504.0000  -999.2500  -999.2500     8.2201
  504.1000  -999.2500  -999.2500     8.1866
  504.2000  -999.2500  -999.2500     8.1838
  504.3000  -999.2500  -999.2500     8.1299
  504.4000  -999.2500  -999.2500     8.0912
  504.5000  -999.2500  -999.2500     8.0736
  504.6000  -999.2500  -999.2500     8.0554
  504.7000  -999.2500  -999.2500     8.0177
  504.8000  -999.2500  -999.2500     8.0177
  504.9000  -999.2500  -999.2500     7.9743
  505.0000  -999.2500  -999.2500     7.9621
  505.1000  -999.2500  -999.2500     7.9621
  505.2000  -999.2500  -999.2500     7.9491
  505.3000  -999.2500  -999.2500     7.9039
