~VERSION INFORMATION
 VERS.                2.0:   CWLS LOG ASCII STANDARD - VERSION 2.0
 WRAP.                 NO:   ONE LINE PER DEPTH STEP
~WELL INFORMATION
#MNEM.UNIT      DATA TYPE    INFORMATION
#----------   ------------   ------------------------------
 STRT.F            8.0000:   START DEPTH
 STOP.F          473.0000:   STOP DEPTH
 STEP.F            0.5000:   STEP LENGTH
 NULL.          -999.2500:   NO VALUE
 COMP.   LAWRENCE-ALLISON:   COMPANY
 WELL. NPR 3 #58-55SX3OB1:   WELL
 FLD .             TEAPOT:   FIELD
 LOC .       S3 T38N R78W:   LOCATION
 CNTY.            NATRONA:   COUNTY
 STAT.            WYOMING:   STATE
 CTRY. UNITED STATES OF AMERICA:   COUNTRY
 SRVC.      Dresser Atlas:   SERVICE COMPANY
 DATE.        17-DEC-1984:   LOGDATE
 API .       490251100600:   API NUMBER
~CURVE INFORMATION
#MNEM.UNIT       API CODE    CURVE DESCRIPTION
#----------   ------------   ------------------------------
 DEPT.F                  :   
 AC  .US/F   60 520 00 00:   ACCOUSTIC
 PORD.DEC    45 890 12 00:   POROSITY DENSITY SANDSTONE
 CNC .DEC    42 890 03 00:   NEUTRON POROSITY SANDSTONE
 CALD.IN     45 280 60 00:   CALIPER FROM DENSITY
 GRD .GAPI   45 310 01 00:   GAMMA RAY FROM DENSITY LOG
 CORR.G/C3   45 356 01 00:   DENSITY CORRECTION
 DEN .G/C3   45 350 01 00:   COMPENSATED BULK DENSTIY
~PARAMETER INFORMATION
#MNEM.UNIT          VALUE    DESCRIPTION
#----------   ------------   ------------------------------
 PD  .                 GL:   PERMANENT DATUM
 EPD .F              5194:   ELEVATION PERMANENT DATUM
 LMF .                 GL:   LOG MEASURED FROM
 DMF .                 GL:   DRILLING MEASURED FROM
 EGL .F              5194:   GROUND LEVEL
 DATE.        17-DEC-1984:   RUN DATE
 RUN .                  1:   RUN NUMBER
 DD  .F               480:   DEPTH DRILLER
 DL  .F               475:   DEPTH LOGGER
 BLI .F               473:   BOTTOM LOG INTERVAL
 TLI .F                20:   TOP LOG INTERVAL
 CS  .IN            8.625:   CASING SIZE
 CBD .F                20:   CASING BOTTOM DRILLER
 CBL .F                20:   CASING BOTTOM LOGGER
 BS  .IN             6.25:   BIT SIZE
 BSD .F               480:   BIT SIZE AT DEPTH
 DFT .          KCL WATER:   DRILLING FLUID TYPE
 MSS .           FLOWLINE:   MUD SAMPLE SOURCE
 RMS .OHMM          0.134:   RESISTIVITY MUD SAMPLE
 MST .F                72:   MUD SAMPLE TEMPERATURE
 RMF .OHMM           0.10:   RESISTIVITY MUD FILTRATE SAMPLE
 MFST.F                72:   MUD FILTRATE SAMPLE TEMPERATURE
 RMC .OHMM           0.17:   RESISTIVITY MUD CAKE
 MCST.F                72:   MUD CAKE SAMPLE TEMPERATURE
 MFSS.               CALC:   MUD FILTRATE SAMPLE SOURCE
 MCSS.               CALC:   MUD CAKE SAMPLE SOURCE
 TCS .HRS               2:   TIME CURCULATED STOPPED
 MRT .F               100:   MAXIMUM RECORDED TEMPERATURE
 LUN .               6270:   LOGGING UNIT NUMBER
 ENGI.            LEBSOCK:   RECORDING ENGINEER
 WITN.          DAN LUERS:   WITNESSED BY
 CLNT.            A2DTECH:   CLIENT CODE
 ORIG.           5" PRINT:   ORIGIN OF DATA
 UWI .       490251100600:   UNIQUE WELL ID
 DICO. A2D Technologies, Inc.:   DIGITIZING COMPANY
~OTHER INFORMATION
~A    DEPT      AC       PORD        CNC       CALD        GRD       CORR        DEN   
# ...
  144.5000   105.3583     0.1245     0.3296     6.2025   100.3604     0.0591     2.4655
  145.0000   106.1769     0.1264     0.3318     6.2020   100.6607     0.0530     2.4586
  145.5000   107.6702     0.1324     0.3318     6.2016    99.6096     0.0515     2.4534
  146.0000   108.9385     0.1367     0.3412     6.2011    98.8589     0.0424     2.4533
  146.5000   109.7571     0.1415     0.3470     6.2007   104.1141     0.0348     2.4397
  147.0000   109.7511     0.1467     0.3374     6.1853   107.2673     0.0273     2.4344
  147.5000   109.2204     0.1485     0.3251     6.1999   108.3183     0.0212     2.4352
  148.0000   108.2399     0.1458     0.3108     6.1993   106.0661     0.0182     2.4435
  148.5000   107.0345     0.1398     0.2936     6.1989    99.6096     0.0167     2.4517
  149.0000   105.8291     0.1368     0.2891     6.1985    99.0090     0.0136     2.4509
  149.5000   105.2234     0.1380     0.2945     6.1980    98.7087     0.0121     2.4479
  150.0000   104.5427     0.1395     0.3169     6.2004    98.4084     0.0256     2.4532
  150.5000   104.6132     0.1356     0.3208     6.2170    99.3210     0.0437     2.4599
  151.0000   104.6836     0.1308     0.3109     6.2264   100.2102     0.0541     2.4637
  151.5000   105.2788     0.1287     0.3034     6.2107   100.2059     0.0586     2.4652
  152.0000   105.9490     0.1309     0.2998     6.1952   100.1306     0.0539     2.4644
  152.5000   105.8695     0.1324     0.2980     6.1946   100.4950     0.0432     2.4576
  153.0000   105.8650     0.1324     0.2893     6.1940   103.0445     0.0418     2.4606
  153.5000   106.0104     0.1303     0.2845     6.1784   105.1436     0.0417     2.4643
  154.0000   106.3808     0.1292     0.2899     6.1778   105.5918     0.0419     2.4658
  154.5000   106.4513     0.1310     0.3011     6.1772   101.0836     0.0461     2.4613
  155.0000   106.5967     0.1332     0.3081     6.1916    97.6271     0.0235     2.4567
  155.5000   106.6672     0.1344     0.3172     6.1910    97.0235     0.0114     2.4559
  156.0000   106.7375     0.1334     0.3208     6.1904    97.3216     0.0173     2.4567
  156.5000   106.9580     0.1329     0.3220     6.1898    99.4199     0.0354     2.4589
  157.0000   107.5531     0.1368     0.3203     6.1892   104.0716     0.0338     2.4551
  157.5000   108.4482     0.1480     0.3145     6.1886   107.8223     0.0292     2.4423
  158.0000   109.6431     0.1544     0.3161     6.1880   106.7683     0.0261     2.4271
  158.5000   110.5381     0.1574     0.3381     6.2025   102.1106     0.0231     2.4112
  159.0000   112.3327     0.1614     0.3650     6.2018   100.9064     0.0170     2.3946
  159.5000   115.0268     0.1695     0.3668     6.2012   100.9034     0.0154     2.3825
  160.0000   115.3972     0.1798     0.3587     6.2006    99.5490     0.0199     2.3772
  160.5000   114.4181     0.1708     0.3512     6.2000    97.8944     0.0273     2.3923
  161.0000   112.4646     0.1594     0.3410     6.1994    99.5430     0.0348     2.4172
  161.5000   110.1363     0.1518     0.3217     6.1988   103.2938     0.0272     2.4315
  162.0000   108.5575     0.1461     0.3039     6.1982   106.2945     0.0226     2.4390
  162.5000   107.3536     0.1416     0.2971     6.1976   102.2367     0.0271     2.4481
  163.0000   106.2997     0.1377     0.2837     6.1970   100.1316     0.0346     2.4556
  163.5000   105.3206     0.1353     0.2822     6.1964    99.2277     0.0420     2.4548
  164.0000   104.8664     0.1363     0.2983     6.1958    99.8253     0.0345     2.4503
  164.5000   105.3116     0.1378     0.3037     6.1802   100.7232     0.0178     2.4563
  165.0000   105.6822     0.1336     0.3098     6.1947   101.4710     0.0313     2.4623
  165.5000   105.9034     0.1294     0.3068     6.1940   102.5190     0.0388     2.4668
  166.0000   105.5230     0.1276     0.3007     6.1934   103.2668     0.0327     2.4691
  166.5000   105.1437     0.1295     0.2911     6.1938   103.8651     0.0251     2.4638
  167.0000   104.7644     0.1319     0.2833     6.1955   103.8614     0.0175     2.4600
  167.5000   104.4600     0.1322     0.2797     6.1971   103.8584     0.0280     2.4592
  168.0000   104.0807     0.1292     0.2801     6.1988   103.4049     0.0385     2.4652
  168.5000   103.7014     0.1280     0.2888     6.2004   102.2007     0.0445     2.4660
  169.0000   103.4720     0.1296     0.2931     6.2021   101.7480     0.0429     2.4636
  169.5000   103.2426     0.1305     0.2859     6.2037   104.4470     0.0368     2.4621
  170.0000   103.2381     0.1302     0.2841     6.2036   106.2457     0.0307     2.4621
  170.5000   103.6084     0.1309     0.2902     6.2030   105.6421     0.0216     2.4621
  171.0000   104.1286     0.1312     0.2959     6.2024   103.0866     0.0140     2.4613
  171.5000   104.3501     0.1312     0.3013     6.2018   104.2848     0.0275     2.4628
  172.0000   104.1196     0.1285     0.3059     6.2012   107.4349     0.0470     2.4695
  172.5000   103.1406     0.1240     0.3098     6.1857   108.0333     0.0473     2.4741
  173.0000   102.3115     0.1222     0.3077     6.1701   104.1256     0.0213     2.4755
  173.5000   101.9322     0.1210     0.3005     6.1698   102.4710     0.0107     2.4785
  174.0000   102.0038     0.1171     0.2885     6.1706   102.0175     0.0152     2.4853
  174.5000   102.5978     0.1136     0.2819     6.1714   103.2157     0.0317     2.4928
  175.0000   102.8932     0.1109     0.2813     6.1722   104.8644     0.0482     2.4974
  175.5000   103.1896     0.1088     0.2919     6.1730   107.4139     0.0572     2.4996
  176.0000   103.5588     0.1088     0.3043     6.1738   111.3148     0.0451     2.4981
  176.5000   103.8542     0.1106     0.3097     6.1746   112.6639     0.0390     2.4965
  177.0000   103.9258     0.1116     0.3079     6.1754   108.6061     0.0454     2.4950
  177.5000   104.0712     0.1119     0.3028     6.1762   105.4500     0.0634     2.4927
  178.0000   104.0655     0.1125     0.2965     6.1770   104.9973     0.0765     2.4912
  178.5000   104.1360     0.1131     0.2917     6.1778   107.3959     0.0689     2.4896
  179.0000   104.3575     0.1165     0.2899     6.1786   107.9942     0.0522     2.4851
  179.5000   104.7267     0.1213     0.2939     6.1794   106.7893     0.0266     2.4733
  180.0000   106.1465     0.1259     0.3002     6.1802   107.3869     0.0145     2.4659
  180.5000   107.2664     0.1304     0.3078     6.1810   107.3839     0.0144     2.4616
  181.0000   108.3114     0.1335     0.3166     6.1818   106.0295     0.0158     2.4563
  181.5000   109.6562     0.1359     0.3211     6.1826   105.5761     0.0203     2.4510
  182.0000   110.6262     0.1394     0.3251     6.1834   109.7773     0.0248     2.4457
  182.5000   111.2964     0.1443     0.3281     6.1842   112.9274     0.0262     2.4404
  183.0000   111.9665     0.1496     0.3287     6.1850   113.8261     0.0322     2.4336
  183.5000   113.3113     0.1541     0.3372     6.1858   110.3689     0.0396     2.4231
  184.0000   115.4058     0.1605     0.3553     6.1867   104.9605     0.0427     2.4042
  184.5000   117.9500     0.1735     0.3807     6.1863   104.2067     0.0577     2.3741
  185.0000   122.2894     0.1913     0.3988     6.1857   104.2037     0.0620     2.3372
  185.5000   127.7397     0.2218     0.4311     6.1851   100.7472     0.0513     2.2912
  186.0000   133.7536     0.2526     0.4582     6.1845    97.1406     0.0499     2.2377
  186.5000   136.4489     0.2644     0.4714     6.1838    94.8854     0.0508     2.2354
  187.0000   132.9200     0.2626     0.4503     6.1832    96.5340     0.0543     2.2520
  187.5000   128.3428     0.2270     0.4079     6.1826   100.1346     0.0427     2.2979
  188.0000   125.7252     0.2017     0.3890     6.1820   106.7382     0.0232     2.3438
  188.5000   122.7408     0.1990     0.3734     6.1814   109.2878     0.0375     2.3491
  189.0000   119.6522     0.1948     0.3616     6.1808   110.4860     0.0585     2.3588
  189.5000   116.7827     0.1785     0.3426     6.1802   110.3328     0.0600     2.4002
