~VERSION INFORMATION
 VERS.                2.0:   CWLS LOG ASCII STANDARD - VERSION 2.0
 WRAP.                 NO:   ONE LINE PER DEPTH STEP
~WELL INFORMATION
#MNEM.UNIT      DATA TYPE    INFORMATION
#----------   ------------   ------------------------------
 STRT.F           28.5000:   START DEPTH
 STOP.F          516.0000:   STOP DEPTH
 STEP.F            0.5000:   STEP LENGTH
 NULL.          -999.2500:   NO VALUE
 COMP. FENIX & SCISSON INC:   COMPANY
 WELL.         SX 3 #54-3:   WELL
 FLD .            WILDCAT:   FIELD
 LOC .       S3 T38N R78W:   LOCATION
 CNTY.            NATRONA:   COUNTY
 STAT.            WYOMING:   STATE
 CTRY. UNITED STATES OF AMERICA:   COUNTRY
 SRVC.            Unknown:   SERVICE COMPANY
 DATE.        22-SEP-1978:   LOGDATE
 API .       490251069000:   API NUMBER
~CURVE INFORMATION
#MNEM.UNIT       API CODE    CURVE DESCRIPTION
#----------   ------------   ------------------------------
 DEPT.F                  :   
 SPR .MV     05 010 01 00:   SPONTANEOUS POTENTIAL FROM RES.
 ILD .OHMM   05 120 46 00:   INDUCTION LOG DEEP
 SN  .OHMM   05 040 16 00:   SHORT NORMAL 16"
 CALD.IN     45 280 60 00:   CALIPER
 GRD .GAPI   45 310 01 00:   GAMMA RAY FROM DENSITY LOG
 CORR.G/C3   45 356 01 00:   DENSITY CORRECTION
 DEN .G/C3   45 350 01 00:   COMPENSATED BULK DENSTIY
 DPHI.DEC    45 890 12 00:   DENSITY POROSITY SANDSTONE
~PARAMETER INFORMATION
#MNEM.UNIT          VALUE    DESCRIPTION
#----------   ------------   ------------------------------
 PD  .                 GL:   PERMANENT DATUM
 EPD .F              5168:   ELEVATION PERMANENT DATUM
 LMF .                 KB:   LOG MEASURED FROM
 DAPD.F                 4:   FEET ABOVE PERMANENT DATUM
 DMF .                 KB:   DRILLING MEASURED FROM
 EKB .F              5172:   KELLING BUSHING
 EGL .F              5168:   GROUND LEVEL
 DATE.            9-22-78:   RUN DATE
 RUN .                  1:   RUN NUMBER
 DD  .F               510:   DEPTH DRILLER
 DL  .F               517:   DEPTH LOGGER
 BLI .F               510:   BOTTOM LOG INTERVAL
 TLI .F                40:   TOP LOG INTERVAL
 CS  .IN            8.625:   CASING SIZE
 CBD .F                40:   CASING BOTTOM DRILLER
 CBL .F                48:   CASING BOTTOM LOGGER
 BS  .IN            7.875:   BIT SIZE
 BSD .F               510:   BIT SIZE AT DEPTH
 DFT .            KCL MUD:   DRILLING FLUID TYPE
 DFD .                8.7:   DRILLING FLUID DENSITY
 DFV .                 39:   DRILLING FLUID VISCOSITY
 DFPH.                  9:   DRILLING FLUID PH
 DFL .                8.9:   DRILLING FLUID LOSS
 MSS .          FLOW LINE:   MUD SAMPLE SOURCE
 RMS .OHMM            .32:   RESISTIVITY MUD SAMPLE
 MST .F                68:   MUD SAMPLE TEMPERATURE
 RMF .OHMM            .26:   RESISTIVITY MUD FILTRATE SAMPLE
 MFST.F                72:   MUD FILTRATE SAMPLE TEMPERATURE
 RMC .OHMM            .28:   RESISTIVITY MUD CAKE
 MCST.F                75:   MUD CAKE SAMPLE TEMPERATURE
 MFSS.               MEAS:   MUD FILTRATE SAMPLE SOURCE
 MCSS.               MEAS:   MUD CAKE SAMPLE SOURCE
 RMB .OHMM            .32:   RESISTIVITY MUD AT BHT
 BHT .F                69:   BOTTOM HOLE TEMPERATURE
 TCS .HRS               3:   TIME CURCULATED STOPPED
 MRT .F                69:   MAXIMUM RECORDED TEMPERATURE
 LUN .               2958:   LOGGING UNIT NUMBER
 LUL .               CASP:   LOGGING UNIT LOCATION
 ENGI.           REYNOLDS:   RECORDING ENGINEER
 WITN.              AMEND:   WITNESSED BY
 CLNT.            A2DTECH:   CLIENT CODE
 ORIG.           5" PRINT:   ORIGIN OF DATA
 UWI .       490251069000:   UNIQUE WELL ID
 DICO. A2D Technologies, Inc.:   DIGITIZING COMPANY
~OTHER INFORMATION
~A   DEPT      SPR        ILD         SN       CALD         GRD      CORR        DEN       DPHI   
# ...
  352.5000   -39.0991    17.9436    15.2084     8.0146    97.9959     0.0026     2.4353     0.1548
  353.0000   -39.0665    17.7133    15.1276     8.0218    95.3963     0.0030     2.4373     0.1676
  353.5000   -39.0337    16.7695    14.9662     8.0290    94.8102     0.0047     2.4070     0.1695
  354.0000   -39.0008    15.8760    14.8065     8.0362    94.3039     0.0105     2.3993     0.1701
  354.5000   -38.9686    15.4207    14.6486     8.0435    94.1471     0.0122     2.3984     0.1698
  355.0000   -38.9673    15.1589    14.4923     8.0507    93.9947     0.0103     2.3985     0.1682
  355.5000   -39.0779    15.0803    14.3376     8.0562    93.7855     0.0083     2.3984     0.1662
  356.0000   -39.1844    14.9628    14.1847     8.0559    96.5553     0.0064     2.4027     0.1633
  356.5000   -39.2909    14.8462    14.0790     8.0549    98.5542     0.0050     2.4089     0.1599
  357.0000   -39.3135    14.7446    14.0124     8.0540    97.1056     0.0062     2.4152     0.1576
  357.5000   -39.2214    14.9794    13.9395     8.0531    95.4895     0.0085     2.4210     0.1625
  358.0000   -39.1295    15.1589    13.8671     8.0521    93.8960     0.0108     2.4104     0.1654
  358.5000   -39.0375    15.0196    13.7949     8.0512    92.9080     0.0131     2.3998     0.1637
  359.0000   -38.9439    14.9761    13.7232     8.0503    96.8225     0.0154     2.4066     0.1567
  359.5000   -38.8194    14.7437    13.6518     8.0493   102.7403     0.0170     2.4141     0.1496
  360.0000   -38.6928    14.5148    13.5808     8.0484   103.6716     0.0170     2.4231     0.1422
  360.5000   -38.5662    14.2900    13.5102     8.0475   103.2392     0.0170     2.4418     0.1440
  361.0000   -38.4398    14.2082    13.4399     8.0465    95.9910     0.0170     2.4443     0.1458
  361.5000   -38.3146    14.1376    13.3700     8.0456    95.2121     0.0170     2.4409     0.1462
  362.0000   -38.1727    14.0267    13.3005     8.0447    93.8997     0.0170     2.4385     0.1435
  362.5000   -38.4003    13.9174    13.2313     8.0437    92.3344     0.0170     2.4393     0.1402
  363.0000   -38.5541    13.8090    13.1626     8.0428    92.1459     0.0170     2.4536     0.1370
  363.5000   -38.7182    13.7014    13.0934     8.0419    95.8388     0.0170     2.4534     0.1337
  364.0000   -38.8804    13.5688    13.0638     8.0409   102.2348     0.0170     2.4571     0.1304
  364.5000   -39.0409    13.5885    13.0471     8.0400   103.3119     0.0170     2.4633     0.1298
  365.0000   -39.1449    13.6147    13.0304     8.0391    98.5649     0.0170     2.4649     0.1306
  365.5000   -39.1331    13.6414    13.0138     8.0382    96.3335     0.0170     2.4625     0.1315
  366.0000   -39.1163    13.6682    12.9972     8.0372    95.5624     0.0170     2.4601     0.1324
  366.5000   -39.0991    13.6949    12.9806     8.0363    96.3593     0.0170     2.4585     0.1332
  367.0000   -39.0819    13.7217    12.9640     8.0361    97.7977     0.0170     2.4578     0.1346
  367.5000   -39.0648    13.7486    12.9475     8.0361    98.5593     0.0170     2.4560     0.1379
  368.0000   -39.0476    13.7754    12.9310     8.0361    97.4518     0.0170     2.4542     0.1412
  368.5000   -39.0304    13.8028    12.9145     8.0361    94.8607     0.0176     2.4477     0.1445
  369.0000   -39.0133    13.8208    12.8980     8.0361    93.5263     0.0189     2.4392     0.1478
  369.5000   -38.9962    13.7760    12.8815     8.0361    93.1792     0.0202     2.4304     0.1512
  370.0000   -38.9790    13.7415    12.8651     8.0360    92.7520     0.0215     2.4272     0.1526
  370.5000   -38.9618    13.7070    12.8487     8.0361    92.8329     0.0228     2.4265     0.1490
  371.0000   -38.9451    13.6726    12.8323     8.0383    95.9371     0.0223     2.4302     0.1454
  371.5000   -38.9430    13.6382    12.8159     8.0493    95.9815     0.0214     2.4369     0.1417
  372.0000   -38.9010    13.6040    12.7996     8.0600    95.9769     0.0205     2.4434     0.1381
  372.5000   -38.8568    13.5698    12.7832     8.0707    96.0954     0.0196     2.4488     0.1344
  373.0000   -38.8128    13.5358    12.7669     8.0814    96.0932     0.0208     2.4538     0.1315
  373.5000   -38.7685    13.5018    12.7506     8.0917    99.4156     0.0215     2.4556     0.1320
  374.0000   -38.7476    13.4677    12.7343     8.0984   100.7748     0.0222     2.4577     0.1325
  374.5000   -38.6081    13.4435    12.7181     8.1327    98.0651     0.0229     2.4599     0.1281
  375.0000   -38.3936    13.4435    12.7018     8.1257    94.1164     0.0236     2.4620     0.1266
  375.5000   -38.1934    13.3133    12.6856     8.1185    93.6449     0.0244     2.4636     0.1290
  376.0000   -37.8338    13.1974    12.6694     8.1112    93.9674     0.0251     2.4642     0.1314
  376.5000   -37.5411    13.2759    12.6533     8.1040    94.0773     0.0259     2.4601     0.1338
  377.0000   -37.5498    13.3354    12.6372     8.0967    93.5968     0.0265     2.4566     0.1359
  377.5000   -37.5552    13.3951    12.6211     8.0894    93.6014     0.0251     2.4539     0.1378
  378.0000   -37.5262    13.4435    12.6008     8.0822   103.2062     0.0245     2.4500     0.1568
  378.5000   -36.7086    13.9775    12.6006     8.0749   104.3050     0.0240     2.4201     0.1747
  379.0000   -35.8541    14.5350    12.7712     8.0676    99.6187     0.0235     2.3908     0.1926
  379.5000   -35.0017    15.1147    12.9138     8.0606    95.2981     0.0224     2.3617     0.2105
  380.0000   -34.1522    15.9188    13.0466     8.0579    91.0024     0.0249     2.3361     0.2146
  380.5000   -33.3949    17.2932    13.1820     8.0070    86.6990     0.0298     2.3213     0.2114
  381.0000   -32.6801    18.7904    13.7174     7.9597    82.4239     0.0347     2.3231     0.2102
  381.5000   -31.9149    20.5467    14.3226     8.0054    81.9206     0.0391     2.3262     0.2083
  382.0000   -31.3656    23.3876    14.9545     8.0672    81.8465     0.0369     2.3294     0.2067
  382.5000   -31.2965    26.9040    15.6143     8.1284    86.5510     0.0329     2.3321     0.2126
  383.0000   -31.1462    29.0304    16.3032     8.1763    91.4686     0.0290     2.3228     0.2169
  383.5000   -30.9979    29.7542    17.0602     8.1319    90.0700     0.0250     2.3128     0.2186
  384.0000   -30.8490    29.6645    18.3044     8.0879    87.4635     0.0210     2.3173     0.2171
  384.5000   -30.7001    29.5102    19.6393     8.0535    87.2586     0.0189     2.3188     0.2172
  385.0000   -30.5509    29.4806    20.5620     7.9224    80.9457     0.0187     2.3132     0.2246
  385.5000   -30.4013    30.1081    21.0267     7.9150    79.1164     0.0184     2.3035     0.2298
  386.0000   -30.3636    30.8887    21.5019     7.9165    82.5546     0.0182     2.2964     0.2278
  386.5000   -30.3461    31.1607    21.9878     7.8834    83.2657     0.0180     2.2972     0.2179
  387.0000   -30.3289    30.4489    22.3447     7.8443    82.1367     0.0178     2.3177     0.2086
  387.5000   -30.3115    29.7965    22.3772     7.8305    81.4237     0.0175     2.3385     0.2025
  388.0000   -30.2941    29.4806    22.4072     7.8775    82.6580     0.0173     2.3482     0.1994
  388.5000   -30.2766    29.5255    22.4372     7.9232    85.7399     0.0171     2.3475     0.2007
  389.0000   -30.2592    30.0303    22.4674     7.9689    86.5063     0.0170     2.3430     0.2018
  389.5000   -30.2417    29.4667    22.4975     7.9963    86.2726     0.0193     2.3382     0.2030
  390.0000   -30.2241    28.4779    22.5278     7.9971    86.0521     0.0313     2.3377     0.2030
  390.5000   -30.2066    27.8909    22.5527     7.9577    86.3864     0.0428     2.3433     0.1964
  391.0000   -30.1910    27.8715    22.5458     7.9128    87.7677     0.0511     2.3491     0.1782
  391.5000   -30.2782    27.7782    22.5108     7.8790    89.1272     0.0478     2.3664     0.1471
  392.0000   -30.5173    27.6852    22.4768     7.9143    88.6809     0.0419     2.4148     0.1162
  392.5000   -30.7512    27.6345    22.4428     7.9399    85.9021     0.0360     2.4843     0.0852
