~VERSION INFORMATION
 VERS.                2.0:   CWLS LOG ASCII STANDARD - VERSION 2.0
 WRAP.                 NO:   ONE LINE PER DEPTH STEP
~WELL INFORMATION
#MNEM.UNIT      DATA TYPE    INFORMATION
#----------   ------------   ------------------------------
 STRT.F          630.0000:   START DEPTH
 STOP.F         1708.0000:   STOP DEPTH
 STEP.F            0.5000:   STEP LENGTH
 NULL.          -999.2500:   NO VALUE
 COMP. FENIX & SCISSON INC:   COMPANY
 WELL.      SHX 34 #58-34:   WELL
 FLD .             TEAPOT:   FIELD
 LOC .      S34 T39N R78W:   LOCATION
 CNTY.            NATRONA:   COUNTY
 STAT.            WYOMING:   STATE
 CTRY. UNITED STATES OF AMERICA:   COUNTRY
 SRVC.           BIRDWELL:   SERVICE COMPANY
 DATE.        28-MAR-1979:   LOGDATE
 API .       490251077400:   API NUMBER
~CURVE INFORMATION
#MNEM.UNIT       API CODE    CURVE DESCRIPTION
#----------   ------------   ------------------------------
 DEPT.F                  :   
 CORR.G/C3   45 356 01 00:   DENSITY CORRECTION
 DPHI.DEC    45 890 12 00:   DENSITY POROSITY SANDSTONE
 RHOB.G/C3   45 350 01 00:   BULK DENSITY
 CALD.IN     45 280 60 00:   CALIPER
 GRD .GAPI   45 310 01 00:   GAMMA RAY FROM DENSITY LOG
~PARAMETER INFORMATION
#MNEM.UNIT          VALUE    DESCRIPTION
#----------   ------------   ------------------------------
 PD  .                 GL:   PERMANENT DATUM
 EPD .F              5120:   ELEVATION PERMANENT DATUM
 LMF .                 KB:   LOG MEASURED FROM
 DAPD.F                10:   FEET ABOVE PERMANENT DATUM
 DMF .                 KB:   DRILLING MEASURED FROM
 EKB .F              5130:   KELLING BUSHING
 EGL .F              5120:   GROUND LEVEL
 DATE.            3-28-79:   RUN DATE
 RUN .                  2:   RUN NUMBER
 DD  .F              1720:   DEPTH DRILLER
 DL  .F              1708:   DEPTH LOGGER
 BLI .F              1708:   BOTTOM LOG INTERVAL
 TLI .F               649:   TOP LOG INTERVAL
 CS  .IN            9.625:   CASING SIZE
 CBD .F               639:   CASING BOTTOM DRILLER
 CBL .F               646:   CASING BOTTOM LOGGER
 BS  .IN             8.75:   BIT SIZE
 BSD .F              1720:   BIT SIZE AT DEPTH
 DFT .                OIL:   DRILLING FLUID TYPE
 TCS .HRS               3:   TIME CURCULATED STOPPED
 MRT .F               150:   MAXIMUM RECORDED TEMPERATURE
 LUN .               2959:   LOGGING UNIT NUMBER
 LUL .             CASPER:   LOGGING UNIT LOCATION
 ENGI.         B. ROLLINS:   RECORDING ENGINEER
 WITN.              AMEND:   WITNESSED BY
 CLNT.            A2DTECH:   CLIENT CODE
 ORIG.           5" PRINT:   ORIGIN OF DATA
 UWI .       490251077400:   UNIQUE WELL ID
 DICO. A2D Technologies, Inc.:   DIGITIZING COMPANY
~OTHER INFORMATION
~A   DEPT     CORR       DPHI       RHOB       CALD         GRD  
# ...
  935.0000     0.0242     0.0377     2.4907     9.3097   115.7937
  935.5000     0.0304     0.0321     2.4988     9.2846   114.7200
  936.0000     0.0325     0.0287     2.5027     9.2607   113.3715
  936.5000     0.0356     0.0271     2.5010     9.2645   115.5184
  937.0000     0.0298     0.0315     2.4954     9.2812   118.7007
  937.5000     0.0221     0.0415     2.4714     9.2982   121.6573
  938.0000     0.0092     0.0600     2.4511     9.3153   122.6879
  938.5000     0.0086     0.0786     2.4304     9.3328   117.0255
  939.0000     0.0121     0.0887     2.4073     9.3401   112.0516
  939.5000     0.0299     0.0916     2.3972     9.3318   111.7719
  940.0000     0.0513     0.0696     2.4198     9.3254   113.9694
  940.5000     0.0730     0.0555     2.4610     9.3186   111.0125
  941.0000     0.1083     0.0451     2.4778     9.3114   106.5610
  941.5000     0.1662     0.0239     2.5247     9.3050   105.3016
  942.0000     0.2289    -0.0080     2.5599     9.3009   108.0145
  942.5000     0.2188    -0.0089     2.5657     9.3242   109.0015
  943.0000     0.2074    -0.0099     2.5667     9.3519   108.1006
  943.5000     0.1933    -0.0104     2.5661     9.3816   108.0253
  944.0000     0.1584    -0.0023     2.5468     9.4046   111.1293
  944.5000     0.1167     0.0114     2.5113     9.4537   113.9140
  945.0000     0.0748     0.0348     2.4954     9.4596   114.2238
  945.5000     0.0489     0.0424     2.4776     9.4612   112.6290
  946.0000     0.0313     0.0555     2.4606     9.4595   113.4601
  946.5000     0.0223     0.0694     2.4437     9.4602   114.0491
  947.0000     0.0318     0.0708     2.4325     9.4601   113.1413
  947.5000     0.0407     0.0577     2.4530     9.4599   112.5217
  948.0000     0.0501     0.0461     2.4688     9.4601   113.6111
  948.5000     0.0601     0.0404     2.4755     9.4597   115.9613
  949.0000     0.0909     0.0359     2.4963     9.4601   116.5526
  949.5000     0.1126     0.0219     2.5172     9.4609   116.7634
  950.0000     0.1170     0.0080     2.5331     9.4820   119.8022
  950.5000     0.0923     0.0194     2.5133     9.5038   125.1023
  951.0000     0.0698     0.0359     2.4995     9.5265   135.7886
  951.5000     0.0613     0.0371     2.4898     9.5487   146.2505
  952.0000     0.0534     0.0385     2.4858     9.5710   156.4699
  952.5000     0.0462     0.0398     2.4858     9.5934   161.3051
  953.0000     0.0493     0.0369     2.4946     9.6157   146.6228
  953.5000     0.0577     0.0328     2.5027     9.6380   133.9455
  954.0000     0.0559     0.0287     2.4972     9.6603   120.4046
  954.5000     0.0523     0.0323     2.4905     9.6827   117.4071
  955.0000     0.0546     0.0358     2.4981     9.7051   114.4635
  955.5000     0.0525     0.0377     2.4939     9.7271   112.9061
  956.0000     0.0398     0.0406     2.4838     9.7578   113.8047
  956.5000     0.0276     0.0426     2.4798     9.7985   115.1156
  957.0000     0.0319     0.0440     2.4759     9.8391   113.8577
  957.5000     0.0403     0.0454     2.4723     9.8817   113.1290
  958.0000     0.0461     0.0467     2.4703     9.9018   118.6855
  958.5000     0.0474     0.0483     2.4735     9.8916   117.8555
  959.0000     0.0461     0.0502     2.4653     9.8798   113.5178
  959.5000     0.0451     0.0502     2.4661     9.8682   109.4711
  960.0000     0.0434     0.0528     2.4652     9.8562   106.6582
  960.5000     0.0494     0.0550     2.4574     9.8443   107.6979
  961.0000     0.0635     0.0536     2.4616     9.8322   109.3597
  961.5000     0.0794     0.0470     2.4715     9.8203   111.0965
  962.0000     0.0962     0.0438     2.4797     9.8093   112.6149
  962.5000     0.1108     0.0488     2.4724     9.7963   107.9907
  963.0000     0.1264     0.0628     2.4585     9.7886   104.9771
  963.5000     0.1465     0.0850     2.3989     9.7796   106.0302
  964.0000     0.1746     0.1402     2.3470     9.8912   105.8304
  964.5000     0.2307     0.1410     2.3053    10.1133   104.4581
  965.0000     0.3286     0.1337     2.3151    10.2709   103.8995
  965.5000     0.3184     0.1080     2.3309    10.4774   106.8950
  966.0000     0.2430     0.0558     2.4136     9.3989   109.9189
  966.5000     0.1580     0.0579     2.4596     9.4879   110.7259
  967.0000     0.0959     0.0609     2.4437     9.4502   109.0120
  967.5000     0.1040     0.0544     2.4564     9.4824   106.9374
  968.0000     0.1204     0.0483     2.4748     9.4823   107.0476
  968.5000     0.1442     0.0356     2.4922     9.4852   108.2958
  969.0000     0.1568     0.0210     2.5059     9.4941   105.7387
  969.5000     0.1519     0.0132     2.5296     9.4997   106.8925
  970.0000     0.1133     0.0344     2.4759     9.4899   111.8411
  970.5000     0.0748     0.0800     2.4293     9.4697   114.7112
  971.0000     0.0684     0.0760     2.4166     9.4505   113.7987
  971.5000     0.0723     0.0679     2.4371     9.4316   113.1957
  972.0000     0.0733     0.0594     2.4555     9.4123   112.4375
  972.5000     0.0886     0.0535     2.4654     9.3932   111.7411
  973.0000     0.1141     0.0454     2.4819     9.3740   109.5468
  973.5000     0.1293     0.0335     2.4965     9.3549   107.0013
  974.0000     0.1229     0.0319     2.5030     9.3358   104.2135
  974.5000     0.1143     0.0307     2.4930     9.3166   105.5610
  975.0000     0.1077     0.0297     2.4965     9.2975   107.9764
  975.5000     0.1051     0.0287     2.5029     9.2781   110.8150
  976.0000     0.1051     0.0301     2.5043     9.2593   112.9176
  976.5000     0.1117     0.0324     2.5003     9.2362   115.6516
  977.0000     0.1152     0.0347     2.4962     9.2137   111.8528
  977.5000     0.1141     0.0366     2.4931     9.1903   106.4899
  978.0000     0.0925     0.0404     2.4799     9.1790   107.5180
  978.5000     0.0611     0.0438     2.4614     9.2040   109.5047
  979.0000     0.0392     0.0613     2.4494     9.2387   111.1731
  979.5000     0.0331     0.0609     2.4476     9.2730   113.6838
  980.0000     0.0340     0.0590     2.4537     9.2996   111.9241
  980.5000     0.0681     0.0468     2.4705     9.3020   109.6359
  981.0000     0.1011     0.0179     2.4981     9.3044   109.4458
  981.5000     0.1389     0.0020     2.5255     9.3061   111.5289
  982.0000     0.1452    -0.0061     2.5552     9.3080   114.3163
  982.5000     0.1276    -0.0009     2.5617     9.3099   116.7679
  983.0000     0.1045     0.0117     2.5412     9.3117   121.1450
  983.5000     0.0994     0.0126     2.5263     9.3136   125.3837
  984.0000     0.1005     0.0127     2.5297     9.3155   127.9681
  984.5000     0.0898     0.0160     2.5302     9.3174   125.7828
  985.0000     0.0649     0.0235     2.5181     9.3193   123.8206
  985.5000     0.0439     0.0309     2.5000     9.3211   121.8350
  986.0000     0.0323     0.0364     2.4884     9.3230   120.0187
  986.5000     0.0273     0.0377     2.4909     9.3249   118.2905
  987.0000     0.0282     0.0388     2.4926     9.3268   116.7121
  987.5000     0.0251     0.0398     2.4832     9.3287   117.9419
  988.0000     0.0195     0.0472     2.4732     9.3306   120.1723
  988.5000     0.0170     0.0526     2.4664     9.3325   122.3618
  989.0000     0.0217     0.0526     2.4647     9.3342   124.8676
  989.5000     0.0260     0.0488     2.4663     9.3363   122.3465
  990.0000     0.0307     0.0454     2.4681     9.3383   117.0503
  990.5000     0.0319     0.0430     2.4777     9.3387   118.6986
  991.0000     0.0318     0.0418     2.4799     9.3510   121.7358
  991.5000     0.0322     0.0414     2.4810     9.3722   124.7586
  992.0000     0.0282     0.0495     2.4677     9.3919   126.8971
  992.5000     0.0207     0.0573     2.4595     9.4114   121.8520
  993.0000     0.0179     0.0581     2.4554     9.4314   121.1186
  993.5000     0.0258     0.0525     2.4545     9.4511   121.6744
  994.0000     0.0331     0.0462     2.4719     9.4709   119.0077
  994.5000     0.0408     0.0399     2.4825     9.4906   118.4054
  995.0000     0.0487     0.0369     2.4887     9.5107   120.5866
  995.5000     0.0522     0.0352     2.4956     9.5301   123.2833
