~VERSION INFORMATION
 VERS.                2.0:   CWLS LOG ASCII STANDARD - VERSION 2.0
 WRAP.                 NO:   ONE LINE PER DEPTH STEP
~WELL INFORMATION
#MNEM.UNIT      DATA TYPE    INFORMATION
#----------   ------------   ------------------------------
 STRT.M            0.0000:   START DEPTH
 STOP.M          642.0000:   STOP DEPTH
 STEP.M            0.1000:   STEP LENGTH
 NULL.          -999.2500:   NO VALUE
 COMP.   FLUOR DANIEL INC:   COMPANY
 WELL.     71-1 X 3 #71-3:   WELL
 FLD .             TEAPOT:   FIELD
 LOC .       S3 T38N R78W:   LOCATION
 CNTY.            NATRONA:   COUNTY
 STAT.            WYOMING:   STATE
 CTRY. UNITED STATES OF AMERICA:   COUNTRY
 SRVC.      Western Atlas:   SERVICE COMPANY
 DATE.        04-JAN-1995:   LOGDATE
 API .       490252267900:   API NUMBER
~CURVE INFORMATION
#MNEM.UNIT       API CODE    CURVE DESCRIPTION
#----------   ------------   ------------------------------
 DEPT.M                  :   
 RILD.OHMM   07 120 46 00:   INDUCTION LOG DEEP RESISTIVITY
 RILM.OHMM   07 120 44 00:   INDUCTION LOG MEDIUM RESISTIVITY
 GRR .GAPI   07 310 01 00:   GAMMA RAY
~PARAMETER INFORMATION
#MNEM.UNIT          VALUE    DESCRIPTION
#----------   ------------   ------------------------------
 PD  .                 GL:   PERMANENT DATUM
 EPD .F              5123:   ELEVATION PERMANENT DATUM
 LMF .                 KB:   LOG MEASURED FROM
 DAPD.F                10:   FEET ABOVE PERMANENT DATUM
 DMF .                 KB:   DRILLING MEASURED FROM
 EKB .F              5133:   KELLING BUSHING
 EDF .F              5132:   DRILLING FLOOR
 EGL .F              5123:   GROUND LEVEL
 DATE.        04-JAN-1995:   RUN DATE
 RUN .                  1:   RUN NUMBER
 DD  .F               647:   DEPTH DRILLER
 DL  .F               650:   DEPTH LOGGER
 BLI .F               642:   BOTTOM LOG INTERVAL
 TLI .F                96:   TOP LOG INTERVAL
 CS  .IN            9.625:   CASING SIZE
 CBD .F                96:   CASING BOTTOM DRILLER
 CBL .F                96:   CASING BOTTOM LOGGER
 BS  .IN             8.75:   BIT SIZE
 BSD .F               647:   BIT SIZE AT DEPTH
 DFT .                AIR:   DRILLING FLUID TYPE
 MRT .F                91:   MAXIMUM RECORDED TEMPERATURE
 LUN .            HL 6530:   LOGGING UNIT NUMBER
 LUL .             CASPER:   LOGGING UNIT LOCATION
 ENGI.        VERN RAUTIO:   RECORDING ENGINEER
 WITN.        GARY STRONG:   WITNESSED BY
 CLNT.            A2DTECH:   CLIENT CODE
 ORIG.           5" PRINT:   ORIGIN OF DATA
 UWI .       490252267900:   UNIQUE WELL ID
 DICO. A2D Technologies, Inc.:   DIGITIZING COMPANY
~OTHER INFORMATION
~A    DEPT    RILD       RILM        GRR   
# ...
  364.0000     2.4078     2.7475   123.2266
  364.1000     2.3731     2.6919   122.5125
  364.2000     2.3494     2.6464   122.2262
  364.3000     2.3359     2.6003   121.6031
  364.4000     2.3200     2.5438   121.0144
  364.5000     2.2987     2.4868   120.4200
  364.6000     2.2802     2.4381   119.7228
  364.7000     2.2719     2.4009   119.2109
  364.8000     2.2718     2.3738   118.7335
  364.9000     2.2717     2.3432   118.0537
  365.0000     2.2596     2.3206   117.3110
  365.1000     2.2559     2.3026   116.5685
  365.2000     2.2558     2.2949   115.7811
  365.3000     2.2557     2.2925   114.3844
  365.4000     2.2556     2.2791   113.0876
  365.5000     2.2555     2.2791   111.6012
  365.6000     2.2554     2.2696   110.2228
  365.7000     2.2633     2.2702   109.0919
  365.8000     2.2709     2.2792   108.3480
  365.9000     2.2732     2.2803   108.1017
  366.0000     2.2865     2.2952   107.8549
  366.1000     2.2864     2.2952   107.7474
  366.2000     2.2961     2.3118   107.7486
  366.3000     2.3091     2.3328   107.7499
  366.4000     2.3181     2.3461   107.7512
  366.5000     2.3192     2.3600   107.7523
  366.6000     2.3340     2.3861   107.9239
  366.7000     2.3456     2.4134   108.5217
  366.8000     2.3501     2.4410   109.5148
  366.9000     2.3618     2.4731   110.5077
  367.0000     2.3858     2.5156   111.6860
  367.1000     2.3993     2.5654   112.2918
  367.2000     2.4267     2.6157   113.1843
  367.3000     2.4655     2.6567   114.1772
  367.4000     2.4997     2.6997   115.2092
  367.5000     2.5283     2.7617   116.5258
  367.6000     2.5609     2.8276   117.9240
  367.7000     2.6251     2.8902   119.2342
  367.8000     2.6941     2.9568   120.8483
  367.9000     2.7720     3.0248   122.8327
  368.0000     2.8519     3.0943   124.7855
  368.1000     2.9340     3.1653   126.5029
  368.2000     3.0184     3.2492   127.9729
  368.3000     3.1218     3.3128   129.5539
  368.4000     3.1805     3.3891   130.9413
  368.5000     3.2649     3.4670   132.1351
  368.6000     3.3591     3.5503   133.1553
  368.7000     3.4557     3.6567   133.6387
  368.8000     3.5611     3.7581   134.1358
  368.9000     3.6384     3.8503   134.2346
  369.0000     3.7534     3.9389   133.9094
  369.1000     3.8838     4.0431   133.3904
  369.2000     4.0184     4.1795   132.5584
  369.3000     4.1575     4.2905   132.1232
  369.4000     4.3239     4.3742   131.3006
  369.5000     4.4085     4.4749   130.5297
  369.6000     4.5100     4.5885   130.0350
  369.7000     4.6248     4.7156   129.5390
  369.8000     4.7579     4.8286   128.7964
  369.9000     4.8983     4.9351   128.0538
  370.0000     5.0084     5.0701   127.5932
  370.1000     5.1238     5.1856   127.4332
  370.2000     5.2416     5.2835   127.4671
  370.3000     5.3522     5.4027   127.7379
  370.4000     5.4441     5.5103   128.8709
  370.5000     5.5487     5.5904   130.1118
  370.6000     5.6616     5.6867   131.2346
  370.7000     5.7479     5.7581   132.2275
  370.8000     5.8284     5.7910   133.2204
  370.9000     5.9285     5.8256   134.3918
  371.0000     6.0300     5.8892   135.2065
  371.1000     6.0989     5.9566   136.1995
  371.2000     6.1686     6.0248   137.1924
  371.3000     6.2390     6.0837   138.1853
  371.4000     6.2974     6.1184   139.2315
  371.5000     6.3331     6.1590   140.1712
  371.6000     6.3721     6.1886   141.1640
  371.7000     6.4388     6.2239   141.9045
  371.8000     6.4864     6.2454   142.2574
  371.9000     6.5231     6.2516   142.2586
  372.0000     6.5601     6.2891   142.2600
  372.1000     6.5973     6.3233   142.0493
  372.2000     6.6414     6.3331   141.8026
  372.3000     6.6411     6.3514   141.4525
  372.4000     6.6638     6.3877   140.9580
  372.5000     6.7016     6.4219   140.4532
  372.6000     6.7332     6.4220   139.9687
  372.7000     6.7328     6.4221   139.4739
  372.8000     6.7326     6.4222   138.9792
  372.9000     6.7323     6.4223   138.4846
  373.0000     6.7320     6.4224   137.9899
  373.1000     6.7317     6.4225   137.4394
  373.2000     6.7314     6.4226   137.2205
  373.3000     6.7311     6.4227   136.9738
  373.4000     6.7309     6.4227   136.7271
  373.5000     6.7306     6.4228   136.4804
  373.6000     6.7303     6.4229   136.2368
  373.7000     6.7224     6.4230   136.2381
  373.8000     6.6832     6.4231   136.2393
  373.9000     6.6829     6.4232   136.2405
  374.0000     6.6537     6.4233   136.2417
  374.1000     6.6156     6.4172   136.2429
  374.2000     6.5778     6.3790   136.2442
  374.3000     6.5361     6.3449   136.2453
  374.4000     6.4536     6.3350   136.2465
  374.5000     6.3884     6.2993   136.2477
  374.6000     6.3158     6.2281   136.1833
  374.7000     6.2440     6.1578   135.9480
  374.8000     6.1649     6.0768   135.9495
  374.9000     6.0605     6.0197   135.7452
  375.0000     5.9917     5.9313   135.3474
  375.1000     5.8970     5.8438   135.0465
  375.2000     5.8158     5.7725   134.9624
  375.3000     5.7380     5.6694   134.4448
  375.4000     5.6404     5.6091   134.2095
  375.5000     5.5372     5.5009   133.7805
  375.6000     5.4792     5.3924   133.2858
  375.7000     5.4169     5.3095   132.7910
  375.8000     5.3553     5.2495   132.3162
  375.9000     5.2944     5.1803   132.0352
  376.0000     5.2327     5.1078   132.0363
  376.1000     5.1289     5.0388   132.1968
  376.2000     5.0567     4.9928   132.6562
  376.3000     4.9880     4.9600   133.4521
  376.4000     4.9423     4.9007   134.4580
  376.5000     4.9092     4.8746   135.4380
  376.6000     4.8509     4.8274   136.4311
  376.7000     4.8243     4.7863   137.4241
  376.8000     4.7767     4.7593   138.4169
  376.9000     4.7503     4.7310   139.4097
  377.0000     4.7340     4.6685   140.5077
  377.1000     4.6844     4.6685   140.9523
  377.2000     4.6842     4.6526   141.7844
  377.3000     4.6611     4.6263   142.6640
  377.4000     4.6344     4.6043   143.2906
  377.5000     4.6191     4.6044   143.5348
  377.6000     4.6189     4.5800   143.5362
  377.7000     4.6187     4.5541   143.3383
  377.8000     4.6185     4.5411   143.0916
  377.9000     4.5981     4.5411   142.6641
  378.0000     4.5862     4.5399   141.9215
  378.1000     4.5860     4.5098   141.1252
  378.2000     4.5828     4.5099   140.4363
  378.3000     4.5539     4.5099   139.6936
  378.4000     4.5537     4.5100   138.9510
  378.5000     4.5535     4.5101   138.2084
  378.6000     4.5653     4.5101   137.4791
  378.7000     4.5849     4.5102   136.9029
  378.8000     4.5853     4.5286   136.2828
  378.9000     4.6164     4.5417   135.5403
  379.0000     4.6162     4.5418   134.8963
  379.1000     4.6315     4.5443   134.4017
  379.2000     4.6577     4.6055   133.8877
  379.3000     4.6841     4.6055   133.4122
  379.4000     4.7125     4.6214   133.1017
  379.5000     4.7374     4.6478   132.8550
  379.6000     4.7643     4.6743   132.6083
  379.7000     4.7913     4.7028   132.3830
  379.8000     4.8261     4.7279   132.3844
  379.9000     4.8811     4.7742   132.3855
  380.0000     4.9459     4.8020   132.5478
  380.1000     4.9694     4.8167   132.9040
  380.2000     5.0153     4.8705   133.3483
  380.3000     5.0609     4.9033   133.5988
  380.4000     5.0949     4.9264   134.0932
  380.5000     5.1552     4.9715   134.5901
  380.6000     5.2119     5.0175   135.2253
  380.7000     5.2715     5.0506   135.9703
  380.8000     5.3316     5.1123   136.7153
  380.9000     5.3925     5.1396   137.5337
  381.0000     5.4540     5.1899   137.9819
  381.1000     5.5243     5.2493   138.6483
  381.2000     5.5793     5.3013   139.3934
  381.3000     5.6642     5.3328   140.1996
  381.4000     5.7471     5.4049   141.1786
  381.5000     5.8199     5.4556   141.7706
  381.6000     5.9201     5.4993   142.1727
  381.7000     5.9876     5.5426   142.6699
  381.8000     6.0830     5.6059   143.1670
  381.9000     6.1678     5.6746   143.6641
  382.0000     6.2381     5.7350   144.1934
  382.1000     6.3093     5.8007   144.6583
