~VERSION INFORMATION
 VERS.                2.0:   CWLS LOG ASCII STANDARD - VERSION 2.0
 WRAP.                 NO:   ONE LINE PER DEPTH STEP
~WELL INFORMATION
#MNEM.UNIT      DATA TYPE    INFORMATION
#----------   ------------   ------------------------------
 STRT.F           11.0000:   START DEPTH
 STOP.F          804.0000:   STOP DEPTH
 STEP.F            0.1000:   STEP LENGTH
 NULL.          -999.2500:   NO VALUE
 COMP. BROWN JOHN E&C INC:   COMPANY
 WELL. 72-1 STX-34 #72-34:   WELL
 FLD .             TEAPOT:   FIELD
 LOC .      S34 T39N R78W:   LOCATION
 CNTY.            NATRONA:   COUNTY
 STAT.            WYOMING:   STATE
 CTRY. UNITED STATES OF AMERICA:   COUNTRY
 SRVC.     Atlas Wireline:   SERVICE COMPANY
 DATE.        31-JAN-1992:   LOGDATE
 API .       490252250200:   API NUMBER
~CURVE INFORMATION
#MNEM.UNIT       API CODE    CURVE DESCRIPTION
#----------   ------------   ------------------------------
 DEPT.F                  :   
 GRR .GAPI   07 310 01 00:   GAMMA RAY
 RILD.OHMM   07 120 46 00:   INDUCTION LOG DEEP RESISTIVITY
 RILM.OHMM   07 120 44 00:   INDUCTION LOG MEDIUM RESISTIVITY
~PARAMETER INFORMATION
#MNEM.UNIT          VALUE    DESCRIPTION
#----------   ------------   ------------------------------
 PD  .                 GL:   PERMANENT DATUM
 EPD .F              5069:   ELEVATION PERMANENT DATUM
 LMF .                 KB:   LOG MEASURED FROM
 DAPD.F                10:   FEET ABOVE PERMANENT DATUM
 DMF .                 KB:   DRILLING MEASURED FROM
 EKB .F              5079:   KELLING BUSHING
 EDF .F              5078:   DRILLING FLOOR
 EGL .F              5069:   GROUND LEVEL
 DATE.        31-JAN-1992:   RUN DATE
 RUN .                  1:   RUN NUMBER
 DD  .F               814:   DEPTH DRILLER
 DL  .F               813:   DEPTH LOGGER
 BLI .F               804:   BOTTOM LOG INTERVAL
 CS  .IN            9.625:   CASING SIZE
 CBD .F               100:   CASING BOTTOM DRILLER
 CBL .F               104:   CASING BOTTOM LOGGER
 BS  .IN             8.75:   BIT SIZE
 BSD .F               814:   BIT SIZE AT DEPTH
 DFT .                AIR:   DRILLING FLUID TYPE
 MRT .F                90:   MAXIMUM RECORDED TEMPERATURE
 LUN .           HL- 6274:   LOGGING UNIT NUMBER
 LUL .             CASPER:   LOGGING UNIT LOCATION
 ENGI.             RAUTIO:   RECORDING ENGINEER
 WITN.        GARY STRONG:   WITNESSED BY
 CLNT.            A2DTECH:   CLIENT CODE
 ORIG.           5" PRINT:   ORIGIN OF DATA
 UWI .       490252250200:   UNIQUE WELL ID
 DICO. A2D Technologies, Inc.:   DIGITIZING COMPANY
~OTHER INFORMATION
~A   DEPT       GRR      RILD       RILM   
# ...
  466.0000   114.1422    10.0206     9.8372
  466.1000   114.0593    10.0205     9.7815
  466.2000   114.0611     9.9906     9.7258
  466.3000   114.1070     9.9337     9.7257
  466.4000   114.3674     9.8772     9.7256
  466.5000   114.8309     9.8118     9.7254
  466.6000   115.3223     9.8117     9.7253
  466.7000   115.9287     9.8116     9.7252
  466.8000   116.5499     9.7905     9.7250
  466.9000   116.7970     9.7430     9.7249
  467.0000   117.5311     9.7428     9.7903
  467.1000   118.0805     9.7937     9.8814
  467.2000   118.5717     9.8109     9.9302
  467.3000   119.0631     9.8623     9.9300
  467.4000   119.5542     9.9618     9.9801
  467.5000   120.1365    10.0185     9.9993
  467.6000   120.3372    10.0755     9.9991
  467.7000   120.7251    10.0885    10.0098
  467.8000   121.1328    10.0884    10.0689
  467.9000   121.3535    10.1062    10.0687
  468.0000   117.7249    10.1636    10.0686
  468.1000   116.8767    10.2300    10.0406
  468.2000   116.0543    10.2299     9.9984
  468.3000   115.5155    10.2297     9.9982
  468.4000   115.1953    10.2296     9.9980
  468.5000   114.4056    10.2295     9.9534
  468.6000   113.9562    10.2293     9.9282
  468.7000   113.3012    10.2291     9.9281
  468.8000   112.6787    10.1881     9.9230
  468.9000   112.1910    10.1576     9.8588
  469.0000   111.6914    10.1575     9.8112
  469.1000   111.4545    10.1564     9.7557
  469.2000   111.3924    10.0987     9.7218
  469.3000   111.3942    10.0863     9.7217
  469.4000   111.4611    10.0861     9.7215
  469.5000   111.7005    10.0672     9.7214
  469.6000   111.7022    10.0045     9.6836
  469.7000   112.0919     9.8763     9.6535
  469.8000   112.5830     9.8275     9.6414
  469.9000   112.9960     9.7717     9.5861
  470.0000   113.2826     9.7387     9.5327
  470.1000   114.1322     9.7286     9.4788
  470.2000   114.3407     9.6706     9.4529
  470.3000   114.7363     9.6183     9.4528
  470.4000   115.1363     9.5636     9.4526
  470.5000   115.4161     9.5359     9.4524
  470.6000   115.9566     9.5358     9.4087
  470.7000   116.1784     9.5356     9.3865
  470.8000   116.4248     9.5354     9.3863
  470.9000   116.5670     9.5353     9.3862
  471.0000   116.5688     9.5352     9.3861
  471.1000   116.5707     9.5350     9.3860
  471.2000   116.8055     9.5349     9.3858
  471.3000   117.0521     9.5348     9.3857
  471.4000   117.2987     9.5347     9.3856
  471.5000   117.4856     9.5345     9.3854
  471.6000   117.4891     9.5344     9.3853
  471.7000   117.7355     9.5343     9.3472
  471.8000   117.7936     9.5341     9.2691
  471.9000   117.7954     9.5340     9.1905
  472.0000   117.8699     9.5339     9.1896
  472.1000   118.1164     9.5337     9.1376
  472.2000   118.4064     9.5336     9.1262
  472.3000   118.6093     9.5308     9.0978
  472.4000   118.8558     9.4669     9.0463
  472.5000   119.0166     9.4228     8.9952
  472.6000   119.0184     9.3380     8.9366
  472.7000   119.0205     9.2699     8.9365
  472.8000   118.5928     9.2698     8.9364
  472.9000   118.1052     9.2697     8.9363
  473.0000   117.7166     9.2222     8.9362
  473.1000   117.3513     9.1697     8.9360
  473.2000   116.3063     9.1176     8.8898
  473.3000   115.6249     9.0657     8.8736
  473.4000   115.4021     9.0133     8.8735
  473.5000   115.2921     9.0132     8.8734
  473.6000   115.0491     9.0131     8.8733
  473.7000   114.8024     9.0130     8.8731
  473.8000   115.0451     9.0129     8.8730
  473.9000   115.2916     9.0127     8.8472
  474.0000   115.5381     9.0126     8.8111
  474.1000   115.9192     9.0125     8.8110
  474.2000   116.6828     9.0124     8.8108
  474.3000   118.4445     9.0122     8.7704
  474.4000   119.0342     9.0121     8.7208
  474.5000   119.6319     9.0119     8.6884
  474.6000   120.0427     9.0118     8.6883
  474.7000   120.3115     8.9765     8.6881
  474.8000   120.8741     8.9488     8.6880
  474.9000   121.0848     8.9487     8.6879
  475.0000   121.3313     8.9485     8.6878
  475.1000   121.3910     8.9484     8.6877
  475.2000   121.0771     8.9092     8.6875
  475.3000   120.2779     8.8858     8.6412
  475.4000   119.8349     8.8856     8.6269
  475.5000   119.1831     8.8855     8.6268
  475.6000   118.4509     8.8854     8.6267
  475.7000   117.6699     8.8853     8.6265
  475.8000   116.6560     8.8851     8.6264
  475.9000   115.7165     8.8850     8.5886
  476.0000   114.2067     8.8849     8.5400
  476.1000   112.8546     8.8848     8.5065
  476.2000   112.0013     8.8376     8.5028
  476.3000   111.5213     8.8226     8.4471
  476.4000   111.5232     8.8225     8.4470
  476.5000   111.5250     8.8224     8.4469
  476.6000   111.6596     8.8223     8.4468
  476.7000   111.8312     8.8221     8.4467
  476.8000   111.8838     8.8220     8.4465
  476.9000   112.7428     8.8219     8.4464
  477.0000   112.9481     8.8218     8.4463
  477.1000   113.0487     8.8217     8.4462
  477.2000   113.2264     8.8215     8.4461
  477.3000   113.6876     8.8214     8.4459
  477.4000   113.9621     8.8212     8.4458
  477.5000   114.1806     8.8211     8.4457
  477.6000   114.2681     8.8210     8.4699
  477.7000   114.2699     8.8209     8.5046
  477.8000   114.2717     8.7733     8.5064
  477.9000   114.2736     8.7592     8.5639
  478.0000   114.2753     8.7591     8.5638
  478.1000   114.1052     8.7590     8.5637
  478.2000   113.7483     8.7588     8.5472
  478.3000   113.3169     8.7587     8.5039
  478.4000   113.0723     8.7586     8.5038
  478.5000   112.8310     8.7585     8.4619
  478.6000   112.4031     8.7583     8.4444
  478.7000   112.0428     8.7582     8.4443
  478.8000   111.8693     8.7581     8.4442
  478.9000   111.8711     8.7140     8.4441
  479.0000   111.8733     8.6968     8.4439
  479.1000   111.8747     8.6967     8.4103
  479.2000   111.7362     8.6869     8.3850
  479.3000   111.5758     8.6358     8.3849
  479.4000   111.5042     8.5884     8.3847
  479.5000   110.6720     8.5754     8.3372
  479.6000   110.6735     8.5505     8.3262
  479.7000   110.5219     8.5154     8.3261
  479.8000   110.1833     8.5153     8.3260
  479.9000   109.7336     8.5151     8.3227
  480.0000   109.4706     8.4755     8.2679
  480.1000   109.0232     8.4556     8.2678
  480.2000   108.5359     8.4555     8.2677
  480.3000   108.1570     8.4554     8.2675
  480.4000   107.8632     8.4552     8.2674
  480.5000   107.3616     8.4551     8.2673
  480.6000   107.1259     8.4550     8.2672
  480.7000   106.7033     8.4549     8.2670
  480.8000   106.2157     8.4651     8.2873
  480.9000   105.8560     8.5140     8.3247
  481.0000   105.8516     8.5138     8.3246
  481.1000   105.6088     8.5137     8.3702
  481.2000   105.5589     8.5136     8.3826
  481.3000   105.6957     8.5135     8.3826
  481.4000   105.8651     8.5134     8.3825
  481.5000   105.9242     8.5132     8.3823
  481.6000   106.7767     8.5131     8.3822
  481.7000   106.9842     8.5130     8.3821
  481.8000   107.0826     8.4947     8.3820
  481.9000   107.0844     8.4535     8.3661
  482.0000   107.0862     8.4533     8.3188
  482.1000   107.0882     8.4532     8.2654
  482.2000   107.0899     8.4531     8.2250
  482.3000   107.0917     8.4530     8.2077
  482.4000   107.0935     8.4529     8.2076
  482.5000   107.0953     8.4528     8.1999
  482.6000   107.0972     8.4047     8.1503
  482.7000   107.3311     8.3936     8.1502
  482.8000   107.7520     8.3935     8.1181
  482.9000   108.1267     8.3785     8.0722
  483.0000   108.4315     8.3348     8.0265
  483.1000   108.9226     8.3346     7.9809
  483.2000   109.4141     8.2943     7.9808
  483.3000   110.2798     8.2763     7.9807
  483.4000   111.2604     8.2762     7.9568
  483.5000   112.2413     8.2684     7.9250
  483.6000   113.2216     8.2183     7.9194
  483.7000   114.3792     8.2182     7.8149
  483.8000   115.1830     8.1852     7.7784
  483.9000   116.1632     8.1168     7.7604
  484.0000   117.1437     8.0473     7.7444
  484.1000   118.1246     8.0464     7.6951
