~VERSION INFORMATION
 VERS.                2.0:   CWLS LOG ASCII STANDARD - VERSION 2.0
 WRAP.                 NO:   ONE LINE PER DEPTH STEP
~WELL INFORMATION
#MNEM.UNIT      DATA TYPE    INFORMATION
#----------   ------------   ------------------------------
 STRT.F           23.0000:   START DEPTH
 STOP.F         2536.0000:   STOP DEPTH
 STEP.F            0.5000:   STEP LENGTH
 NULL.          -999.2500:   NO VALUE
 COMP. FENIX & SCISSON INC:   COMPANY
 WELL.     14 SHX 3 #14-3:   WELL
 FLD .             TEAPOT:   FIELD
 LOC .       S3 T38N R78W:   LOCATION
 CNTY.            NATRONA:   COUNTY
 STAT.            WYOMING:   STATE
 CTRY. UNITED STATES OF AMERICA:   COUNTRY
 SRVC.           BIRDWELL:   SERVICE COMPANY
 DATE.        20-MAR-1979:   LOGDATE
 API .       490251073900:   API NUMBER
~CURVE INFORMATION
#MNEM.UNIT       API CODE    CURVE DESCRIPTION
#----------   ------------   ------------------------------
 DEPT.F                  :   
 SPR .MV     07 010 01 00:   SPONTANEOUS POTENTIAL
 SN  .OHMM   07 040 16 00:   SHORT NORMAL 16'
 IL  .OHMM   07 120 00 00:   INDUCTION LOG
 GRD .GAPI   45 310 01 00:   GAMMA RAY FROM DENSITY LOG
 CALD.IN     45 280 60 00:   CALIPER
 CORR.G/C3   45 356 01 00:   DENSITY CORRECTION
 DEN .G/C3   45 350 01 00:   
 DPHI.DEC    45 890 12 00:   DENSITY POROSITY SANDSTONE
~PARAMETER INFORMATION
#MNEM.UNIT          VALUE    DESCRIPTION
#----------   ------------   ------------------------------
 PD  .                 GL:   PERMANENT DATUM
 EPD .F              5208:   ELEVATION PERMANENT DATUM
 LMF .                 KB:   LOG MEASURED FROM
 DAPD.F                10:   FEET ABOVE PERMANENT DATUM
 DMF .                 KB:   DRILLING MEASURED FROM
 EKB .F              5218:   KELLING BUSHING
 EGL .F              5208:   GROUND LEVEL
 DATE.            3-20-79:   RUN DATE
 RUN .                  1:   RUN NUMBER
 DD  .F              2580:   DEPTH DRILLER
 DL  .F              2536:   DEPTH LOGGER
 BLI .F              2536:   BOTTOM LOG INTERVAL
 TLI .F               400:   TOP LOG INTERVAL
 CS  .IN            9.625:   CASING SIZE
 CBL .F               680:   CASING BOTTOM LOGGER
 BS  .IN             8.75:   BIT SIZE
 BSD .F              2580:   BIT SIZE AT DEPTH
 DFT .                AIR:   DRILLING FLUID TYPE
 TCS .HRS               6:   TIME CURCULATED STOPPED
 LUN .               2959:   LOGGING UNIT NUMBER
 LUL .             CASPER:   LOGGING UNIT LOCATION
 ENGI.            ROLLINS:   RECORDING ENGINEER
 WITN.           DINSMORE:   WITNESSED BY
 CLNT.            A2DTECH:   CLIENT CODE
 ORIG. 1", 2", 2.5", 5" PRINT:   ORIGIN OF DATA
 UWI .       490251073900:   UNIQUE WELL ID
 DICO. A2D Technologies, Inc.:   DIGITIZING COMPANY
~OTHER INFORMATION
~A   DEPT      SPR         SN         IL        GRD       CALD       CORR        DEN       DPHI   
# ...
  347.0000   -30.2818     4.4518     4.5953   112.6521    12.6130     0.4004     2.3998     0.1686
  347.5000   -30.2717     4.5974     4.8075   118.6672    12.2313     0.3401     2.4191     0.1600
  348.0000   -30.0513     4.8150     5.0295   123.7865    12.3597     0.3338     2.4208     0.1646
  348.5000   -29.8361     5.0416     5.2618   116.3336    12.5564     0.3521     2.3977     0.1729
  349.0000   -29.6244     5.2720     5.5047   108.9697    12.5590     0.3754     2.4447     0.1552
  349.5000   -29.4804     5.5130     5.7589   108.1367    12.5606     0.2966     2.4962     0.1540
  350.0000   -29.6420     5.7650     6.0248   107.5972    12.5758     0.1633     2.5009     0.1123
  350.5000   -29.9459     6.0289     6.3030   105.7146    12.8090     0.1558     2.5140     0.1016
  351.0000   -30.2357     6.3048     6.6238   102.8719    13.1796     0.1391     2.5240     0.0942
  351.5000   -30.5284     6.5639     6.8102   101.9048    13.2403     0.1062     2.5107     0.1054
  352.0000   -30.8278     6.6762     7.0017   102.9274    13.2836     0.0773     2.5001     0.1141
  352.5000   -31.0767     6.7788     7.1987   104.6016    13.4094     0.0799     2.4905     0.1204
  353.0000   -29.6616     6.8141     7.2656   106.0030    13.7178     0.1133     2.4979     0.1166
  353.5000   -28.0478     6.8273     7.2257   104.0553    13.9718     0.1500     2.4910     0.1130
  354.0000   -26.4453     6.8404     7.1466   102.1180    13.7533     0.1956     2.4809     0.1243
  354.5000   -26.2386     6.8536     7.0684   101.4711    13.8714     0.2696     2.5219     0.1028
  355.0000   -26.7284     6.8734     6.9910   101.6955    14.0841     0.3137     2.5373     0.0861
  355.5000   -27.8291     6.8102     6.8655   101.5870    14.3028     0.3323     2.5270     0.0629
  356.0000   -28.9021     6.7475     6.6315   101.5206    14.4790     0.4121     2.6241     0.0259
  356.5000   -29.5081     6.5619     6.4055   102.0391    14.1065     0.3203     2.5901     0.0572
  357.0000   -29.6601     6.3976     6.1872   102.5653    13.6078     0.2193     2.5162     0.1035
  357.5000   -28.9751     6.2374     5.9763   101.9670    13.1054     0.2048     2.5082     0.1110
  358.0000   -27.4696     6.0816     5.7726    99.7599    13.2821     0.2441     2.5235     0.1126
  358.5000   -26.4667     5.9299     5.5759    97.5940    13.6046     0.2286     2.4921     0.1325
  359.0000   -26.2660     5.7671     5.3858    95.3561    13.7699     0.1998     2.4250     0.1730
  359.5000   -26.4193     5.5664     5.2024    94.3702    13.5102     0.1846     2.3578     0.2221
  360.0000   -26.7814     5.3513     5.0249    94.1221    13.2522     0.2114     2.2912     0.2781
  360.5000   -27.1406     5.1447     4.8369    96.0803    12.9963     0.2888     2.2281     0.2613
  361.0000   -27.4995     4.9267     4.8369    99.5643    12.7419     0.3676     2.3118     0.2288
  361.5000   -27.8605     4.8813     5.0470   103.0474    12.6185     0.3847     2.4101     0.1757
  362.0000   -28.2180     4.8818     5.2929   105.8147    12.8005     0.3320     2.5427     0.1142
  362.5000   -27.7274     5.1639     5.5507   104.2337    12.7243     0.2518     2.5289     0.1160
  363.0000   -27.0871     5.4965     5.8210   102.2190    12.6214     0.1768     2.4983     0.1200
  363.5000   -27.3176     5.8505     6.1046   101.6470    12.6187     0.1707     2.4815     0.1207
  364.0000   -28.2470     6.2663     6.4019   102.6712    12.6191     0.2152     2.4918     0.1179
  364.5000   -27.9770     6.3981     6.7137   107.7226    12.6192     0.2519     2.5077     0.1093
  365.0000   -28.6425     6.5477     6.9373   112.8111    12.6192     0.2945     2.5235     0.0996
  365.5000   -29.7668     6.7009     7.0995   117.9063    12.6192     0.2775     2.5362     0.0914
  366.0000   -30.0376     6.8576     7.2656   122.4523    12.6192     0.2313     2.5315     0.0880
  366.5000   -30.0884     7.0180     7.2656   117.8643    12.6192     0.1852     2.5265     0.0846
  367.0000   -30.0585     7.0859     7.2956   113.0501    12.6192     0.1391     2.5217     0.0813
  367.5000   -28.5284     7.1132     7.3230   110.4912    12.6192     0.0931     2.5171     0.0968
  368.0000   -26.8106     7.1408     7.3505   110.3341    12.6192     0.0813     2.5215     0.1045
  368.5000   -26.8598     7.1681     7.3781   111.2458    12.6192     0.0782     2.5276     0.0964
  369.0000   -26.8291     7.1985     7.4058   112.1779    12.6192     0.0542     2.5152     0.1072
  369.5000   -27.3446     7.1828     7.4337   113.1937    12.6192     0.0256     2.4926     0.1203
  370.0000   -29.1882     7.1655     7.4616   116.1240    12.6192     0.0211     2.4879     0.1163
  370.5000   -30.8916     7.1481     7.4700   128.2913    12.6192     0.0225     2.4920     0.1201
  371.0000   -30.8893     7.1307     7.4184   135.6963    12.6192     0.0286     2.4838     0.1247
  371.5000   -30.3966     7.1134     7.3614   121.7029    12.6192     0.0521     2.4788     0.1201
  372.0000   -29.0576     7.0962     7.3049   105.4952    12.6193     0.0779     2.5118     0.1091
  372.5000   -27.7198     7.0788     7.2488   107.0048    12.6193     0.1085     2.5350     0.0956
  373.0000   -26.3715     7.0672     7.1987   108.7098    12.6191     0.0850     2.5150     0.1039
  373.5000   -25.5740     7.0852     7.1991   108.6601    12.6193     0.0499     2.4924     0.1205
  374.0000   -27.8753     7.0995     7.2671   108.3803    12.5951     0.0441     2.4772     0.1283
  374.5000   -30.1378     7.1139     7.3295   108.1159    12.5530     0.0882     2.5166     0.1124
  375.0000   -29.3332     7.1321     7.3929   107.8842    12.7527     0.1271     2.5618     0.0898
  375.5000   -27.4402     7.1004     7.4559   108.1505    13.0975     0.1076     2.5412     0.0961
  376.0000   -28.2756     7.0549     7.5394   110.1684    13.3801     0.0562     2.5068     0.1119
  376.5000   -29.7475     7.0046     7.2715   111.6411    13.1509     0.0273     2.4833     0.1236
  377.0000   -30.1197     7.0692     6.9053   109.9686    12.6372     0.0360     2.4764     0.1279
  377.5000   -29.8241     6.8080     6.5575   109.5593    12.8505     0.0500     2.4664     0.1735
  378.0000   -26.2778     6.5316     6.2273   118.3625    13.3293     0.0517     2.3649     0.2271
  378.5000   -28.2582     6.2663     5.9136   125.8420    13.4220     0.0530     2.2405     0.2922
  379.0000   -29.4555     6.0119     5.6158   129.2657    14.7958     0.2000     2.2671     0.2608
  379.5000   -29.2325     5.7678     5.3055   124.4549    14.0688     0.3514     2.3370     0.2072
  380.0000   -29.0092     5.5566     5.2566   120.3349    13.0131     0.3320     2.4065     0.1537
  380.5000   -28.9599     5.5566     5.2566   116.2048    12.9177     0.3134     2.4757     0.1260
  381.0000   -29.2034     5.6903     5.4998   112.2202    12.8520     0.2950     2.5055     0.1175
  381.5000   -29.4431     5.8426     5.6603   108.3309    12.7803     0.2762     2.4848     0.1274
  382.0000   -29.6800     5.9832     5.6603   105.5169    12.7096     0.2031     2.4042     0.1800
  382.5000   -29.8651     5.8681     5.5768   103.4664    12.7054     0.2668     2.3328     0.2175
  383.0000   -29.7265     5.7076     5.4854   101.3997    12.7497     0.3547     2.3160     0.2295
  383.5000   -29.5945     5.6093     5.4045    99.3297    12.7343     0.4465     2.3054     0.2351
  384.0000   -29.4649     5.6092     5.3362    99.1406    12.6991     0.3972     2.3459     0.2015
  384.5000   -29.3343     5.6089     5.2749   103.1863    12.7540     0.3194     2.3887     0.1727
  385.0000   -29.3984     5.4900     5.2143   103.9634    12.7751     0.2565     2.4292     0.1439
  385.5000   -29.6121     5.3564     5.1603   104.6058    12.7520     0.2873     2.5536     0.1151
  386.0000   -29.8593     5.5101     5.5445   104.4658    12.8496     0.2365     2.5425     0.0974
  386.5000   -28.8439     5.8304     5.9185   103.2043    13.1698     0.1673     2.5168     0.1071
  387.0000   -27.4835     6.1539     6.3177   101.9610    13.5765     0.1201     2.4969     0.1150
