~VERSION INFORMATION
 VERS.                2.0:   CWLS LOG ASCII STANDARD - VERSION 2.0
 WRAP.                 NO:   ONE LINE PER DEPTH STEP
~WELL INFORMATION
#MNEM.UNIT      DATA TYPE    INFORMATION
#----------   ------------   ------------------------------
 STRT.F           16.0000:   START DEPTH
 STOP.F          484.5000:   STOP DEPTH
 STEP.F            0.5000:   STEP LENGTH
 NULL.          -999.2500:   NO VALUE
 COMP. FENIX & SCISSON INC:   COMPANY
 WELL. NPR 3 #83 SX 10-10:   WELL
 FLD .             TEAPOT:   FIELD
 LOC .      S10 T38N R78W:   LOCATION
 CNTY.            NATRONA:   COUNTY
 STAT.            WYOMING:   STATE
 CTRY. UNITED STATES OF AMERICA:   COUNTRY
 SRVC.           BIRDWELL:   SERVICE COMPANY
 DATE.        25-NOV-1978:   LOGDATE
 API .       490251075200:   API NUMBER
~CURVE INFORMATION
#MNEM.UNIT       API CODE    CURVE DESCRIPTION
#----------   ------------   ------------------------------
 DEPT.F                  :   
 SPR .MV     05 010 01 00:   SPONTANEOUS POTENTIAL FROM RES.
 SN  .OHMM   05 040 16 00:   SHORT NORMAL 16"
 IL  .OHMM   05 120 00 00:   INDUCTION LOG
 CALD.IN     45 280 60 00:   CALIPER
 GRD .GAPI   45 310 01 00:   GAMMA RAY FROM DENSITY LOG
 CORR.G/C3   45 356 01 00:   DENSITY CORRECTION
 DPHI.DEC    45 890 12 00:   DENSITY POROSITY SANDSTONE
 RHOB.G/C3   45 350 01 00:   BULK DENSITY
~PARAMETER INFORMATION
#MNEM.UNIT          VALUE    DESCRIPTION
#----------   ------------   ------------------------------
 PD  .                 GL:   PERMANENT DATUM
 EPD .F              5145:   ELEVATION PERMANENT DATUM
 LMF .                 KB:   LOG MEASURED FROM
 DAPD.F                 4:   FEET ABOVE PERMANENT DATUM
 DMF .                 KB:   DRILLING MEASURED FROM
 EKB .F              5149:   KELLING BUSHING
 EGL .F              5145:   GROUND LEVEL
 DATE.           11-25-78:   RUN DATE
 RUN .                  1:   RUN NUMBER
 DD  .F               490:   DEPTH DRILLER
 DL  .F               487:   DEPTH LOGGER
 BLI .F               481:   BOTTOM LOG INTERVAL
 TLI .F                30:   TOP LOG INTERVAL
 CS  .IN            8.625:   CASING SIZE
 CBD .F                40:   CASING BOTTOM DRILLER
 CBL .F                35:   CASING BOTTOM LOGGER
 BS  .IN            7.875:   BIT SIZE
 BSD .F               490:   BIT SIZE AT DEPTH
 DFT .             SEAMUD:   DRILLING FLUID TYPE
 DFD .                8.8:   DRILLING FLUID DENSITY
 DFV .                 38:   DRILLING FLUID VISCOSITY
 DFPH.               11.1:   DRILLING FLUID PH
 DFL .                9.6:   DRILLING FLUID LOSS
 MSS .           FLOWLINE:   MUD SAMPLE SOURCE
 RMS .OHMM            .28:   RESISTIVITY MUD SAMPLE
 MST .F                58:   MUD SAMPLE TEMPERATURE
 RMF .OHMM            .25:   RESISTIVITY MUD FILTRATE SAMPLE
 MFST.F                70:   MUD FILTRATE SAMPLE TEMPERATURE
 RMC .OHMM             .3:   RESISTIVITY MUD CAKE
 MCST.F                70:   MUD CAKE SAMPLE TEMPERATURE
 MFSS.           MEASURED:   MUD FILTRATE SAMPLE SOURCE
 MCSS.           MEASURED:   MUD CAKE SAMPLE SOURCE
 BHT .F                58:   BOTTOM HOLE TEMPERATURE
 TCS .HRS               3:   TIME CURCULATED STOPPED
 MRT .F                58:   MAXIMUM RECORDED TEMPERATURE
 LUN .               3029:   LOGGING UNIT NUMBER
 LUL .               CASP:   LOGGING UNIT LOCATION
 ENGI.           REYNOLDS:   RECORDING ENGINEER
 WITN.           DINSMORE:   WITNESSED BY
 CLNT.            A2DTECH:   CLIENT CODE
 ORIG.     1", 2.5" PRINT:   ORIGIN OF DATA
 UWI .       490251075200:   UNIQUE WELL ID
 DICO. A2D Technologies, Inc.:   DIGITIZING COMPANY
~OTHER INFORMATION
~A   DEPT      SPR         SN         IL       CALD         GRD      CORR       DPHI       RHOB   
# ...
  380.5000   -41.8890    21.5150    28.6390     7.5200    85.6300     0.0620     0.2100     2.3350
  381.0000   -41.9580    20.9500    28.2680     7.5170    83.9440     0.0600     0.2110     2.3390
  381.5000   -42.0260    20.7060    27.8980     7.5140    82.2760     0.0620     0.2080     2.3430
  382.0000   -42.0950    20.4210    27.5270     7.5110    82.2560     0.0630     0.2040     2.3480
  382.5000   -42.1630    20.1350    27.1560     7.5080    83.8730     0.0640     0.2040     2.3510
  383.0000   -42.2320    19.8490    26.7850     7.5050    84.7470     0.0650     0.2030     2.3520
  383.5000   -42.3000    19.5630    26.4140     7.5020    84.1140     0.0680     0.2020     2.3530
  384.0000   -42.3680    19.2780    26.0430     7.4990    83.9080     0.0720     0.1990     2.3550
  384.5000   -42.4370    18.9920    25.6730     7.4960    85.7910     0.0740     0.1970     2.3580
  385.0000   -42.5040    18.7060    25.3020     7.4930    87.6060     0.0840     0.1940     2.3640
  385.5000   -42.5760    18.4200    24.9310     7.4900    88.5390     0.1020     0.1910     2.3690
  386.0000   -42.6370    18.1350    24.4860     7.4880    87.4860     0.1210     0.1790     2.3850
  386.5000   -42.7190    17.9130    23.9790     7.4900    86.7000     0.1440     0.1680     2.4020
  387.0000   -42.7500    17.7160    23.4720     7.4950    85.6660     0.1530     0.1570     2.4170
  387.5000   -42.9510    17.5180    22.9650     7.5000    85.5850     0.1350     0.1510     2.4370
  388.0000   -43.2770    17.3200    22.4580     7.5050    86.5970     0.1200     0.1560     2.4300
  388.5000   -43.5590    17.1220    21.9510     7.5100    86.5910     0.1030     0.1610     2.4170
  389.0000   -43.8520    16.9250    21.4430     7.5150    85.8290     0.0870     0.1590     2.4230
  389.5000   -44.1480    16.7270    20.9360     7.5200    85.3960     0.0710     0.1570     2.4250
  390.0000   -44.4340    16.5290    20.4290     7.5250    86.2360     0.0550     0.1670     2.4050
  390.5000   -44.7480    16.4290    19.9220     7.5300    86.8590     0.0370     0.1820     2.3870
  391.0000   -44.7740    16.3850    19.4150     7.5350    86.8620     0.0230     0.1960     2.3690
  391.5000   -44.6680    16.3410    18.9080     7.5400    86.3890     0.0170     0.1960     2.3590
  392.0000   -44.5560    16.2970    18.3970     7.5450    85.2630     0.0170     0.1970     2.3710
  392.5000   -44.4480    16.2530    18.3360     7.5500    84.2620     0.0190     0.1810     2.3870
  393.0000   -44.3350    16.2090    18.2740     7.5550    83.2610     0.0190     0.1650     2.4030
  393.5000   -44.2270    16.1650    18.2130     7.5600    82.3860     0.0250     0.1670     2.4140
  394.0000   -44.1150    16.0370    18.1520     7.5650    81.5530     0.0340     0.1680     2.4150
  394.5000   -44.0070    15.8800    18.0900     7.5700    81.2650     0.0360     0.1710     2.4090
  395.0000   -43.9940    15.7240    18.0290     7.5750    82.5350     0.0300     0.1740     2.3980
  395.5000   -44.3480    15.5680    17.9680     7.5800    83.9770     0.0230     0.1760     2.3910
  396.0000   -44.7590    15.4120    17.9060     7.5850    85.0730     0.0200     0.1790     2.3850
  396.5000   -45.1690    15.2560    17.8450     7.5900    83.1230     0.0220     0.1810     2.3870
  397.0000   -45.5750    15.0990    17.7840     7.5950    81.3090     0.0230     0.1790     2.3890
  397.5000   -45.9860    14.9430    17.7260     7.6000    79.4250     0.0240     0.1780     2.3920
  398.0000   -46.3950    14.7870    17.4130     7.6050    79.9420     0.0180     0.1770     2.3910
  398.5000   -46.7770    14.6310    17.1170     7.6100    81.3080     0.0100     0.1770     2.3870
  399.0000   -46.9860    14.4750    16.8220     7.6150    83.7060     0.0120     0.1730     2.3930
  399.5000   -47.1780    14.3180    16.5270     7.6200    85.9310     0.0220     0.1680     2.4050
  400.0000   -47.3680    14.1620    16.2310     7.6250    86.4610     0.0280     0.1620     2.4170
  400.5000   -47.5610    14.0060    15.9360     7.6300    86.8430     0.0270     0.1560     2.4290
  401.0000   -47.7520    13.8500    15.6400     7.6350    87.1670     0.0270     0.1500     2.4410
  401.5000   -47.9440    13.6930    15.4330     7.6400    87.6040     0.0260     0.1470     2.4450
  402.0000   -48.1360    13.5370    15.2560     7.6450    87.5150     0.0250     0.1470     2.4470
  402.5000   -48.3270    13.3810    15.0790     7.6500    87.2360     0.0250     0.1460     2.4480
  403.0000   -48.5190    13.2250    14.9010     7.6550    86.9240     0.0240     0.1460     2.4390
  403.5000   -48.7110    13.1540    14.7240     7.6600    87.8870     0.0200     0.1530     2.4310
  404.0000   -48.9010    13.0900    14.5470     7.6650    87.3850     0.0170     0.1610     2.4220
  404.5000   -49.0980    13.0250    14.3700     7.6710    86.1620     0.0200     0.1590     2.4260
  405.0000   -49.2780    12.9610    14.1850     7.6750    84.8660     0.0240     0.1570     2.4290
  405.5000   -49.5010    12.8960    14.3650     7.6810    85.4090     0.0220     0.1550     2.4300
  406.0000   -49.5160    12.8320    14.7220     7.6860    87.5600     0.0200     0.1530     2.4340
  406.5000   -49.2320    12.7680    14.7220     7.6880    89.3680     0.0200     0.1490     2.4430
  407.0000   -48.9810    12.7030    14.5800     7.6770    91.9140     0.0190     0.1470     2.4460
  407.5000   -48.7140    12.6390    14.4490     7.6680    95.1320     0.0190     0.1480     2.4440
  408.0000   -48.4520    12.5740    14.3180     7.6580    97.9030     0.0190     0.1480     2.4420
  408.5000   -48.1860    12.5100    14.1880     7.6490    96.9580     0.0180     0.1480     2.4400
  409.0000   -48.0100    12.4560    14.0570     7.6390    95.8690     0.0180     0.1490     2.4370
  409.5000   -48.3800    12.4760    13.9270     7.6290    94.6690     0.0180     0.1490     2.4370
  410.0000   -48.8560    12.4930    13.7960     7.6190    93.5910     0.0180     0.1490     2.4380
  410.5000   -49.3280    12.5090    13.6650     7.6100    92.4080     0.0170     0.1480     2.4400
  411.0000   -49.7960    12.5260    13.5350     7.6130    91.3010     0.0170     0.1460     2.4420
  411.5000   -50.2700    12.5430    13.4040     7.6170    90.2210     0.0170     0.1450     2.4440
  412.0000   -50.7360    12.5600    13.2730     7.6220    90.3850     0.0160     0.1430     2.4470
  412.5000   -51.2150    12.5760    13.1690     7.6260    90.6870     0.0180     0.1390     2.4530
  413.0000   -51.6690    12.5930    13.1690     7.6300    90.9070     0.0230     0.1310     2.4600
  413.5000   -52.1770    12.6100    13.1690     7.6340    91.3470     0.0280     0.1230     2.4760
  414.0000   -52.4350    12.6270    13.1700     7.6390    90.2530     0.0340     0.1140     2.4890
  414.5000   -52.3760    12.6440    13.1700     7.6430    88.2200     0.0340     0.1040     2.5040
  415.0000   -52.1710    12.6600    13.1700     7.6470    86.1170     0.0300     0.1060     2.5110
  415.5000   -51.9730    12.6850    13.1700     7.6490    85.1950     0.0250     0.1110     2.5030
  416.0000   -51.7740    12.6720    13.1700     7.6490    85.6750     0.0250     0.1150     2.4950
  416.5000   -51.5800    12.5970    13.1690     7.6490    86.9740     0.0260     0.1190     2.4870
  417.0000   -51.3800    12.5230    13.1680     7.6490    89.4790     0.0270     0.1210     2.4840
  417.5000   -51.1860    12.4490    13.1680     7.6490    93.1750     0.0280     0.1230     2.4830
  418.0000   -50.9860    12.3750    13.1000     7.6490    94.5250     0.0240     0.1240     2.4790
  418.5000   -50.7930    12.3010    13.0280     7.6490    92.9230     0.0210     0.1250     2.4740
  419.0000   -50.5920    12.2270    12.9570     7.6490    92.4210     0.0220     0.1250     2.4710
  419.5000   -50.4080    12.1530    12.8850     7.6490    93.6990     0.0250     0.1260     2.4720
  420.0000   -50.4750    12.0780    12.8130     7.6490    93.9720     0.0280     0.1270     2.4730
  420.5000   -51.2060    12.0040    12.7410     7.6490    93.3920     0.0310     0.1280     2.4750
