~VERSION INFORMATION
 VERS.                2.0:   CWLS LOG ASCII STANDARD - VERSION 2.0
 WRAP.                 NO:   ONE LINE PER DEPTH STEP
~WELL INFORMATION
#MNEM.UNIT      DATA TYPE    INFORMATION
#----------   ------------   ------------------------------
 STRT.F          442.0000:   START DEPTH
 STOP.F         2636.0000:   STOP DEPTH
 STEP.F            0.5000:   STEP LENGTH
 NULL.          -999.2500:   NO VALUE
 COMP. FENIX & SCISSON INC:   COMPANY
 WELL.     25 SHX 2 #25-2:   WELL
 FLD .             TEAPOT:   FIELD
 LOC .       S2 T38N R78W:   LOCATION
 CNTY.            NATRONA:   COUNTY
 STAT.            WYOMING:   STATE
 CTRY. UNITED STATES OF AMERICA:   COUNTRY
 SRVC.              Welex:   SERVICE COMPANY
 DATE.        07-JUN-1980:   LOGDATE
 API .       490251080200:   API NUMBER
~CURVE INFORMATION
#MNEM.UNIT       API CODE    CURVE DESCRIPTION
#----------   ------------   ------------------------------
 DEPT.F                  :   
 CALD.IN     45 280 60 00:   CALIPER
 GRD .GAPI   45 310 01 00:   GAMMA RAY FROM DENSITY LOG
 DPHI.DEC    45 890 12 00:   DENSITY POROSITY SANDSTONE
 CORR.G/C3   45 356 01 00:   DENSITY CORRECTION
 RHOB.G/C3   45 350 01 00:   BULK DENSITY
~PARAMETER INFORMATION
#MNEM.UNIT          VALUE    DESCRIPTION
#----------   ------------   ------------------------------
 PD  .                 GL:   PERMANENT DATUM
 EPD .F              5120:   ELEVATION PERMANENT DATUM
 LMF .                 KB:   LOG MEASURED FROM
 DAPD.F                10:   FEET ABOVE PERMANENT DATUM
 DMF .                 KB:   DRILLING MEASURED FROM
 EKB .F              5130:   KELLING BUSHING
 EGL .F              5120:   GROUND LEVEL
 DATE.             6-7-80:   RUN DATE
 RUN .                  1:   RUN NUMBER
 DD  .F              2652:   DEPTH DRILLER
 DL  .F              2638:   DEPTH LOGGER
 BLI .F              2636:   BOTTOM LOG INTERVAL
 TLI .F              1224:   TOP LOG INTERVAL
 BS  .IN             6.75:   BIT SIZE
 BSD .F              2652:   BIT SIZE AT DEPTH
 DFT .        AIR DRILLED:   DRILLING FLUID TYPE
 TCS .HRS               2:   TIME CURCULATED STOPPED
 MRT .F               125:   MAXIMUM RECORDED TEMPERATURE
 ENGI.               REIN:   RECORDING ENGINEER
 WITN.           DINSMORE:   WITNESSED BY
 CLNT.            A2DTECH:   CLIENT CODE
 ORIG.           5" PRINT:   ORIGIN OF DATA
 UWI .       490251080200:   UNIQUE WELL ID
 DICO. A2D Technologies, Inc.:   DIGITIZING COMPANY
~OTHER INFORMATION
~A   DEPT     CALD         GRD      DPHI       CORR       RHOB   
# ...
 1235.0000     9.1800    82.1058     0.1188     0.0499     2.4507
 1235.5000     9.1800    82.2556     0.1189     0.0456     2.4434
 1236.0000     9.1800    82.8802     0.1203     0.0455     2.4444
 1236.5000     9.1800    83.4872     0.1157     0.0602     2.4557
 1237.0000     9.1800    84.0471     0.1113     0.0743     2.4669
 1237.5000     9.1801    84.2889     0.1070     0.0884     2.4781
 1238.0000     9.1798    84.5462     0.1044     0.0992     2.4851
 1238.5000     9.1954    84.5650     0.1110     0.0870     2.4646
 1239.0000     9.2202    83.9501     0.1151     0.0786     2.4526
 1239.5000     9.2451    83.5836     0.1124     0.0833     2.4621
 1240.0000     9.2702    84.2505     0.1085     0.0805     2.4632
 1240.5000     9.2951    84.7738     0.1052     0.1009     2.4757
 1241.0000     9.3195    84.6961     0.1130     0.0865     2.4590
 1241.5000     9.3343    84.6337     0.1155     0.0729     2.4533
 1242.0000     9.3497    84.8196     0.1135     0.0782     2.4592
 1242.5000     9.3550    85.4993     0.1105     0.0846     2.4649
 1243.0000     9.3490    85.9365     0.1067     0.0910     2.4760
 1243.5000     9.3428    86.2559     0.1025     0.0946     2.4804
 1244.0000     9.3367    86.7056     0.1088     0.0793     2.4580
 1244.5000     9.3306    86.8455     0.1150     0.0620     2.4572
 1245.0000     9.3245    86.6146     0.1172     0.0576     2.4452
 1245.5000     9.3184    86.3871     0.1185     0.0519     2.4395
 1246.0000     9.3123    86.1587     0.1210     0.0395     2.4424
 1246.5000     9.3062    85.9231     0.1315     0.0272     2.4192
 1247.0000     9.3001    85.6777     0.1372     0.0152     2.3886
 1247.5000     9.2940    85.2079     0.1403     0.0129     2.4026
 1248.0000     9.2879    84.5893     0.1353     0.0291     2.4196
 1248.5000     9.2818    84.0040     0.1294     0.0388     2.4314
 1249.0000     9.2757    83.8861     0.1254     0.0532     2.4402
 1249.5000     9.2696    83.8149     0.1185     0.0678     2.4608
 1250.0000     9.2635    84.1382     0.1096     0.0632     2.4721
 1250.5000     9.2574    84.4589     0.1223     0.0486     2.4365
 1251.0000     9.2513    84.7777     0.1250     0.0536     2.4326
 1251.5000     9.2452    85.1123     0.1246     0.0510     2.4290
 1252.0000     9.2388    84.8069     0.1233     0.0489     2.4320
 1252.5000     9.2279    84.3893     0.1168     0.0569     2.4526
 1253.0000     9.2165    84.4608     0.1199     0.0494     2.4457
 1253.5000     9.2051    84.5255     0.1227     0.0454     2.4376
 1254.0000     9.1936    84.5772     0.1234     0.0486     2.4383
 1254.5000     9.1819    84.3455     0.1252     0.0362     2.4331
 1255.0000     9.1834    84.3707     0.1245     0.0384     2.4288
 1255.5000     9.1875    84.7691     0.1227     0.0476     2.4373
 1256.0000     9.1917    84.5577     0.1252     0.0347     2.4300
 1256.5000     9.1959    84.1923     0.1275     0.0338     2.4238
 1257.0000     9.1987    83.2823     0.1255     0.0371     2.4320
 1257.5000     9.1799    82.8132     0.1239     0.0395     2.4337
 1258.0000     9.1611    82.8170     0.1223     0.0438     2.4406
 1258.5000     9.1417    82.8128     0.1108     0.0597     2.4609
 1259.0000     9.1525    82.4402     0.1139     0.0635     2.4680
 1259.5000     9.1688    82.0170     0.1185     0.0476     2.4470
 1260.0000     9.1738    81.1058     0.1235     0.0362     2.4308
 1260.5000     9.1535    80.8852     0.1236     0.0379     2.4361
 1261.0000     9.1337    80.6950     0.1227     0.0404     2.4397
 1261.5000     9.1141    80.4973     0.1187     0.0514     2.4473
 1262.0000     9.1042    80.3001     0.1137     0.0633     2.4598
 1262.5000     9.1201    79.9776     0.1086     0.0757     2.4727
 1263.0000     9.1356    79.6268     0.1064     0.0709     2.4763
 1263.5000     9.1510    79.2780     0.1212     0.0577     2.4350
 1264.0000     9.1665    79.1549     0.1321     0.0446     2.4080
 1264.5000     9.1820    79.1419     0.1409     0.0363     2.3979
 1265.0000     9.1975    78.8410     0.1480     0.0373     2.3885
 1265.5000     9.2129    78.6798     0.1495     0.0601     2.3801
 1266.0000     9.2284    78.6115     0.1372     0.0870     2.3951
 1266.5000     9.2439    78.3157     0.1313     0.1142     2.4110
 1267.0000     9.2594    78.3950     0.1253     0.1410     2.4272
 1267.5000     9.2748    78.5483     0.1183     0.1565     2.4522
 1268.0000     9.2903    78.6534     0.1283     0.1094     2.4145
 1268.5000     9.3005    78.4026     0.1395     0.0498     2.3922
 1269.0000     9.3064    77.9594     0.1289     0.0663     2.4213
 1269.5000     9.3123    77.3622     0.1222     0.0841     2.4356
 1270.0000     9.3172    76.6359     0.1168     0.0928     2.4468
 1270.5000     9.3138    76.0313     0.1143     0.0979     2.4576
 1271.0000     9.3083    75.8183     0.1094     0.0743     2.4699
 1271.5000     9.3028    75.3888     0.0997     0.0869     2.4908
 1272.0000     9.2973    74.8374     0.0975     0.1093     2.5012
 1272.5000     9.2918    74.2813     0.0977     0.0836     2.4921
 1273.0000     9.2863    73.7740     0.1024     0.0761     2.4758
 1273.5000     9.2808    73.8869     0.1144     0.0650     2.4618
 1274.0000     9.2753    74.0148     0.1111     0.0608     2.4566
 1274.5000     9.2698    74.1414     0.1080     0.0720     2.4763
 1275.0000     9.2643    74.0539     0.1074     0.0698     2.4704
 1275.5000     9.2585    73.9133     0.1040     0.0672     2.4833
 1276.0000     9.2460    73.7644     0.1045     0.0717     2.4728
 1276.5000     9.2325    73.5491     0.0992     0.0783     2.4839
 1277.0000     9.2190    73.3218     0.1064     0.0788     2.4776
 1277.5000     9.2055    73.0939     0.1032     0.0762     2.4815
 1278.0000     9.1920    72.8662     0.1111     0.0700     2.4622
 1278.5000     9.1785    72.6383     0.1155     0.0650     2.4542
 1279.0000     9.1649    72.4095     0.1118     0.0786     2.4621
 1279.5000     9.1514    72.1912     0.1070     0.0922     2.4716
 1280.0000     9.1409    72.1836     0.1016     0.1023     2.4805
 1280.5000     9.1484    72.1848     0.1059     0.0979     2.4811
 1281.0000     9.1559    72.1860     0.1025     0.0962     2.4776
 1281.5000     9.1633    72.1895     0.1076     0.0942     2.4709
 1282.0000     9.1707    72.1591     0.1127     0.0875     2.4633
 1282.5000     9.1782    71.5824     0.1168     0.0799     2.4547
 1283.0000     9.1856    71.0089     0.1192     0.0798     2.4620
 1283.5000     9.1931    70.4388     0.1211     0.0744     2.4488
 1284.0000     9.1998    69.8713     0.1267     0.0609     2.4148
 1284.5000     9.1982    69.2996     0.1311     0.0538     2.4199
 1285.0000     9.1965    69.0342     0.1307     0.0580     2.4164
 1285.5000     9.1949    68.9860     0.1284     0.0620     2.4258
 1286.0000     9.1932    68.9422     0.1273     0.0657     2.4357
 1286.5000     9.1916    68.8997     0.1278     0.0632     2.4375
 1287.0000     9.1900    68.8550     0.1282     0.0559     2.4237
 1287.5000     9.1884    68.9389     0.1289     0.0518     2.4248
 1288.0000     9.1868    69.1028     0.1332     0.0556     2.4269
 1288.5000     9.1851    69.2120     0.1375     0.0428     2.4157
 1289.0000     9.1835    69.0869     0.1417     0.0274     2.4050
 1289.5000     9.1820    68.9666     0.1415     0.0308     2.4012
 1290.0000     9.1809    68.8460     0.1399     0.0376     2.4097
 1290.5000     9.1588    68.7285     0.1459     0.0227     2.3962
 1291.0000     9.1340    68.7160     0.1535     0.0083     2.3780
 1291.5000     9.1213    69.0471     0.1598    -0.0019     2.3670
 1292.0000     9.1213    69.3645     0.1498     0.0102     2.3821
 1292.5000     9.1213    69.6826     0.1388     0.0287     2.4061
 1293.0000     9.1213    70.0089     0.1271     0.0478     2.4313
 1293.5000     9.1214    70.2995     0.1195     0.0582     2.4490
 1294.0000     9.1263    70.5965     0.1215     0.0489     2.4390
 1294.5000     9.1412    70.8925     0.1168     0.0593     2.4568
 1295.0000     9.1558    71.2131     0.1231     0.0416     2.4369
 1295.5000     9.1705    72.1056     0.1183     0.0453     2.4520
