~VERSION INFORMATION
 VERS.                2.0:   CWLS LOG ASCII STANDARD - VERSION 2.0
 WRAP.                 NO:   ONE LINE PER DEPTH STEP
~WELL INFORMATION
#MNEM.UNIT      DATA TYPE    INFORMATION
#----------   ------------   ------------------------------
 STRT.F            6.0000:   START DEPTH
 STOP.F          765.0000:   STOP DEPTH
 STEP.F            0.5000:   STEP LENGTH
 NULL.          -999.2500:   NO VALUE
 COMP. FENIX & SCISSON INC:   COMPANY
 WELL.      24 SX 2 #24-2:   WELL
 FLD .        TEAPOT DOME:   FIELD
 LOC .       S2 T38N R78W:   LOCATION
 CNTY.            NATRONA:   COUNTY
 STAT.            WYOMING:   STATE
 CTRY. UNITED STATES OF AMERICA:   COUNTRY
 SRVC.           BIRDWELL:   SERVICE COMPANY
 DATE.        20-JAN-1978:   LOGDATE
 API .       490251055700:   API NUMBER
~CURVE INFORMATION
#MNEM.UNIT       API CODE    CURVE DESCRIPTION
#----------   ------------   ------------------------------
 DEPT.F                  :   
 SPR .MV     05 010 01 00:   SPONTANEOUS POTENTIAL FROM RES.
 SN  .OHMM   05 040 16 00:   SHORT NORMAL 16"
 ILD .OHMM   05 120 46 00:   INDUCTION LOG DEEP
 CALD.IN     45 280 60 00:   CALIPER FROM DENSITY LOG
 CORR.G/C3   45 356 01 00:   DENSITY CORRECTION
 DEN .G/C3   45 350 01 00:   COMPENSATED BULK DENSTIY
 DPHI.DEC    45 890 12 00:   DENSITY POROSITY SANDSTONE
 GRD .GAPI   45 310 01 00:   GAMMA RAY FROM DENSITY LOG
~PARAMETER INFORMATION
#MNEM.UNIT          VALUE    DESCRIPTION
#----------   ------------   ------------------------------
 PD  .                 GL:   PERMANENT DATUM
 EPD .F              5131:   ELEVATION PERMANENT DATUM
 LMF .                 KB:   LOG MEASURED FROM
 DMF .                 KB:   DRILLING MEASURED FROM
 EKB .F              5134:   KELLING BUSHING
 EGL .F              5131:   GROUND LEVEL
 DATE.        20-JAN-1978:   RUN DATE
 RUN .                  1:   RUN NUMBER
 DD  .F               775:   DEPTH DRILLER
 DL  .F               770:   DEPTH LOGGER
 BLI .F               770:   BOTTOM LOG INTERVAL
 TLI .F                40:   TOP LOG INTERVAL
 CS  .IN            8.625:   CASING SIZE
 CBD .F                39:   CASING BOTTOM DRILLER
 CBL .F                39:   CASING BOTTOM LOGGER
 BS  .IN            7.875:   BIT SIZE
 BSD .F               775:   BIT SIZE AT DEPTH
 DFT .                KCL:   DRILLING FLUID TYPE
 DFD .                8.6:   DRILLING FLUID DENSITY
 DFV .                 33:   DRILLING FLUID VISCOSITY
 DFPH.                9.5:   DRILLING FLUID PH
 DFL .                  8:   DRILLING FLUID LOSS
 MSS .           FLOWLINE:   MUD SAMPLE SOURCE
 RMS .OHMM            .31:   RESISTIVITY MUD SAMPLE
 MST .F                54:   MUD SAMPLE TEMPERATURE
 RMF .OHMM            .28:   RESISTIVITY MUD FILTRATE SAMPLE
 MFST.F                64:   MUD FILTRATE SAMPLE TEMPERATURE
 RMC .OHMM             .8:   RESISTIVITY MUD CAKE
 MCST.F                64:   MUD CAKE SAMPLE TEMPERATURE
 MFSS.               MEAS:   MUD FILTRATE SAMPLE SOURCE
 MCSS.               MEAS:   MUD CAKE SAMPLE SOURCE
 RMB .OHMM            .22:   RESISTIVITY MUD AT BHT
 BHT .F                76:   BOTTOM HOLE TEMPERATURE
 TCS .HRS            0400:   TIME CURCULATED STOPPED
 MRT .F                76:   MAXIMUM RECORDED TEMPERATURE
 LUN .               2958:   LOGGING UNIT NUMBER
 LUL .             CASPER:   LOGGING UNIT LOCATION
 ENGI.            POINTER:   RECORDING ENGINEER
 WITN.           MCGINLEY:   WITNESSED BY
 CLNT.            A2DTECH:   CLIENT CODE
 ORIG.           5" PRINT:   ORIGIN OF DATA
 UWI .       490251055700:   UNIQUE WELL ID
 DICO. A2D Technologies, Inc.:   DIGITIZING COMPANY
~OTHER INFORMATION
~A    DEPT     SPR         SN        ILD       CALD       CORR        DEN       DPHI         GRD  
# ...
  127.5000   -31.3026     6.8727     5.7926     8.1112     0.1025     2.3978     0.1491    84.7372
  128.0000   -31.3193     6.8689     5.8306     8.1260     0.1017     2.4188     0.1476    85.0329
  128.5000   -31.4814     6.9129     5.8280     8.1106     0.1086     2.4158     0.1561    87.1370
  129.0000   -31.6355     6.8612     5.8256     8.1103     0.1169     2.4060     0.1583    87.5375
  129.5000   -31.6461     6.8574     5.8232     8.1100     0.1230     2.4058     0.1501    85.3150
  130.0000   -31.6667     6.8536     5.8208     8.1097     0.1286     2.4126     0.1429    83.8007
  130.5000   -31.8288     6.8498     5.8184     8.1095     0.1293     2.4247     0.1420    88.3196
  131.0000   -32.2922     6.8460     5.8565     8.1091     0.1292     2.4276     0.1417    91.9335
  131.5000   -32.9061     6.8422     5.8948     8.0938     0.1292     2.4276     0.1418    93.4359
  132.0000   -33.2048     6.8384     5.8922     8.0484     0.1277     2.4244     0.1454    95.2397
  132.5000   -33.2154     6.8870     5.9308     8.0030     0.1246     2.4214     0.1450    94.6304
  133.0000   -33.2259     6.9264     6.0110     7.9425     0.1208     2.4222     0.1442    93.4178
  133.5000   -33.0855     7.0247     6.0504     7.8821     0.1193     2.4191     0.1526    88.8787
  134.0000   -32.9277     7.1193     6.0899     7.7765     0.1193     2.4115     0.1557    84.9512
  134.5000   -32.8054     7.2152     6.1724     7.7010     0.1192     2.4047     0.1563    83.0869
  135.0000   -32.8163     7.4078     6.2558     7.6255     0.1222     2.3971     0.1665    78.8738
  135.5000   -32.9774     7.4553     6.2532     7.5500     0.1244     2.3820     0.1741    75.5636
  136.0000   -33.2892     7.4510     6.2942     7.5197     0.1146     2.3767     0.1696    74.9806
  136.5000   -33.4734     7.4468     6.2915     7.5194     0.1101     2.4173     0.1627    77.2007
  137.0000   -33.6114     7.4427     6.3327     7.5492     0.1040     2.3909     0.1551    80.7883
  137.5000   -33.6220     7.3871     6.3741     7.5790     0.0920     2.3984     0.1663    79.5877
  138.0000   -33.6325     7.3319     6.3714     7.6238     0.0822     2.3969     0.1792    75.7486
  138.5000   -33.6431     7.2681     6.4130     7.6535     0.0814     2.3727     0.1856    76.4573
  139.0000   -33.6817     7.1729     6.4549     7.6983     0.0822     2.3509     0.1949    76.1497
  139.5000   -33.9945     7.1689     6.5423     7.7432     0.0821     2.3395     0.1983    70.7138
  140.0000   -34.2792     7.0165     6.6309     7.8030     0.0596     2.3305     0.1850    65.2779
  140.5000   -34.2897     6.9160     6.7206     7.8628     0.0558     2.3455     0.1985    64.3670
  141.0000   -34.4509     6.7697     6.5341     7.9227     0.0528     2.3326     0.2155    70.3941
  141.5000   -34.6102     6.5352     5.5306     7.9675     0.0429     2.3002     0.2291    72.8029
  142.0000   -34.6208     6.0096     4.3678     7.9973     0.0369     2.2641     0.2567    66.7622
  142.5000   -34.9325     5.6818     3.7486     8.0421     0.0379     2.2497     0.2715    65.8512
  143.0000   -35.5454     5.1528     3.0017     8.0568     0.0470     2.2038     0.2998    73.6884
  143.5000   -36.6102     4.6087     2.5057     8.0565     0.0568     2.1616     0.3197   100.5300
  144.0000   -37.6749     3.9818     2.2731     8.0412     0.0630     2.1224     0.3350   115.0037
  144.5000   -37.9866     3.1870     2.0764     8.0409     0.0645     2.0930     0.3356   116.2058
  145.0000   -37.9972     3.0553     2.0612     8.0406     0.0735     2.0907     0.3336   112.5784
  145.5000   -37.8569     2.9088     2.0891     8.0403     0.0824     2.0922     0.3276   108.0475
  146.0000   -37.7169     2.8671     2.2073     8.0400     0.0846     2.0986     0.3035   101.7066
  146.5000   -37.1251     2.9055     2.6056     8.0547     0.0801     2.1481     0.2736    94.4608
  147.0000   -36.0814     2.9857     2.9918     8.0544     0.0808     2.2217     0.2397    83.5951
  147.5000   -34.8871     3.5005     3.4351     8.0842     0.0823     2.3124     0.2060    71.2211
  148.0000   -34.4458     4.0196     3.8630     8.1139     0.0852     2.3726     0.1678    64.2769
  148.5000   -34.3057     4.6801     4.2844     8.1136     0.0852     2.3824     0.1615    59.4444
  149.0000   -34.0151     6.2173     4.6541     8.1133     0.0874     2.3898     0.1630    60.6450
  149.5000   -33.5738     8.9146     6.1382     8.1130     0.0911     2.3913     0.1663    64.2604
  150.0000   -33.2831     9.5500     7.6607     8.1121     0.0972     2.3924     0.1611    60.4885
  150.5000   -33.3767     9.4971     8.7086     8.1034     0.1030     2.3965     0.1582    56.9116
  151.0000   -33.7500     9.4771     9.3592     8.0962     0.1030     2.3980     0.1577    55.3907
  151.5000   -34.5106     9.4739     9.4212     8.0954     0.1052     2.3979     0.1604    54.4722
  152.0000   -34.5181     9.6030     8.7872     8.1097     0.1089     2.3919     0.1693    52.0476
  152.5000   -34.5256    10.0079     8.1873     8.0940     0.1149     2.3693     0.1758    50.5267
  153.0000   -34.6838    10.7981     6.4720     8.0932     0.1209     2.3655     0.1773    50.4960
  153.5000   -35.1431    11.2534     5.8292     8.0925     0.1239     2.3579     0.1810    54.4126
  154.0000   -35.7531    11.0177     5.4417     8.0917     0.1268     2.3481     0.1897    62.9639
  154.5000   -36.6642     7.6240     5.4026     8.0910     0.1238     2.3435     0.1934    71.9307
  155.0000   -37.2742     6.3630     5.4011     8.0902     0.1133     2.3458     0.1862    74.8499
  155.5000   -37.2817     6.1018     5.4764     8.0879     0.1080     2.3511     0.1829    73.4126
  156.0000   -36.8374     6.3146     5.7090     8.0436     0.1035     2.3555     0.1790    68.4911
  156.5000   -35.7907     6.6728     5.9537     7.9799     0.1027     2.3538     0.1823    65.1630
  157.0000   -34.2923     7.2499     6.5116     7.9066     0.1101     2.3500     0.1836    65.1481
  157.5000   -33.3961     7.7682     7.2260     7.8457     0.1176     2.3433     0.1956    63.0248
  158.0000   -32.8013     8.3237     7.9578     7.7397     0.1206     2.3342     0.1920    59.0979
  158.5000   -32.8088     8.7959     8.6461     7.6788     0.1176     2.3470     0.1839    63.8986
  159.0000   -32.5151     9.3596     9.2569     7.6330     0.1144     2.3560     0.1791    65.9959
  159.5000   -32.2214     9.6198     9.5146     7.5871     0.1053     2.3605     0.1801    62.3628
  160.0000   -32.0783     9.8189     9.8476     7.5713     0.0954     2.3567     0.1921    60.2395
  160.5000   -31.6340    10.0219    10.1922     7.5706     0.0881     2.3401     0.1973    59.0198
  161.0000   -31.3404    10.3005    10.4761     7.5999     0.0844     2.3310     0.1973    57.8001
  161.5000   -30.8962    10.5136    10.7678     7.6144     0.0866     2.3219     0.2068    61.0984
  162.0000   -30.6024    10.7310    11.0739     7.6738     0.0866     2.3008     0.2148    69.8185
  162.5000   -30.4593    11.0293    11.3759     7.7332     0.0843     2.3023     0.2154    59.8638
  163.0000   -30.4677    11.1796    11.5317     7.8075     0.0805     2.3038     0.2133    55.0297
  163.5000   -30.0234    11.4109    11.6824     7.8819     0.0775     2.3037     0.2116    52.9064
  164.0000   -29.7297    11.4070    11.7604     7.9413     0.0722     2.3037     0.2137    53.4939
  164.5000   -29.5867    11.4824    11.8389     8.0007     0.0685     2.3029     0.2164    56.2078
  165.0000   -29.4417    11.5584    11.9262     8.0301     0.0684     2.3006     0.2152    58.5846
  165.5000   -29.6017    11.7159    12.0810     8.0895     0.0684     2.3028     0.2083    60.4789
  166.0000   -29.9105    11.8756    12.1616     8.1038     0.0676     2.3156     0.2008    63.7710
  166.5000   -29.9180    12.0374    12.2521     8.1331     0.0661     2.3336     0.1915    64.8652
  167.0000   -30.2267    12.2014    12.4102     8.1323     0.0653     2.3471     0.1831    62.4370
  167.5000   -30.3849    12.2836    12.4931     8.1316     0.0630     2.3606     0.1744    57.3016
