~VERSION INFORMATION
 VERS.                2.0:   CWLS LOG ASCII STANDARD - VERSION 2.0
 WRAP.                 NO:   ONE LINE PER DEPTH STEP
~WELL INFORMATION
#MNEM.UNIT      DATA TYPE    INFORMATION
#----------   ------------   ------------------------------
 STRT.F            8.0000:   START DEPTH
 STOP.F          473.0000:   STOP DEPTH
 STEP.F            0.5000:   STEP LENGTH
 NULL.          -999.2500:   NO VALUE
 COMP.   LAWRENCE-ALLISON:   COMPANY
 WELL. NPR 3 #58-55SX3OB1:   WELL
 FLD .             TEAPOT:   FIELD
 LOC .       S3 T38N R78W:   LOCATION
 CNTY.            NATRONA:   COUNTY
 STAT.            WYOMING:   STATE
 CTRY. UNITED STATES OF AMERICA:   COUNTRY
 SRVC.      Dresser Atlas:   SERVICE COMPANY
 DATE.        17-DEC-1984:   LOGDATE
 API .       490251100600:   API NUMBER
~CURVE INFORMATION
#MNEM.UNIT       API CODE    CURVE DESCRIPTION
#----------   ------------   ------------------------------
 DEPT.F                  :   
 AC  .US/F   60 520 00 00:   ACCOUSTIC
 PORD.DEC    45 890 12 00:   POROSITY DENSITY SANDSTONE
 CNC .DEC    42 890 03 00:   NEUTRON POROSITY SANDSTONE
 CALD.IN     45 280 60 00:   CALIPER FROM DENSITY
 GRD .GAPI   45 310 01 00:   GAMMA RAY FROM DENSITY LOG
 CORR.G/C3   45 356 01 00:   DENSITY CORRECTION
 DEN .G/C3   45 350 01 00:   COMPENSATED BULK DENSTIY
~PARAMETER INFORMATION
#MNEM.UNIT          VALUE    DESCRIPTION
#----------   ------------   ------------------------------
 PD  .                 GL:   PERMANENT DATUM
 EPD .F              5194:   ELEVATION PERMANENT DATUM
 LMF .                 GL:   LOG MEASURED FROM
 DMF .                 GL:   DRILLING MEASURED FROM
 EGL .F              5194:   GROUND LEVEL
 DATE.        17-DEC-1984:   RUN DATE
 RUN .                  1:   RUN NUMBER
 DD  .F               480:   DEPTH DRILLER
 DL  .F               475:   DEPTH LOGGER
 BLI .F               473:   BOTTOM LOG INTERVAL
 TLI .F                20:   TOP LOG INTERVAL
 CS  .IN            8.625:   CASING SIZE
 CBD .F                20:   CASING BOTTOM DRILLER
 CBL .F                20:   CASING BOTTOM LOGGER
 BS  .IN             6.25:   BIT SIZE
 BSD .F               480:   BIT SIZE AT DEPTH
 DFT .          KCL WATER:   DRILLING FLUID TYPE
 MSS .           FLOWLINE:   MUD SAMPLE SOURCE
 RMS .OHMM          0.134:   RESISTIVITY MUD SAMPLE
 MST .F                72:   MUD SAMPLE TEMPERATURE
 RMF .OHMM           0.10:   RESISTIVITY MUD FILTRATE SAMPLE
 MFST.F                72:   MUD FILTRATE SAMPLE TEMPERATURE
 RMC .OHMM           0.17:   RESISTIVITY MUD CAKE
 MCST.F                72:   MUD CAKE SAMPLE TEMPERATURE
 MFSS.               CALC:   MUD FILTRATE SAMPLE SOURCE
 MCSS.               CALC:   MUD CAKE SAMPLE SOURCE
 TCS .HRS               2:   TIME CURCULATED STOPPED
 MRT .F               100:   MAXIMUM RECORDED TEMPERATURE
 LUN .               6270:   LOGGING UNIT NUMBER
 ENGI.            LEBSOCK:   RECORDING ENGINEER
 WITN.          DAN LUERS:   WITNESSED BY
 CLNT.            A2DTECH:   CLIENT CODE
 ORIG.           5" PRINT:   ORIGIN OF DATA
 UWI .       490251100600:   UNIQUE WELL ID
 DICO. A2D Technologies, Inc.:   DIGITIZING COMPANY
~OTHER INFORMATION
~A    DEPT      AC       PORD        CNC       CALD        GRD       CORR        DEN   
# ...
  281.0000   107.2717     0.1926     0.2779     6.3401    68.4001     0.0375     2.3546
  281.5000   107.9397     0.1938     0.2816     6.3545    68.6959     0.0540     2.3342
  282.0000   108.3094     0.2071     0.2876     6.2940    66.7383     0.0690     2.3191
  282.5000   107.4764     0.2150     0.2916     6.2784    66.2845     0.0794     2.3176
  283.0000   104.2463     0.2126     0.2901     6.2778    69.5822     0.0794     2.3477
  283.5000   101.1660     0.2045     0.2769     6.2772    71.6798     0.0672     2.3838
  284.0000    99.5851     0.1819     0.2683     6.2916    72.1269     0.0190     2.4041
  284.5000   100.1780     0.1662     0.2637     6.2910    69.2684     0.0279     2.4010
  285.0000   100.7710     0.1658     0.2664     6.2904    67.7624     0.0535     2.3769
  285.5000   101.3639     0.1774     0.2546     6.3198    71.3615     0.0368     2.3625
  286.0000   102.2567     0.1895     0.2442     6.3341    75.2609     0.0066     2.3610
  286.5000   102.8497     0.1911     0.2590     6.3336    77.8090    -0.0012     2.3579
  287.0000   104.0424     0.1932     0.2768     6.3330    77.9558     0.0080     2.3383
  287.5000   104.8602     0.2026     0.2796     6.3324    77.1994     0.0184     2.3270
  288.0000   105.0051     0.2056     0.2718     6.3318    73.4412     0.0184     2.3352
  288.5000   103.9472     0.2017     0.2688     6.3460    71.3346     0.0246     2.3442
  289.0000   102.4412     0.2002     0.2704     6.3454    70.5793     0.0423     2.3442
  289.5000   100.4104     0.1996     0.2699     6.3448    69.9742     0.0422     2.3494
  290.0000    98.3047     0.1966     0.2642     6.3442    69.5193     0.0361     2.3795
  290.5000    96.9487     0.1831     0.2567     6.3436    69.5148     0.0270     2.3893
  291.0000    96.7920     0.1732     0.2504     6.3430    70.7115     0.0209     2.3855
  291.5000    98.2095     0.1850     0.2460     6.3424    72.0584     0.0178     2.3621
  292.0000    99.7770     0.1937     0.2448     6.3418    72.8046     0.0238     2.3425
  292.5000   101.5693     0.2037     0.2572     6.3412    73.1006     0.0343     2.3341
  293.0000   102.8370     0.2101     0.2715     6.3707    73.3962     0.0417     2.3221
  293.5000   103.3566     0.2167     0.2767     6.3851    73.8422     0.0462     2.3062
  294.0000   102.4487     0.2228     0.2803     6.3843    75.7897     0.0401     2.3046
  294.5000   101.1960     0.2129     0.2741     6.3837    77.8873     0.0294     2.3227
  295.0000    98.8177     0.1993     0.2621     6.3832    81.3362     0.0233     2.3560
  295.5000    96.8073     0.1843     0.2513     6.3826    83.8843     0.0172     2.3710
  296.0000    95.9010     0.1782     0.2489     6.3820    84.4805     0.0157     2.3777
  296.5000    96.1192     0.1771     0.2556     6.3814    83.2747     0.0291     2.3830
  297.0000    95.9625     0.1753     0.2608     6.3808    80.5675     0.0366     2.3868
  297.5000    95.8058     0.1705     0.2638     6.3802    79.0615     0.0411     2.3918
  298.0000    95.4993     0.1684     0.2651     6.3796    80.1081     0.0395     2.3970
  298.5000    96.1672     0.1675     0.2640     6.3790    84.4579     0.0349     2.3977
  299.0000    96.9850     0.1678     0.2604     6.3784    86.4054     0.0318     2.3977
  299.5000    97.4280     0.1688     0.2556     6.3778    85.8003     0.0347     2.3976
  300.0000    97.8711     0.1679     0.2589     6.3773    84.8949     0.0407     2.3975
  300.5000    97.8650     0.1701     0.2690     6.3771    85.4950     0.0406     2.3945
  301.0000    98.2346     0.1749     0.2684     6.3770    85.4745     0.0329     2.3877
  301.5000    98.4556     0.1761     0.2573     6.3768    83.0465     0.0284     2.3854
  302.0000    98.6740     0.1741     0.2477     6.3766    80.6486     0.0418     2.3884
  302.5000    98.8187     0.1722     0.2498     6.3765    81.8894     0.0522     2.3913
  303.0000    99.0397     0.1725     0.2525     6.3763    84.9219     0.0491     2.3853
  303.5000    99.1094     0.1761     0.2544     6.3762    86.7458     0.0159     2.3739
  304.0000    99.1029     0.1843     0.2477     6.3760    87.8740     0.0219     2.3671
  304.5000    99.0977     0.1876     0.2420     6.3759    87.2028     0.0278     2.3663
  305.0000    99.0925     0.1882     0.2436     6.3757    83.6136     0.0337     2.3700
  305.5000    99.0124     0.1834     0.2463     6.3756    79.7968     0.0336     2.3790
  306.0000    98.7823     0.1789     0.2475     6.3754    78.7029     0.0335     2.3820
  306.5000    98.7021     0.1768     0.2491     6.3753    81.8523     0.0335     2.3819
  307.0000    98.4720     0.1762     0.2518     6.3751    83.8012     0.0349     2.3826
  307.5000    98.2419     0.1762     0.2512     6.3750    84.9994     0.0393     2.3834
  308.0000    98.0868     0.1769     0.2488     6.3748    83.7952     0.0453     2.3788
  308.5000    97.7817     0.1811     0.2489     6.3747    81.9905     0.0451     2.3720
  309.0000    97.5516     0.1832     0.2572     6.3745    80.7863     0.0451     2.3780
  309.5000    97.2466     0.1811     0.2693     6.3744    80.0325     0.0450     2.3817
  310.0000    96.8666     0.1772     0.2649     6.3742    79.4289     0.0419     2.3816
  310.5000    96.4815     0.1769     0.2517     6.3891    78.9755     0.0312     2.3786
  311.0000    96.2564     0.1785     0.2466     6.3889    80.1737     0.0281     2.3755
  311.5000    96.2286     0.1809     0.2526     6.3888    81.3719     0.0280     2.3725
  312.0000    95.7112     0.1831     0.2674     6.3886    83.4710     0.0310     2.3709
  312.5000    95.3411     0.1848     0.2786     6.3885    83.7691     0.0369     2.3694
  313.0000    95.1849     0.1846     0.2648     6.3883    81.9635     0.0383     2.3686
  313.5000    95.0297     0.1840     0.2539     6.3882    81.9606     0.0352     2.3693
  314.0000    95.3993     0.1840     0.2503     6.3880    82.5582     0.0306     2.3692
  314.5000    95.9938     0.1843     0.2543     6.3879    82.5552     0.0260     2.3683
  315.0000    96.3634     0.1882     0.2600     6.3877    81.2008     0.0259     2.3599
  315.5000    96.6581     0.1934     0.2661     6.3876    77.7444     0.0258     2.3538
  316.0000    96.8041     0.1961     0.2667     6.3860    77.1408     0.0257     2.3494
  316.5000    96.4978     0.1958     0.2649     6.3723    81.1919     0.0256     2.3496
  317.0000    96.3426     0.1907     0.2683     6.3722    84.4922     0.0255     2.3579
  317.5000    96.1875     0.1886     0.2680     6.3720    85.8405     0.0236     2.3629
  318.0000    95.8075     0.1889     0.2596     6.3719    86.5890     0.0220     2.3627
  318.5000    95.4275     0.1883     0.2451     6.3717    85.8345     0.0205     2.3628
  319.0000    95.0475     0.1862     0.2418     6.3716    86.7325     0.0191     2.3661
  319.5000    94.8923     0.1823     0.2409     6.3714    89.1319     0.0191     2.3722
  320.0000    94.7372     0.1799     0.2423     6.3712    90.0298     0.0190     2.3769
  320.5000    94.8819     0.1797     0.2471     6.3711    90.3278     0.0174     2.3777
  321.0000    95.1016     0.1800     0.2495     6.3709    86.7205     0.0188     2.3769
  321.5000    95.5475     0.1809     0.2492     6.3708    83.7145     0.0307     2.3761
  322.0000    95.8408     0.1815     0.2516     6.3706    82.3602     0.0352     2.3730
  322.5000    95.8356     0.1848     0.2580     6.3705    81.7566     0.0185     2.3707
  323.0000    95.5306     0.1836     0.2565     6.3554    80.1019     0.0064     2.3714
  323.5000    94.8507     0.1797     0.2520     6.3253    78.8977     0.0123     2.3796
  324.0000    94.3208     0.1743     0.2448     6.3251    78.2949     0.0258     2.3924
  324.5000    94.0907     0.1695     0.2504     6.3250    80.6937     0.0302     2.3984
  325.0000    94.0105     0.1671     0.2555     6.3099    80.2401     0.0301     2.3998
  325.5000    94.0803     0.1653     0.2606     6.3097    79.6365     0.0300     2.4013
  326.0000    94.2299     0.1647     0.2714     6.3096    82.4864     0.0269     2.3982
