~VERSION INFORMATION
 VERS.                2.0:   CWLS LOG ASCII STANDARD - VERSION 2.0
 WRAP.                 NO:   ONE LINE PER DEPTH STEP
~WELL INFORMATION
#MNEM.UNIT      DATA TYPE    INFORMATION
#----------   ------------   ------------------------------
 STRT.F           50.0000:   START DEPTH
 STOP.F         1152.0000:   STOP DEPTH
 STEP.F            0.5000:   STEP LENGTH
 NULL.          -999.2500:   NO VALUE
 COMP. FENIX & SCISSON INC:   COMPANY
 WELL.  NPR 3 #65 SX14-14:   WELL
 FLD .             TEAPOT:   FIELD
 LOC .      S14 T38N R78W:   LOCATION
 CNTY.            NATRONA:   COUNTY
 STAT.            WYOMING:   STATE
 CTRY. UNITED STATES OF AMERICA:   COUNTRY
 SRVC.              Welex:   SERVICE COMPANY
 DATE.        13-JAN-1979:   LOGDATE
 API .       490251073800:   API NUMBER
~CURVE INFORMATION
#MNEM.UNIT       API CODE    CURVE DESCRIPTION
#----------   ------------   ------------------------------
 DEPT.F                  :   
 SPR .MV     07 010 01 00:   SPONTANEOUS POTENTIAL
 SGRD.OHMM   07 220 05 00:   SHALLOW GUARD RESISTIVITY
 ILD .OHMM   07 120 46 00:   INDUCTION LOG DEEP
 ILM .OHMM   07 120 44 00:   INDUCTION LOG MEDIUM
 CALD.IN     45 280 60 00:   CALIPER
 GRD .GAPI   45 310 01 00:   GAMMA RAY FROM DENSITY LOG
 RHOB.G/C3   45 350 01 00:   BULK DENSITY
 DPHI.DEC    45 890 12 00:   DENSITY POROSITY SANDSTONE
 CORR.G/C3   45 356 01 00:   DENSITY CORRECTION
~PARAMETER INFORMATION
#MNEM.UNIT          VALUE    DESCRIPTION
#----------   ------------   ------------------------------
 PD  .                 GL:   PERMANENT DATUM
 EPD .F              5312:   ELEVATION PERMANENT DATUM
 LMF .                 KB:   LOG MEASURED FROM
 DAPD.F                 4:   FEET ABOVE PERMANENT DATUM
 DMF .                 KB:   DRILLING MEASURED FROM
 EKB .F              5316:   KELLING BUSHING
 EGL .F              5312:   GROUND LEVEL
 DATE.            1-13-79:   RUN DATE
 RUN .                  1:   RUN NUMBER
 DD  .F              1167:   DEPTH DRILLER
 DL  .F              1154:   DEPTH LOGGER
 BLI .F              1152:   BOTTOM LOG INTERVAL
 TLI .F                50:   TOP LOG INTERVAL
 CS  .IN            8.625:   CASING SIZE
 CBD .F                40:   CASING BOTTOM DRILLER
 CBL .F                60:   CASING BOTTOM LOGGER
 BS  .IN            7.875:   BIT SIZE
 BSD .F              1167:   BIT SIZE AT DEPTH
 DFT .            KCL MUD:   DRILLING FLUID TYPE
 DFD .                8.8:   DRILLING FLUID DENSITY
 DFV .                 42:   DRILLING FLUID VISCOSITY
 DFPH.                8.2:   DRILLING FLUID PH
 DFL .                7.7:   DRILLING FLUID LOSS
 MSS .                PIT:   MUD SAMPLE SOURCE
 RMS .OHMM            .29:   RESISTIVITY MUD SAMPLE
 MST .F                40:   MUD SAMPLE TEMPERATURE
 RMF .OHMM            .19:   RESISTIVITY MUD FILTRATE SAMPLE
 MFST.F                40:   MUD FILTRATE SAMPLE TEMPERATURE
 RMC .OHMM            .87:   RESISTIVITY MUD CAKE
 MCST.F                40:   MUD CAKE SAMPLE TEMPERATURE
 MFSS.           MEASURED:   MUD FILTRATE SAMPLE SOURCE
 MCSS.           MEASURED:   MUD CAKE SAMPLE SOURCE
 RMB .OHMM           .119:   RESISTIVITY MUD AT BHT
 BHT .F                97:   BOTTOM HOLE TEMPERATURE
 TCS .HRS              30:   TIME CURCULATED STOPPED
 MRT .F                97:   MAXIMUM RECORDED TEMPERATURE
 LUN .               8611:   LOGGING UNIT NUMBER
 LUL .             CASPER:   LOGGING UNIT LOCATION
 ENGI.            BENTSEN:   RECORDING ENGINEER
 WITN.              AMEND:   WITNESSED BY
 CLNT.            A2DTECH:   CLIENT CODE
 ORIG.       2", 5" PRINT:   ORIGIN OF DATA
 UWI .       490251073800:   UNIQUE WELL ID
 DICO. A2D Technologies, Inc.:   DIGITIZING COMPANY
~OTHER INFORMATION
~A   DEPT      SPR       SGRD        ILD        ILM       CALD        GRD       RHOB       DPHI       CORR   
# ...
  196.0000   -26.9386     8.3613     6.7809     7.1064     8.0520   115.5752     2.5073     0.0998    -0.0046
  196.5000   -27.0243     8.1609     6.9042     7.1591     8.0942   114.6912     2.4893     0.1098    -0.0181
  197.0000   -27.1301     7.9109     7.0184     7.2122     8.1206   113.9071     2.4805     0.1158    -0.0219
  197.5000   -27.3701     7.9109     7.0370     7.2656     8.1186   115.6679     2.4924     0.1109    -0.0188
  198.0000   -27.6138     8.0311     7.0557     7.3195     8.1141   117.7947     2.5045     0.1047    -0.0157
  198.5000   -27.8640     8.2526     7.0744     7.3738     8.1097   119.9460     2.5111     0.1000    -0.0124
  199.0000   -27.7328     8.4803     7.0932     7.4160     8.1052   120.3571     2.5058     0.1066    -0.0092
  199.5000   -27.5240     8.7170     7.1120     7.3783     8.1007   118.8681     2.5109     0.1035    -0.0060
  200.0000   -27.3117     8.8421     7.1308     7.3478     8.0962   118.5535     2.5230     0.0977    -0.0028
  200.5000   -27.5572     8.4555     7.1497     7.3174     8.0917   119.8758     2.5351     0.0919     0.0004
  201.0000   -27.8476     7.9842     7.1687     7.2806     8.0872   116.1376     2.5472     0.0860     0.0036
  201.5000   -28.1336     8.1874     7.1877     7.3442     8.0827   111.8941     2.5594     0.0802     0.0040
  202.0000   -28.2461     8.5486     7.2067     7.4270     8.0782   109.2944     2.5728     0.0755     0.0040
  202.5000   -28.1142     8.9281     7.2135     7.5126     8.0737   111.6181     2.5649     0.0759     0.0012
  203.0000   -27.9875     9.3172     6.9578     7.5531     8.0692   115.4817     2.5552     0.0795    -0.0031
  203.5000   -27.9452     9.5225     6.7873     7.2812     8.0646   114.5113     2.5453     0.0841    -0.0074
  204.0000   -28.0895     8.3137     6.6210     7.1020     8.0618   119.5336     2.5354     0.0887    -0.0117
  204.5000   -28.2308     7.7510     6.4587     6.9280     8.0913   120.2175     2.5313     0.0914    -0.0161
  205.0000   -28.3736     7.5415     6.3979     6.7582     8.1222   117.0780     2.5364     0.0875    -0.0203
  205.5000   -28.4929     7.3367     6.4709     6.7001     8.1529   113.6671     2.5467     0.0826    -0.0241
  206.0000   -28.3603     7.0816     6.5388     6.9013     8.1836   105.7217     2.5664     0.0777    -0.0236
  206.5000   -28.2291     7.1788     6.7502     7.0646     8.2143   103.4923     2.5789     0.0734    -0.0231
  207.0000   -28.0994     7.3681     6.9683     7.2318     8.2451   108.7770     2.5455     0.0853    -0.0226
  207.5000   -27.9700     9.0842     7.1472     7.4029     8.2756   112.9228     2.5158     0.0979    -0.0220
  208.0000   -27.8848    14.4400     6.9585     7.5781     8.2983   117.2079     2.4864     0.1105    -0.0239
  208.5000   -27.8527    10.3482     6.8249     7.7574     8.2954   118.5738     2.4653     0.1262    -0.0266
  209.0000   -27.8203     9.0020     6.9291     7.9410     8.2849   115.2951     2.4676     0.1241    -0.0277
  209.5000   -27.7879     9.0346     7.0491     8.1289     8.2746   113.3558     2.4746     0.1201    -0.0233
  210.0000   -27.7551     9.0801     7.1712     8.3213     8.2643   114.9734     2.4816     0.1160    -0.0189
  210.5000   -27.7233     9.1258     7.2955     8.5170     8.2415   116.8370     2.4848     0.1114    -0.0146
  211.0000   -27.7283     9.1697     7.4160     8.4774     8.1995   118.7205     2.4772     0.1164    -0.0102
  211.5000   -27.8532     9.7712     7.4160     8.3142     8.1577   117.0785     2.4701     0.1261    -0.0061
  212.0000   -27.9727    10.4313     7.2307     8.1542     8.1165   114.9811     2.4765     0.1215    -0.0057
  212.5000   -28.0923     9.6373     7.0816     7.9972     8.0795   112.8399     2.4892     0.1102    -0.0055
  213.0000   -28.2118     8.8289     7.0165     7.8432     8.0774   114.0594     2.5008     0.1038    -0.0053
  213.5000   -28.3314     8.0942     7.1193     7.6948     8.0739   114.6183     2.5039     0.1069    -0.0051
  214.0000   -28.4509     7.8382     7.1472     7.5501     8.0702   112.8887     2.4911     0.1108    -0.0048
  214.5000   -28.5706     8.7737     7.0415     7.4104     8.0666   113.9649     2.4886     0.1122    -0.0046
  215.0000   -28.6912     9.1958     6.9688     7.2733     8.0630   115.1289     2.4944     0.1094    -0.0044
  215.5000   -28.8099     8.4309     6.8969     7.1388     8.0594   113.2806     2.5011     0.1050    -0.0041
  216.0000   -28.8371     8.1847     6.8257     7.0630     8.0558   111.7747     2.5036     0.1041    -0.0036
  216.5000   -28.5188     8.0555     6.7553     7.0304     8.0522   116.1988     2.5029     0.1048    -0.0020
  217.0000   -28.2115     7.9109     6.6856     6.9980     8.0487   119.8798     2.5023     0.1054    -0.0005
  217.5000   -27.9040     8.2516     6.6166     6.9658     8.0456   123.4516     2.5025     0.1054     0.0010
  218.0000   -27.5955     7.8807     6.5483     6.9337     8.0388   121.6476     2.5081     0.1011     0.0026
  218.5000   -27.3042     7.2013     6.5171     6.9018     7.9386   119.3894     2.5211     0.0950     0.0039
  219.0000   -27.3644     7.2888     6.5955     6.8882     7.8339   117.1164     2.5151     0.0982     0.0028
  219.5000   -27.4444     8.4433     6.6991     6.9359     7.7298   114.7379     2.5043     0.1013     0.0016
  220.0000   -27.5312     9.1697     6.8045     7.0529     7.7618   114.0149     2.5014     0.1043     0.0004
  220.5000   -27.7646     8.2845     6.9114     7.1720     7.8322   114.2705     2.4997     0.1074    -0.0008
  221.0000   -27.9994     8.4207     7.0201     7.2931     7.9247   113.7260     2.4979     0.1067    -0.0019
  221.5000   -28.2335     8.5744     7.1304     7.4162     8.0147   113.1328     2.4957     0.1061    -0.0031
  222.0000   -28.4683     8.7327     7.2425     7.5414     8.0601   112.5368     2.4808     0.1116    -0.0043
  222.5000   -28.7026     8.9199     7.3564     7.6687     8.0578   111.9445     2.4664     0.1217    -0.0055
  223.0000   -28.8885     8.8942     7.4720     7.7982     8.0557   111.3541     2.4770     0.1219    -0.0090
  223.5000   -28.7607     8.7968     7.6242     7.9299     8.0534   111.0119     2.4801     0.1190    -0.0143
  224.0000   -28.6372     8.7005     7.5271     8.0637     8.0510   111.3183     2.4793     0.1160    -0.0193
  224.5000   -28.5122     8.6757     7.3921     8.1999     8.0486   110.7240     2.4787     0.1130    -0.0181
  225.0000   -28.6070     9.0854     7.2595     8.3613     8.0462   108.6155     2.4855     0.1100    -0.0149
  225.5000   -28.7317     9.5145     7.1293     8.2630     8.0438   111.2634     2.4951     0.1058    -0.0089
  226.0000   -28.8570     8.9778     7.0015     8.1051     8.0412   114.4963     2.5048     0.1016    -0.0029
  226.5000   -28.9831     8.3827     6.8759     7.9503     8.0522   117.5505     2.5145     0.0974     0.0032
  227.0000   -29.0906     7.8195     6.7526     7.7984     8.0660   116.6751     2.5242     0.0931     0.0092
  227.5000   -28.9036     7.4801     6.6315     7.6494     8.0799   113.7093     2.5339     0.0889     0.0152
  228.0000   -28.7100     7.4823     6.5125     7.5033     8.0938   110.8797     2.5397     0.0870     0.0212
  228.5000   -28.8100     7.6384     6.3955     7.3600     8.1079   108.2364     2.5415     0.0866     0.0262
  229.0000   -28.9333     7.7521     6.2810     7.2194     8.1191   107.0797     2.5414     0.0866     0.0268
  229.5000   -29.0579     7.8670     6.2232     7.0814     8.0932   106.6534     2.5383     0.0867     0.0274
  230.0000   -29.0160     7.9850     6.2413     6.9520     8.0677   110.6914     2.5274     0.0914     0.0271
  230.5000   -28.8885     8.0576     6.2967     7.0144     8.0424   114.5867     2.5165     0.0974     0.0221
  231.0000   -28.7583     7.6263     6.3526     7.0709     8.0170   114.3651     2.5056     0.1035     0.0172
  231.5000   -28.6266     7.7000     6.4090     7.1276     7.9927   113.3547     2.4984     0.1078     0.0123
  232.0000   -28.5098     7.7910     6.4659     7.1845     7.9005   114.2896     2.5037     0.1056     0.0098
