~VERSION INFORMATION
 VERS.                2.0:   CWLS LOG ASCII STANDARD - VERSION 2.0
 WRAP.                 NO:   ONE LINE PER DEPTH STEP
~WELL INFORMATION
#MNEM.UNIT      DATA TYPE    INFORMATION
#----------   ------------   ------------------------------
 STRT.F           20.0000:   START DEPTH
 STOP.F          599.0000:   STOP DEPTH
 STEP.F            0.5000:   STEP LENGTH
 NULL.          -999.2500:   NO VALUE
 COMP. FENIX & SCISSON INC:   COMPANY
 WELL.    47 SX 34 #47-34:   WELL
 FLD .             TEAPOT:   FIELD
 LOC .      S34 T39N R78W:   LOCATION
 CNTY.            NATRONA:   COUNTY
 STAT.            WYOMING:   STATE
 CTRY. UNITED STATES OF AMERICA:   COUNTRY
 SRVC.       Schlumberger:   SERVICE COMPANY
 DATE.        24-JAN-1979:   LOGDATE
 API .       490251077000:   API NUMBER
~CURVE INFORMATION
#MNEM.UNIT       API CODE    CURVE DESCRIPTION
#----------   ------------   ------------------------------
 DEPT.F                  :   
 SN  .OHMM   05 040 16 00:   SHORT NORMAL 16"
 ILD .OHMM   05 120 46 00:   INDUCTION LOG DEEP
 SPR .MV     05 010 01 00:   SPONTANEOUS POTENTIAL FROM RES.
 CALD.IN     45 280 60 00:   CALIPER
 GRD .GAPI   45 310 01 00:   GAMMA RAY FROM DENSITY LOG
 DPHI.DEC    45 890 12 00:   DENSITY POROSITY SANDSTONE
 CORR.G/C3   45 356 01 00:   DENSITY CORRECTION
 RHOB.G/C3   45 350 01 00:   BULK DENSITY
~PARAMETER INFORMATION
#MNEM.UNIT          VALUE    DESCRIPTION
#----------   ------------   ------------------------------
 PD  .                 GL:   PERMANENT DATUM
 EPD .F              5132:   ELEVATION PERMANENT DATUM
 LMF .                 KB:   LOG MEASURED FROM
 DAPD.F                 4:   FEET ABOVE PERMANENT DATUM
 DMF .                 KB:   DRILLING MEASURED FROM
 EKB .F              5136:   KELLING BUSHING
 EGL .F              5132:   GROUND LEVEL
 DATE.            1-24-79:   RUN DATE
 RUN .                  1:   RUN NUMBER
 DD  .F               600:   DEPTH DRILLER
 DL  .F               600:   DEPTH LOGGER
 BLI .F               594:   BOTTOM LOG INTERVAL
 TLI .F                28:   TOP LOG INTERVAL
 CS  .IN            8.625:   CASING SIZE
 CBD .F                40:   CASING BOTTOM DRILLER
 BS  .IN            7.875:   BIT SIZE
 BSD .F               600:   BIT SIZE AT DEPTH
 DFT .                KCL:   DRILLING FLUID TYPE
 DFD .                8.8:   DRILLING FLUID DENSITY
 DFV .                 60:   DRILLING FLUID VISCOSITY
 DFPH.                9.5:   DRILLING FLUID PH
 DFL .               10.8:   DRILLING FLUID LOSS
 MSS .           FLOWLINE:   MUD SAMPLE SOURCE
 RMS .OHMM            .22:   RESISTIVITY MUD SAMPLE
 MST .F                60:   MUD SAMPLE TEMPERATURE
 RMF .OHMM             .2:   RESISTIVITY MUD FILTRATE SAMPLE
 MFST.F                61:   MUD FILTRATE SAMPLE TEMPERATURE
 RMC .OHMM             .3:   RESISTIVITY MUD CAKE
 MCST.F                61:   MUD CAKE SAMPLE TEMPERATURE
 MFSS.           MEASURED:   MUD FILTRATE SAMPLE SOURCE
 MCSS.           MEASURED:   MUD CAKE SAMPLE SOURCE
 RMB .OHMM            .23:   RESISTIVITY MUD AT BHT
 BHT .F                58:   BOTTOM HOLE TEMPERATURE
 TCS .HRS               4:   TIME CURCULATED STOPPED
 MRT .F                58:   MAXIMUM RECORDED TEMPERATURE
 LUN .               3029:   LOGGING UNIT NUMBER
 LUL .             CASPER:   LOGGING UNIT LOCATION
 ENGI.         B. ROLLINS:   RECORDING ENGINEER
 WITN.         RICHARDSON:   WITNESSED BY
 CLNT.            A2DTECH:   CLIENT CODE
 ORIG.           5" PRINT:   ORIGIN OF DATA
 UWI .       490251077000:   UNIQUE WELL ID
 DICO. A2D Technologies, Inc.:   DIGITIZING COMPANY
~OTHER INFORMATION
~A   DEPT       SN        ILD        SPR         CALD       GRD        DPHI       CORR       RHOB 
# ...
  384.5000     6.0586     6.8695   -34.0789     8.4060   117.4735     0.1133     0.0061     2.4894
  385.0000     6.0786     6.8820   -34.4646     8.4016   118.6896     0.1146     0.0061     2.4894
  385.5000     6.0989     6.8945   -34.2373     8.3972   119.9374     0.1130     0.0040     2.4949
  386.0000     6.1032     6.9069   -34.0243     8.3927   120.3028     0.1062     0.0080     2.5012
  386.5000     6.0845     6.9194   -34.0368     8.3883   119.6985     0.1032     0.0141     2.5055
  387.0000     6.0612     6.9321   -34.5519     8.3839   119.0518     0.1012     0.0140     2.5054
  387.5000     6.0379     6.9423   -35.0789     8.3795   118.4092     0.1006     0.0165     2.5102
  388.0000     6.0147     6.9420   -35.6097     8.3750   117.7639     0.1022     0.0201     2.5167
  388.5000     5.9916     6.9421   -36.1404     8.3706   117.1445     0.1105     0.0198     2.5096
  389.0000     5.9686     6.9421   -36.6720     8.3662   118.3694     0.1188     0.0126     2.4918
  389.5000     5.9456     6.9421   -37.2000     8.3632   122.2368     0.1242     0.0046     2.4737
  390.0000     5.9228     6.9421   -37.6784     8.3633   126.0815     0.1269    -0.0033     2.4649
  390.5000     5.9000     6.9421   -37.8625     8.3633   129.9155     0.1253    -0.0101     2.4690
  391.0000     5.8774     6.9427   -37.7902     8.3633   129.8439     0.1226    -0.0051     2.4756
  391.5000     5.8547     6.9433   -37.7177     8.3633   122.7246     0.1197     0.0002     2.4822
  392.0000     5.8338     6.8286   -37.6428     8.3633   118.4345     0.1190     0.0055     2.4828
  392.5000     5.6780     6.6968   -37.5695     8.3633   126.8740     0.1222     0.0073     2.4725
  393.0000     5.5031     6.5670   -37.4958     8.3633   128.8845     0.1306     0.0053     2.4588
  393.5000     5.3336     6.1367   -37.8438     8.3633   128.9941     0.1387     0.0034     2.4451
  394.0000     5.1693     5.7469   -38.2957     8.3633   132.1333     0.1489     0.0071     2.4309
  394.5000     5.0100     5.5842   -38.1999     8.3633   137.9239     0.1445     0.0255     2.4283
  395.0000     4.8557     5.5328   -38.0517     8.3633   132.1454     0.1439     0.0108     2.4322
  395.5000     4.8042     5.4820   -37.9024     8.3633   127.4991     0.1465    -0.0110     2.4375
  396.0000     4.8600     5.4316   -37.7522     8.3633   122.7073     0.1367    -0.0120     2.4452
  396.5000     4.9136     5.3816   -37.6094     8.3633   122.3977     0.1282    -0.0079     2.4542
  397.0000     4.9854     5.3654   -37.6673     8.3633   124.3040     0.1249    -0.0033     2.4632
  397.5000     4.9861     5.5054   -38.1088     8.3633   118.2064     0.1259     0.0012     2.4707
  398.0000     4.9086     5.5156   -38.4852     8.3633   115.8117     0.1280     0.0056     2.4719
  398.5000     4.8045     5.4133   -38.8602     8.3633   123.8033     0.1372     0.0101     2.4559
  399.0000     4.6582     5.3349   -39.2360     8.3633   123.9247     0.1514     0.0100     2.4343
  399.5000     4.5277     5.2577   -39.6109     8.3633   119.8031     0.1589     0.0101     2.4173
  400.0000     4.4636     5.1715   -39.9912     8.3633   117.9321     0.1523     0.0079     2.4172
  400.5000     4.5048     5.1715   -40.3017     8.3633   125.7458     0.1423     0.0073     2.4369
  401.0000     4.6214     5.1715   -40.3042     8.3633   123.1514     0.1323     0.0068     2.4582
  401.5000     4.7931     5.2198   -40.0508     8.3633   120.4172     0.1232     0.0063     2.4785
  402.0000     4.9712     5.4127   -39.7055     8.3633   125.9802     0.1142     0.0058     2.4856
  402.5000     5.1560     5.6210   -39.3553     8.3633   122.1091     0.1134     0.0053     2.4931
  403.0000     5.3475     5.8564   -39.0050     8.3633   117.5500     0.1126     0.0048     2.4936
  403.5000     5.5665     6.1030   -38.6550     8.3633   115.2806     0.1107     0.0043     2.4932
  404.0000     5.6180     6.3600   -38.3051     8.3633   120.5036     0.1086     0.0040     2.4965
  404.5000     5.6180     6.6278   -37.9538     8.3633   123.0928     0.1061     0.0041     2.5025
  405.0000     5.6180     6.8865   -37.5849     8.3633   120.3262     0.1054     0.0056     2.5060
  405.5000     5.5717     6.5469   -37.5303     8.3633   115.6094     0.1058     0.0057     2.5066
  406.0000     5.3873     6.2022   -38.0833     8.3633   110.9075     0.1224     0.0020     2.4991
  406.5000     5.1360     5.8725   -38.6244     8.3633   108.6282     0.1421     0.0041     2.4599
  407.0000     4.8963     5.5609   -39.1614     8.3633   115.7048     0.1618     0.0127     2.4198
  407.5000     4.6679     5.2658   -39.6967     8.3633   118.3231     0.1717     0.0211     2.3900
  408.0000     4.4511     5.0815   -40.2305     8.3633   119.9429     0.1701     0.0302     2.3886
  408.5000     4.2602     4.9972   -40.3358     8.3633   117.1521     0.1712     0.0036     2.3953
  409.0000     4.2608     4.9390   -39.6879     8.3633   115.8200     0.1502    -0.0174     2.4380
  409.5000     4.4636     4.9846   -39.0625     8.3628   118.2329     0.1226     0.0157     2.4762
  410.0000     4.7169     5.1343   -38.4404     8.3620   114.9266     0.1160     0.0174     2.4820
  410.5000     4.9846     5.3882   -37.8112     8.3613   112.7082     0.1100     0.0115     2.4904
  411.0000     5.2676     5.7426   -37.4055     8.3606   115.5772     0.1057     0.0051     2.4993
  411.5000     5.5665     6.1594   -37.2807     8.3598   115.3045     0.1034     0.0010     2.5015
  412.0000     5.7636     6.4032   -37.1926     8.3591   114.2034     0.1030     0.0000     2.5013
  412.5000     5.8471     6.6855   -37.1126     8.3584   115.5523     0.1062     0.0001     2.5008
  413.0000     5.9317     6.9801   -37.0314     8.3577   118.4575     0.1054     0.0019     2.5003
  413.5000     6.0177     7.1017   -36.9500     8.3569   119.8657     0.1039     0.0036     2.4997
  414.0000     6.1048     7.1459   -36.8686     8.3562   116.9901     0.1034     0.0053     2.4995
  414.5000     6.1932     7.1902   -36.7872     8.3555   112.1249     0.1073     0.0071     2.5005
  415.0000     6.2738     7.2349   -36.7058     8.3547   114.4521     0.1085     0.0087     2.5093
  415.5000     6.2738     7.2799   -36.6244     8.3540   113.1237     0.1084     0.0092     2.5188
  416.0000     6.2829     7.3251   -36.5430     8.3533   111.2050     0.1082     0.0056     2.5144
  416.5000     6.2912     7.3706   -36.4616     8.3526   110.5018     0.1060     0.0024     2.4945
  417.0000     6.2995     7.4164   -36.3802     8.3518   111.2468     0.1038     0.0014     2.4973
  417.5000     6.3077     7.4624   -36.2988     8.3511   112.3441     0.1065     0.0072     2.5052
  418.0000     6.3160     7.5093   -36.2174     8.3504   113.4502     0.1089     0.0116     2.5130
  418.5000     6.3243     7.5420   -36.1360     8.3497   114.5610     0.1114     0.0010     2.5106
  419.0000     6.3318     7.5414   -36.0544     8.3489   114.9858     0.1121    -0.0057     2.4987
  419.5000     6.2755     7.5207   -35.9715     8.3482   108.7682     0.1112    -0.0062     2.4883
  420.0000     6.2248     7.4903   -35.8886     8.3475   105.3896     0.1093     0.0003     2.4903
  420.5000     6.1587     7.4604   -36.2071     8.3467   114.3026     0.1060     0.0076     2.5137
  421.0000     6.1596     7.4306   -36.5503     8.3460   115.6616     0.1030     0.0064     2.5144
  421.5000     6.1587     7.4039   -36.8942     8.3453   111.6506     0.1034     0.0040     2.5039
  422.0000     6.2379     7.6310   -37.2371     8.3446   107.6581     0.1048     0.0017     2.4978
  422.5000     6.3100     7.8452   -37.5798     8.3438   105.5679     0.1058     0.0002     2.5000
  423.0000     6.3830     8.1202   -37.9230     8.3422   105.2962     0.1077     0.0012     2.5052
  423.5000     6.4511     8.0802   -38.3020     8.3379   104.9450     0.1093     0.0019     2.5056
  424.0000     6.4520     7.5113   -38.4775     8.3338   103.8067     0.1111     0.0001     2.5021
  424.5000     6.0978     6.9616   -38.1433     8.3296   102.4831     0.1310     0.0002     2.4856
