~VERSION INFORMATION
 VERS.                2.0:   CWLS LOG ASCII STANDARD - VERSION 2.0
 WRAP.                 NO:   ONE LINE PER DEPTH STEP
~WELL INFORMATION
#MNEM.UNIT      DATA TYPE    INFORMATION
#----------   ------------   ------------------------------
 STRT.F           12.0000:   START DEPTH
 STOP.F          551.0000:   STOP DEPTH
 STEP.F            0.5000:   STEP LENGTH
 NULL.          -999.2500:   NO VALUE
 COMP. LAWRENCE-ALLISON &AS:   COMPANY
 WELL. NPR 3 #58-46SX3LP4:   WELL
 FLD .             TEAPOT:   FIELD
 LOC .       S3 T38N R78W:   LOCATION
 CNTY.            NATRONA:   COUNTY
 STAT.            WYOMING:   STATE
 CTRY. UNITED STATES OF AMERICA:   COUNTRY
 SRVC.      Dresser Atlas:   SERVICE COMPANY
 DATE.        14-DEC-1984:   LOGDATE
 API .       490251099900:   API NUMBER
~CURVE INFORMATION
#MNEM.UNIT       API CODE    CURVE DESCRIPTION
#----------   ------------   ------------------------------
 DEPT.F                  :   
 RD  .OHMM   11 220 10 00:   RESISTIVITY DEEP
 RS  .OHMM   11 220 09 00:   RESISTIVITY SHALLOW
 SPR .MV     11 010 01 00:   SPONTANEOUS POTENTIAL FROM RES.
 AC  .US/F   60 520 00 00:   ACOUSTIC SONIC
 CALD.IN     45 280 60 00:   CALIPER FROM DENSITY
 CORR.G/C3   45 356 01 00:   DENSITY CORRECTION
 DEN .G/C3   45 350 01 00:   COMPENSATED BULK DENSTIY
 GRD .GAPI   45 310 01 00:   GAMMA RAY FROM DENSITY LOG
 PORD.DEC    45 890 12 00:   POROSITY DENSITY SANDSTONE
 CNC .DEC    42 890 03 00:   NEUTRON POROSITY SANDSTONE
~PARAMETER INFORMATION
#MNEM.UNIT          VALUE    DESCRIPTION
#----------   ------------   ------------------------------
 PD  .                 GL:   PERMANENT DATUM
 EPD .F              5201:   ELEVATION PERMANENT DATUM
 LMF .                 GL:   LOG MEASURED FROM
 DMF .                 GL:   DRILLING MEASURED FROM
 EGL .F              5201:   GROUND LEVEL
 DATE.        14-DEC-1984:   RUN DATE
 RUN .                  1:   RUN NUMBER
 DD  .F               552:   DEPTH DRILLER
 DL  .F               552:   DEPTH LOGGER
 BLI .F               550:   BOTTOM LOG INTERVAL
 TLI .F                20:   TOP LOG INTERVAL
 CS  .IN            8.625:   CASING SIZE
 CBD .F                20:   CASING BOTTOM DRILLER
 CBL .F                20:   CASING BOTTOM LOGGER
 BS  .IN            7.875:   BIT SIZE
 BSD .F               552:   BIT SIZE AT DEPTH
 DFT .          KCL WATER:   DRILLING FLUID TYPE
 MSS .            MUDTANK:   MUD SAMPLE SOURCE
 RMS .OHMM          0.152:   RESISTIVITY MUD SAMPLE
 MST .F                76:   MUD SAMPLE TEMPERATURE
 RMF .OHMM           0.11:   RESISTIVITY MUD FILTRATE SAMPLE
 MFST.F                76:   MUD FILTRATE SAMPLE TEMPERATURE
 RMC .OHMM           0.19:   RESISTIVITY MUD CAKE
 MCST.F                76:   MUD CAKE SAMPLE TEMPERATURE
 MFSS.               CALC:   MUD FILTRATE SAMPLE SOURCE
 MCSS.               CALC:   MUD CAKE SAMPLE SOURCE
 TCS .HRS               5:   TIME CURCULATED STOPPED
 MRT .F               100:   MAXIMUM RECORDED TEMPERATURE
 LUN .               6270:   LOGGING UNIT NUMBER
 ENGI.            LEBSOCK:   RECORDING ENGINEER
 WITN.        GREG GROOMS:   WITNESSED BY
 CLNT.            A2DTECH:   CLIENT CODE
 ORIG.           5" PRINT:   ORIGIN OF DATA
 UWI .       490251099900:   UNIQUE WELL ID
 DICO. A2D Technologies, Inc.:   DIGITIZING COMPANY
~OTHER INFORMATION
~A   DEPT       RD         RS        SPR         AC       CALD       CORR        DEN        GRD       PORD          CNC 
   12.0000  -999.2500  -999.2500  -999.2500  -999.2500  -999.2500  -999.2500  -999.2500  -999.2500  -999.2500     0.3121
   12.5000  -999.2500  -999.2500  -999.2500  -999.2500  -999.2500  -999.2500  -999.2500    79.7748  -999.2500     0.3172
   13.0000  -999.2500  -999.2500  -999.2500  -999.2500  -999.2500  -999.2500  -999.2500    79.6183  -999.2500     0.3190
   13.5000  -999.2500  -999.2500  -999.2500  -999.2500  -999.2500  -999.2500  -999.2500    78.5608  -999.2500     0.3207
   14.0000  -999.2500  -999.2500  -999.2500  -999.2500  -999.2500  -999.2500  -999.2500    76.9018  -999.2500     0.3634
   14.5000  -999.2500  -999.2500  -999.2500  -999.2500  -999.2500  -999.2500  -999.2500    75.3931  -999.2500     0.3698
   15.0000  -999.2500  -999.2500  -999.2500  -999.2500  -999.2500  -999.2500  -999.2500    75.0874  -999.2500     0.3501
   15.5000  -999.2500  -999.2500  -999.2500   235.0233  -999.2500  -999.2500  -999.2500    75.8344  -999.2500     0.3371
   16.0000  -999.2500  -999.2500  -999.2500   240.0000  -999.2500  -999.2500  -999.2500    78.6867  -999.2500     0.3411
   16.5000  -999.2500  -999.2500  -999.2500   238.6236  -999.2500  -999.2500  -999.2500    84.2857  -999.2500     0.3517
   17.0000  -999.2500  -999.2500  -999.2500   225.1721  -999.2500  -999.2500  -999.2500    88.7619  -999.2500     0.3523
   17.5000  -999.2500  -999.2500  -999.2500   199.3238  -999.2500  -999.2500  -999.2500    93.5579  -999.2500     0.3526
   18.0000  -999.2500  -999.2500  -999.2500   159.4260  -999.2500  -999.2500  -999.2500    98.8162  -999.2500     0.3348
   18.5000  -999.2500  -999.2500  -999.2500   142.6405  -999.2500  -999.2500  -999.2500   101.5181  -999.2500     0.3170
   19.0000  -999.2500  -999.2500  -999.2500   131.9214  -999.2500  -999.2500  -999.2500   101.5132  -999.2500     0.3049
   19.5000  -999.2500  -999.2500  -999.2500   125.6824  -999.2500  -999.2500  -999.2500   101.5083  -999.2500     0.2901
   20.0000  -999.2500  -999.2500  -999.2500   119.2181  -999.2500  -999.2500  -999.2500   102.4056  -999.2500     0.2792
   20.5000   348.4431    20.2902   -67.4640   119.8162     7.6303     0.1992     2.4163   108.5661     0.1477     0.2792
   21.0000   353.4952    20.4428   -67.3038   120.1896     7.7056     0.1925     2.4153   111.1178     0.1568     0.2832
   21.5000   356.1511    19.6233   -67.1436   119.7350     7.6456     0.1294     2.4276   109.6089     0.1523     0.3034
   22.0000   358.8270    18.0712   -67.1318   118.3797     7.5939     0.0900     2.4292   105.8442     0.1469     0.3179
   22.5000   361.4710    18.3334   -67.2713   117.8507     7.6175     0.0839     2.4261   106.7416     0.1502     0.3210
   23.0000   354.3103    19.5218   -67.4078   118.1483     7.6412     0.0823     2.4253   108.9923     0.1487     0.3252
   23.5000   354.5143    20.6440   -67.5444   118.5960     7.6161     0.0807     2.4445   111.0927     0.1342     0.3297
   24.0000   362.1480    21.5309   -67.5296   118.7440     7.6012     0.0791     2.4897   111.2382     0.1160     0.3306
   24.5000   382.9501    21.8433   -67.6691   118.3646     7.6164     0.0775     2.5015   110.0301     0.1076     0.3201
   25.0000   407.7547    22.1602   -67.6543   117.1595     7.6466     0.0714     2.4996   109.7234     0.1058     0.3026
   25.5000   434.1660    22.1730   -67.7938   115.3534     7.6618     0.0653     2.4841   108.9666     0.1088     0.2956
   26.0000   465.4933    22.3397   -67.9304   112.8710     7.6770     0.0637     2.4773   107.7587     0.1167     0.2808
   26.5000   488.8422    22.3526   -67.9156   111.1400     7.6471     0.0712     2.4803   105.4981     0.1173     0.2745
   27.0000   509.8275    22.3655   -67.9038   109.8597     7.6773     0.0802     2.4894   103.5383     0.1140     0.2781
   27.5000   524.4164    22.5337   -67.8919   109.4811     7.6775     0.0877     2.4909   103.2327     0.1110     0.2809
   28.0000   539.4229    22.5467   -67.8801   109.5540     7.6776     0.0906     2.4848   102.6263     0.1156     0.2809
   28.5000   551.0382    22.5596   -67.8683   109.6261     7.6778     0.0845     2.4772   101.4184     0.1195     0.2818
   29.0000   540.0444    22.5727   -67.8565   109.6982     7.6779     0.0693     2.4787   100.0000     0.1186     0.2803
   29.5000   514.8424    22.4300   -67.5479   109.9199     7.6781     0.0541     2.4878    99.0727     0.1117     0.2746
   30.0000   511.5182    22.4430   -67.0910   110.2181     7.6782     0.0404     2.5044    98.0946     0.1065     0.2724
   30.5000   522.6079    22.4559   -66.6341   110.5900     7.6784     0.0573     2.5029    98.8415     0.1050     0.2785
   31.0000   537.5626    22.4688   -66.1772   110.8876     7.6785     0.0660     2.4923   100.1900     0.1070     0.2930
   31.5000   556.7789    22.4818   -66.0170   111.1099     7.6937     0.0659     2.4877   101.6889     0.1115     0.3003
   32.0000   580.6807    22.6508   -66.0051   110.9567     7.6938     0.0598     2.4892   102.1363     0.1130     0.3075
   32.5000   601.4384    22.9795   -65.9933   110.6531     7.7090     0.0537     2.4900   101.8294     0.1118     0.3106
   33.0000   618.6489    23.1523   -66.1299   110.3496     7.7092     0.0536     2.4899   102.7268     0.1115     0.3018
   33.5000   640.7639    23.1656   -66.4148   109.8958     7.7093     0.0565     2.4861   104.3860     0.1188     0.2891
   34.0000   659.0998    23.1790   -66.5543   109.5172     7.7095     0.0625     2.4695   103.9532     0.1249     0.2777
   34.5000   677.9602    23.1923   -66.8368   109.0634     7.7096     0.0972     2.4650   102.7121     0.1255     0.2816
   35.0000   683.0540    23.2057   -67.1217   108.7598     7.7098     0.1032     2.4687   107.3676     0.1228     0.2895
   35.5000   692.9575    22.5857   -67.5545   108.6066     7.7099     0.0925     2.4891   109.3176     0.1122     0.2867
   36.0000   698.1639    21.5309   -67.6914   108.6794     7.7101     0.0426     2.4922   105.8540     0.1110     0.2819
   36.5000   703.4095    19.8279   -67.6792   108.9770     7.6952     0.0098     2.4770   102.5409     0.1156     0.2813
   37.0000   698.9684    18.7717   -67.6674   109.3489     7.6954    -0.0105     2.4724   101.0322     0.1213     0.2777
   37.5000   648.1855    18.7825   -67.6555   109.6464     7.7106    -0.0061     2.4757   100.5762     0.1214     0.2714
   38.0000   596.9534    20.2785   -67.7923   109.7936     7.7107     0.0135     2.4832   101.3231     0.1171     0.2711
   38.5000   549.7705    21.7428   -68.0771   109.7906     7.7108     0.0376     2.4845   101.3182     0.1156     0.2941
   39.0000   531.4076    22.6769   -68.2137   109.6374     7.7110     0.0648     2.4739   100.4043     0.1178     0.3049
   39.5000   503.1203    22.2242   -68.4985   109.3338     7.7111     0.0934     2.4595    99.9348     0.1269     0.3052
   40.0000   463.3540    22.2370   -68.6350   108.9552     7.7113     0.0797     2.4535   100.4000     0.1324     0.2944
   40.5000   426.7307    22.0965   -68.7716   108.5765     7.7114     0.0690     2.4512   101.1483     0.1336     0.2844
   41.0000   412.4775    22.1092   -68.6113   108.3481     7.7116     0.0565     2.4587   100.3902     0.1327     0.2884
   41.5000   404.2482    21.9695   -68.4510   108.1205     7.7117     0.0432     2.4753    99.7838     0.1206     0.2971
   42.0000   404.4810    21.9822   -68.2908   108.3428     7.7119     0.0341     2.4844   102.0346     0.1161     0.2965
   42.5000   401.8694    21.8433   -68.2789   108.5652     7.7120     0.0280     2.4813   105.9394     0.1164     0.2905
   43.0000   396.5824    21.8559   -68.1187   108.8620     7.7122     0.0249     2.4828   106.9884     0.1158     0.2990
   43.5000   383.3914    21.8685   -67.9585   109.0093     7.7123     0.0369     2.4942   105.1778     0.1119     0.3156
   44.0000   373.1551    21.7303   -68.0954   109.2317     7.7125     0.0504     2.5032   101.2631     0.1046     0.3150
   44.5000   373.3700    21.7428   -68.4021   109.4540     7.7277     0.0549     2.5055    99.0025     0.1031     0.3090
   45.0000   373.5851    21.6055   -68.6894   109.6764     7.7278     0.0487     2.5009   100.4511     0.1041     0.3014
