~VERSION INFORMATION
 VERS.                2.0:   CWLS LOG ASCII STANDARD - VERSION 2.0
 WRAP.                 NO:   ONE LINE PER DEPTH STEP
~WELL INFORMATION
#MNEM.UNIT      DATA TYPE    INFORMATION
#----------   ------------   ------------------------------
 STRT.F           50.0000:   START DEPTH
 STOP.F         1152.0000:   STOP DEPTH
 STEP.F            0.5000:   STEP LENGTH
 NULL.          -999.2500:   NO VALUE
 COMP. FENIX & SCISSON INC:   COMPANY
 WELL.  NPR 3 #65 SX14-14:   WELL
 FLD .             TEAPOT:   FIELD
 LOC .      S14 T38N R78W:   LOCATION
 CNTY.            NATRONA:   COUNTY
 STAT.            WYOMING:   STATE
 CTRY. UNITED STATES OF AMERICA:   COUNTRY
 SRVC.              Welex:   SERVICE COMPANY
 DATE.        13-JAN-1979:   LOGDATE
 API .       490251073800:   API NUMBER
~CURVE INFORMATION
#MNEM.UNIT       API CODE    CURVE DESCRIPTION
#----------   ------------   ------------------------------
 DEPT.F                  :   
 SPR .MV     07 010 01 00:   SPONTANEOUS POTENTIAL
 SGRD.OHMM   07 220 05 00:   SHALLOW GUARD RESISTIVITY
 ILD .OHMM   07 120 46 00:   INDUCTION LOG DEEP
 ILM .OHMM   07 120 44 00:   INDUCTION LOG MEDIUM
 CALD.IN     45 280 60 00:   CALIPER
 GRD .GAPI   45 310 01 00:   GAMMA RAY FROM DENSITY LOG
 RHOB.G/C3   45 350 01 00:   BULK DENSITY
 DPHI.DEC    45 890 12 00:   DENSITY POROSITY SANDSTONE
 CORR.G/C3   45 356 01 00:   DENSITY CORRECTION
~PARAMETER INFORMATION
#MNEM.UNIT          VALUE    DESCRIPTION
#----------   ------------   ------------------------------
 PD  .                 GL:   PERMANENT DATUM
 EPD .F              5312:   ELEVATION PERMANENT DATUM
 LMF .                 KB:   LOG MEASURED FROM
 DAPD.F                 4:   FEET ABOVE PERMANENT DATUM
 DMF .                 KB:   DRILLING MEASURED FROM
 EKB .F              5316:   KELLING BUSHING
 EGL .F              5312:   GROUND LEVEL
 DATE.            1-13-79:   RUN DATE
 RUN .                  1:   RUN NUMBER
 DD  .F              1167:   DEPTH DRILLER
 DL  .F              1154:   DEPTH LOGGER
 BLI .F              1152:   BOTTOM LOG INTERVAL
 TLI .F                50:   TOP LOG INTERVAL
 CS  .IN            8.625:   CASING SIZE
 CBD .F                40:   CASING BOTTOM DRILLER
 CBL .F                60:   CASING BOTTOM LOGGER
 BS  .IN            7.875:   BIT SIZE
 BSD .F              1167:   BIT SIZE AT DEPTH
 DFT .            KCL MUD:   DRILLING FLUID TYPE
 DFD .                8.8:   DRILLING FLUID DENSITY
 DFV .                 42:   DRILLING FLUID VISCOSITY
 DFPH.                8.2:   DRILLING FLUID PH
 DFL .                7.7:   DRILLING FLUID LOSS
 MSS .                PIT:   MUD SAMPLE SOURCE
 RMS .OHMM            .29:   RESISTIVITY MUD SAMPLE
 MST .F                40:   MUD SAMPLE TEMPERATURE
 RMF .OHMM            .19:   RESISTIVITY MUD FILTRATE SAMPLE
 MFST.F                40:   MUD FILTRATE SAMPLE TEMPERATURE
 RMC .OHMM            .87:   RESISTIVITY MUD CAKE
 MCST.F                40:   MUD CAKE SAMPLE TEMPERATURE
 MFSS.           MEASURED:   MUD FILTRATE SAMPLE SOURCE
 MCSS.           MEASURED:   MUD CAKE SAMPLE SOURCE
 RMB .OHMM           .119:   RESISTIVITY MUD AT BHT
 BHT .F                97:   BOTTOM HOLE TEMPERATURE
 TCS .HRS              30:   TIME CURCULATED STOPPED
 MRT .F                97:   MAXIMUM RECORDED TEMPERATURE
 LUN .               8611:   LOGGING UNIT NUMBER
 LUL .             CASPER:   LOGGING UNIT LOCATION
 ENGI.            BENTSEN:   RECORDING ENGINEER
 WITN.              AMEND:   WITNESSED BY
 CLNT.            A2DTECH:   CLIENT CODE
 ORIG.       2", 5" PRINT:   ORIGIN OF DATA
 UWI .       490251073800:   UNIQUE WELL ID
 DICO. A2D Technologies, Inc.:   DIGITIZING COMPANY
~OTHER INFORMATION
~A   DEPT      SPR       SGRD        ILD        ILM       CALD        GRD       RHOB       DPHI       CORR   
# ...
  962.5000   -29.0638     9.5422     7.8825     9.0421     8.0611   116.8600     2.5394     0.0874    -0.0080
  963.0000   -29.1303     9.8699     7.8382     8.9416     8.0611   119.5850     2.5359     0.0925    -0.0144
  963.5000   -29.1968    10.1494     7.3005     8.8421     8.0611   120.8003     2.5215     0.0966    -0.0211
  964.0000   -29.2624    10.0861     6.7702     8.7436     8.0611   125.9559     2.5071     0.1008    -0.0281
  964.5000   -29.2774    10.0325     6.2785     8.6515     8.0611   122.9876     2.5039     0.1046    -0.0243
  965.0000   -29.2255     9.9791     5.8224     8.2919     8.0611   125.6209     2.5103     0.1005    -0.0134
  965.5000   -29.1727     9.5398     5.3994     7.7059     8.0611   123.3594     2.5174     0.0954    -0.0024
  966.0000   -29.1245     8.9193     5.0072     7.1543     8.0611   119.2350     2.5213     0.0991     0.0078
  966.5000   -28.6814     4.7182     4.7062     6.6429     8.0611   119.6561     2.5056     0.1046     0.0080
  967.0000   -27.9960     7.4468     4.6493     6.1044     8.0612   119.8105     2.4931     0.1101     0.0080
  967.5000   -27.7356     8.9193     4.5890     6.1034     8.0610   111.0893     2.4844     0.1134     0.0080
  968.0000   -27.5524     4.3022     4.7544     6.8086     8.0391   102.5873     2.4909     0.1126     0.0101
  968.5000   -26.9770     9.4003     4.9456     7.4034     8.0141    94.1910     2.5016     0.1060     0.0214
  969.0000   -26.5747     9.7538     5.3571     7.9731     7.9890    85.9055     2.5124     0.0995     0.0327
  969.5000   -26.3535    10.1206     5.8665     8.2605     7.9640    87.2444     2.5192     0.0977     0.0389
  970.0000   -26.1371    10.3358     6.4243     8.5608     7.9389    89.7983     2.5002     0.1041     0.0356
  970.5000   -25.9208    10.5305     7.0353     8.8715     7.9138    92.3270     2.4835     0.1142     0.0325
  971.0000   -25.7042    10.7289     7.7042     9.1938     7.8883    91.0181     2.4668     0.1243     0.0294
  971.5000   -25.4875    10.9292     8.2921     9.5278     7.8886    89.6275     2.4502     0.1344     0.0263
  972.0000   -25.2711    10.6962     8.6997     9.8739     7.8945    93.1971     2.4368     0.1444     0.0259
  972.5000   -25.0549    10.4238     8.9193    10.2326     7.9006    94.0842     2.4277     0.1497     0.0263
  973.0000   -24.8369    10.1571     8.7845    10.3707     7.9012    90.1538     2.4295     0.1460     0.0304
  973.5000   -24.4765     9.8979     8.6757    10.4200     7.8975    91.8665     2.4489     0.1324     0.0384
  974.0000   -23.8428     9.5978     8.7630    10.4670     7.8938    95.7477     2.4682     0.1151     0.0465
  974.5000   -23.0494     9.7709     8.9114    10.5164     7.8900    94.4164     2.4835     0.1122     0.0546
  975.0000   -22.0261    10.1622     9.0624    10.6664     7.8863    94.0414     2.4755     0.1218     0.0626
  975.5000   -21.0066    10.5062     9.2159    10.8746     7.8825    95.5741     2.4863     0.1110     0.0678
  976.0000   -19.9851    10.7291     9.8006    11.0856     7.8788    97.1120     2.5045     0.1018     0.0699
  976.5000   -18.9640    10.9568    10.5791    11.3004     7.8751    98.6471     2.4990     0.1086     0.0698
  977.0000   -17.9429    11.7763    11.4193    11.9077     7.8712    97.5999     2.5020     0.1055     0.0667
  977.5000   -16.9218    14.7559    12.3263    12.6342     7.8672    96.1396     2.5048     0.1018     0.0618
  978.0000   -15.9007    17.3343    13.3053    13.4064     7.8657    94.6726     2.4868     0.1132     0.0463
  978.5000   -14.8791    15.7479    13.8904    14.2254     7.9170    93.2246     2.4839     0.1170     0.0306
  979.0000   -13.8558    14.9547    13.4538    15.0948     7.9696    91.7585     2.4831     0.1159     0.0143
  979.5000   -12.8394    17.3918    13.0710    16.0221     8.0204    92.6839     2.4820     0.1186     0.0148
  980.0000   -12.4544    15.0962    13.0204    16.8702     8.0154    94.5410     2.4808     0.1217     0.0215
  980.5000   -12.1743    12.8987    13.0890    16.8058     8.0069    91.0187     2.4806     0.1166     0.0284
  981.0000   -11.8945    11.6563    13.3003    16.6615     7.9986    94.7444     2.4697     0.1216     0.0354
  981.5000   -11.6135    15.9527    13.5153    16.4065     7.9903    96.0515     2.4531     0.1349     0.0388
  982.0000   -11.3323    14.3463    13.7329    16.1553     7.9820    93.4532     2.4563     0.1331     0.0401
  982.5000   -11.0510    13.2436    13.9546    15.9081     7.9737    92.2891     2.4606     0.1296     0.0415
  983.0000   -10.7590    12.5495    14.0191    15.6646     7.9654    94.3988     2.4649     0.1266     0.0428
  983.5000   -10.7865    14.1491    13.6854    15.4247     7.9571    96.1879     2.4686     0.1259     0.0442
  984.0000   -10.9011    13.4986    13.4391    15.1707     7.9489    96.7850     2.4623     0.1315     0.0457
  984.5000   -11.0176    12.8661    13.1973    14.9158     7.9432    97.4259     2.4513     0.1372     0.0421
  985.0000   -11.1332    12.4342    12.9598    14.6653     7.9455    98.0583     2.4403     0.1429     0.0370
  985.5000   -11.2484    13.6258    12.7260    14.4190     7.9477    98.6699     2.4335     0.1449     0.0319
  986.0000   -11.4341    13.0809    12.4982    14.1768     7.9498   101.2061     2.4427     0.1420     0.0268
  986.5000   -11.6749    12.3177    12.3210    13.9387     7.9520   103.6804     2.4518     0.1347     0.0215
  987.0000   -11.8974    13.1250    12.6041    13.7614     7.9541   102.6046     2.4608     0.1285     0.0192
  987.5000   -11.9189    13.9660    12.8435    13.7615     7.9563   100.7124     2.4678     0.1274     0.0179
  988.0000   -11.9347    14.8608    13.0875    13.8544     7.9584    98.7798     2.4645     0.1282     0.0168
  988.5000   -11.9513    15.0934    13.3362    13.9576     7.9606    98.6243     2.4589     0.1306     0.0155
  989.0000   -11.9681    14.6971    13.5895    14.1557     7.9627   100.3494     2.4512     0.1356     0.0143
  989.5000   -11.9848    14.3038    13.8477    14.4994     7.9649   102.0624     2.4348     0.1479     0.0132
  990.0000   -12.0016    13.9210    14.1108    14.8515     7.9670   103.7791     2.4246     0.1499     0.0120
  990.5000   -12.0184    13.3869    14.3788    15.2122     7.9692   105.4818     2.4267     0.1500     0.0108
  991.0000   -12.0352    13.5673    14.6520    15.5816     7.9713   107.1919     2.4357     0.1451     0.0100
  991.5000   -12.0519    13.8862    14.8173    15.6609     7.9735   106.6965     2.4479     0.1349     0.0099
  992.0000   -12.0684    14.1392    14.5894    15.2639     7.9756   104.0835     2.4554     0.1331     0.0112
  992.5000   -12.0850    12.6506    14.3184    14.7972     7.9778   103.4050     2.4529     0.1344     0.0128
  993.0000   -12.1221    14.9118    14.0525    14.3447     7.9799   104.7755     2.4499     0.1357     0.0145
  993.5000   -12.2892    15.9579    13.7916    14.1493     7.9821   106.1136     2.4469     0.1369     0.0160
  994.0000   -12.4568    13.0636    13.5354    15.2428     7.9842   106.8282     2.4385     0.1423     0.0158
  994.5000   -12.6241    11.6530    13.2841    14.6650     7.9864   105.1652     2.4292     0.1472     0.0117
  995.0000   -12.7913    12.8819    13.0374    13.4090     7.9885   103.5544     2.4199     0.1521     0.0076
  995.5000   -12.9585    13.5111    12.7952    13.1217     7.9907   101.9417     2.4107     0.1570     0.0036
  996.0000   -13.1257    13.4064    12.5576    13.1136     7.9928   100.4144     2.3993     0.1649    -0.0002
  996.5000   -13.2929    13.3147    12.3243    13.0695     7.9950   101.1958     2.4057     0.1616    -0.0040
  997.0000   -13.4601    13.2210    12.0948    13.0357     7.9971   102.0751     2.4186     0.1533    -0.0030
  997.5000   -13.6274    13.1449    11.8722    13.0019     7.9993   102.9459     2.4318     0.1461     0.0023
  998.0000   -13.7946    14.0151    11.7471    12.9682     8.0014   103.8164     2.4362     0.1443     0.0075
  998.5000   -13.9618    13.5097    11.7194    12.9347     8.0029   104.6868     2.4384     0.1424     0.0128
