~VERSION INFORMATION
 VERS.                2.0:   CWLS LOG ASCII STANDARD - VERSION 2.0
 WRAP.                 NO:   ONE LINE PER DEPTH STEP
~WELL INFORMATION
#MNEM.UNIT      DATA TYPE    INFORMATION
#----------   ------------   ------------------------------
 STRT.F           28.0000:   START DEPTH
 STOP.F          856.0000:   STOP DEPTH
 STEP.F            0.5000:   STEP LENGTH
 NULL.          -999.2500:   NO VALUE
 COMP. FENIX & SCISSON INC:   COMPANY
 WELL. NPR 3  76 SX #76-27:   WELL
 FLD .             TEAPOT:   FIELD
 LOC .      S27 T39N R78W:   LOCATION
 CNTY.            NATRONA:   COUNTY
 STAT.            WYOMING:   STATE
 CTRY. UNITED STATES OF AMERICA:   COUNTRY
 SRVC.            Unknown:   SERVICE COMPANY
 DATE.        06-SEP-1978:   LOGDATE
 API .       490251069600:   API NUMBER
~CURVE INFORMATION
#MNEM.UNIT       API CODE    CURVE DESCRIPTION
#----------   ------------   ------------------------------
 DEPT.F                  :   
 SPR .MV     05 010 01 00:   SPONTANEOUS POTENTIAL FROM RES.
 SN  .OHMM   05 040 16 00:   SHORT NORMAL 16"
 ILD .OHMM   05 120 46 00:   INDUCTION LOG DEEP
 NPHI.DEC    42 890 03 00:   NEUTRON POROSITY SANDSTONE
 GRD .GAPI   45 310 01 00:   GAMMA RAY FROM DENSITY LOG
 CALD.IN     45 280 60 00:   CALIPER
 RHOB.G/C3   45 350 01 00:   BULK DENSITY
 DPHI.DEC    45 890 12 00:   DENSITY POROSITY SANDSTONE
 CORR.G/C3   45 356 01 00:   DENSITY CORRECTION
~PARAMETER INFORMATION
#MNEM.UNIT          VALUE    DESCRIPTION
#----------   ------------   ------------------------------
 PD  .                 GL:   PERMANENT DATUM
 EPD .F              5062:   ELEVATION PERMANENT DATUM
 LMF .                 KB:   LOG MEASURED FROM
 DAPD.F                 4:   FEET ABOVE PERMANENT DATUM
 DMF .                 KB:   DRILLING MEASURED FROM
 EKB .F              5066:   KELLING BUSHING
 EGL .F              5062:   GROUND LEVEL
 DATE.             9-6-78:   RUN DATE
 RUN .                  1:   RUN NUMBER
 DD  .F               865:   DEPTH DRILLER
 DL  .F               857:   DEPTH LOGGER
 BLI .F               851:   BOTTOM LOG INTERVAL
 TLI .F                40:   TOP LOG INTERVAL
 CS  .IN            8.625:   CASING SIZE
 CBD .F                43:   CASING BOTTOM DRILLER
 CBL .F                43:   CASING BOTTOM LOGGER
 BS  .IN            7.875:   BIT SIZE
 BSD .F               865:   BIT SIZE AT DEPTH
 DFT .                KCL:   DRILLING FLUID TYPE
 DFD .                8.4:   DRILLING FLUID DENSITY
 DFV .                 40:   DRILLING FLUID VISCOSITY
 DFPH.                  9:   DRILLING FLUID PH
 DFL .                  6:   DRILLING FLUID LOSS
 MSS .           FLOWLINE:   MUD SAMPLE SOURCE
 RMS .OHMM            .14:   RESISTIVITY MUD SAMPLE
 MST .F                84:   MUD SAMPLE TEMPERATURE
 RMF .OHMM             .1:   RESISTIVITY MUD FILTRATE SAMPLE
 MFST.F                94:   MUD FILTRATE SAMPLE TEMPERATURE
 RMC .OHMM            .18:   RESISTIVITY MUD CAKE
 MCST.F                92:   MUD CAKE SAMPLE TEMPERATURE
 MFSS.               MEAS:   MUD FILTRATE SAMPLE SOURCE
 MCSS.               MEAS:   MUD CAKE SAMPLE SOURCE
 RMB .OHMM           .145:   RESISTIVITY MUD AT BHT
 BHT .F                82:   BOTTOM HOLE TEMPERATURE
 TCS .HRS               3:   TIME CURCULATED STOPPED
 MRT .F                82:   MAXIMUM RECORDED TEMPERATURE
 LUN .               2958:   LOGGING UNIT NUMBER
 LUL .               CASP:   LOGGING UNIT LOCATION
 ENGI.           REYNOLDS:   RECORDING ENGINEER
 WITN.           MCGINLEY:   WITNESSED BY
 CLNT.            A2DTECH:   CLIENT CODE
 ORIG.           5" PRINT:   ORIGIN OF DATA
 UWI .       490251069600:   UNIQUE WELL ID
 DICO. A2D Technologies, Inc.:   DIGITIZING COMPANY
~OTHER INFORMATION
~A   DEPT      SPR         SN        ILD       NPHI         GRD      CALD       RHOB       DPHI       CORR   
# ...
  502.5000   -82.5099     9.2304     8.7153  -999.2500    76.1229     7.7357     2.4890     0.1193     0.0663
  503.0000   -82.5099     9.0680     8.6383  -999.2500    78.7743     7.7245     2.4869     0.1214     0.0479
  503.5000   -82.5099     8.9624     8.5620  -999.2500    81.4069     7.7134     2.4872     0.1236     0.0297
  504.0000   -82.5099     8.8535     8.4824  -999.2500    83.3327     7.7022     2.4859     0.1237     0.0147
  504.5000   -82.5099     8.7393     8.3505  -999.2500    81.8306     7.6911     2.4817     0.1197     0.0130
  505.0000   -82.5099     8.6266     8.1978  -999.2500    80.3914     7.6800     2.4827     0.1193     0.0131
  505.5000   -82.5098     8.5154     8.0479  -999.2500    79.2808     7.6689     2.4837     0.1249     0.0110
  506.0000   -82.5097     8.4056     7.9007  -999.2500    78.7811     7.6579     2.4835     0.1288     0.0096
  506.5000   -82.5107     8.2972     7.7562  -999.2500    79.0984     7.6512     2.4783     0.1327     0.0065
  507.0000   -82.5421     8.2522     7.6144  -999.2500    79.4184     7.6416     2.4733     0.1329     0.0033
  507.5000   -82.5754     8.2128     7.3920  -999.2500    77.6352     7.6319     2.4682     0.1327     0.0041
  508.0000   -82.6086     8.1730     7.4007  -999.2500    75.6279     7.6222     2.4636     0.1329     0.0053
  508.5000   -82.6417     8.1334     7.4117  -999.2500    74.9003     7.6126     2.4627     0.1335     0.0066
  509.0000   -82.6748     8.1021     7.4227  -999.2500    77.5552     7.6030     2.4618     0.1347     0.0079
  509.5000   -82.7080     8.0967     7.4338  -999.2500    77.7602     7.5934     2.4609     0.1359     0.0091
  510.0000   -82.7411     8.0901     7.4449  -999.2500    78.0812     7.5837     2.4600     0.1371     0.0104
  510.5000   -82.7742     8.0834     7.4559  -999.2500    80.0723     7.5741     2.4591     0.1372     0.0110
  511.0000   -82.8074     8.0767     7.4671  -999.2500    82.0907     7.5645     2.4583     0.1357     0.0107
  511.5000   -82.8405     8.0701     7.4782  -999.2500    80.1518     7.5546     2.4599     0.1249     0.0091
  512.0000   -82.8736     8.0634     7.4893  -999.2500    78.4536     7.5595     2.4660     0.1269     0.0075
  512.5000   -82.9068     8.0568     7.5005  -999.2500    79.2241     7.5710     2.4720     0.1304     0.0058
  513.0000   -82.9399     8.0502     7.5120  -999.2500    76.5891     7.5826     2.4738     0.1338     0.0043
  513.5000   -82.9731     8.0435     7.5293  -999.2500    75.5591     7.5942     2.4691     0.1373     0.0030
  514.0000   -83.0062     8.0369     7.4421  -999.2500    78.7582     7.6056     2.4645     0.1405     0.0055
  514.5000   -83.0394     8.0310     7.2628  -999.2500    82.0841     7.6038     2.4599     0.1396     0.0092
  515.0000   -83.0726     7.9569     7.0856  -999.2500    82.0184     7.5632     2.4552     0.1355     0.0113
  515.5000   -83.1025     7.8527     6.9134  -999.2500    82.2239     7.5238     2.4588     0.1316     0.0134
  516.0000   -83.1029     7.7499     6.7453  -999.2500    83.3988     7.4845     2.4636     0.1277     0.0151
  516.5000   -83.1028     7.6484     6.5814  -999.2500    83.5709     7.4451     2.4685     0.1241     0.0168
  517.0000   -83.1028     7.5482     6.4945  -999.2500    80.4696     7.4042     2.4732     0.1247     0.0184
  517.5000   -83.1028     7.4601     6.4815  -999.2500    79.2699     7.3945     2.4771     0.1242     0.0201
  518.0000   -83.1029     7.4712     6.4685  -999.2500    79.6767     7.3893     2.4785     0.1226     0.0209
  518.5000   -83.1030     7.4869     6.4555  -999.2500    79.3945     7.3838     2.4799     0.1203     0.0210
  519.0000   -83.1021     7.5026     6.4417  -999.2500    78.9665     7.3783     2.4814     0.1180     0.0211
  519.5000   -83.0497     7.5184     6.5147  -999.2500    80.0006     7.3745     2.4835     0.1161     0.0178
  520.0000   -82.8821     7.5342     6.5943  -999.2500    82.3092     7.3755     2.4896     0.1158     0.0155
  520.5000   -82.7162     7.5500     6.6748  -999.2500    84.6144     7.3901     2.4953     0.1165     0.0133
  521.0000   -82.5454     7.5658     6.7440  -999.2500    86.8616     7.4147     2.4936     0.1190     0.0135
  521.5000   -82.5101     7.5817     6.7605  -999.2500    86.2269     7.4638     2.4915     0.1205     0.0162
  522.0000   -82.5095     7.5982     6.7779  -999.2500    84.0659     7.5242     2.4894     0.1147     0.0244
  522.5000   -82.5103     7.6207     6.7952  -999.2500    81.8864     7.5854     2.4876     0.1077     0.0325
  523.0000   -82.5078     7.6443     6.8689  -999.2500    81.9699     7.6461     2.4930     0.1066     0.0390
  523.5000   -82.4241     7.6682     6.9310  -999.2500    82.6751     7.6922     2.5031     0.1071     0.0369
  524.0000   -82.3354     7.8031     6.9726  -999.2500    83.5771     7.6881     2.5104     0.1076     0.0311
  524.5000   -82.2469     7.9428     7.0073  -999.2500    85.4962     7.6739     2.5093     0.1081     0.0255
  525.0000   -82.1585     8.0850     7.0421  -999.2500    87.3649     7.6601     2.5084     0.1120     0.0249
  525.5000   -82.0702     8.2298     7.0770  -999.2500    88.0128     7.6460     2.5075     0.1169     0.0249
  526.0000   -81.9818     8.4050     7.1118  -999.2500    85.8697     7.6337     2.5064     0.1221     0.0249
  526.5000   -81.8933     8.3914     7.1259  -999.2500    83.6289     7.7004     2.4976     0.1200     0.0249
  527.0000   -81.8045     8.3693     7.1257  -999.2500    83.3182     7.7776     2.4876     0.1169     0.0249
  527.5000   -81.7220     8.3472     7.1256  -999.2500    88.2666     7.4288     2.4868     0.1157     0.0250
  528.0000   -81.7388     8.3252     7.1256  -999.2500    90.5462     7.2793     2.4885     0.1161     0.0200
  528.5000   -81.7588     8.3033     7.1258  -999.2500    90.1368     7.2974     2.4896     0.1203     0.0146
  529.0000   -81.7784     8.2815     7.1262  -999.2500    89.7729     7.4341     2.4894     0.1268     0.0091
  529.5000   -81.7979     8.2597     7.0777  -999.2500    89.4058     7.5854     2.4834     0.1283     0.0070
  530.0000   -81.8174     8.2379     7.0216  -999.2500    89.0587     7.7291     2.4771     0.1289     0.0070
  530.5000   -81.8369     8.2162     6.9659  -999.2500    88.5135     7.1213     2.4708     0.1293     0.0069
  531.0000   -81.8564     8.1946     6.9107  -999.2500    84.1362     7.4996     2.4700     0.1280     0.0075
  531.5000   -81.8759     8.1730     6.8560  -999.2500    79.6487     7.2695     2.4719     0.1261     0.0089
  532.0000   -81.8956     8.1515     6.8062  -999.2500    78.0452     7.1474     2.4740     0.1261     0.0088
  532.5000   -81.9156     8.1300     6.9021  -999.2500    79.1885     7.2772     2.4745     0.1271     0.0108
  533.0000   -81.8895     8.1086     6.9706  -999.2500    80.3354     7.4247     2.4743     0.1280     0.0094
  533.5000   -81.8584     8.0987     7.0399  -999.2500    81.4755     7.5491     2.4740     0.1281     0.0090
  534.0000   -81.8272     8.0921     7.0606  -999.2500    82.6189     7.2607     2.4738     0.1277     0.0108
  534.5000   -81.7960     8.0855     7.0957  -999.2500    84.9630     7.4837     2.4739     0.1236     0.0154
  535.0000   -81.7652     8.0788     7.1649  -999.2500    87.7910     7.5179     2.4761     0.1181     0.0213
  535.5000   -81.7336     8.0722     7.2348  -999.2500    90.2292     7.5664     2.4801     0.1185     0.0278
  536.0000   -81.8028     8.0655     7.3241  -999.2500    92.0521     7.6148     2.4874     0.1189     0.0334
  536.5000   -81.9593     8.0589     7.3027  -999.2500    91.1827     7.6629     2.4903     0.1161     0.0393
  537.0000   -82.1162     8.0522     7.2738  -999.2500    89.6789     7.7115     2.4899     0.1120     0.0463
  537.5000   -82.2732     8.0456     7.2446  -999.2500    87.0922     7.7305     2.4898     0.1078     0.0464
  538.0000   -82.4302     8.0388     7.2159  -999.2500    84.5366     7.7310     2.4982     0.1117     0.0364
  538.5000   -82.5872     8.0323     7.1913  -999.2500    82.5797     7.7177     2.5071     0.1182     0.0255
