~VERSION INFORMATION
 VERS.                2.0:   CWLS LOG ASCII STANDARD - VERSION 2.0
 WRAP.                 NO:   ONE LINE PER DEPTH STEP
~WELL INFORMATION
#MNEM.UNIT      DATA TYPE    INFORMATION
#----------   ------------   ------------------------------
 STRT.F           18.0000:   START DEPTH
 STOP.F          449.0000:   STOP DEPTH
 STEP.F            0.5000:   STEP LENGTH
 NULL.          -999.2500:   NO VALUE
 COMP.   LAWRENCE-ALLISON:   COMPANY
 WELL. NPR 3 #51-46SX10OB4:   WELL
 FLD .             TEAPOT:   FIELD
 LOC .      S10 T38N R78W:   LOCATION
 CNTY.            NATRONA:   COUNTY
 STAT.            WYOMING:   STATE
 CTRY. UNITED STATES OF AMERICA:   COUNTRY
 SRVC.      Dresser Atlas:   SERVICE COMPANY
 DATE.        19-NOV-1984:   LOGDATE
 API .       490251100700:   API NUMBER
~CURVE INFORMATION
#MNEM.UNIT       API CODE    CURVE DESCRIPTION
#----------   ------------   ------------------------------
 DEPT.F                  :   
 AC  .US/F   60 520 00 00:   ACCOUSTIC
 PORD.DEC    45 890 12 00:   POROSITY DENSITY SANDSTONE
 CNC .DEC    42 890 03 00:   NEUTRON POROSITY SANDSTONE
 CALD.IN     45 280 60 00:   CALIPER FROM DENSITY
 CORR.G/C3   45 356 01 00:   DENSITY CORRECTION
 DEN .G/C3   45 350 01 00:   COMPENSATED BULK DENSTIY
 GRD .GAPI   45 310 01 00:   GAMMA RAY FROM DENSITY LOG
~PARAMETER INFORMATION
#MNEM.UNIT          VALUE    DESCRIPTION
#----------   ------------   ------------------------------
 PD  .                 GL:   PERMANENT DATUM
 EPD .F              5163:   ELEVATION PERMANENT DATUM
 LMF .                 GL:   LOG MEASURED FROM
 DMF .                 GL:   DRILLING MEASURED FROM
 EGL .F              5163:   GROUND LEVEL
 DATE.        19-DEC-1984:   RUN DATE
 RUN .                  1:   RUN NUMBER
 DD  .F               450:   DEPTH DRILLER
 DL  .F               451:   DEPTH LOGGER
 BLI .F               449:   BOTTOM LOG INTERVAL
 TLI .F                20:   TOP LOG INTERVAL
 CS  .IN            8.625:   CASING SIZE
 CBD .F                20:   CASING BOTTOM DRILLER
 CBL .F                20:   CASING BOTTOM LOGGER
 BS  .IN             6.25:   BIT SIZE
 BSD .F               450:   BIT SIZE AT DEPTH
 DFT .          KCL WATER:   DRILLING FLUID TYPE
 MSS .            MUDTANK:   MUD SAMPLE SOURCE
 RMS .OHMM          0.146:   RESISTIVITY MUD SAMPLE
 MST .F               100:   MUD SAMPLE TEMPERATURE
 RMF .OHMM          0.110:   RESISTIVITY MUD FILTRATE SAMPLE
 MFST.F               100:   MUD FILTRATE SAMPLE TEMPERATURE
 RMC .OHMM          0.183:   RESISTIVITY MUD CAKE
 MCST.F               100:   MUD CAKE SAMPLE TEMPERATURE
 MFSS.               CALC:   MUD FILTRATE SAMPLE SOURCE
 MCSS.               CALC:   MUD CAKE SAMPLE SOURCE
 TCS .HRS               2:   TIME CURCULATED STOPPED
 MRT .F               100:   MAXIMUM RECORDED TEMPERATURE
 LUN .               6270:   LOGGING UNIT NUMBER
 ENGI.        TOM GAUGHAN:   RECORDING ENGINEER
 WITN.              LUERS:   WITNESSED BY
 CLNT.            A2DTECH:   CLIENT CODE
 ORIG.           5" PRINT:   ORIGIN OF DATA
 UWI .       490251100700:   UNIQUE WELL ID
 DICO. A2D Technologies, Inc.:   DIGITIZING COMPANY
~OTHER INFORMATION
~A   DEPT        AC      PORD        CNC       CALD       CORR        DEN        GRD   
# ...
  382.0000    88.2802     0.1296     0.2346     6.3190     0.0313     2.4634    95.3795
  382.5000    88.5223     0.1269     0.2513     6.3187     0.0402     2.4649    96.2801
  383.0000    88.6857     0.1260     0.2532     6.3184     0.0417     2.4679    96.7289
  383.5000    88.8492     0.1263     0.2414     6.3181     0.0234     2.4686    94.9187
  384.0000    88.8555     0.1281     0.2378     6.3178     0.0082     2.4678    91.4518
  384.5000    88.8617     0.1282     0.2411     6.3175     0.0081     2.4655    88.4367
  385.0000    88.7893     0.1279     0.2529     6.3172     0.0111     2.4670    86.1747
  385.5000    88.7956     0.1276     0.2484     6.3169     0.0156     2.4677    86.6235
  386.0000    88.8805     0.1297     0.2454     6.3166     0.0136     2.4631    87.6747
  386.5000    88.8868     0.1300     0.2430     6.3163     0.0077     2.4623    88.7259
  387.0000    88.9717     0.1297     0.2418     6.3160     0.0111     2.4638    89.7771
  387.5000    89.2139     0.1285     0.2417     6.3157     0.0247     2.4654    93.3885
  388.0000    89.3786     0.1273     0.2460     6.3154     0.0302     2.4684    94.1386
  388.5000    89.5421     0.1267     0.2487     6.3001     0.0180     2.4682    92.3283
  389.0000    89.7842     0.1267     0.2527     6.2998     0.0073     2.4675    89.9157
  389.5000    89.8690     0.1248     0.2522     6.2995     0.0042     2.4714    89.4608
  390.0000    90.1897     0.1175     0.2463     6.2992     0.0328     2.4798    89.3072
  390.5000    90.5104     0.1146     0.2457     6.2989     0.0554     2.4864    90.2078
  391.0000    90.6739     0.1159     0.2464     6.2986     0.0402     2.4862    91.8615
  391.5000    90.9160     0.1168     0.2446     6.2983     0.0280     2.4847    93.6657
  392.0000    91.2367     0.1129     0.2422     6.2980     0.0340     2.4902    97.4277
  392.5000    91.4788     0.1104     0.2585     6.2977     0.0399     2.4963   101.3404
  393.0000    92.1139     0.1080     0.2682     6.2974     0.0368     2.5005   102.2410
  393.5000    92.8277     0.1077     0.2712     6.2971     0.0367     2.4990    99.8283
  394.0000    94.8780     0.1102     0.2745     6.2818     0.0397     2.4944    98.0181
  394.5000    96.5352     0.1132     0.2993     6.2815     0.0426     2.4913    96.6596
  395.0000    99.2930     0.1151     0.3126     6.2812     0.0364     2.4882    96.8072
  395.5000   103.4659     0.1178     0.3307     6.2960     0.0379     2.4829   101.4729
  396.0000   105.5161     0.1296     0.3374     6.2956     0.0453     2.4699   111.4096
  396.5000   104.4217     0.1418     0.3196     6.3104     0.0468     2.4464   120.5929
  397.0000    99.2393     0.1582     0.2996     6.2950     0.0240     2.4114   121.6448
  397.5000    96.4154     0.1640     0.2734     6.2947     0.0057     2.4008   115.3158
  398.0000    91.2329     0.1573     0.2610     6.2944     0.0072     2.4402   101.9091
  398.5000    89.9027     0.1343     0.2580     6.2941     0.0131     2.4675    96.6350
  399.0000    89.2489     0.1170     0.2556     6.2938     0.0176     2.4887    93.4694
  399.5000    88.6264     0.1094     0.2526     6.2935     0.0220     2.5015    89.7013
  400.0000    88.1594     0.1039     0.2369     6.2932     0.0236     2.5065    85.9979
  400.5000    89.3389     0.1015     0.2344     6.2929     0.0242     2.5119    84.8745
  401.0000    90.0476     0.0991     0.2375     6.2926     0.0263     2.5159    85.2109
  401.5000    90.6779     0.0988     0.2499     6.2923     0.0383     2.5166    88.3132
  402.0000    90.4469     0.0988     0.2541     6.2920     0.0564     2.5174    94.9800
  402.5000    90.2149     0.0952     0.2499     6.2917     0.0639     2.5219    98.4839
  403.0000    89.9065     0.0925     0.2432     6.2914     0.0638     2.5264    99.3373
  403.5000    89.4405     0.0925     0.2399     6.2911     0.0668     2.5272    98.7349
  404.0000    88.8962     0.0928     0.2411     6.2908     0.0637     2.5264    97.9819
  404.5000    88.2737     0.0928     0.2442     6.2905     0.0424     2.5264    98.4337
  405.0000    87.6511     0.0928     0.2442     6.2752     0.0302     2.5263    99.6386
  405.5000    87.1851     0.0925     0.2442     6.2749     0.0317     2.5263   100.3916
  406.0000    86.7191     0.0919     0.2442     6.2746     0.0347     2.5279    99.6386
  406.5000    86.4871     0.0907     0.2478     6.2743     0.0330     2.5317    97.3795
  407.0000    86.6486     0.0883     0.2499     6.2740     0.0269     2.5323    94.8193
  407.5000    86.7308     0.0897     0.2490     6.2887     0.0163     2.5262    94.3675
  408.0000    86.7347     0.0952     0.2478     6.2884     0.0086     2.5171    95.1205
  408.5000    86.8169     0.1026     0.2469     6.2881     0.0206     2.5049    96.0241
  409.0000    86.9774     0.1063     0.2457     6.3029     0.0296     2.5019    95.4217
  409.5000    87.1379     0.1060     0.2433     6.2875     0.0296     2.5011    94.8193
  410.0000    87.2984     0.1051     0.2397     6.2872     0.0355     2.5026    96.6265
  410.5000    87.4615     0.1045     0.2436     6.2869     0.0476     2.5048    98.2831
  411.0000    87.6195     0.1036     0.2467     6.2866     0.0566     2.5056    98.2831
  411.5000    87.6311     0.1053     0.2464     6.2863     0.0459     2.4995    98.5843
  412.0000    87.7055     0.1079     0.2367     6.2709     0.0231     2.4972    95.4217
  412.5000    87.7878     0.1072     0.2343     6.2706     0.0170     2.4994    92.7108
  413.0000    87.9491     0.1051     0.2376     6.2703     0.0230     2.5032    92.6506
  413.5000    88.1096     0.1036     0.2479     6.2700     0.0290     2.5062    95.8735
  414.0000    88.2701     0.1027     0.2416     6.2697     0.0349     2.5085    97.6807
  414.5000    88.2740     0.1014     0.2379     6.2694     0.0409     2.5107    97.8313
  415.0000    88.2779     0.0988     0.2343     6.2691     0.0469     2.5137    98.5843
  415.5000    88.1251     0.1019     0.2298     6.2688     0.0559     2.5167    99.0361
  416.0000    88.0497     0.1071     0.2262     6.2685     0.0619     2.5091    96.7571
  416.5000    88.0546     0.1080     0.2261     6.2682     0.0346     2.5008    96.6265
  417.0000    88.1368     0.1050     0.2368     6.2679     0.0300     2.4992    97.8714
  417.5000    88.2973     0.1032     0.2440     6.2676     0.0284     2.5022    98.5843
  418.0000    88.6144     0.1029     0.2546     6.2673     0.0345     2.5068    97.0783
  418.5000    88.8532     0.1044     0.2543     6.2520     0.0559     2.5083    95.8735
  419.0000    89.0920     0.1068     0.2446     6.2517     0.0644     2.5044    96.4759
  419.5000    89.4874     0.1087     0.2362     6.2514     0.0551     2.4968   100.3916
  420.0000    89.8829     0.1060     0.2359     6.2511     0.0436     2.4984   103.7048
  420.5000    90.2000     0.1038     0.2347     6.2358     0.0173     2.5031   104.9096
  421.0000    90.5171     0.1026     0.2350     6.2355     0.0281     2.5081   100.3916
  421.5000    90.7559     0.1014     0.2456     6.2352     0.0293     2.5089   100.0904
  422.0000    90.9947     0.0990     0.2661     6.2349     0.0156     2.5127   102.8012
  422.5000    91.2335     0.0963     0.2716     6.2346     0.0261     2.5172   105.6627
  423.0000    91.4723     0.0963     0.2643     6.2192     0.0411     2.5194   107.4699
  423.5000    91.7111     0.0978     0.2541     6.2189     0.0456     2.5164   106.5663
  424.0000    91.9499     0.1051     0.2503     6.2186     0.0471     2.5065   103.5542
  424.5000    92.2671     0.1085     0.2607     6.2183     0.0500     2.4981   100.8434
  425.0000    92.7408     0.1076     0.2645     6.2180     0.0499     2.4973   100.2410
  425.5000    93.0606     0.1043     0.2598     6.2177     0.0514     2.5034   101.4458
  426.0000    93.3751     0.0976     0.2601     6.2174     0.0573     2.5110   104.1566
  426.5000    93.5356     0.0931     0.2689     6.2171     0.0633     2.5200   106.7169
  427.0000    93.4611     0.0906     0.2696     6.2319     0.0648     2.5261   107.0181
