~VERSION INFORMATION
 VERS.                2.0:   CWLS LOG ASCII STANDARD - VERSION 2.0
 WRAP.                 NO:   ONE LINE PER DEPTH STEP
~WELL INFORMATION
#MNEM.UNIT      DATA TYPE    INFORMATION
#----------   ------------   ------------------------------
 STRT.F          502.0000:   START DEPTH
 STOP.F         5661.0000:   STOP DEPTH
 STEP.F            0.5000:   STEP LENGTH
 NULL.          -999.2500:   NO VALUE
 COMP. FENIX & SCISSON INC:   COMPANY
 WELL.   NPR 3 #32DX22-22:   WELL
 FLD .             TEAPOT:   FIELD
 LOC .      S22 T38N R78W:   LOCATION
 CNTY.            NATRONA:   COUNTY
 STAT.            WYOMING:   STATE
 CTRY. UNITED STATES OF AMERICA:   COUNTRY
 SRVC.       Schlumberger:   SERVICE COMPANY
 DATE.        29-NOV-1978:   LOGDATE
 API .       490251073100:   API NUMBER
~CURVE INFORMATION
#MNEM.UNIT       API CODE    CURVE DESCRIPTION
#----------   ------------   ------------------------------
 DEPT.F                  :   
 SPR .MV     07 010 01 00:   SPONTANEOUS POTENTIAL
 GRR .GAPI   07 310 01 00:   GAMMA RAY FROM RES. LOG.
 SFL .OHMM   07 220 01 00:   SHALLOW FOCUSED LOG RESISTIVITY
 ILD .OHMM   07 120 46 00:   INDUCTION LOG DEEP
 ILM .OHMM   07 120 44 00:   INDUCTION LOG MEDIUM
 NPHI.DEC    42 890 03 00:   NEUTRON POROSITY SANDSTONE
 DPHI.DEC    45 890 12 00:   DENSITY POROSITY SANDSTONE
 RHOB.G/C3   45 350 01 00:   BULK DENSITY
 CORR.G/C3   45 356 01 00:   DENSITY CORRECTION
 CALD.IN     45 280 60 00:   CALIPER
~PARAMETER INFORMATION
#MNEM.UNIT          VALUE    DESCRIPTION
#----------   ------------   ------------------------------
 PD  .                 GL:   PERMANENT DATUM
 EPD .F              5514:   ELEVATION PERMANENT DATUM
 LMF .                 KB:   LOG MEASURED FROM
 DAPD.F                10:   FEET ABOVE PERMANENT DATUM
 DMF .                 KB:   DRILLING MEASURED FROM
 EKB .F              5524:   KELLING BUSHING
 EGL .F              5514:   GROUND LEVEL
 DATE.           11-29-78:   RUN DATE
 RUN .                  1:   RUN NUMBER
 DD  .F              5680:   DEPTH DRILLER
 DL  .F              5667:   DEPTH LOGGER
 BLI .F              5661:   BOTTOM LOG INTERVAL
 TLI .F               530:   TOP LOG INTERVAL
 CS  .IN            8.625:   CASING SIZE
 CBD .F               513:   CASING BOTTOM DRILLER
 CBL .F               530:   CASING BOTTOM LOGGER
 BS  .IN            7.875:   BIT SIZE
 BSD .F              5680:   BIT SIZE AT DEPTH
 DFT .                FGM:   DRILLING FLUID TYPE
 DFD .                9.2:   DRILLING FLUID DENSITY
 DFV .                 50:   DRILLING FLUID VISCOSITY
 DFPH.               11.5:   DRILLING FLUID PH
 DFL .                6.8:   DRILLING FLUID LOSS
 MSS .               TANK:   MUD SAMPLE SOURCE
 RMS .OHMM           1.45:   RESISTIVITY MUD SAMPLE
 MST .F                56:   MUD SAMPLE TEMPERATURE
 RMF .OHMM           1.16:   RESISTIVITY MUD FILTRATE SAMPLE
 MFST.F                56:   MUD FILTRATE SAMPLE TEMPERATURE
 MFSS.               MEAS:   MUD FILTRATE SAMPLE SOURCE
 RMB .OHMM            .62:   RESISTIVITY MUD AT BHT
 BHT .F               132:   BOTTOM HOLE TEMPERATURE
 TCS .HRS            0700:   TIME CURCULATED STOPPED
 TLAB.HRS            1200:   TIME LOGGER AT BOTTOM
 MRT .F               132:   MAXIMUM RECORDED TEMPERATURE
 LUN .               8039:   LOGGING UNIT NUMBER
 LUL .               CSPR:   LOGGING UNIT LOCATION
 ENGI.           STADULIS:   RECORDING ENGINEER
 WITN.           DINSMORE:   WITNESSED BY
 CLNT.            A2DTECH:   CLIENT CODE
 ORIG.       2", 5" PRINT:   ORIGIN OF DATA
 UWI .       490251073100:   UNIQUE WELL ID
 DICO. A2D Technologies, Inc.:   DIGITIZING COMPANY
~OTHER INFORMATION
~A   DEPT      SPR         GRR       SFL        ILD        ILM       NPHI       DPHI       RHOB       CORR       CALD   
# ...
 1540.5000   -17.0292   119.4965     6.6748     6.9404     6.4958  -999.2500  -999.2500  -999.2500  -999.2500  -999.2500
 1541.0000   -16.7869   118.3648     6.5777     6.8764     6.4664  -999.2500  -999.2500  -999.2500  -999.2500  -999.2500
 1541.5000   -16.5444   117.2633     6.5236     6.8129     6.4371  -999.2500  -999.2500  -999.2500  -999.2500  -999.2500
 1542.0000   -16.3030   116.1494     6.5236     6.7195     6.4079  -999.2500  -999.2500  -999.2500  -999.2500  -999.2500
 1542.5000   -16.0772   115.7731     6.3840     6.5505     6.2065  -999.2500  -999.2500  -999.2500  -999.2500  -999.2500
 1543.0000   -16.5992   116.9425     6.1950     6.3865     5.9924  -999.2500  -999.2500  -999.2500  -999.2500  -999.2500
 1543.5000   -17.1854   118.8383     5.9355     6.2261     5.7856  -999.2500  -999.2500  -999.2500  -999.2500  -999.2500
 1544.0000   -17.7694   119.5360     5.6877     6.0699     5.6008  -999.2500  -999.2500  -999.2500  -999.2500  -999.2500
 1544.5000   -18.1818   118.7437     5.4502     5.9176     5.4679  -999.2500  -999.2500  -999.2500  -999.2500  -999.2500
 1545.0000   -18.3962   118.1025     5.3368     5.8032     5.3289  -999.2500  -999.2500  -999.2500  -999.2500  -999.2500
 1545.5000   -18.6111   121.6027     5.2816     5.7358     5.3303  -999.2500  -999.2500  -999.2500  -999.2500  -999.2500
 1546.0000   -18.8259   125.0885     5.2816     5.7858     5.3303  -999.2500  -999.2500  -999.2500  -999.2500  -999.2500
 1546.5000   -19.0410   126.9605     5.2816     5.8382     5.3614  -999.2500  -999.2500  -999.2500  -999.2500  -999.2500
 1547.0000   -19.2564   123.8409     5.4269     5.8904     5.5139  -999.2500  -999.2500  -999.2500  -999.2500  -999.2500
 1547.5000   -19.4744   118.6759     5.6286     6.0514     5.7073  -999.2500  -999.2500  -999.2500  -999.2500  -999.2500
 1548.0000   -19.6840   113.1251     5.9754     6.2326     5.8994  -999.2500  -999.2500  -999.2500  -999.2500  -999.2500
 1548.5000   -19.4162   108.7793     6.3464     6.4192     6.0616  -999.2500  -999.2500  -999.2500  -999.2500  -999.2500
 1549.0000   -19.1138   107.7972     6.4973     6.6114     6.0616  -999.2500  -999.2500  -999.2500  -999.2500  -999.2500
 1549.5000   -18.8018   108.3309     6.5838     6.7511     6.0616  -999.2500  -999.2500  -999.2500  -999.2500  -999.2500
 1550.0000   -18.4217   109.3119     6.5838     6.8301     6.1610  -999.2500  -999.2500  -999.2500  -999.2500  -999.2500
 1550.5000   -18.0472   107.6517     6.6576     6.8301     6.3726  -999.2500  -999.2500  -999.2500  -999.2500  -999.2500
 1551.0000   -17.8816   104.3412     6.7632     6.8356     6.5915  -999.2500  -999.2500  -999.2500  -999.2500  -999.2500
 1551.5000   -17.8782   101.9801     6.8325     6.8729     6.6445  -999.2500  -999.2500  -999.2500  -999.2500  -999.2500
 1552.0000   -17.8785   103.2160     6.4588     6.8923     6.1972  -999.2500  -999.2500  -999.2500  -999.2500  -999.2500
 1552.5000   -17.8788   107.9884     6.1153     6.5962     6.0274  -999.2500  -999.2500  -999.2500  -999.2500  -999.2500
 1553.0000   -17.8788   111.5712     6.0616     6.4987     5.9190  -999.2500  -999.2500  -999.2500  -999.2500  -999.2500
 1553.5000   -17.8783   112.1190     6.0062     6.4640     5.8192  -999.2500  -999.2500  -999.2500  -999.2500  -999.2500
 1554.0000   -17.8777   113.5921     5.8490     6.5231     5.7374  -999.2500  -999.2500  -999.2500  -999.2500  -999.2500
 1554.5000   -17.8824   115.2085     5.7366     6.5777     5.6842  -999.2500  -999.2500  -999.2500  -999.2500  -999.2500
 1555.0000   -18.1304   111.4310     6.7720     6.6445     6.5816  -999.2500  -999.2500  -999.2500  -999.2500  -999.2500
 1555.5000   -18.7597   100.8188     7.8302     6.5999     6.5136  -999.2500  -999.2500  -999.2500  -999.2500  -999.2500
 1556.0000   -19.3841    91.0198     8.9964     6.5435     6.3943  -999.2500  -999.2500  -999.2500  -999.2500  -999.2500
 1556.5000   -19.7009    89.3697     8.9964     6.2309     6.0995  -999.2500  -999.2500  -999.2500  -999.2500  -999.2500
 1557.0000   -19.5190    99.3288     6.8661     6.5466     6.0616  -999.2500  -999.2500  -999.2500  -999.2500  -999.2500
 1557.5000   -19.2742   107.9349     5.9983     6.8301     6.0616  -999.2500  -999.2500  -999.2500  -999.2500  -999.2500
 1558.0000   -19.0313   111.2625     6.0013     6.7968     6.0616  -999.2500  -999.2500  -999.2500  -999.2500  -999.2500
 1558.5000   -18.9937   108.4288     6.3960     6.7092     6.2495  -999.2500  -999.2500  -999.2500  -999.2500  -999.2500
 1559.0000   -19.2445   104.9668     6.8301     6.8182     6.4049  -999.2500  -999.2500  -999.2500  -999.2500  -999.2500
 1559.5000   -19.4925   106.1099     6.7426     6.8931     6.4049  -999.2500  -999.2500  -999.2500  -999.2500  -999.2500
 1560.0000   -19.7377   107.9685     6.6027     6.6445     6.4049  -999.2500  -999.2500  -999.2500  -999.2500  -999.2500
 1560.5000   -19.8486   107.0605     6.5838     6.6621     6.3836  -999.2500  -999.2500  -999.2500  -999.2500  -999.2500
 1561.0000   -19.6961   107.2610     6.7059     6.6883     6.3637  -999.2500  -999.2500  -999.2500  -999.2500  -999.2500
 1561.5000   -19.5464   110.5233     6.5404     6.7235     6.3239  -999.2500  -999.2500  -999.2500  -999.2500  -999.2500
 1562.0000   -19.4955   115.1418     6.2389     6.7677     6.1622  -999.2500  -999.2500  -999.2500  -999.2500  -999.2500
 1562.5000   -19.4947   118.2434     6.0566     6.7379     6.0062  -999.2500  -999.2500  -999.2500  -999.2500  -999.2500
 1563.0000   -19.4950   115.7032     6.0567     6.7126     6.0468  -999.2500  -999.2500  -999.2500  -999.2500  -999.2500
 1563.5000   -19.4945   111.5784     6.1441     6.6873     6.0877  -999.2500  -999.2500  -999.2500  -999.2500  -999.2500
 1564.0000   -19.4593   107.3800     6.2696     6.6620     6.1289  -999.2500  -999.2500  -999.2500  -999.2500  -999.2500
 1564.5000   -19.3638   108.1937     6.4049     6.6369     6.1739  -999.2500  -999.2500  -999.2500  -999.2500  -999.2500
 1565.0000   -19.2685   111.5905     6.4535     6.6119     6.1739  -999.2500  -999.2500  -999.2500  -999.2500  -999.2500
 1565.5000   -19.1727   115.1777     6.5236     6.5870     6.1740  -999.2500  -999.2500  -999.2500  -999.2500  -999.2500
 1566.0000   -19.1069   117.6129     6.4560     6.5622     6.1741  -999.2500  -999.2500  -999.2500  -999.2500  -999.2500
 1566.5000   -19.2956   115.9980     6.3409     6.5374     6.1750  -999.2500  -999.2500  -999.2500  -999.2500  -999.2500
 1567.0000   -19.8610   113.2180     6.2279     6.5201     6.1752  -999.2500  -999.2500  -999.2500  -999.2500  -999.2500
 1567.5000   -20.4583   110.3995     6.1170     6.5117     5.9946  -999.2500  -999.2500  -999.2500  -999.2500  -999.2500
 1568.0000   -21.0549   108.8472     6.0616     6.5034     5.8979  -999.2500  -999.2500  -999.2500  -999.2500  -999.2500
 1568.5000   -21.6493   107.4224     6.0616     6.4951     5.9133  -999.2500  -999.2500  -999.2500  -999.2500  -999.2500
 1569.0000   -22.2460   107.5527     6.0616     6.4868     5.9260  -999.2500  -999.2500  -999.2500  -999.2500  -999.2500
 1569.5000   -22.6314   111.6459     6.0616     6.4785     5.9388  -999.2500  -999.2500  -999.2500  -999.2500  -999.2500
 1570.0000   -22.8451   115.2652     6.1145     6.4702     5.9513  -999.2500  -999.2500  -999.2500  -999.2500  -999.2500
 1570.5000   -23.0533   116.7033     6.1814     6.4546     6.0088  -999.2500  -999.2500  -999.2500  -999.2500  -999.2500
 1571.0000   -23.2617   113.5216     6.2309     6.4143     6.0616  -999.2500  -999.2500  -999.2500  -999.2500  -999.2500
 1571.5000   -23.4703   110.5463     6.1392     6.3747     5.9509  -999.2500  -999.2500  -999.2500  -999.2500  -999.2500
 1572.0000   -23.6946   107.6211     6.0366     6.3352     5.8430  -999.2500  -999.2500  -999.2500  -999.2500  -999.2500
 1572.5000   -23.3628   105.5678     5.9513     6.2960     5.8376  -999.2500  -999.2500  -999.2500  -999.2500  -999.2500
 1573.0000   -22.8444   106.8273     5.9513     6.2570     5.8319  -999.2500  -999.2500  -999.2500  -999.2500  -999.2500
 1573.5000   -22.3189   109.2653     5.9513     6.2182     5.8261  -999.2500  -999.2500  -999.2500  -999.2500  -999.2500
