~VERSION INFORMATION
 VERS.                2.0:   CWLS LOG ASCII STANDARD - VERSION 2.0
 WRAP.                 NO:   ONE LINE PER DEPTH STEP
~WELL INFORMATION
#MNEM.UNIT      DATA TYPE    INFORMATION
#----------   ------------   ------------------------------
 STRT.F            2.0000:   START DEPTH
 STOP.F          548.0000:   STOP DEPTH
 STEP.F            0.1000:   STEP LENGTH
 NULL.          -999.2500:   NO VALUE
 COMP.       F D SERV INC:   COMPANY
 WELL. NAVAL PETROLEUM RESERVE 3 SX-3 #88-10-3:   WELL
 FLD .             TEAPOT:   FIELD
 LOC .       S3 T38N R78W:   LOCATION
 CNTY.            NATRONA:   COUNTY
 STAT.            WYOMING:   STATE
 CTRY. UNITED STATES OF AMERICA:   COUNTRY
 SRVC.     Atlas Wireline:   SERVICE COMPANY
 DATE.        19-OCT-1992:   LOGDATE
 API .       490252254600:   API NUMBER
~CURVE INFORMATION
#MNEM.UNIT       API CODE    CURVE DESCRIPTION
#----------   ------------   ------------------------------
 DEPT.F                  :   
 GRR .GAPI   07 310 01 00:   GAMMA RAY
 ILD .OHMM   07 120 46 00:   INDUCTION LOG DEEP
 ILM .OHMM   07 120 44 00:   INDUCTION LOG MEDIUM
~PARAMETER INFORMATION
#MNEM.UNIT          VALUE    DESCRIPTION
#----------   ------------   ------------------------------
 PD  .                 GL:   PERMANENT DATUM
 EPD .F              5126:   ELEVATION PERMANENT DATUM
 LMF .                 KB:   LOG MEASURED FROM
 DAPD.F                10:   FEET ABOVE PERMANENT DATUM
 DMF .                 KB:   DRILLING MEASURED FROM
 EKB .F              5136:   KELLING BUSHING
 EDF .F              5135:   DRILLING FLOOR
 EGL .F              5126:   GROUND LEVEL
 DATE.        19-OCT-1992:   RUN DATE
 RUN .                  1:   RUN NUMBER
 DD  .F               566:   DEPTH DRILLER
 DL  .F               558:   DEPTH LOGGER
 BLI .F               550:   BOTTOM LOG INTERVAL
 TLI .F                98:   TOP LOG INTERVAL
 CS  .IN            8.625:   CASING SIZE
 CBD .F                85:   CASING BOTTOM DRILLER
 CBL .F                98:   CASING BOTTOM LOGGER
 BS  .IN            7.875:   BIT SIZE
 BSD .F               566:   BIT SIZE AT DEPTH
 DFT .           AIR FOAM:   DRILLING FLUID TYPE
 TCS .HRS               2:   TIME CURCULATED STOPPED
 MRT .F                73:   MAXIMUM RECORDED TEMPERATURE
 LUN .            HL-6274:   LOGGING UNIT NUMBER
 LUL .             CASPER:   LOGGING UNIT LOCATION
 ENGI.             RAUTIO:   RECORDING ENGINEER
 WITN.        GARY STRONG:   WITNESSED BY
 CLNT.            A2DTECH:   CLIENT CODE
 ORIG.           5" PRINT:   ORIGIN OF DATA
 UWI .       490252254600:   UNIQUE WELL ID
 DICO. A2D Technologies, Inc.:   DIGITIZING COMPANY
~OTHER INFORMATION
~A    DEPT     GRR        ILD        ILM   
# ...
  384.2000    91.2561    15.1937    14.4496
  384.3000    91.7464    15.1073    14.4411
  384.4000    92.3740    15.0666    14.3478
  384.5000    93.1105    15.0405    14.2770
  384.6000    93.8710    14.9605    14.2468
  384.7000    94.9825    14.9598    14.2462
  384.8000    95.6224    14.9593    14.2456
  384.9000    96.3589    14.9078    14.2450
  385.0000    97.0953    14.8539    14.2444
  385.1000    97.8761    14.8418    14.2439
  385.2000    98.9070    14.7493    14.2433
  385.3000    99.8414    14.6734    14.2427
  385.4000   100.4688    14.6455    14.2421
  385.5000   100.8381    14.6085    14.2415
  385.6000   101.0179    14.5423    14.2409
  385.7000   101.0160    14.5417    14.2403
  385.8000   101.0139    14.5411    14.2397
  385.9000   100.8147    14.4796    14.2391
  386.0000   100.5668    14.4387    14.2384
  386.1000   100.3189    14.4381    14.3083
  386.2000   100.0428    14.4375    14.3892
  386.3000    99.4921    14.4368    14.4369
  386.4000    99.0547    14.4363    14.4363
  386.5000    98.0766    14.4357    14.4357
  386.6000    96.9492    14.4351    14.5129
  386.7000    96.1083    14.4345    14.5356
  386.8000    95.8523    14.4338    14.5350
  386.9000    96.0885    14.5056    14.5344
  387.0000    96.5143    14.5338    14.5338
  387.1000    97.0047    14.5332    14.5332
  387.2000    97.4952    14.5326    14.5983
  387.3000    97.9855    14.5320    14.6338
  387.4000    98.5643    14.5314    14.6332
  387.5000    99.1679    14.5308    14.6326
  387.6000    99.6139    14.5302    14.6319
  387.7000    99.9469    14.5295    14.6314
  387.8000   100.4050    14.5289    14.6307
  387.9000   100.6733    14.5283    14.6301
  388.0000   100.8936    14.5277    14.6295
  388.1000   100.9725    14.5271    14.6289
  388.2000   100.8617    14.5265    14.6283
  388.3000   100.5614    14.5259    14.6277
  388.4000   100.0593    14.5252    14.6271
  388.5000    99.5734    14.5247    14.6051
  388.6000    98.8937    14.5241    14.5241
  388.7000    98.1537    14.4912    14.5235
  388.8000    97.4137    14.4218    14.5229
  388.9000    96.6735    14.4211    14.4757
  389.0000    95.8121    14.4206    14.4206
  389.1000    95.1933    14.3633    14.4114
  389.2000    94.4533    14.2816    14.3190
  389.3000    93.6204    14.2188    14.2476
  389.4000    92.6705    14.2182    14.1664
  389.5000    91.8697    14.1375    14.1187
  389.6000    91.4163    14.0571    14.1034
  389.7000    91.2611    13.9352    14.0192
  389.8000    91.2593    13.8243    14.0187
  389.9000    91.3140    13.8183    13.9039
  390.0000    91.5582    13.7268    13.7846
  390.1000    92.0486    13.7263    13.7263
  390.2000    92.5389    13.6790    13.7234
  390.3000    93.2956    13.6297    13.6296
  390.4000    94.2016    13.6185    13.6291
  390.5000    94.9177    13.5337    13.6285
  390.6000    95.4805    13.5331    13.6280
  390.7000    95.8985    13.5326    13.6274
  390.8000    96.2356    13.5320    13.6268
  390.9000    96.4799    13.5314    13.6263
  391.0000    96.7242    13.5309    13.6760
  391.1000    96.9845    13.6053    13.6882
  391.2000    96.9827    13.6245    13.6245
  391.3000    96.9809    13.6240    13.6239
  391.4000    96.9791    13.6234    13.6234
  391.5000    96.9168    13.6228    13.6228
  391.6000    96.6650    13.6222    13.5841
  391.7000    96.1709    13.6217    13.5066
  391.8000    95.2894    13.6211    13.4322
  391.9000    94.3033    13.5938    13.4315
  392.0000    93.5593    13.5252    13.4311
  392.1000    93.3357    13.5246    13.3870
  392.2000    93.6361    13.4567    13.3365
  392.3000    93.6345    13.4294    13.3359
  392.4000    93.7900    13.4288    13.3353
  392.5000    94.0343    13.4143    13.2683
  392.6000    94.3229    13.3342    13.2415
  392.7000    94.8374    13.3337    13.2094
  392.8000    95.0697    13.3332    13.1341
  392.9000    95.4915    13.3326    13.0562
  393.0000    95.9818    13.3129    13.0557
  393.1000    96.5366    13.2387    13.0013
  393.2000    97.2571    13.2382    12.9637
  393.3000    97.5494    13.1786    12.9435
  393.4000    98.1410    13.1036    12.8697
  393.5000    98.4539    13.0529    12.7822
  393.6000    98.3673    13.0456    12.7235
  393.7000    98.1194    12.9609    12.6923
  393.8000    97.8431    12.9605    12.6669
  393.9000    97.1880    12.9140    12.6029
  394.0000    96.4479    12.8692    12.6024
  394.1000    95.9175    12.8452    12.6019
  394.2000    95.7184    12.6896    12.6014
  394.3000    96.0187    12.6891    12.6008
  394.4000    96.2550    12.6886    12.6003
  394.5000    96.4992    12.6548    12.5998
  394.6000    96.8686    12.5992    12.5992
  394.7000    97.2904    12.5987    12.5987
  394.8000    97.5347    12.5982    12.5982
  394.9000    97.8230    12.5977    12.5977
  395.0000    98.2249    12.5971    12.5971
  395.1000    98.5700    12.5752    12.5965
  395.2000    98.7256    12.5084    12.5961
  395.3000    98.7561    12.5078    12.5956
  395.4000    99.0243    12.5074    12.5950
  395.5000    99.0227    12.5069    12.5945
  395.6000    98.5246    12.5063    12.5939
  395.7000    97.8935    12.5058    12.5934
  395.8000    97.4519    12.5052    12.5929
  395.9000    97.2000    12.5048    12.5924
  396.0000    97.1982    12.5042    12.5919
  396.1000    97.1964    12.5037    12.5913
  396.2000    97.3236    12.5032    12.5908
  396.3000    97.6405    12.5027    12.6186
  396.4000    98.1471    12.5021    12.6176
  396.5000    99.0042    12.5016    12.6165
  396.6000   100.0315    12.5011    12.6155
  396.7000   101.1108    12.5006    12.6144
  396.8000   102.1861    12.5000    12.6529
  396.9000   103.4147    12.4994    12.7005
  397.0000   104.7442    12.4990    12.6995
  397.1000   105.8722    12.4985    12.6983
  397.2000   106.9314    12.4980    12.6973
  397.3000   108.0269    12.4974    12.7447
  397.4000   109.3685    12.4968    12.7840
  397.5000   111.0893    12.4964    12.7994
  397.6000   112.3179    12.5421    12.8713
  397.7000   113.1673    12.5829    12.8703
  397.8000   113.6375    12.5824    12.8692
  397.9000   113.8051    12.5818    12.9096
  398.0000   113.8033    12.5813    12.9571
  398.1000   113.8012    12.5808    12.9560
  398.2000   113.5899    12.5803    12.9548
  398.3000   112.8821    12.5980    12.9538
  398.4000   111.7023    12.6674    12.9527
  398.5000   110.2643    12.6668    12.9516
  398.6000   108.9512    12.6663    12.9505
  398.7000   108.2597    12.7464    12.9495
  398.8000   107.5195    12.8433    12.9484
  398.9000   106.8964    12.8496    13.0065
  399.0000   106.2813    12.9322    13.0368
  399.1000   105.2952    12.9317    13.0357
  399.2000   104.3090    12.9312    13.0448
  399.3000   103.5165    12.9597    13.1246
  399.4000   102.7764    13.0327    13.1236
  399.5000   102.0362    13.1113    13.1748
  399.6000   101.2963    13.1802    13.2132
  399.7000   100.4591    13.2022    13.2121
  399.8000    99.8160    13.2365    13.2136
  399.9000    99.0759    13.2936    13.3021
  400.0000    98.4981    13.2930    13.3012
  400.1000    98.1540    13.5738    13.3001
  400.2000    97.8100    13.5729    13.2990
  400.3000    97.4659    13.4968    13.2979
  400.4000    97.1218    13.4769    13.2967
  400.5000    96.7615    13.4762    13.3667
  400.6000    96.2067    13.4754    13.3876
  400.7000    95.7687    13.4747    13.3864
  400.8000    94.2944    13.4738    13.3853
  400.9000    92.9604    13.4732    13.3842
  401.0000    92.5688    13.4724    13.3829
  401.1000    92.5670    13.4372    13.3820
  401.2000    92.8097    13.3772    13.3808
  401.3000    93.2444    13.3764    13.3502
  401.4000    93.7372    13.3757    13.2856
  401.5000    94.1513    13.3749    13.2845
  401.6000    94.4201    13.3742    13.2834
  401.7000    94.9765    13.3734    13.2823
  401.8000    95.4057    13.3727    13.2429
  401.9000    95.8986    13.3719    13.1878
  402.0000    96.3914    13.3005    13.1867
  402.1000    96.8345    13.2774    13.1854
  402.2000    97.0856    13.2767    13.1845
  402.3000    97.5672    13.2552    13.1366
