~VERSION INFORMATION
 VERS.                2.0:   CWLS LOG ASCII STANDARD - VERSION 2.0
 WRAP.                 NO:   ONE LINE PER DEPTH STEP
~WELL INFORMATION
#MNEM.UNIT      DATA TYPE    INFORMATION
#----------   ------------   ------------------------------
 STRT.F            0.0000:   START DEPTH
 STOP.F          546.0000:   STOP DEPTH
 STEP.F            0.5000:   STEP LENGTH
 NULL.          -999.2500:   NO VALUE
 COMP. LAWRENCE/ALLISON INC:   COMPANY
 WELL.   NPR 3 #76-21SX10:   WELL
 FLD .             TEAPOT:   FIELD
 LOC .      S10 T38N R78W:   LOCATION
 CNTY.            NATRONA:   COUNTY
 STAT.            WYOMING:   STATE
 CTRY. UNITED STATES OF AMERICA:   COUNTRY
 SRVC.      Dresser Atlas:   SERVICE COMPANY
 DATE.        22-JUL-1984:   LOGDATE
 API .       490251097000:   API NUMBER
~CURVE INFORMATION
#MNEM.UNIT       API CODE    CURVE DESCRIPTION
#----------   ------------   ------------------------------
 DEPT.F                  :   
 CALD.IN     45 280 60 00:   CALIPER FROM DENSITY LOG
 DEN .G/C3   45 350 01 00:   COMPENSATED BULK DENSTIY
 CORR.G/C3   45 356 01 00:   DENSITY CORRECTION
 DPHI.DEC    45 890 12 00:   POROSITY DENSITY SANDSTONE
 CNC .DEC    42 890 03 00:   NEUTRON POROSITY SANDSTONE
 GRR .GAPI   07 310 01 00:   GAMMA RAY
 SPR .MV     07 010 01 00:   SPONTANEOUS POTENTIAL
 RILD.OHMM   07 120 46 00:   INDUCTION LOG DEEP RESISTIVITY
 RILM.OHMM   07 120 44 00:   INDUCTION LOG MEDIUM RESISTIVITY
 RFOC.OHMM   07 220 04 00:   RESISTIVITY FOCUSED LOG
 AC  .US/F   60 520 00 00:   ACCOUSTIC
~PARAMETER INFORMATION
#MNEM.UNIT          VALUE    DESCRIPTION
#----------   ------------   ------------------------------
 PD  .                 GL:   PERMANENT DATUM
 EPD .F              5167:   ELEVATION PERMANENT DATUM
 LMF .                 GL:   LOG MEASURED FROM
 DMF .                 GL:   DRILLING MEASURED FROM
 EGL .F              5167:   GROUND LEVEL
 DATE.        22-JUL-1984:   RUN DATE
 RUN .                  1:   RUN NUMBER
 DD  .F               551:   DEPTH DRILLER
 DL  .F               547:   DEPTH LOGGER
 BLI .F               544:   BOTTOM LOG INTERVAL
 CS  .IN            9.625:   CASING SIZE
 CBD .F                40:   CASING BOTTOM DRILLER
 CBL .F                42:   CASING BOTTOM LOGGER
 BS  .IN            7.875:   BIT SIZE
 BSD .F               551:   BIT SIZE AT DEPTH
 DFT .        KCL POLYMER:   DRILLING FLUID TYPE
 MSS .           FLOWLINE:   MUD SAMPLE SOURCE
 RMS .OHMM           .193:   RESISTIVITY MUD SAMPLE
 MST .F                75:   MUD SAMPLE TEMPERATURE
 RMF .OHMM           .144:   RESISTIVITY MUD FILTRATE SAMPLE
 MFST.F                75:   MUD FILTRATE SAMPLE TEMPERATURE
 RMC .OHMM            .24:   RESISTIVITY MUD CAKE
 MCST.F                74:   MUD CAKE SAMPLE TEMPERATURE
 MFSS.               CALC:   MUD FILTRATE SAMPLE SOURCE
 MCSS.               CALC:   MUD CAKE SAMPLE SOURCE
 TCS .HRS               5:   TIME CURCULATED STOPPED
 MRT .F                90:   MAXIMUM RECORDED TEMPERATURE
 LUN .               6274:   LOGGING UNIT NUMBER
 LUL .               GLTE:   LOGGING UNIT LOCATION
 ENGI.             RAUTIO:   RECORDING ENGINEER
 WITN.              FIVAS:   WITNESSED BY
 CLNT.            A2DTECH:   CLIENT CODE
 ORIG.       2", 5" PRINT:   ORIGIN OF DATA
 UWI .       490251097000:   UNIQUE WELL ID
 DICO. A2D Technologies, Inc.:   DIGITIZING COMPANY
~OTHER INFORMATION
~A    DEPT    CALD        DEN       CORR       DPHI        CNC         GRR       SPR       RILD       RILM       RFOC         AC   
# ...
  366.0000     7.9740     2.3940     0.0420     0.1560     0.2480    75.2500     2.6110    18.3480    13.0010    19.4160    95.3570
  366.5000     7.9730     2.4010     0.0440     0.1490     0.2440    75.9820     1.1180    18.0690    12.9930    18.9070    94.7860
  367.0000     7.9720     2.4080     0.0530     0.1460     0.2400    77.0160     0.3130    17.7890    12.9430    18.5620    94.5770
  367.5000     7.9710     2.4070     0.0580     0.1460     0.2400    77.6300    -0.0090    17.5090    12.8930    18.4960    94.5770
  368.0000     7.9640     2.3980     0.0450     0.1530     0.2430    78.2140    -0.4150    17.2290    12.8060    18.4300    94.5770
  368.5000     7.9560     2.3880     0.0310     0.1590     0.2460    80.3900    -0.6090    16.9880    12.6780    18.2190    94.3840
  369.0000     7.9480     2.3860     0.0260     0.1600     0.2450    82.1210    -0.8080    16.7740    12.5690    17.9680    94.0160
  369.5000     7.9410     2.3910     0.0260     0.1580     0.2370    81.5200    -1.0100    16.5590    12.4600    17.7170    93.6120
  370.0000     7.9330     2.3990     0.0260     0.1530     0.2310    80.6290    -1.0310    16.3450    12.2950    17.4660    93.2070
  370.5000     7.9380     2.4080     0.0260     0.1470     0.2360    81.0510    -0.9450    16.1300    12.0940    17.2250    92.8030
  371.0000     7.9470     2.4160     0.0270     0.1420     0.2440    81.5140    -0.7600    15.8530    11.8920    17.0160    92.3250
  371.5000     7.9560     2.4150     0.0310     0.1420     0.2510    81.3450    -0.1880    15.5390    11.6910    16.8070    91.7630
  372.0000     7.9660     2.4150     0.0350     0.1420     0.2520    80.3600    -0.1020    15.2250    11.5270    16.5780    91.2010
  372.5000     7.9690     2.4180     0.0310     0.1400     0.2420    79.7150    -0.0990    14.9850    11.4740    16.2890    90.7090
  373.0000     7.9660     2.4200     0.0260     0.1390     0.2370    79.1330    -0.0990    14.8330    11.4220    16.0000    90.3970
  373.5000     7.9630     2.4230     0.0220     0.1370     0.2390    79.1440    -0.0980    14.6810    11.3690    15.8350    90.2500
  374.0000     7.9600     2.4300     0.0320     0.1320     0.2430    81.1480    -0.0990    14.5290    11.3080    15.7310    90.1500
  374.5000     7.9570     2.4390     0.0440     0.1270     0.2480    84.0570    -0.1350    14.4380    11.2260    15.6160    90.3720
  375.0000     7.9540     2.4480     0.0560     0.1220     0.2480    85.8930    -0.6380    14.3310    11.1450    15.5360    90.9600
  375.5000     7.9520     2.4530     0.0610     0.1180     0.2450    85.9920    -1.1460    14.1660    11.0240    15.4400    91.5480
  376.0000     7.9490     2.4470     0.0500     0.1200     0.2410    85.4680    -1.7510    14.1180    11.0390    15.3310    92.1890
  376.5000     7.9460     2.4340     0.0360     0.1310     0.2390    85.3480    -2.7180    14.1180    11.0690    15.1920    92.0080
  377.0000     7.9430     2.4240     0.0310     0.1370     0.2380    85.3330    -3.6650    14.1180    11.0990    15.2570    91.4250
  377.5000     7.9400     2.4290     0.0430     0.1340     0.2370    84.7250    -4.6130    14.1180    11.1220    15.3450    90.8420
  378.0000     7.9370     2.4410     0.0540     0.1270     0.2360    82.4410    -5.4810    14.1180    11.0970    15.4340    90.2600
  378.5000     7.9340     2.4460     0.0570     0.1220     0.2340    78.8300    -6.3120    14.1180    11.0730    15.4730    89.9320
  379.0000     7.9320     2.4430     0.0440     0.1240     0.2320    79.3240    -6.7910    14.1000    11.0490    15.4730    89.7020
  379.5000     7.9310     2.4410     0.0320     0.1260     0.2330    81.3370    -7.2200    14.0470    11.0240    15.4730    89.5080
  380.0000     7.9310     2.4430     0.0360     0.1250     0.2390    83.3010    -7.6020    13.9950    10.9730    15.4730    89.5500
  380.5000     7.9310     2.4490     0.0460     0.1210     0.2470    83.2950    -7.9730    13.9430    10.9210    15.3760    89.5910
  381.0000     7.9310     2.4540     0.0530     0.1180     0.2490    82.0240    -7.9870    13.8910    10.8690    15.2100    89.4750
  381.5000     7.9310     2.4570     0.0550     0.1160     0.2420    81.1220    -7.9870    13.8390    10.8170    15.0440    89.2420
  382.0000     7.9310     2.4590     0.0510     0.1150     0.2330    81.9940    -7.8740    13.7870    10.7650    14.8770    89.0090
  382.5000     7.9310     2.4660     0.0480     0.1110     0.2350    82.9990    -7.5770    13.7360    10.6940    14.7800    88.8910
  383.0000     7.9310     2.4740     0.0530     0.1060     0.2400    84.0770    -6.9440    13.5980    10.5540    14.7800    88.8650
  383.5000     7.9310     2.4760     0.0580     0.1050     0.2390    85.4590    -6.3100    13.4630    10.4830    14.7800    88.8380
  384.0000     7.9310     2.4770     0.0620     0.1040     0.2380    86.8970    -5.7940    13.3280    10.4270    14.7800    88.8120
  384.5000     7.9310     2.4820     0.0640     0.1010     0.2440    87.3870    -5.7500    13.1940    10.3710    14.7800    88.9480
  385.0000     7.9310     2.4880     0.0660     0.0970     0.2440    87.5840    -5.6960    13.0940    10.3150    14.6160    89.1320
  385.5000     7.9310     2.4940     0.0610     0.0930     0.2430    87.7980    -5.6360    13.0370    10.2590    14.4110    89.3160
  386.0000     7.9310     2.4960     0.0490     0.0930     0.2450    88.2590    -5.8090    12.9800    10.2020    14.1940    89.5020
  386.5000     7.9310     2.4900     0.0380     0.0970     0.2520    91.3160    -6.0780    12.9230    10.1510    13.9760    89.5020
  387.0000     7.9310     2.4880     0.0380     0.0980     0.2540    94.4030    -6.6110    12.8820    10.1650    13.7360    89.1830
  387.5000     7.9310     2.5000     0.0580     0.0900     0.2510    94.3940    -7.3180    12.8820    10.1770    13.7360    88.6250
  388.0000     7.9310     2.5130     0.0760     0.0820     0.2440    91.8420    -8.0910    12.8820    10.1900    13.7360    88.0660
  388.5000     7.9310     2.5160     0.0700     0.0800     0.2400    90.6900    -9.1650    12.8820    10.2030    14.2430    87.5120
  389.0000     7.9310     2.5150     0.0620     0.0820     0.2360    91.6120   -10.2220    12.9600    10.2150    14.7800    87.8170
  389.5000     7.9310     2.5170     0.0600     0.0790     0.2370    90.8370   -11.3040    13.0010    10.2280    14.7290    88.3080
  390.0000     7.9310     2.5180     0.0610     0.0790     0.2390    89.9200   -12.0540    13.0000    10.2430    14.6190    88.6890
  390.5000     7.9310     2.5140     0.0600     0.0820     0.2430    89.2990   -12.7540    13.0010    10.1950    14.4310    89.0640
  391.0000     7.9310     2.5090     0.0710     0.0850     0.2430    89.2990   -13.0860    13.0010    10.1280    14.2430    89.3340
  391.5000     7.9310     2.5040     0.0800     0.0870     0.2440    88.9040   -13.4630    12.9190    10.0610    14.0550    89.5420
  392.0000     7.9310     2.5000     0.0650     0.0900     0.2460    88.7920   -13.6990    12.8100     9.9660    13.8620    89.6950
  392.5000     7.9310     2.4980     0.0490     0.0920     0.2440    90.4320   -13.6290    12.7050     9.9890    13.8410    89.6660
  393.0000     7.9310     2.4990     0.0480     0.0910     0.2430    90.4960   -13.5590    12.6000    10.0270    13.8190    89.6380
  393.5000     7.9310     2.4980     0.0470     0.0910     0.2390    91.2500   -13.3850    12.4960    10.0580    13.7970    89.6090
  394.0000     7.9310     2.4910     0.0390     0.0940     0.2340    92.5040   -12.7210    12.3920    10.0290    13.7750    89.5810
  394.5000     7.9310     2.4850     0.0360     0.0990     0.2300    92.8650   -12.0570    12.2870    10.0050    13.7530    89.5520
  395.0000     7.9310     2.4840     0.0420     0.1000     0.2300    91.8440   -11.3910    12.1830     9.9800    13.7220    89.5240
  395.5000     7.9310     2.4840     0.0490     0.1000     0.2360    90.9110   -10.9730    12.0820     9.9240    13.6590    89.5570
  396.0000     7.9310     2.4850     0.0550     0.1000     0.2400    91.4180   -10.7510    12.0560     9.8230    13.5520    89.7620
