~VERSION INFORMATION
 VERS.                2.0:   CWLS LOG ASCII STANDARD - VERSION 2.0
 WRAP.                 NO:   ONE LINE PER DEPTH STEP
~WELL INFORMATION
#MNEM.UNIT      DATA TYPE    INFORMATION
#----------   ------------   ------------------------------
 STRT.F         1939.0000:   START DEPTH
 STOP.F         2285.5000:   STOP DEPTH
 STEP.F            0.5000:   STEP LENGTH
 NULL.          -999.2500:   NO VALUE
 COMP. BROWN JOHN E&C INC:   COMPANY
 WELL.    STX-34 #46-1-34:   WELL
 FLD .             TEAPOT:   FIELD
 LOC .      S34 T39N R78W:   LOCATION
 CNTY.            NATRONA:   COUNTY
 STAT.            WYOMING:   STATE
 CTRY. UNITED STATES OF AMERICA:   COUNTRY
 SRVC.            Unknown:   SERVICE COMPANY
 DATE.        31-AUG-1991:   LOGDATE
 API .       490251105200:   API NUMBER
~CURVE INFORMATION
#MNEM.UNIT       API CODE    CURVE DESCRIPTION
#----------   ------------   ------------------------------
 DEPT.F                  :   
 ROP .MIN/FT 91 810 01 00:   RATE OF DRILLING PENETRATION
 TGAS.UNITS  91 830 01 00:   TOTAL GAS FROM HOTWIRE
~PARAMETER INFORMATION
#MNEM.UNIT          VALUE    DESCRIPTION
#----------   ------------   ------------------------------
 EKB .F              5091:   KELLING BUSHING
 EGL .F              5081:   GROUND LEVEL
 DATE.            8-31-91:   RUN DATE
 DD  .F              2284:   DEPTH DRILLER
 BLI .F              2284:   BOTTOM LOG INTERVAL
 TLI .F              1940:   TOP LOG INTERVAL
 CS  .IN            8.625:   CASING SIZE
 CBD .F               645:   CASING BOTTOM DRILLER
 TCS .HRS            1500:   TIME CURCULATED STOPPED
 TLAB.HRS            0515:   TIME LOGGER AT BOTTOM
 ENGI.              TOWER:   RECORDING ENGINEER
 WITN.               HUSK:   WITNESSED BY
 CLNT.            A2DTECH:   CLIENT CODE
 ORIG.         2.5" PRINT:   ORIGIN OF DATA
 UWI .       490251105200:   UNIQUE WELL ID
 DICO. A2D Technologies, Inc.:   DIGITIZING COMPANY
~OTHER INFORMATION
~A  DEPT         ROP      TGAS  
# ...
 2182.0000     0.9441    13.7340
 2182.5000     1.0075    13.7306
 2183.0000     1.0864    13.7272
 2183.5000     1.1421    13.7238
 2184.0000     1.1416    13.7203
 2184.5000     1.1371    13.7169
 2185.0000     1.1030    13.7135
 2185.5000     1.0649    13.7100
 2186.0000     1.0831    13.7066
 2186.5000     1.0826    13.7032
 2187.0000     1.1383    13.6997
 2187.5000     1.1923    13.6963
 2188.0000     1.2681    13.6929
 2188.5000     1.3425    13.6894
 2189.0000     1.4403    13.6860
 2189.5000     1.5451    13.6826
 2190.0000     1.6592    13.6791
 2190.5000     1.7896    13.6757
 2191.0000     1.8640    13.6723
 2191.5000     1.9220    13.6689
 2192.0000     1.9441    13.6654
 2192.5000     1.9560    13.6620
 2193.0000     1.9179    13.6586
 2193.5000     1.8800    13.6551
 2194.0000     1.7733    13.6517
 2194.5000     1.4972    13.6483
 2195.0000     0.8482    13.6448
 2195.5000     0.6043    13.6414
 2196.0000     0.5101    13.6380
 2196.5000     0.5096    13.6345
 2197.0000     0.5433    13.6311
 2197.5000     0.6020    13.6277
 2198.0000     0.6951    13.6242
 2198.5000     0.6938    13.6208
 2199.0000     0.6706    13.6174
 2199.5000     0.6287    13.6140
 2200.0000     0.5992    13.6100
 2200.5000     0.6522    13.5866
 2201.0000     0.7146    13.5589
 2201.5000     0.7678    13.5313
 2202.0000     0.8092    13.5036
 2202.5000     0.8240    13.4760
 2203.0000     0.8052    13.4483
 2203.5000     0.7491    13.4207
 2204.0000     0.7099    13.3930
 2204.5000     0.6742    13.3654
 2205.0000     0.6742    13.3378
 2205.5000     0.6742    13.3101
 2206.0000     0.6742    13.2825
 2206.5000     0.6742    13.2548
 2207.0000     0.6819    13.2272
 2207.5000     0.7116    13.1995
 2208.0000     0.7303    13.1719
 2208.5000     0.7504    13.1442
 2209.0000     0.7920    13.1166
 2209.5000     0.8240    13.0890
 2210.0000     0.8614    13.0613
 2210.5000     0.8989    13.0426
 2211.0000     0.8989    13.0476
 2211.5000     0.9062    13.0525
 2212.0000     0.8989    13.0575
 2212.5000     0.8989    13.0625
 2213.0000     0.8989    13.0675
 2213.5000     0.8240    13.0724
 2214.0000     0.8052    13.0774
 2214.5000     0.8052    13.0824
 2215.0000     0.7865    13.0874
 2215.5000     0.7865    13.0923
 2216.0000     0.7678    13.0973
 2216.5000     0.7491    13.1023
 2217.0000     0.6929    13.1073
 2217.5000     0.6735    13.1122
 2218.0000     0.6554    13.1172
 2218.5000     0.6643    13.1222
 2219.0000     0.8240    13.1272
 2219.5000     0.9738    13.1321
 2220.0000     1.0799    13.1371
 2220.5000     1.3010    13.1421
 2221.0000     1.4794    13.1471
 2221.5000     1.5730    13.1520
 2222.0000     1.7236    13.1570
 2222.5000     1.7978    13.1620
 2223.0000     1.7705    13.1669
 2223.5000     1.7228    13.1719
 2224.0000     1.6479    13.1769
 2224.5000     1.5688    13.1819
 2225.0000     1.4107    13.1868
 2225.5000     1.1571    13.1918
 2226.0000     0.9738    13.1968
 2226.5000     0.8614    13.2018
 2227.0000     0.8012    13.2067
 2227.5000     0.7597    13.2117
 2228.0000     0.7491    13.2167
 2228.5000     0.7491    13.2217
 2229.0000     0.7491    13.2266
 2229.5000     0.7678    13.2316
 2230.0000     0.7965    13.2366
 2230.5000     0.8240    13.2416
 2231.0000     0.8614    13.2465
 2231.5000     0.9025    13.2515
 2232.0000     0.9441    13.2528
 2232.5000     0.9738    13.2459
 2233.0000     0.9551    13.2390
 2233.5000     0.8975    13.2320
 2234.0000     0.8559    13.2251
 2234.5000     0.8240    13.2182
 2235.0000     0.8052    13.2113
 2235.5000     0.8240    13.2044
 2236.0000     0.8866    13.1974
 2236.5000     0.9885    13.1905
 2237.0000     1.1049    13.1836
 2237.5000     1.1610    13.1767
 2238.0000     1.1808    13.1698
 2238.5000     1.1985    13.1628
 2239.0000     1.1893    13.1559
 2239.5000     1.1423    13.1490
 2240.0000     1.1423    13.1421
 2240.5000     1.1423    13.1352
 2241.0000     1.1493    13.1282
 2241.5000     1.1985    13.1213
 2242.0000     1.4981    13.1144
 2242.5000     1.9488    13.1075
 2243.0000     1.9476    13.1006
 2243.5000     1.8737    13.0936
 2244.0000     1.6854    13.0867
 2244.5000     1.5169    13.0798
 2245.0000     1.2634    13.0729
 2245.5000     1.0971    13.0660
 2246.0000     0.9176    13.0590
 2246.5000     0.8240    13.0521
 2247.0000     0.7491    13.0452
 2247.5000     0.7260    13.0383
 2248.0000     0.7116    13.0309
 2248.5000     0.6929    13.0388
 2249.0000     0.6929    13.0473
 2249.5000     0.6929    13.0558
 2250.0000     0.7241    13.0643
 2250.5000     0.7698    13.0729
 2251.0000     0.8240    13.0814
 2251.5000     0.8427    13.0899
 2252.0000     0.9296    13.0984
 2252.5000     1.0169    13.1069
 2253.0000     1.1985    13.1154
 2253.5000     1.3483    13.1239
 2254.0000     1.4524    13.1324
 2254.5000     1.6211    13.1409
 2255.0000     1.7428    13.1494
 2255.5000     1.8352    13.1579
 2256.0000     1.8727    13.1664
 2256.5000     1.9137    13.1749
 2257.0000     1.9288    13.1834
 2257.5000     1.8727    13.1919
 2258.0000     1.6667    13.2004
 2258.5000     1.4122    13.2089
 2259.0000     1.1336    13.2174
 2259.5000     0.9257    13.2259
 2260.0000     0.7678    13.2344
 2260.5000     0.7303    13.2429
 2261.0000     0.6896    13.2514
 2261.5000     0.6742    13.2599
 2262.0000     0.6554    13.2684
 2262.5000     0.6180    13.2770
 2263.0000     0.5993    13.2855
 2263.5000     0.6367    13.2940
 2264.0000     0.6552    13.3025
 2264.5000     0.6742    13.3110
 2265.0000     0.7116    13.3195
 2265.5000     0.7491    13.3280
 2266.0000     0.7561    13.3365
 2266.5000     0.7865    13.3450
 2267.0000     0.8240    13.3535
 2267.5000     0.8246    13.3620
 2268.0000     0.9084    13.3705
 2268.5000     0.9915    13.3790
 2269.0000     1.0629    13.3875
 2269.5000     1.1082    13.3960
 2270.0000     1.1236    13.4045
 2270.5000     1.1236    13.4130
 2271.0000     1.1236    13.4215
 2271.5000     1.1236    13.4300
 2272.0000     1.0984    13.4385
 2272.5000     1.0487    13.4470
 2273.0000     1.0112    13.4555
 2273.5000     0.9924    13.4640
 2274.0000     0.9925    13.4726
 2274.5000     1.0196    13.4811
 2275.0000     1.0487    13.4896
 2275.5000     1.0300    13.4981
 2276.0000     0.9905    13.5066
 2276.5000     0.9241    13.5151
 2277.0000     0.8699    13.5236
 2277.5000     0.8427    13.5321
 2278.0000     0.8614    13.5406
 2278.5000     0.8840    13.5491
 2279.0000     0.8989    13.5576
 2279.5000     0.9363    13.5661
 2280.0000     0.9738    13.5746
 2280.5000     1.0503    13.5831
 2281.0000     1.1293    13.5916
 2281.5000     1.1985    13.6001
 2282.0000     1.2734    13.6086
 2282.5000     1.3858    13.6171
 2283.0000     1.5121    13.6256
 2283.5000     1.6368    13.6341
 2284.0000     1.5730    13.6426
 2284.5000     1.4981    13.6511
 2285.0000  -999.2500    13.6596
 2285.5000  -999.2500    13.6681
