~VERSION INFORMATION
 VERS.                2.0:   CWLS LOG ASCII STANDARD - VERSION 2.0
 WRAP.                 NO:   ONE LINE PER DEPTH STEP
~WELL INFORMATION
#MNEM.UNIT      DATA TYPE    INFORMATION
#----------   ------------   ------------------------------
 STRT.F            2.0000:   START DEPTH
 STOP.F          560.0000:   STOP DEPTH
 STEP.F            0.1000:   STEP LENGTH
 NULL.          -999.2500:   NO VALUE
 COMP.       F D SERV INC:   COMPANY
 WELL. NAVAL PETROLEUM RESERVE 3 SX-3 #88-3:   WELL
 FLD .             NPR #3:   FIELD
 LOC .       S3 T38N R78W:   LOCATION
 CNTY.            NATRONA:   COUNTY
 STAT.            WYOMING:   STATE
 CTRY. UNITED STATES OF AMERICA:   COUNTRY
 SRVC.      Western Atlas:   SERVICE COMPANY
 DATE.        30-OCT-1992:   LOGDATE
 API .       490252254900:   API NUMBER
~CURVE INFORMATION
#MNEM.UNIT       API CODE    CURVE DESCRIPTION
#----------   ------------   ------------------------------
 DEPT.F                  :   
 GRR .GAPI   07 310 01 00:   GAMMA RAY
 RILD.OHMM   07 120 46 00:   INDUCTION LOG DEEP RESISTIVITY
 RILM.OHMM   07 120 44 00:   INDUCTION LOG MEDIUM RESISTIVITY
~PARAMETER INFORMATION
#MNEM.UNIT          VALUE    DESCRIPTION
#----------   ------------   ------------------------------
 PD  .                 GL:   PERMANENT DATUM
 EPD .F              5131:   ELEVATION PERMANENT DATUM
 LMF .                 KB:   LOG MEASURED FROM
 DAPD.F                10:   FEET ABOVE PERMANENT DATUM
 DMF .                 KB:   DRILLING MEASURED FROM
 EKB .F              5141:   KELLING BUSHING
 EDF .F              5140:   DRILLING FLOOR
 EGL .F              5131:   GROUND LEVEL
 DATE.        30-OCT-1992:   RUN DATE
 RUN .                  1:   RUN NUMBER
 DD  .F               568:   DEPTH DRILLER
 DL  .F               568:   DEPTH LOGGER
 BLI .F               560:   BOTTOM LOG INTERVAL
 CS  .IN            8.625:   CASING SIZE
 CBD .F                73:   CASING BOTTOM DRILLER
 CBL .F                73:   CASING BOTTOM LOGGER
 BS  .IN            7.875:   BIT SIZE
 BSD .F               568:   BIT SIZE AT DEPTH
 DFT .           AIR FOAM:   DRILLING FLUID TYPE
 BHT .F                63:   BOTTOM HOLE TEMPERATURE
 TCS .HRS               2:   TIME CURCULATED STOPPED
 MRT .F                63:   MAXIMUM RECORDED TEMPERATURE
 LUN .            HL-6274:   LOGGING UNIT NUMBER
 LUL .             CASPER:   LOGGING UNIT LOCATION
 ENGI.             RAUTIO:   RECORDING ENGINEER
 WITN.          BOB SYLAR:   WITNESSED BY
 CLNT.            A2DTECH:   CLIENT CODE
 ORIG.           5" PRINT:   ORIGIN OF DATA
 UWI .       490252254900:   UNIQUE WELL ID
 DICO. A2D Technologies, Inc.:   DIGITIZING COMPANY
~OTHER INFORMATION
~A    DEPT      GRR      RILD       RILM   
# ...
  329.6000   123.7396     5.8469     5.6255
  329.7000   123.3121     5.8471     5.6778
  329.8000   122.8105     5.8474     5.7764
  329.9000   122.4201     5.8476     5.8882
  330.0000   122.1687     5.8614     5.9486
  330.1000   121.9265     5.8955     6.0410
  330.2000   121.9251     5.9298     6.1460
  330.3000   122.1325     6.0128     6.2624
  330.4000   122.5389     6.0971     6.4075
  330.5000   123.1446     6.2037     6.5793
  330.6000   123.8386     6.2829     6.7090
  330.7000   124.3379     6.3343     6.8649
  330.8000   124.9299     6.4449     7.0243
  330.9000   125.3362     6.5578     7.1593
  331.0000   125.8354     6.6726     7.2020
  331.1000   126.3345     6.7657     7.3514
  331.2000   126.7325     6.8605     7.4202
  331.3000   126.7313     6.9641     7.5061
  331.4000   126.7301     7.0046     7.5929
  331.5000   126.7289     7.1519     7.6889
  331.6000   126.7277     7.2186     7.8254
  331.7000   126.6297     7.3539     7.9586
  331.8000   126.3783     7.5257     8.0612
  331.9000   126.1217     7.7014     8.1810
  332.0000   126.1205     7.8810     8.3060
  332.1000   125.9253     8.1026     8.4091
  332.2000   125.6739     8.2545     8.5641
  332.3000   125.5145     8.4180     8.7989
  332.4000   125.5133     8.6056     8.9789
  332.5000   125.5120     8.8467     9.1350
  332.6000   125.5108     9.0531     9.2597
  332.7000   125.5096     9.2117     9.3133
  332.8000   125.5084     9.3730     9.3726
  332.9000   125.5072     9.5038     9.4215
  333.0000   125.5060     9.5921     9.4760
  333.1000   125.5048     9.6480     9.5308
  333.2000   125.7390     9.7041     9.5860
  333.3000   125.8036     9.7045     9.6415
  333.4000   125.9357     9.7499     9.7050
  333.5000   126.1024     9.7727     9.7053
  333.6000   126.1638     9.7958     9.7422
  333.7000   126.7023     9.8414     9.7735
  333.8000   126.7012     9.8418     9.7739
  333.9000   127.0590     9.8422     9.7743
  334.0000   127.5582     9.8426     9.7748
  334.1000   127.9024     9.8430     9.8214
  334.2000   127.9541     9.8434     9.8434
  334.3000   128.5023     9.8439     9.8439
  334.4000   128.5012     9.8443     9.8556
  334.5000   128.5000     9.8448     9.9130
  334.6000   128.6225     9.8451     9.9134
  334.7000   128.7988     9.8455     9.9586
  334.8000   128.7759     9.8459     9.9831
  334.9000   128.4950     9.8463     9.9835
  335.0000   128.4940     9.8467     9.9839
  335.1000   128.1530     9.9156     9.9844
  335.2000   127.7703     9.9618     9.9848
  335.3000   127.5188     9.9852     9.9427
  335.4000   127.2675     9.9856     9.9167
  335.5000   126.9818     9.9860     9.8985
  335.6000   126.7647     9.9864     9.8491
  335.7000   126.5133    10.0446     9.8496
  335.8000   126.3759    10.0566     9.8500
  335.9000   126.4377    10.0919     9.8504
  336.0000   126.6748    10.1507     9.8508
  336.1000   126.6733    10.2217     9.8677
  336.2000   126.6723    10.3406     9.9296
  336.3000   126.8313    10.5218    10.0587
  336.4000   126.9711    10.7060    10.1098
  336.5000   127.0281    10.8554    10.1294
  336.6000   127.2699    11.0074    10.1836
  336.7000   127.2685    11.1736    10.2863
  336.8000   127.2675    11.2387    10.3513
  336.9000   127.2663    11.4750    10.5606
  337.0000   127.2651    11.5820    10.7146
  337.1000   127.3173    11.7169    10.9407
  337.2000   127.5639    11.8258    11.1673
  337.3000   127.5624    11.9085    11.3898
  337.4000   127.5615    12.0469    11.7203
  337.5000   127.4096    12.1873    12.0623
  337.6000   127.1582    12.3866    12.4717
  337.7000   126.9068    12.5595    12.9536
  337.8000   126.6530    12.8257    13.4230
  337.9000   125.6607    13.2297    13.7986
  338.0000   124.6588    13.4607    14.1288
  338.1000   123.3653    14.0321    14.4472
  338.2000   121.7681    14.4292    15.0469
  338.3000   119.8401    14.8333    15.7025
  338.4000   117.0072    15.1799    16.2459
  338.5000   115.5483    15.5160    16.6225
  338.6000   111.7428    15.7870    17.0356
  338.7000   106.8148    16.1569    17.4976
  338.8000   101.7387    16.6901    17.8577
  338.9000    97.1786    17.2789    18.1681
  339.0000    93.5060    17.8875    18.4837
  339.1000    88.7408    18.4727    18.8044
  339.2000    84.4846    18.9035    19.1671
  339.3000    81.2974    19.4589    19.5644
  339.4000    78.9646    19.9368    20.2595
  339.5000    76.9960    20.3318    20.9139
  339.6000    75.1252    20.7359    21.3656
  339.7000    73.9573    21.2451    21.7363
  339.8000    72.8874    21.8657    22.1705
  339.9000    72.0168    22.3779    22.4994
  340.0000    71.2651    23.0087    22.9761
  340.1000    70.5133    23.8511    23.4499
  340.2000    69.6963    24.6582    23.8254
  340.3000    69.4667    25.2339    24.1038
  340.4000    69.3928    25.8224    24.6016
  340.5000    69.3916    26.9184    24.8333
  340.6000    69.3904    27.2958    25.1205
  340.7000    69.3892    27.7734    25.3528
  340.8000    69.3878    28.1278    25.4996
  340.9000    69.3867    28.2916    25.6496
  341.0000    69.3855    28.4563    25.6507
  341.1000    69.3843    28.6553    25.6518
  341.2000    69.3831    28.7889    25.5698
  341.3000    69.3819    28.9566    25.4247
  341.4000    69.3806    29.0580    25.3022
  341.5000    69.3795    29.0592    25.3035
  341.6000    69.3783    29.0604    25.1681
  341.7000    69.4940    28.8946    25.1310
  341.8000    69.7430    28.8624    25.0562
  341.9000    69.9919    28.7641    24.9141
  342.0000    70.2769    28.6658    24.7727
  342.1000    70.4900    28.6013    24.6188
  342.2000    70.9020    28.2741    24.6198
  342.3000    71.4012    28.2755    24.5228
  342.4000    71.9614    28.1465    24.3837
  342.5000    72.7107    28.0826    24.2453
  342.6000    73.5829    28.0426    24.1077
  342.7000    74.0004    27.9407    23.9528
  342.8000    74.8161    27.8388    23.8351
  342.9000    75.6012    27.7369    23.6999
  343.0000    76.2130    27.6350    23.5655
  343.1000    77.2126    27.5127    23.4318
  343.2000    78.3950    27.3872    23.2989
  343.3000    79.2117    27.2309    23.1440
  343.4000    79.9044    27.0754    23.0354
  343.5000    80.6084    26.9207    22.9047
  343.6000    81.5053    26.7670    22.7748
  343.7000    82.0049    26.7681    22.6721
  343.8000    82.7543    26.6461    22.6730
  343.9000    83.5036    26.5857    22.5449
  344.0000    84.2530    26.5257    22.4171
  344.1000    85.0023    26.4044    22.3642
  344.2000    85.7052    26.4057    22.3651
  344.3000    86.2132    26.2550    22.3660
  344.4000    86.2120    26.2258    22.3670
  344.5000    86.2108    26.1364    22.2455
  344.6000    86.2096    26.0471    22.2146
  344.7000    86.3012    26.0481    22.2155
  344.8000    86.5502    26.0492    22.2164
  344.9000    86.8084    26.2010    22.2173
  345.0000    87.0482    26.2323    22.2183
  345.1000    87.2972    26.3244    22.3366
  345.2000    87.6852    26.4166    22.3744
  345.3000    88.0964    26.4483    22.3753
  345.4000    88.3454    26.6023    22.4144
  345.5000    88.6084    26.7883    22.5326
  345.6000    89.0795    26.7892    22.5336
  345.7000    89.2084    26.8834    22.6486
  345.8000    89.3414    27.0399    22.7797
  345.9000    89.5072    27.1974    22.9115
  346.0000    89.4739    27.3557    23.0784
  346.1000    89.2035    27.3568    23.3451
  346.2000    88.7398    27.6121    23.6579
  346.3000    88.5988    27.8367    23.7733
  346.4000    87.8219    28.0640    23.9985
  346.5000    86.4760    28.3905    24.3361
  346.6000    85.4739    28.7206    24.7271
  346.7000    84.3770    29.0553    25.0128
  346.8000    83.9229    29.3938    25.3593
  346.9000    83.0704    29.6328    25.4774
  347.0000    82.1929    29.8747    25.6248
  347.1000    81.4411    30.1871    25.8309
  347.2000    80.7116    30.3629    26.1022
  347.3000    80.1529    30.5753    26.2574
  347.4000    79.2649    30.7178    26.5532
  347.5000    78.6043    30.8968    26.9792
  347.6000    77.9831    31.0767    27.3599
  347.7000    77.2313    31.2577    27.6205
