~VERSION INFORMATION
 VERS.                2.0:   CWLS LOG ASCII STANDARD - VERSION 2.0
 WRAP.                 NO:   ONE LINE PER DEPTH STEP
~WELL INFORMATION
#MNEM.UNIT      DATA TYPE    INFORMATION
#----------   ------------   ------------------------------
 STRT.F         1420.5000:   START DEPTH
 STOP.F         2350.5000:   STOP DEPTH
 STEP.F            0.5000:   STEP LENGTH
 NULL.          -999.2500:   NO VALUE
 COMP. BROWN JOHN E&C INC:   COMPANY
 WELL.   15 STX-14 #15-14:   WELL
 FLD .             TEAPOT:   FIELD
 LOC .      S14 T38N R78W:   LOCATION
 CNTY.            NATRONA:   COUNTY
 STAT.            WYOMING:   STATE
 CTRY. UNITED STATES OF AMERICA:   COUNTRY
 SRVC.            Unknown:   SERVICE COMPANY
 DATE.        02-JUN-1991:   LOGDATE
 API .       490251096000:   API NUMBER
~CURVE INFORMATION
#MNEM.UNIT       API CODE    CURVE DESCRIPTION
#----------   ------------   ------------------------------
 DEPT.F                  :   
 ROP .MIN/FT 91 810 01 00:   RATE OF DRILLING PENETRATION
 TGAS.UNITS  91 830 01 00:   TOTAL GAS
~PARAMETER INFORMATION
#MNEM.UNIT          VALUE    DESCRIPTION
#----------   ------------   ------------------------------
 EKB .F              5241:   KELLING BUSHING
 EGL .F              5231:   GROUND LEVEL
 DATE.             6-2-91:   RUN DATE
 DD  .F              2350:   DEPTH DRILLER
 BLI .F              2347:   BOTTOM LOG INTERVAL
 TLI .F              1420:   TOP LOG INTERVAL
 ENGI.              TOWER:   RECORDING ENGINEER
 CLNT.            A2DTECH:   CLIENT CODE
 ORIG.         2.5" PRINT:   ORIGIN OF DATA
 UWI .       490251096000:   UNIQUE WELL ID
 DICO. A2D Technologies, Inc.:   DIGITIZING COMPANY
~OTHER INFORMATION
~A  DEPT       ROP        TGAS  
# ...
 1663.5000     0.6224   343.9958
 1664.0000     0.6504   332.1333
 1664.5000     0.6959   325.5439
 1665.0000     0.7513   325.7563
 1665.5000     0.7882   325.9260
 1666.0000     0.8106   305.8375
 1666.5000     0.8429   285.1427
 1667.0000     0.8421   270.0000
 1667.5000     0.8415   270.1883
 1668.0000     0.8184   270.3766
 1668.5000     0.7757   270.5648
 1669.0000     0.7082   270.7531
 1669.5000     0.6514   270.9684
 1670.0000     0.6321   271.1382
 1670.5000     0.6764   271.3180
 1671.0000     0.7429   271.5063
 1671.5000     0.8171   266.4687
 1672.0000     0.8939   253.0544
 1672.5000     0.9164   253.2427
 1673.0000     0.9649   242.0391
 1673.5000     0.9829   234.7908
 1674.0000     1.0010   235.0091
 1674.5000     1.0002   235.1788
 1675.0000     0.9994   216.5201
 1675.5000     0.9800   216.7155
 1676.0000     0.9394   212.0080
 1676.5000     0.8548   198.2636
 1677.0000     0.7701   198.4519
 1677.5000     0.7338   198.6402
 1678.0000     0.6957   198.8284
 1678.5000     0.6950   199.0497
 1679.0000     0.7136   199.2194
 1679.5000     0.7498   218.6756
 1680.0000     0.7678   239.7513
 1680.5000     0.7626   269.9482
 1681.0000     0.7199   339.4203
 1681.5000     0.6720   431.8185
 1682.0000     0.6751   557.8867
 1682.5000     0.6941   704.2568
 1683.0000     0.7519   840.9146
 1683.5000     0.8164   803.4275
 1684.0000     0.8901   671.1871
 1684.5000     0.9759   573.4810
 1685.0000     0.9761   531.9030
 1685.5000     0.9764   502.9080
 1686.0000     0.9551   503.0962
 1686.5000     0.9145   513.6853
 1687.0000     0.8644   547.2189
 1687.5000     0.7713   574.6577
 1688.0000     0.7341   635.6689
 1688.5000     0.6781   692.3240
 1689.0000     0.6596   735.7210
 1689.5000     0.6674   794.6599
 1690.0000     0.6789   842.5712
 1690.5000     0.6978   905.4193
 1691.0000     0.6980   968.2568
 1691.5000     0.6024  1031.0945
 1692.0000     0.5861  1108.1312
 1692.5000     0.6051  1183.3915
 1693.0000     0.6241  1258.8751
 1693.5000     0.6243  1338.9315
 1694.0000     0.6245  1405.3624
 1694.5000     0.6024  1489.0831
 1695.0000     0.5431  1572.8038
 1695.5000     0.4650  1637.0437
 1696.0000     0.4008  1690.7964
 1696.5000     0.3823  1753.6395
 1697.0000     0.4608  1825.2563
 1697.5000     0.5376  1881.9115
 1698.0000     0.5974  1942.1565
 1698.5000     0.6641  2008.2417
 1699.0000     0.7205  2086.6646
 1699.5000     0.7769  2142.1472
 1700.0000     0.8177  2190.8557
 1700.5000     0.8336  2247.8110
 1701.0000     0.8240  2304.7661
 1701.5000     0.8153  2357.6216
 1702.0000     0.7968  2383.0518
 1702.5000     0.7783  2418.9087
 1703.0000     0.7598  2440.1348
 1703.5000     0.7256  2451.6526
 1704.0000     0.6854  2452.2175
 1704.5000     0.6669  2452.7825
 1705.0000     0.6484  2453.4458
 1705.5000     0.6486  2453.9607
 1706.0000     0.6489  2454.4771
 1706.5000     0.6771  2455.0417
 1707.0000     0.7430  2455.6067
 1707.5000     0.7807  2456.1716
 1708.0000     0.8371  2456.7363
 1708.5000     0.8600  2457.3013
 1709.0000     0.9011  2446.7900
 1709.5000     0.9127  2413.7747
 1710.0000     0.9129  2383.7937
 1710.5000     0.9132  2365.4797
 1711.0000     0.8552  2309.5090
 1711.5000     0.7905  2269.5505
 1712.0000     0.6991  2218.9929
 1712.5000     0.6520  2111.1409
 1713.0000     0.6147  2001.5951
 1713.5000     0.6149  1919.4971
 1714.0000     0.6339  1826.8082
 1714.5000     0.6596  1736.4900
 1715.0000     0.6820  1640.1176
 1715.5000     0.6721  1523.8608
 1716.0000     0.6536  1411.4048
 1716.5000     0.6351  1294.1819
 1717.0000     0.6165  1188.6276
 1717.5000     0.6086  1074.4709
 1718.0000     0.5609   992.3845
 1718.5000     0.5611   901.9833
 1719.0000     0.5613   799.2379
 1719.5000     0.5803   732.3947
 1720.0000     0.5993   691.6298
 1720.5000     0.6084   644.5850
 1721.0000     0.6348   626.2711
 1721.5000     0.6338   588.1733
 1722.0000     0.6330   547.3999
 1722.5000     0.6320   510.8009
 1723.0000     0.6500   484.7073
 1723.5000     0.6487   459.6025
 1724.0000     0.6666   460.1673
 1724.5000     0.6844   449.2313
 1725.0000     0.7023   442.4686
 1725.5000     0.7266   443.1334
 1726.0000     0.7665   443.6481
 1726.5000     0.7743   444.1631
 1727.0000     0.7734   444.7281
 1727.5000     0.7537   441.6059
 1728.0000     0.7341   427.0293
 1728.5000     0.6601   427.5941
 1729.0000     0.6197   428.1590
 1729.5000     0.6188   428.7239
 1730.0000     0.6180   429.2887
 1730.5000     0.6170   448.7949
 1731.0000     0.6161   449.3095
 1731.5000     0.6152   449.8242
 1732.0000     0.6141   450.3766
 1732.5000     0.6133   447.7268
 1733.0000     0.6124   432.6779
 1733.5000     0.6114   433.2427
 1734.0000     0.6105   433.8075
 1734.5000     0.6094   434.3724
 1735.0000     0.6085   422.5446
 1735.5000     0.6077   416.6736
 1736.0000     0.6067   417.3139
 1736.5000     0.6247   399.0002
 1737.0000     0.6609   399.5398
 1737.5000     0.6788   400.1046
 1738.0000     0.7341   400.6695
 1738.5000     0.7519   401.2343
 1739.0000     0.7566   401.7992
 1739.5000     0.7687   402.3640
 1740.0000     0.7676   402.9288
 1740.5000     0.7855   403.4937
 1741.0000     0.7846   404.1470
 1741.5000     0.7609   404.6616
 1742.0000     0.7378   405.1883
 1742.5000     0.6693   405.7531
 1743.0000     0.6497   402.2062
 1743.5000     0.6301   388.0544
 1744.0000     0.6292   396.4009
 1744.5000     0.6283   408.0126
 1745.0000     0.6273   408.5774
 1745.5000     0.6263   395.8534
 1746.0000     0.6254   390.8786
 1746.5000     0.6442   391.4946
 1747.0000     0.6698   392.0092
 1747.5000     0.7241   392.5732
 1748.0000     0.7714   393.1381
 1748.5000     0.8080   393.7029
 1749.0000     0.8071   394.2678
 1749.5000     0.8034   394.8326
 1750.0000     0.7803   395.3975
 1750.5000     0.7572   395.9624
 1751.0000     0.7471   396.5272
 1751.5000     0.7088   397.1559
 1752.0000     0.6504   397.6707
 1752.5000     0.6320   398.2217
 1753.0000     0.6124   398.7867
 1753.5000     0.6113   399.3515
 1754.0000     0.6479   399.9164
 1754.5000     0.7032   409.1588
 1755.0000     0.7428   419.8745
 1755.5000     0.7951   420.4394
 1756.0000     0.8227   421.0042
 1756.5000     0.8679   421.6458
 1757.0000     0.8670   422.1605
 1757.5000     0.7303   422.6987
 1758.0000     0.6255   423.2636
 1758.5000     0.5562   423.8285
 1759.0000     0.5635   424.3934
 1759.5000     0.5627   424.9582
 1760.0000     0.5618   425.5230
 1760.5000     0.5808   437.9660
 1761.0000     0.5810   445.4811
 1761.5000     0.5625   446.1357
 1762.0000     0.5627   446.6503
 1762.5000     0.5630   447.1758
 1763.0000     0.5632   447.7406
 1763.5000     0.5635   448.3054
 1764.0000     0.5450   448.8703
 1764.5000     0.5639   449.4351
 1765.0000     0.5641   450.0000
 1765.5000     0.5644   450.5648
 1766.0000     0.6208   451.1298
 1766.5000     0.6585   451.7970
 1767.0000     0.6990   452.3118
 1767.5000     0.7151   452.8264
 1768.0000     0.7154   453.3891
 1768.5000     0.7343   453.9539
 1769.0000     0.7346   454.5189
 1769.5000     0.7348   462.3467
 1770.0000     0.7350   483.5758
 1770.5000     0.7353   504.8052
 1771.0000     0.7355   538.8090
 1771.5000     0.7170   566.0922
 1772.0000     0.7172   627.4292
 1772.5000     0.7175   684.4293
 1773.0000     0.7177   785.5522
 1773.5000     0.7179   886.3033
 1774.0000     0.7182   974.5039
 1774.5000     0.7184  1078.3932
 1775.0000     0.7187  1182.2825
 1775.5000     0.7376  1275.6918
 1776.0000     0.7378  1358.9205
 1776.5000     0.7381  1456.2745
 1777.0000     0.7196  1555.6847
 1777.5000     0.6824  1687.9987
 1778.0000     0.6451  1865.3456
 1778.5000     0.6454  2046.5583
 1779.0000     0.6456  2182.8215
 1779.5000     0.6459  2286.7000
 1780.0000     0.6461  2374.2734
 1780.5000     0.6276  2426.8298
 1781.0000     0.6194  2456.8936
 1781.5000     0.5719  2464.4561
 1782.0000     0.5347  2465.1121
 1782.5000     0.4764  2465.6265
 1783.0000     0.4227  2466.1414
 1783.5000     0.4043  2447.8274
 1784.0000     0.3858  2444.4358
 1784.5000     0.3865  2430.1882
