~VERSION INFORMATION
 VERS.                2.0:   CWLS LOG ASCII STANDARD - VERSION 2.0
 WRAP.                 NO:   ONE LINE PER DEPTH STEP
~WELL INFORMATION
#MNEM.UNIT      DATA TYPE    INFORMATION
#----------   ------------   ------------------------------
 STRT.F           19.5000:   START DEPTH
 STOP.F          690.5000:   STOP DEPTH
 STEP.F            0.5000:   STEP LENGTH
 NULL.          -999.2500:   NO VALUE
 COMP. FENIX & SCISSON INC:   COMPANY
 WELL. 37-22 SX 11 WI #3-11:   WELL
 FLD .             TEAPOT:   FIELD
 LOC .      S11 T38N R78W:   LOCATION
 CNTY.            NATRONA:   COUNTY
 STAT.            WYOMING:   STATE
 CTRY. UNITED STATES OF AMERICA:   COUNTRY
 SRVC.      Dresser Atlas:   SERVICE COMPANY
 DATE.        11-AUG-1980:   LOGDATE
 API .       490251084400:   API NUMBER
~CURVE INFORMATION
#MNEM.UNIT       API CODE    CURVE DESCRIPTION
#----------   ------------   ------------------------------
 DEPT.F                  :   
 SPR .MV     07 010 01 00:   SPONTANEOUS POTENTIAL
 SFL .OHMM   07 220 01 00:   SHALLOW FOCUSED LOG RESISTIVITY
 ILD .OHMM   07 120 46 00:   INDUCTION LOG DEEP
 ILM .OHMM   07 120 44 00:   INDUCTION LOG MEDIUM
 GRD .GAPI   45 310 01 00:   GAMMA RAY FROM DENSITY LOG
 CALD.IN     45 280 60 00:   CALIPER
 CORR.G/C3   45 356 01 00:   DENSITY CORRECTION
 RHOB.G/C3   45 350 01 00:   BULK DENSITY
 NPHI.DEC    42 890 12 00:   NEUTRON POROSITY SANDSTONE
 DPHI.DEC    45 890 12 00:   DENSITY POROSITY SANDSTONE
~PARAMETER INFORMATION
#MNEM.UNIT          VALUE    DESCRIPTION
#----------   ------------   ------------------------------
 PD  .                 GL:   PERMANENT DATUM
 EPD .F              5191:   ELEVATION PERMANENT DATUM
 LMF .                 KB:   LOG MEASURED FROM
 DAPD.F                 5:   FEET ABOVE PERMANENT DATUM
 DMF .                 KB:   DRILLING MEASURED FROM
 EKB .F              5196:   KELLING BUSHING
 EGL .F              5191:   GROUND LEVEL
 DATE.            8-11-80:   RUN DATE
 RUN .                  1:   RUN NUMBER
 DD  .F               680:   DEPTH DRILLER
 DL  .F               689:   DEPTH LOGGER
 BLI .F               687:   BOTTOM LOG INTERVAL
 TLI .F                20:   TOP LOG INTERVAL
 CS  .IN            8.625:   CASING SIZE
 BS  .IN            7.875:   BIT SIZE
 BSD .F               680:   BIT SIZE AT DEPTH
 DFT .           CHEM GEL:   DRILLING FLUID TYPE
 DFD .                9.9:   DRILLING FLUID DENSITY
 DFV .                 52:   DRILLING FLUID VISCOSITY
 DFPH.               11.5:   DRILLING FLUID PH
 DFL .                104:   DRILLING FLUID LOSS
 MSS .           FLOWLINE:   MUD SAMPLE SOURCE
 RMS .OHMM             .2:   RESISTIVITY MUD SAMPLE
 MST .F                74:   MUD SAMPLE TEMPERATURE
 RMF .OHMM            .15:   RESISTIVITY MUD FILTRATE SAMPLE
 MFST.F                74:   MUD FILTRATE SAMPLE TEMPERATURE
 RMC .OHMM            .25:   RESISTIVITY MUD CAKE
 MCST.F                74:   MUD CAKE SAMPLE TEMPERATURE
 MFSS.               CALC:   MUD FILTRATE SAMPLE SOURCE
 MCSS.               CALC:   MUD CAKE SAMPLE SOURCE
 TCS .HRS               3:   TIME CURCULATED STOPPED
 LUN .             HL6150:   LOGGING UNIT NUMBER
 LUL .                 FM:   LOGGING UNIT LOCATION
 ENGI.            BRANNEY:   RECORDING ENGINEER
 WITN.           MCINTYRE:   WITNESSED BY
 CLNT.            A2DTECH:   CLIENT CODE
 ORIG.           5" PRINT:   ORIGIN OF DATA
 UWI .       490251084400:   UNIQUE WELL ID
 DICO. A2D Technologies, Inc.:   DIGITIZING COMPANY
~OTHER INFORMATION
~A   DEPT      SPR        SFL        ILD        ILM        GRD       CALD       CORR       RHOB       NPHI       DPHI   
# ...
  622.5000   -39.5840    15.5450    14.1830    12.7210    99.4310     7.6410     0.0840     2.4090     0.2320     0.1620
  623.0000   -39.7020    15.2280    13.9440    12.5480   100.6830     7.6630     0.0690     2.4020     0.2410     0.1670
  623.5000   -39.9270    14.9120    13.7050    12.3460   101.2920     7.6840     0.0540     2.3930     0.2380     0.1720
  624.0000   -40.1510    14.5950    13.4660    12.1440   102.7320     7.7060     0.0390     2.3870     0.2320     0.1780
  624.5000   -40.3760    14.2780    13.2270    11.9420   100.6610     7.7280     0.0410     2.4080     0.2210     0.1690
  625.0000   -40.6020    13.9620    12.9880    11.7410   103.5860     7.7500     0.0560     2.4260     0.2240     0.1520
  625.5000   -40.8270    13.6450    12.7490    11.5390   104.0310     7.7710     0.0660     2.4410     0.2210     0.1460
  626.0000   -41.0520    13.3290    12.5100    11.3370   105.3930     7.7930     0.0540     2.4260     0.2120     0.1530
  626.5000   -41.2780    13.0440    12.2710    11.1350   104.4020     7.8150     0.0410     2.4510     0.2040     0.1500
  627.0000   -41.5030    13.2080    12.0080    10.9540   106.4310     7.8360     0.0290     2.4320     0.1970     0.1470
  627.5000   -41.7280    13.4080    12.5280    11.8680   105.3250     7.8580     0.0270     2.4610     0.1990     0.1330
  628.0000   -41.9530    16.1160    13.1640    12.6990   106.1910     7.8820     0.0390     2.4920     0.2020     0.1180
  628.5000   -42.1570    19.1250    15.2760    13.5310   107.1930     7.8860     0.0510     2.5220     0.1970     0.1030
  629.0000   -42.0010    21.2310    18.3280    14.3620   102.8720     7.8640     0.0530     2.5490     0.1910     0.0850
  629.5000   -41.8160    19.2140    17.5800    15.1100    97.7300     7.8410     0.0250     2.5100     0.1800     0.1040
  630.0000   -41.6300    17.6630    16.5110    13.8400    94.6870     7.8180     0.0060     2.4670     0.1700     0.1340
  630.5000   -41.4450    16.1110    15.4430    12.6860    92.5430     7.7950     0.0130     2.4240     0.1640     0.1620
  631.0000   -41.2600    14.5590    14.3740    11.5310    96.6780     7.7720     0.0100     2.3840     0.1900     0.1760
  631.5000   -41.0750    13.7330    13.3050    10.9170   100.7430     7.7500     0.0240     2.3670     0.2060     0.1890
  632.0000   -40.8900    13.5660    12.3440    10.8440   103.2890     7.7270     0.0390     2.3640     0.2100     0.1830
  632.5000   -40.7040    13.3980    12.2140    10.7710   102.1290     7.7040     0.0500     2.3840     0.2140     0.1780
  633.0000   -40.5190    13.2310    12.0960    10.6980   101.2010     7.6810     0.0480     2.3940     0.2110     0.1730
  633.5000   -40.3340    13.0630    11.9790    10.6260   103.5360     7.6580     0.0420     2.3740     0.2060     0.1810
  634.0000   -40.1470    12.8960    11.8610    10.5530   103.7530     7.6350     0.0390     2.3670     0.2020     0.1900
  634.5000   -39.9620    12.7280    11.7430    10.4800   102.9170     7.6120     0.0610     2.3800     0.2000     0.1770
  635.0000   -39.8280    12.5610    11.6250    10.4070   106.4480     7.5890     0.0810     2.3930     0.2090     0.1670
  635.5000   -40.1130    12.3930    11.5070    10.3340   104.9190     7.5820     0.0990     2.4060     0.2160     0.1620
  636.0000   -40.3490    12.2260    11.3890    10.2610   102.1920     7.6130     0.0840     2.4190     0.2220     0.1560
  636.5000   -40.5780    12.0580    11.2600    10.1880   100.5130     7.6560     0.0820     2.4310     0.2300     0.1500
  637.0000   -40.8050    12.0080    11.2510    10.1150   103.0180     7.6990     0.0870     2.4440     0.2250     0.1430
  637.5000   -41.0330    12.0080    11.2340    10.0430   105.0720     7.7420     0.0630     2.4510     0.2190     0.1470
  638.0000   -41.2610    12.0080    11.2160     9.9920   106.2150     7.7850     0.0450     2.4260     0.2150     0.1540
  638.5000   -41.4890    12.0080    11.1990     9.9870   102.2760     7.8290     0.0480     2.4360     0.2200     0.1500
  639.0000   -41.7170    12.0080    11.1820     9.9820   100.7890     7.8720     0.0570     2.4480     0.2260     0.1460
  639.5000   -41.9450    12.0080    11.1640     9.9770   102.2330     7.9120     0.0410     2.4260     0.2250     0.1530
  640.0000   -42.1710    12.0080    11.1470     9.9720   102.7140     7.9370     0.0260     2.4090     0.2230     0.1600
  640.5000   -42.3680    12.0080    11.1290     9.9660   100.7270     7.9360     0.0210     2.4140     0.2280     0.1600
  641.0000   -42.3110    12.0080    11.1120     9.9610   101.8990     7.9350     0.0330     2.4260     0.2340     0.1540
  641.5000   -42.2470    12.0080    11.0950     9.9560   101.0000     7.9340     0.0360     2.4380     0.2310     0.1490
  642.0000   -42.1840    12.0080    11.0770     9.9510   101.5490     7.9320     0.0230     2.4450     0.2290     0.1450
  642.5000   -42.1220    12.0080    11.0600     9.9460   104.9640     7.9310     0.0230     2.4170     0.2270     0.1600
  643.0000   -42.0600    12.0080    11.0430     9.9410   108.3940     7.9300     0.0270     2.4410     0.2320     0.1570
  643.5000   -41.9950    12.0080    11.0250     9.9360   107.8100     7.9290     0.0320     2.4180     0.2330     0.1520
  644.0000   -42.2410    12.0080    11.0080     9.9300   106.3910     7.9280     0.0360     2.4380     0.2290     0.1480
  644.5000   -42.7330    12.0080    10.9910     9.9250   104.4800     7.9260     0.0320     2.4210     0.2260     0.1620
  645.0000   -43.2330    12.0080    10.9730     9.9200   102.5800     7.9250     0.0280     2.4070     0.2220     0.1600
  645.5000   -43.3110    12.0080    10.9560     9.9150   100.6980     7.9240     0.0270     2.4330     0.2190     0.1540
  646.0000   -43.1900    11.9850    10.9380     9.9100    99.2880     7.9230     0.0410     2.4600     0.2190     0.1480
  646.5000   -43.0690    11.9530    10.9210     9.9050   101.2790     7.9220     0.0440     2.4690     0.2240     0.1420
  647.0000   -42.9480    11.9200    10.9040     9.9000   103.2790     7.9200     0.0330     2.4490     0.2260     0.1370
  647.5000   -42.8260    11.8870    10.8860     9.8690   105.2620     7.9190     0.0310     2.4630     0.2260     0.1310
  648.0000   -42.7050    11.8550    10.8690     9.8340   107.9890     7.9180     0.0470     2.4820     0.2260     0.1270
  648.5000   -42.5840    11.8220    10.8530     9.7990   110.1200     7.9100     0.0470     2.4730     0.2260     0.1330
  649.0000   -42.4620    11.7890    10.8090     9.7640   108.7600     7.9000     0.0410     2.4570     0.2250     0.1380
  649.5000   -42.3410    11.7560    10.7690     9.7290   106.9350     7.8900     0.0350     2.4400     0.2260     0.1440
  650.0000   -42.2190    11.7240    10.7290     9.6940   108.2370     7.8810     0.0280     2.4270     0.2290     0.1490
  650.5000   -42.0970    11.6810    10.6890     9.6590   107.0260     7.8710     0.0250     2.4450     0.2330     0.1540
  651.0000   -41.9690    11.7160    10.6500     9.6240   105.7060     7.8620     0.0280     2.4210     0.2320     0.1620
  651.5000   -42.0550    11.7640    10.6100     9.5890   107.0930     7.8520     0.0500     2.4060     0.2280     0.1550
  652.0000   -42.1820    11.8130    10.5580     9.5540   111.1890     7.8420     0.0760     2.4430     0.2250     0.1430
  652.5000   -42.3100    11.8610    10.5920     9.5190   109.3650     7.8330     0.0990     2.4710     0.2320     0.1350
  653.0000   -42.4380    11.9100    10.6390     9.4840   111.8080     7.8230     0.0880     2.4500     0.2260     0.1450
  653.5000   -42.5660    11.9580    10.6870     9.4490   114.9290     7.8070     0.0780     2.4380     0.2190     0.1490
  654.0000   -42.6970    12.0070    10.7340     9.4140   117.5840     7.7870     0.0690     2.4600     0.2160     0.1430
  654.5000   -42.8390    12.0560    10.7820     9.3690   114.6330     7.7760     0.0770     2.4350     0.2280     0.1380
  655.0000   -43.1500    12.1040    10.8300     9.4160   115.7500     7.7690     0.0820     2.4580     0.2290     0.1370
  655.5000   -43.4520    12.1530    10.8770     9.4810   116.5230     7.7630     0.0710     2.4640     0.2320     0.1440
