~VERSION INFORMATION
 VERS.                2.0:   CWLS LOG ASCII STANDARD - VERSION 2.0
 WRAP.                 NO:   ONE LINE PER DEPTH STEP
~WELL INFORMATION
#MNEM.UNIT      DATA TYPE    INFORMATION
#----------   ------------   ------------------------------
 STRT.F            0.0000:   START DEPTH
 STOP.F         2258.0000:   STOP DEPTH
 STEP.F            0.5000:   STEP LENGTH
 NULL.          -999.2500:   NO VALUE
 COMP. BROWN JOHN E&C INC:   COMPANY
 WELL. NPR-3-STX-6-SX-10 #73-10:   WELL
 FLD .             TEAPOT:   FIELD
 LOC .      S10 T38N R78W:   LOCATION
 CNTY.            NATRONA:   COUNTY
 STAT.            WYOMING:   STATE
 CTRY. UNITED STATES OF AMERICA:   COUNTRY
 SRVC.            Unknown:   SERVICE COMPANY
 DATE.        09-APR-1993:   LOGDATE
 API .       490251091200:   API NUMBER
~CURVE INFORMATION
#MNEM.UNIT       API CODE    CURVE DESCRIPTION
#----------   ------------   ------------------------------
 DEPT.F                  :   
 GR  .GAPI   81 310 01 00:   GAMMA RAY
 DT  .US/F   81 520 00 00:   DELTA SONIC
 ROP .MIN/FT 91 810 01 00:   RATE OF DRILLING PENETRATION
 TGAS.UNITS  91 830 01 00:   TOTAL GAS FROM HOTWIRE
~PARAMETER INFORMATION
#MNEM.UNIT          VALUE    DESCRIPTION
#----------   ------------   ------------------------------
 PD  .                 GL:   PERMANENT DATUM
 LMF .                 GL:   LOG MEASURED FROM
 DMF .                 GL:   DRILLING MEASURED FROM
 DATE.             4-9-93:   RUN DATE
 RUN .                  1:   RUN NUMBER
 DD  .F               442:   DEPTH DRILLER
 TCS .HRS            1000:   TIME CURCULATED STOPPED
 TLAB.HRS            1100:   TIME LOGGER AT BOTTOM
 LUN .                509:   LOGGING UNIT NUMBER
 LUL .           GILLETTE:   LOGGING UNIT LOCATION
 ENGI.            METCALF:   RECORDING ENGINEER
 WITN.              SYLAR:   WITNESSED BY
 CLNT.            A2DTECH:   CLIENT CODE
 ORIG.           5" PRINT:   ORIGIN OF DATA
 UWI .       490251091200:   UNIQUE WELL ID
 DICO. A2D Technologies, Inc.:   DIGITIZING COMPANY
~OTHER INFORMATION
~A    DEPT       GR        DT        ROP       TGAS   
# ...
 1752.0000  -999.2500  -999.2500     0.3756   567.3317
 1752.5000  -999.2500  -999.2500     0.3736   566.8144
 1753.0000  -999.2500  -999.2500     0.3717   566.2967
 1753.5000  -999.2500  -999.2500     0.3812   565.7790
 1754.0000  -999.2500  -999.2500     0.4021   565.2612
 1754.5000  -999.2500  -999.2500     0.4207   564.7435
 1755.0000  -999.2500  -999.2500     0.4209   564.2256
 1755.5000  -999.2500  -999.2500     0.4209   563.7086
 1756.0000  -999.2500  -999.2500     0.4209   563.1911
 1756.5000  -999.2500  -999.2500     0.4209   562.6531
 1757.0000  -999.2500  -999.2500     0.4209   562.5037
 1757.5000  -999.2500  -999.2500     0.4209   562.4983
 1758.0000  -999.2500  -999.2500     0.4209   562.4994
 1758.5000  -999.2500  -999.2500     0.4209   562.5000
 1759.0000  -999.2500  -999.2500     0.4209   562.5000
 1759.5000  -999.2500  -999.2500     0.4209   562.5000
 1760.0000  -999.2500  -999.2500     0.4209   562.5000
 1760.5000  -999.2500  -999.2500     0.4209   562.5000
 1761.0000  -999.2500  -999.2500     0.4209   562.5000
 1761.5000  -999.2500  -999.2500     0.4209   562.5000
 1762.0000  -999.2500  -999.2500     0.4209   562.5000
 1762.5000  -999.2500  -999.2500     0.4209   562.5000
 1763.0000  -999.2500  -999.2500     0.4208   562.5000
 1763.5000  -999.2500  -999.2500     0.4207   562.5000
 1764.0000  -999.2500  -999.2500     0.4211   562.5000
 1764.5000  -999.2500  -999.2500     0.4309   562.5000
 1765.0000  -999.2500  -999.2500     0.4652   562.5000
 1765.5000  -999.2500  -999.2500     0.4981   562.5000
 1766.0000  -999.2500  -999.2500     0.5310   562.5000
 1766.5000  -999.2500  -999.2500     0.5648   562.5000
 1767.0000  -999.2500  -999.2500     0.5607   562.5000
 1767.5000  -999.2500  -999.2500     0.5470   562.5000
 1768.0000  -999.2500  -999.2500     0.5329   562.5000
 1768.5000  -999.2500  -999.2500     0.5188   562.5000
 1769.0000  -999.2500  -999.2500     0.5047   562.5000
 1769.5000  -999.2500  -999.2500     0.4907   562.5000
 1770.0000  -999.2500  -999.2500     0.4766   562.5000
 1770.5000  -999.2500  -999.2500     0.4706   562.5000
 1771.0000  -999.2500  -999.2500     0.4695   562.5000
 1771.5000  -999.2500  -999.2500     0.4685   562.4996
 1772.0000  -999.2500  -999.2500     0.4675   562.5008
 1772.5000  -999.2500  -999.2500     0.4665   562.4990
 1773.0000  -999.2500  -999.2500     0.4655   562.4674
 1773.5000  -999.2500  -999.2500     0.4645   563.5804
 1774.0000  -999.2500  -999.2500     0.4635   564.9817
 1774.5000  -999.2500  -999.2500     0.4625   566.3953
 1775.0000  -999.2500  -999.2500     0.4615   567.8073
 1775.5000  -999.2500  -999.2500     0.4605   569.2179
 1776.0000  -999.2500  -999.2500     0.4594   570.6288
 1776.5000  -999.2500  -999.2500     0.4586   572.0396
 1777.0000  -999.2500  -999.2500     0.4847   573.4550
 1777.5000  -999.2500  -999.2500     0.5150   574.8647
 1778.0000  -999.2500  -999.2500     0.5454   574.8672
 1778.5000  -999.2500  -999.2500     0.5758   574.6304
 1779.0000  -999.2500  -999.2500     0.6059   574.3883
 1779.5000  -999.2500  -999.2500     0.6055   574.1480
 1780.0000  -999.2500  -999.2500     0.6001   573.9086
 1780.5000  -999.2500  -999.2500     0.5945   573.6693
 1781.0000  -999.2500  -999.2500     0.5890   573.4299
 1781.5000  -999.2500  -999.2500     0.5835   573.1906
 1782.0000  -999.2500  -999.2500     0.5780   572.9512
 1782.5000  -999.2500  -999.2500     0.5725   572.7119
 1783.0000  -999.2500  -999.2500     0.5670   572.4725
 1783.5000  -999.2500  -999.2500     0.5615   572.2332
 1784.0000  -999.2500  -999.2500     0.5560   571.9938
 1784.5000  -999.2500  -999.2500     0.5505   571.7545
 1785.0000  -999.2500  -999.2500     0.5450   571.5151
 1785.5000  -999.2500  -999.2500     0.5395   571.2758
 1786.0000  -999.2500  -999.2500     0.5333   571.0365
 1786.5000  -999.2500  -999.2500     0.5582   570.7971
 1787.0000  -999.2500  -999.2500     0.5891   570.5578
 1787.5000  -999.2500  -999.2500     0.6203   570.3184
 1788.0000  -999.2500  -999.2500     0.6513   570.0791
 1788.5000  -999.2500  -999.2500     0.6725   569.8397
 1789.0000  -999.2500  -999.2500     0.6721   569.6000
 1789.5000  -999.2500  -999.2500     0.6722   569.3595
 1790.0000  -999.2500  -999.2500     0.6720   569.1215
 1790.5000  -999.2500  -999.2500     0.6669   568.8865
 1791.0000  -999.2500  -999.2500     0.6464   569.3328
 1791.5000  -999.2500  -999.2500     0.6265   570.7642
 1792.0000  -999.2500  -999.2500     0.6065   572.1837
 1792.5000  -999.2500  -999.2500     0.5867   573.6052
 1793.0000  -999.2500  -999.2500     0.5712   575.0270
 1793.5000  -999.2500  -999.2500     0.5716   576.4487
 1794.0000  -999.2500  -999.2500     0.5716   577.8487
 1794.5000  -999.2500  -999.2500     0.5716   579.2523
 1795.0000  -999.2500  -999.2500     0.5716   580.9785
 1795.5000  -999.2500  -999.2500     0.5716   586.4428
 1796.0000  -999.2500  -999.2500     0.5721   587.5091
 1796.5000  -999.2500  -999.2500     0.5564   587.0887
 1797.0000  -999.2500  -999.2500     0.5371   586.7264
 1797.5000  -999.2500  -999.2500     0.5176   586.4236
 1798.0000  -999.2500  -999.2500     0.4982   586.1154
 1798.5000  -999.2500  -999.2500     0.4787   585.8071
 1799.0000  -999.2500  -999.2500     0.4595   585.4988
 1799.5000  -999.2500  -999.2500     0.4478   585.1905
 1800.0000  -999.2500  -999.2500     0.4562   584.8823
 1800.5000  -999.2500  -999.2500     0.4640   584.5740
 1801.0000  -999.2500  -999.2500     0.4771   584.2657
 1801.5000  -999.2500  -999.2500     0.5299   583.9575
 1802.0000  -999.2500  -999.2500     0.5833   583.6492
 1802.5000  -999.2500  -999.2500     0.6362   583.3409
 1803.0000  -999.2500  -999.2500     0.6736   583.0326
 1803.5000  -999.2500  -999.2500     0.6755   582.7244
 1804.0000  -999.2500  -999.2500     0.6780   582.4159
 1804.5000  -999.2500  -999.2500     0.6806   582.1074
 1805.0000  -999.2500  -999.2500     0.6829   581.7997
 1805.5000  -999.2500  -999.2500     0.6752   581.4915
 1806.0000  -999.2500  -999.2500     0.6471   581.4344
 1806.5000  -999.2500  -999.2500     0.6193   581.6614
 1807.0000  -999.2500  -999.2500     0.5915   581.8864
 1807.5000  -999.2500  -999.2500     0.5638   582.1121
 1808.0000  -999.2500  -999.2500     0.5436   582.3379
 1808.5000  -999.2500  -999.2500     0.5367   582.5635
 1809.0000  -999.2500  -999.2500     0.5295   582.7891
 1809.5000  -999.2500  -999.2500     0.5224   583.0146
 1810.0000  -999.2500  -999.2500     0.5153   583.2402
 1810.5000  -999.2500  -999.2500     0.5081   583.4658
 1811.0000  -999.2500  -999.2500     0.5010   583.6914
 1811.5000  -999.2500  -999.2500     0.4939   583.9170
 1812.0000  -999.2500  -999.2500     0.4868   584.1426
 1812.5000  -999.2500  -999.2500     0.4796   584.3682
 1813.0000  -999.2500  -999.2500     0.4725   584.5938
 1813.5000  -999.2500  -999.2500     0.4652   584.8193
 1814.0000  -999.2500  -999.2500     0.4593   585.0449
 1814.5000  -999.2500  -999.2500     0.4787   585.2705
 1815.0000  -999.2500  -999.2500     0.4984   585.4960
 1815.5000  -999.2500  -999.2500     0.5179   585.7216
 1816.0000  -999.2500  -999.2500     0.5375   585.9472
 1816.5000  -999.2500  -999.2500     0.5570   586.1728
 1817.0000  -999.2500  -999.2500     0.5765   586.3984
 1817.5000  -999.2500  -999.2500     0.5961   586.6240
 1818.0000  -999.2500  -999.2500     0.6162   586.8499
 1818.5000  -999.2500  -999.2500     0.6270   587.0759
 1819.0000  -999.2500  -999.2500     0.6348   587.2995
 1819.5000  -999.2500  -999.2500     0.6424   587.5232
 1820.0000  -999.2500  -999.2500     0.6500   587.3748
 1820.5000  -999.2500  -999.2500     0.6577   586.8502
 1821.0000  -999.2500  -999.2500     0.6654   586.3258
 1821.5000  -999.2500  -999.2500     0.6719   585.7990
 1822.0000  -999.2500  -999.2500     0.6529   585.2723
 1822.5000  -999.2500  -999.2500     0.6319   584.7460
 1823.0000  -999.2500  -999.2500     0.6108   584.2196
 1823.5000  -999.2500  -999.2500     0.5897   583.6932
 1824.0000  -999.2500  -999.2500     0.5685   583.1669
 1824.5000  -999.2500  -999.2500     0.5473   582.6406
