~VERSION INFORMATION
 VERS.                2.0:   CWLS LOG ASCII STANDARD - VERSION 2.0
 WRAP.                 NO:   ONE LINE PER DEPTH STEP
~WELL INFORMATION
#MNEM.UNIT      DATA TYPE    INFORMATION
#----------   ------------   ------------------------------
 STRT.F            9.0000:   START DEPTH
 STOP.F          512.0000:   STOP DEPTH
 STEP.F            0.5000:   STEP LENGTH
 NULL.          -999.2500:   NO VALUE
 COMP. LAWRENCE-ALLISON &AS:   COMPANY
 WELL. NPR 3 #61-21SX10UP2:   WELL
 FLD .             TEAPOT:   FIELD
 LOC .      S10 T38N R78W:   LOCATION
 CNTY.            NATRONA:   COUNTY
 STAT.            WYOMING:   STATE
 CTRY. UNITED STATES OF AMERICA:   COUNTRY
 SRVC.      Dresser Atlas:   SERVICE COMPANY
 DATE.        13-DEC-1984:   LOGDATE
 API .       490251100500:   API NUMBER
~CURVE INFORMATION
#MNEM.UNIT       API CODE    CURVE DESCRIPTION
#----------   ------------   ------------------------------
 DEPT.F                  :   
 PORD.DEC    45 890 12 00:   POROSITY DENSITY SANDSTONE
 CNCF.DEC    42 890 03 00:   NEUTRON POROSITY SANDSTONE
 GRD .GAPI   45 310 01 00:   GAMMA RAY FROM DENSITY LOG
 CALD.IN     45 280 60 00:   CALIPER FROM DENSITY LOG
 CORR.G/C3   45 356 01 00:   DENSITY CORRECTION
 DEN .G/C3   45 350 01 00:   COMPENSATED BULK DENSTIY
 AC  .US/F   60 520 00 00:   ACCOUSTIC
 RILD.OHMM   07 120 46 00:   INDUCTION LOG DEEP RESISTIVITY
 RILM.OHMM   07 120 44 00:   INDUCTION LOG MEDIUM RESISTIVITY
 RFOC.OHMM   07 220 04 00:   RESISTIVITY FOCUSED LOG
 SPR .MV     11 010 01 00:   SPONTANEOUS POTENTIAL FROM RES.
 RS  .OHMM   11 220 09 00:   RESISTIVITY SHALLOW
 RD  .OHMM   11 220 10 00:   RESISTIVITY DEEP
~PARAMETER INFORMATION
#MNEM.UNIT          VALUE    DESCRIPTION
#----------   ------------   ------------------------------
 PD  .                 GL:   PERMANENT DATUM
 EPD .F              5157:   ELEVATION PERMANENT DATUM
 LMF .                 GL:   LOG MEASURED FROM
 DMF .                 GL:   DRILLING MEASURED FROM
 EGL .F              5157:   GROUND LEVEL
 DATE.         12-13-1984:   RUN DATE
 RUN .                  1:   RUN NUMBER
 DD  .F               514:   DEPTH DRILLER
 DL  .F               513:   DEPTH LOGGER
 BLI .F               512:   BOTTOM LOG INTERVAL
 TLI .F                20:   TOP LOG INTERVAL
 CS  .IN            8.625:   CASING SIZE
 CBD .F                20:   CASING BOTTOM DRILLER
 CBL .F                20:   CASING BOTTOM LOGGER
 BS  .IN            7.875:   BIT SIZE
 BSD .F               514:   BIT SIZE AT DEPTH
 DFT .          KCL WATER:   DRILLING FLUID TYPE
 MSS .           FLOWLINE:   MUD SAMPLE SOURCE
 RMS .OHMM            .17:   RESISTIVITY MUD SAMPLE
 MST .F                95:   MUD SAMPLE TEMPERATURE
 RMF .OHMM            .08:   RESISTIVITY MUD FILTRATE SAMPLE
 MFST.F                95:   MUD FILTRATE SAMPLE TEMPERATURE
 RMC .OHMM            .14:   RESISTIVITY MUD CAKE
 MCST.F                95:   MUD CAKE SAMPLE TEMPERATURE
 MFSS.               CALC:   MUD FILTRATE SAMPLE SOURCE
 MCSS.               CALC:   MUD CAKE SAMPLE SOURCE
 TCS .HRS              10:   TIME CURCULATED STOPPED
 MRT .F               100:   MAXIMUM RECORDED TEMPERATURE
 LUN .               6270:   LOGGING UNIT NUMBER
 LUL .                 FM:   LOGGING UNIT LOCATION
 ENGI.            LEBSOCK:   RECORDING ENGINEER
 WITN.        GREG GROOMS:   WITNESSED BY
 CLNT.            A2DTECH:   CLIENT CODE
 ORIG.           5" PRINT:   ORIGIN OF DATA
 UWI .       490251100500:   UNIQUE WELL ID
 DICO. A2D Technologies, Inc.:   DIGITIZING COMPANY
~OTHER INFORMATION
~A    DEPT    PORD       CNCF        GRD       CALD       CORR        DEN          AC      RILD       RILM       RFOC        SPR         RS         RD   
# ...
   35.0000     0.1117     0.2874   105.6304     7.7073     0.0038     2.4951   111.0648     8.9300     9.7532     8.8136   -74.5430    27.7490  3471.5176
   35.5000     0.1126     0.2790   102.9271     7.6917     0.0220     2.4890   110.0896     9.1775     9.4080     8.9959   -74.8518    27.7356  3642.4683
   36.0000     0.1099     0.2745    99.9249     7.6760     0.0337     2.4950   109.6413     9.4319     8.9445     9.1829   -75.1606    27.7201  3795.3828
   36.5000     0.1054     0.2830    99.3215     7.6754     0.0271     2.5018   110.0262     9.6934     8.2173     9.3729   -75.6193    27.7073  3900.1582
   37.0000     0.1063     0.2999   100.6671     7.6899    -0.0027     2.5048   111.0134     9.8257     7.7409     9.5667   -75.7782    27.6945  3844.2295
   37.5000     0.1136     0.3220   104.5614     7.7194    -0.0179     2.4904   112.3024     9.6841     7.4732     9.6288   -75.9370    27.6817  3609.2776
   38.0000     0.1285     0.3189   105.7571     7.7341    -0.0104     2.4695   113.7424     9.4795     7.3669     9.5578   -76.0504    27.6689  3318.8027
   38.5000     0.1372     0.3060   106.6654     7.7333     0.0031     2.4518   113.8993     9.3440     7.3638     9.2915   -75.9564    27.6561  3137.6824
   39.0000     0.1375     0.3068   107.7236     7.7327     0.0060     2.4473   113.7544     9.2105     7.6745     9.0326   -75.8132    27.8398  3092.6877
   39.5000     0.1333     0.3164   108.7631     7.7321     0.0149     2.4525   113.3076     9.0159     8.4560     8.9040   -75.8243    28.0215  3134.2205
   40.0000     0.1297     0.3141   109.1906     7.7315     0.0209     2.4593   113.2366     8.8254     9.3172     8.8385   -75.8333    28.0053  3198.4500
   40.5000     0.1279     0.3104   108.2864     7.7158     0.0162     2.4653   114.0743     8.6390     8.5080     8.8349   -75.8422    27.2230  3219.0435
   41.0000     0.1297     0.3150   106.7834     7.7001    -0.0080     2.4645   114.3822     8.4565     7.1969     8.7602   -75.7012    26.8339  3064.5066
   41.5000     0.1346     0.3267   105.2805     7.6995    -0.0277     2.4554   114.2358     8.2205     6.8045     8.5248   -75.7102    26.4503  2721.6909
   42.0000     0.1367     0.3340   103.9274     7.6989    -0.0203     2.4486   114.1664     8.0468     6.6150     8.3452   -75.5669    26.2546  2485.3262
   42.5000     0.1321     0.3322   103.4739     7.7285    -0.0008     2.4539   114.1739     7.9317     6.5209     8.2264   -75.4259    26.0602  2301.2358
   43.0000     0.1288     0.3114   103.9200     7.7580     0.0188     2.4644   114.2554     7.8125     6.4730     8.1093   -75.2850    25.8673  2175.6482
   43.5000     0.1277     0.2948   105.4155     7.7574     0.0262     2.4673   114.4123     7.6454     6.5155     7.9384   -75.2961    25.6758  2056.9146
   44.0000     0.1280     0.2930   107.3609     7.7568     0.0246     2.4649   114.5693     7.5437     6.5583     7.8254   -75.3051    25.6640  2011.5646
   44.5000     0.1315     0.3202   107.8078     7.7713     0.0107     2.4559   114.5862     7.4871     6.6475     7.7140   -75.3140    25.6521  1970.2195
   45.0000     0.1354     0.3330   106.4539     7.7707     0.0001     2.4521   114.4304     7.5366     6.8322     7.7108   -75.3229    25.6402  1901.5603
   45.5000     0.1368     0.3316   105.5506     7.7701    -0.0044     2.4498   114.0590     7.5847     7.0221     7.7076   -75.4818    25.6284  1875.1500
   46.0000     0.1302     0.3269   108.8453     7.7695     0.0015     2.4558   113.3103     7.7409     7.2172     7.8125   -75.4907    25.6165  1874.1084
   46.5000     0.1245     0.3257   111.3912     7.7689     0.0422     2.4648   112.1843     7.9555     7.4711     7.8646   -75.4997    25.6047  1899.3077
   47.0000     0.1203     0.3232   110.0372     7.7683     0.0707     2.4738   111.2847     8.2331     7.6279     8.0273   -75.5086    25.5929  1911.4908
   47.5000     0.1098     0.3017   102.2374     7.7828     0.0737     2.4934   110.3850     8.5798     7.7815     8.2497   -75.8174    25.5810  1923.7518
   48.0000     0.1004     0.2905    97.2862     7.7822     0.0615     2.5115   109.9341     8.6969     7.8873     8.3621   -75.8263    25.5692  1949.5867
   48.5000     0.1070     0.2785   102.2300     7.7665     0.0327     2.5137   110.2461     8.8145     7.9945     8.4758   -75.8353    25.5574  1948.2419
   49.0000     0.1128     0.2764   104.4752     7.7659     0.0175     2.4933   110.6295     8.8718     8.1589     8.5910   -75.8442    25.5455  1920.3038
   49.5000     0.1137     0.2807   104.4840     7.7804     0.0039     2.4887   110.8619     8.9294     8.2698     8.6474   -75.8531    25.5337  1892.7665
   50.0000     0.1147     0.2837   101.3193     7.7798    -0.0030     2.4863   110.7903     8.9243     8.3441     8.7042   -75.7121    25.5219  1878.0192
   50.5000     0.1260     0.2825   105.5322     7.7792    -0.0076     2.4721   110.4848     8.9194     8.6137     8.7959   -75.7964    25.1571  1867.5354
   51.0000     0.1370     0.2850   106.7216     7.7786    -0.0122     2.4547   110.1793     8.9144     8.6703     8.8785   -75.8751    24.9709  1864.5001
   51.5000     0.1454     0.2931   105.9932     7.7780    -0.0175     2.4358   109.8304     8.9095     8.7260     8.9344   -75.7296    24.7861  1850.9513
   52.0000     0.1490     0.2938   102.7765     7.7774    -0.0206     2.4282   109.4590     8.9144     8.6595     8.9294   -75.4358    24.7746  1863.2205
   52.5000     0.1496     0.2917   101.8669     7.7768    -0.0237     2.4267   109.1632     8.9619     8.5947     8.9869   -74.9935    25.0229  1862.5585
   53.0000     0.1493     0.2956   102.9150     7.7762    -0.0283     2.4267   108.9413     8.9558     8.4713     8.9819   -74.6982    25.2888  1836.2251
   53.5000     0.1491     0.2926   105.4692     7.7605    -0.0298     2.4266   109.3261     9.0145     8.3496     9.0396   -74.2559    24.9743  1797.7334
   54.0000     0.1494     0.2881   106.8186     7.7448    -0.0314     2.4259   110.0869     9.0083     8.2297     9.0347   -74.1104    24.9622  1757.7749
   54.5000     0.1513     0.2924   106.5114     7.7127    -0.0300     2.4243   110.1669     9.0675     8.1115     9.0927   -73.8166    24.7776  1735.0464
   55.0000     0.1531     0.2957   106.0535     7.6833    -0.0225     2.4220   109.4951     9.0612     7.9950     9.0877   -74.1239    24.7657  1734.4474
   55.5000     0.1530     0.2882   104.5414     7.6978    -0.0120     2.4220   108.9729     9.1207     7.8802     9.1462   -74.2799    24.7537  1709.9287
   56.0000     0.1490     0.2729   105.1378     7.7273    -0.0060     2.4310   108.6755     9.1793     7.7132     9.1411   -74.2859    24.7418  1697.5065
   56.5000     0.1464     0.2723   105.8863     7.7418    -0.0030     2.4333   109.1358     9.2383     7.5497     9.2012   -74.2919    24.5588  1685.1747
   57.0000     0.1471     0.2738   104.9751     7.7584    -0.0031     2.4309   109.8211     9.2987     7.3897     9.1948   -74.2979    24.5469  1672.9323
   57.5000     0.1486     0.2829   102.4088     7.7708    -0.0047     2.4294   110.2045     9.4215     7.2836     9.2541   -74.1539    24.5351  1672.3547
   58.0000     0.1492     0.3116   100.2943     7.7701    -0.0153     2.4286   109.9841     9.4833     7.1292     9.3134   -74.0100    24.5233  1671.7773
   58.5000     0.1493     0.3225   104.2040     7.7846    -0.0229     2.4286   109.7637     9.5442     7.1253     9.4389   -74.0160    24.6851  1671.2002
   59.0000     0.1469     0.3026   107.9630     7.7840    -0.0214     2.4316   109.3169     9.6056     7.1214     9.5659   -74.0220    24.6702  1682.4131
   59.5000     0.1405     0.2767   107.6557     7.7834    -0.0004     2.4383   108.7191     9.5990     7.1174     9.6274   -74.3278    24.8305  1705.2119
   60.0000     0.1339     0.2679   104.1858     7.7827     0.0222     2.4481   107.8195     9.5272     7.1135     9.6893   -74.3338    24.8181  1740.5167
   60.5000     0.1312     0.2767   101.7702     7.7973     0.0253     2.4564   106.6179     9.5886     7.1096     9.7516   -74.4898    24.8061  1752.1945
