~VERSION INFORMATION
 VERS.                2.0:   CWLS LOG ASCII STANDARD - VERSION 2.0
 WRAP.                 NO:   ONE LINE PER DEPTH STEP
~WELL INFORMATION
#MNEM.UNIT      DATA TYPE    INFORMATION
#----------   ------------   ------------------------------
 STRT.F            5.0000:   START DEPTH
 STOP.F          610.0000:   STOP DEPTH
 STEP.F            0.5000:   STEP LENGTH
 NULL.          -999.2500:   NO VALUE
 COMP. FENIX & SCISSON INC:   COMPANY
 WELL.        NPR 3 #25-3:   WELL
 FLD .        TEAPOT DOME:   FIELD
 LOC .       S3 T38N R78W:   LOCATION
 CNTY.            NATRONA:   COUNTY
 STAT.            WYOMING:   STATE
 CTRY. UNITED STATES OF AMERICA:   COUNTRY
 SRVC.           BIRDWELL:   SERVICE COMPANY
 DATE.        28-SEP-1978:   LOGDATE
 API .       490251068900:   API NUMBER
~CURVE INFORMATION
#MNEM.UNIT       API CODE    CURVE DESCRIPTION
#----------   ------------   ------------------------------
 DEPT.F                  :   
 SPR .MV     05 010 01 00:   SPONTANEOUS POTENTIAL FROM RES.
 IL  .OHMM   05 120 00 00:   INDUCTION LOG
 SN  .OHMM   05 040 16 00:   SHORT NORMAL 16"
 CALD.IN     45 280 60 00:   CALIPER
 GRD .GAPI   45 310 01 00:   GAMMA RAY FROM DENSITY LOG
 CORR.G/C3   45 356 01 00:   DENSITY CORRECTION
 DEN .G/C3   45 350 01 00:   COMPENSATED BULK DENSTIY
 DPHI.DEC    45 890 12 00:   DENSITY POROSITY SANDSTONE
~PARAMETER INFORMATION
#MNEM.UNIT          VALUE    DESCRIPTION
#----------   ------------   ------------------------------
 PD  .                 GL:   PERMANENT DATUM
 EPD .F              5249:   ELEVATION PERMANENT DATUM
 LMF .                 KB:   LOG MEASURED FROM
 DAPD.F                 4:   FEET ABOVE PERMANENT DATUM
 DMF .                 KB:   DRILLING MEASURED FROM
 EKB .F              5253:   KELLING BUSHING
 EGL .F              5249:   GROUND LEVEL
 DATE.            9-28-78:   RUN DATE
 RUN .                  1:   RUN NUMBER
 DD  .F               616:   DEPTH DRILLER
 DL  .F               613:   DEPTH LOGGER
 BLI .F               607:   BOTTOM LOG INTERVAL
 TLI .F                40:   TOP LOG INTERVAL
 BS  .IN            7.875:   BIT SIZE
 BSD .F               616:   BIT SIZE AT DEPTH
 DFT .                KCL:   DRILLING FLUID TYPE
 DFD .                8.7:   DRILLING FLUID DENSITY
 DFV .                 33:   DRILLING FLUID VISCOSITY
 DFPH.                  9:   DRILLING FLUID PH
 DFL .                  5:   DRILLING FLUID LOSS
 MSS .            MUD PIT:   MUD SAMPLE SOURCE
 RMS .OHMM            .14:   RESISTIVITY MUD SAMPLE
 MST .F                65:   MUD SAMPLE TEMPERATURE
 RMF .OHMM            2.1:   RESISTIVITY MUD FILTRATE SAMPLE
 MFST.F                65:   MUD FILTRATE SAMPLE TEMPERATURE
 RMC .OHMM            .32:   RESISTIVITY MUD CAKE
 MCST.F                65:   MUD CAKE SAMPLE TEMPERATURE
 MFSS.               MEAS:   MUD FILTRATE SAMPLE SOURCE
 TCS .HRS               2:   TIME CURCULATED STOPPED
 LUN .               2958:   LOGGING UNIT NUMBER
 LUL .               CASP:   LOGGING UNIT LOCATION
 ENGI.            ROLLINS:   RECORDING ENGINEER
 WITN.              AMEND:   WITNESSED BY
 CLNT.            A2DTECH:   CLIENT CODE
 ORIG.           5" PRINT:   ORIGIN OF DATA
 UWI .       490251068900:   UNIQUE WELL ID
 DICO. A2D Technologies, Inc.:   DIGITIZING COMPANY
~OTHER INFORMATION
~A    DEPT     SPR         IL         SN         CALD       GRD      CORR        DEN       DPHI   
# ...
  248.0000   -26.2418     8.4218     7.8319     8.1531   145.0457     0.0317     2.4944     0.1124
  248.5000   -26.1644     8.3908     7.7601     8.1565   145.8631     0.0358     2.4955     0.1104
  249.0000   -26.0707     8.2860     7.6888     8.1599   146.7486     0.0357     2.4971     0.1157
  249.5000   -25.9766     8.1825     7.6183     8.1632   146.0036     0.0339     2.4903     0.1174
  250.0000   -25.8827     8.0802     7.5413     8.1666   134.8396     0.0306     2.4895     0.1069
  250.5000   -25.7895     7.9695     7.5479     8.1700   131.8895     0.0258     2.4952     0.1065
  251.0000   -25.6968     7.9749     7.5560     8.1733   132.2505     0.0210     2.5018     0.1063
  251.5000   -25.7191     7.9825     7.5639     8.1767   135.3298     0.0161     2.5044     0.1064
  252.0000   -25.8580     7.9902     7.5716     8.1801   141.7596     0.0113     2.5040     0.1069
  252.5000   -25.9967     7.9979     7.5794     8.1834   147.9546     0.0069     2.5035     0.1102
  253.0000   -26.1361     8.0056     7.5872     8.1868   147.4024     0.0088     2.5008     0.1138
  253.5000   -26.2754     8.0132     7.5949     8.1881   145.6810     0.0109     2.4980     0.1195
  254.0000   -26.4146     8.0210     7.6025     8.1843   142.1227     0.0129     2.4888     0.1230
  254.5000   -26.5539     8.0289     7.6105     8.1806   140.5879     0.0130     2.4808     0.1146
  255.0000   -26.6946     8.0367     7.5591     8.1768   139.6218     0.0104     2.4853     0.1143
  255.5000   -26.8376     8.0431     7.5028     8.1731   140.0843     0.0057     2.4925     0.1148
  256.0000   -26.9043     7.8847     7.4469     8.1694   140.9834     0.0010     2.4896     0.1193
  256.5000   -26.9822     7.7462     7.3914     8.1657   141.4826    -0.0031     2.4855     0.1212
  257.0000   -27.0617     7.6505     7.3364     8.1619   141.7560    -0.0030     2.4831     0.1211
  257.5000   -27.1424     7.5919     7.2818     8.1582   144.0159    -0.0030     2.4824     0.1221
  258.0000   -27.2210     7.5338     7.2275     8.1545   147.9893    -0.0030     2.4816     0.1224
  258.5000   -27.4641     7.4761     7.1809     8.1508   148.2654    -0.0030     2.4809     0.1220
  259.0000   -27.7673     7.4189     7.1409     8.1484   147.9240    -0.0033     2.4801     0.1216
  259.5000   -28.0747     7.3621     7.1011     8.1475   147.3503    -0.0035     2.4795     0.1213
  260.0000   -28.3811     7.3058     7.0616     8.1465   146.1805    -0.0038     2.4815     0.1216
  260.5000   -28.6872     7.2499     7.0222     8.1456   145.0338    -0.0041     2.4824     0.1264
  261.0000   -28.7920     7.1944     6.9831     8.1446   143.0191    -0.0044     2.4799     0.1330
  261.5000   -28.7107     7.1364     6.9421     8.1437   139.6994    -0.0047     2.4679     0.1332
  262.0000   -29.0035     6.9319     6.9072     8.1427   138.8940    -0.0049     2.4616     0.1317
  262.5000   -29.2805     6.7221     6.8706     8.1418   140.5493    -0.0055     2.4666     0.1254
  263.0000   -29.5683     6.5186     6.8341     8.1408   142.7225    -0.0061     2.4721     0.1258
  263.5000   -29.5440     6.3837     6.7979     8.1399   144.8998    -0.0067     2.4745     0.1283
  264.0000   -29.3531     6.3613     6.7531     8.1389   147.0618    -0.0074     2.4703     0.1310
  264.5000   -29.1611     6.3318     6.8056     8.1380   147.6492    -0.0080     2.4628     0.1398
  265.0000   -28.9690     6.3591     6.8757     8.1370   147.5642    -0.0086     2.4554     0.1401
  265.5000   -28.7792     6.4081     6.9465     8.1361   147.5210    -0.0065     2.4504     0.1381
  266.0000   -28.6159     6.4576     7.0180     8.1351   145.6184     0.0007     2.4560     0.1342
  266.5000   -28.5196     6.5090     7.0903     8.1342   142.9801     0.0079     2.4657     0.1233
  267.0000   -28.4237     6.7385     7.1364     8.1332   141.4383     0.0108     2.4755     0.1158
  267.5000   -28.3288     6.9421     7.0939     8.1323   141.9031     0.0099     2.4852     0.1160
  268.0000   -28.2406     6.9421     7.0627     8.1313   142.4152     0.0091     2.4888     0.1161
  268.5000   -28.2414     6.9177     7.0317     8.1304   142.1027     0.0049     2.4904     0.1176
  269.0000   -28.2554     6.9001     7.0009     8.1295   140.0614    -0.0005     2.4890     0.1212
  269.5000   -28.4802     6.8824     6.9702     8.1326   137.3630    -0.0060     2.4879     0.1248
  270.0000   -28.6990     6.8420     6.9397     8.1462   130.9005    -0.0091     2.4809     0.1283
  270.5000   -28.9155     6.7955     6.9091     8.1596   124.3910    -0.0090     2.4724     0.1314
  271.0000   -29.1339     6.7492     6.8786     8.1711   117.9276    -0.0073     2.4653     0.1314
  271.5000   -29.2817     6.7033     6.8784     8.1777   114.3697    -0.0056     2.4656     0.1287
  272.0000   -29.3681     6.6576     6.8786     8.1844   114.3848    -0.0038     2.4698     0.1254
  272.5000   -29.4339     6.6130     6.8788     8.1911   114.5997    -0.0021     2.4740     0.1221
  273.0000   -29.2494     6.5696     6.8801     8.1979   114.8098    -0.0004     2.4783     0.1210
  273.5000   -29.0718     6.5264     6.7540     8.2046   115.0203     0.0004     2.4824     0.1210
  274.0000   -28.8833     6.2917     6.6001     8.2113   115.2388    -0.0033     2.4821     0.1210
  274.5000   -29.0461     5.9376     6.3557     8.2180   115.1151    -0.0070     2.4816     0.1221
  275.0000   -29.3261     5.5842     6.0974     8.2247   113.9502    -0.0106     2.4811     0.1238
  275.5000   -29.6119     5.1670     5.8496     8.2314   112.6104    -0.0144     2.4804     0.1301
  276.0000   -29.8983     4.8893     5.6119     8.2381   111.5078    -0.0140     2.4696     0.1442
  276.5000   -30.1834     4.8949     5.5665     8.2448   112.0309    -0.0125     2.4443     0.1597
  277.0000   -30.4476     4.9285     5.4650     8.2515   113.6257    -0.0109     2.4193     0.1763
  277.5000   -30.4439     4.9509     5.4650     8.2582   115.2269    -0.0093     2.3941     0.1839
  278.0000   -30.4154     4.9731     5.5665     8.2649   116.8461    -0.0077     2.3842     0.1784
  278.5000   -29.9659     4.9953     5.6180     8.2688   117.2749    -0.0061     2.4000     0.1619
  279.0000   -29.5280     5.0177     5.8674     8.2655   117.1963    -0.0045     2.4203     0.1404
  279.5000   -29.0954     5.3181     6.2319     8.2624   117.1133    -0.0031     2.4406     0.1327
  280.0000   -28.6596     6.0756     6.6192     8.2592   117.2534    -0.0041     2.4591     0.1269
  280.5000   -28.4235     6.4784     6.7761     8.2561   117.4194    -0.0052     2.4703     0.1229
  281.0000   -28.3243     6.6228     6.8810     8.2528   117.3695    -0.0064     2.4817     0.1202
  281.5000   -28.2460     6.7705     6.9876     8.2500   116.8906    -0.0075     2.4842     0.1202
  282.0000   -28.3484     6.9214     7.0958     8.2766   116.4200    -0.0086     2.4857     0.1231
  282.5000   -28.4463     7.0710     7.1440     8.3068   115.9363    -0.0097     2.4809     0.1258
  283.0000   -28.5429     7.1826     7.1562     8.3371   114.6866    -0.0108     2.4756     0.1252
  283.5000   -28.6396     7.2566     7.1685     8.3671   113.4886    -0.0109     2.4756     0.1246
  284.0000   -28.7376     7.3313     7.1807     8.3703   113.4745    -0.0088     2.4759     0.1240
  284.5000   -28.8407     7.4068     7.1930     8.3703   113.4774    -0.0067     2.4762     0.1234
  285.0000   -28.7221     7.4831     7.2024     8.3702   113.4823    -0.0046     2.4763     0.1179
  285.5000   -28.5867     7.5601     7.2023     8.3702   113.8190    -0.0035     2.4859     0.1111
  286.0000   -28.4512     7.6379     7.2021     8.3702   115.3128    -0.0062     2.5003     0.1070
  286.5000   -28.3163     7.6917     7.2108     8.3702   116.8008    -0.0089     2.5045     0.1087
  287.0000   -28.1813     7.7147     7.2209     8.3699   118.2898    -0.0115     2.5029     0.1123
  287.5000   -28.0470     7.7376     7.2310     8.3879   119.7876    -0.0141     2.4987     0.1168
  288.0000   -27.9128     7.7607     7.2411     8.4114   120.1251    -0.0133     2.4907     0.1210
