~VERSION INFORMATION
 VERS.                2.0:   CWLS LOG ASCII STANDARD - VERSION 2.0
 WRAP.                 NO:   ONE LINE PER DEPTH STEP
~WELL INFORMATION
#MNEM.UNIT      DATA TYPE    INFORMATION
#----------   ------------   ------------------------------
 STRT.F          458.0000:   START DEPTH
 STOP.F         2155.0000:   STOP DEPTH
 STEP.F            0.5000:   STEP LENGTH
 NULL.          -999.2500:   NO VALUE
 COMP.   FLUOR DANIEL INC:   COMPANY
 WELL. NAVAL PETROLEUM RESERVE 3 SHX- 1 #33-29:   WELL
 FLD .             TEAPOT:   FIELD
 LOC .      S29 T39N R78W:   LOCATION
 CNTY.            NATRONA:   COUNTY
 STAT.            WYOMING:   STATE
 CTRY. UNITED STATES OF AMERICA:   COUNTRY
 SRVC.            Unknown:   SERVICE COMPANY
 DATE.        29-JUN-1995:   LOGDATE
 API .       490252272500:   API NUMBER
~CURVE INFORMATION
#MNEM.UNIT       API CODE    CURVE DESCRIPTION
#----------   ------------   ------------------------------
 DEPT.F                  :   
 C1  .VF     91 831 01 00:   METHANE
 C2  .VF     91 832 01 00:   ETHANE
 C3  .VF     91 833 01 00:   PROPANE
 C4  .VF     91 834 01 00:   BUTANE
 ROP .FT/HR  91 810 01 00:   RAT OF DRILLING PENETRATION
 TGAS.TC/CC  91 830 01 00:   TOTAL GAS UNIT
~PARAMETER INFORMATION
#MNEM.UNIT          VALUE    DESCRIPTION
#----------   ------------   ------------------------------
 EKB .F              5020:   KELLING BUSHING
 EGL .F              5010:   GROUND LEVEL
 DATE.        29-JUN-1995:   RUN DATE
 RUN .                  1:   RUN NUMBER
 BLI .F              2155:   BOTTOM LOG INTERVAL
 TLI .F               460:   TOP LOG INTERVAL
 ENGI.     C.TOWER/R.HUSK:   RECORDING ENGINEER
 CLNT.            A2DTECH:   CLIENT CODE
 ORIG.           5" PRINT:   ORIGIN OF DATA
 UWI .       490252272500:   UNIQUE WELL ID
 DICO. A2D Technologies, Inc.:   DIGITIZING COMPANY
~OTHER INFORMATION
~A   DEPT       C1         C2         C3         C4          ROP       TGAS 
# ...
 1654.0000     4.4394     0.2136     0.0000     0.0000     0.7533    18.3196
 1654.5000     4.6214     0.2085     0.0000     0.0000     0.6780    18.3151
 1655.0000     4.6123     0.2884     0.0000     0.0000     0.6780    18.3105
 1655.5000     4.7924     0.2968     0.0000     0.0000     0.6685    18.3059
 1656.0000     4.7850     0.3632     0.0000     0.0000     0.6685    18.3013
 1656.5000     4.7775     0.3570     0.0000     0.0000     0.6685    18.2965
 1657.0000     4.7700     0.3525     0.0000     0.0000     0.6685    18.2909
 1657.5000     4.7612     0.3471     0.0000     0.0000     0.6685    18.2863
 1658.0000     4.7539     0.4268     0.0000     0.0000     0.6685    18.2817
 1658.5000     4.7465     0.3390     0.0000     0.0000     0.6685    18.2772
 1659.0000     4.7392     0.3390     0.0000     0.0000     0.6685    17.3311
 1659.5000     4.5444     0.3390     0.0000     0.0000     0.6780    17.3265
 1660.0000     4.5370     0.3390     0.0000     0.0000     0.6780    17.3219
 1660.5000     4.5300     0.3390     0.0000     0.0000     0.6780    18.2589
 1661.0000     4.5223     0.3390     0.0000     0.0000     0.6780    18.2542
 1661.5000     4.5150     0.3390     0.0000     0.0000     0.6780    18.2495
 1662.0000     4.5075     0.2542     0.0000     0.0000     0.6780    19.1864
 1662.5000     4.4688     0.2542     0.0000     0.0000     0.6780    19.1807
 1663.0000     4.3050     0.2542     0.0000     0.0000     0.6780    19.1761
 1663.5000     4.2975     0.2542     0.0000     0.0000     0.6780    19.1715
 1664.0000     4.4764     0.2542     0.0000     0.0000     0.6780    20.1095
 1664.5000     4.4700     0.2542     0.0000     0.0000     0.6780    19.1623
 1665.0000     4.4618     0.2542     0.0000     0.0000     0.6780    19.1577
 1665.5000     4.4544     0.2542     0.0000     0.0000     0.6780    19.1531
 1666.0000     4.4471     0.2542     0.0000     0.0000     0.6685    19.1485
 1666.5000     4.4400     0.2542     0.0000     0.0000     0.6685    19.0703
 1667.0000     4.4325     0.2542     0.0000     0.0000     0.6591    18.1977
 1667.5000     4.4251     0.2542     0.0000     0.0000     0.6591    18.1922
 1668.0000     4.6050     0.2851     0.0000     0.0000     0.6591    17.2461
 1668.5000     4.5960     0.3390     0.0000     0.0000     0.6591    17.2415
 1669.0000     4.5900     0.3390     0.0000     0.0000     0.6591    18.1784
 1669.5000     4.5825     0.3390     0.0000     0.0000     0.6591    18.1738
 1670.0000     4.7615     0.3559     0.0000     0.0000     0.6591    18.1692
 1670.5000     4.7550     0.4237     0.0000     0.0000     0.6591    18.1646
 1671.0000     4.7468     0.4778     0.0000     0.0000     0.6591    19.1015
 1671.5000     4.7395     0.5085     0.0000     0.0000     0.6591    20.0957
 1672.0000     4.7322     0.5085     0.0000     0.0000     0.6591    20.0335
 1672.5000     4.7248     0.5085     0.0000     0.0000     0.6591    20.0279
 1673.0000     4.5300     0.5085     0.0000     0.0000     0.6591    20.9659
 1673.5000     4.5225     0.5085     0.0000     0.0000     0.6591    21.9016
 1674.0000     4.3275     0.5096     0.0000     0.0000     0.6591    21.8970
 1674.5000     4.3186     0.5932     0.0000     0.0000     0.6591    21.8924
 1675.0000     4.3113     0.5932     0.0000     0.0000     0.6591    21.8878
 1675.5000     4.2656     0.5085     0.0000     0.0000     0.6591    20.9418
 1676.0000     4.1091     0.5085     0.0000     0.0000     0.6968    19.0543
 1676.5000     4.1018     0.5085     0.0000     0.0000     0.7721    18.1083
 1677.0000     4.0950     0.5085     0.0000     0.0000     0.7721    18.1036
 1677.5000     4.0875     0.5085     0.0000     0.0000     0.7910    17.1566
 1678.0000     4.0797     0.5085     0.0000     0.0000     0.7910    17.1520
 1678.5000     4.0724     0.5085     0.0000     0.0000     0.7910    17.1474
 1679.0000     4.0650     0.5085     0.0000     0.0000     0.7910    18.0842
 1679.5000     4.0575     0.5085     0.0000     0.0000     0.7627    18.0796
 1680.0000     4.2379     0.4237     0.0000     0.0000     0.6874    17.1336
 1680.5000     4.2287     0.4237     0.0000     0.0000     0.6685    17.1290
 1681.0000     4.4107     0.4164     0.0000     0.0000     0.6780    17.1244
 1681.5000     4.4015     0.3390     0.0000     0.0000     0.6685    14.2955
 1682.0000     4.3950     0.3491     0.0000     0.0000     0.6685    14.2908
 1682.5000     4.3875     0.4237     0.0000     0.0000     0.6591    16.1680
 1683.0000     4.3795     0.4237     0.0000     0.0000     0.6591    17.1060
 1683.5000     4.3721     0.4237     0.0000     0.0000     0.6591    17.1003
 1684.0000     4.3650     0.4006     0.0000     0.0000     0.6591    17.0957
 1684.5000     4.3575     0.3390     0.0000     0.0000     0.6591    18.0325
 1685.0000     4.3500     0.3390     0.0000     0.0000     0.6591    18.0279
 1685.5000     4.3425     0.3390     0.0000     0.0000     0.6591    18.0233
 1686.0000     4.3336     0.3390     0.0000     0.0000     0.6591    18.0187
 1686.5000     4.3275     0.3390     0.0000     0.0000     0.6591    18.0141
 1687.0000     4.3189     0.3390     0.0000     0.0000     0.6591    18.0094
 1687.5000     4.3116     0.3390     0.0000     0.0000     0.6591    18.9464
 1688.0000     4.3042     0.3390     0.0000     0.0000     0.6591    18.9406
 1688.5000     4.2975     0.3390     0.0000     0.0000     0.6591    18.9360
 1689.0000     4.2896     0.3390     0.0000     0.0000     0.6591    17.9900
 1689.5000     4.2822     0.3390     0.0000     0.0000     0.6591    17.9854
 1690.0000     4.2750     0.3390     0.0000     0.0000     0.6591    17.9808
 1690.5000     4.2675     0.3390     0.0000     0.0000     0.6591    17.9762
 1691.0000     4.2600     0.3390     0.0000     0.0000     0.6591    17.9716
 1691.5000     4.2510     0.4237     0.0000     0.0000     0.6591    17.9670
 1692.0000     4.2450     0.5085     0.0000     0.0000     0.6591    17.9623
 1692.5000     4.2375     0.5085     0.0000     0.0000     0.6591    17.0153
 1693.0000     4.3450     0.5085     0.0000     0.0000     0.6591    17.9533
 1693.5000     4.4100     0.5509     0.0000     0.0000     0.6591    17.9475
 1694.0000     4.4018     0.5932     0.0000     0.0000     0.6591    17.0015
 1694.5000     4.3945     0.5263     0.0000     0.0000     0.6591    15.1141
 1695.0000     4.3871     0.5085     0.0000     0.0000     0.6591    15.1095
 1695.5000     4.3800     0.5085     0.0000     0.0000     0.6591    15.1049
 1696.0000     4.5600     0.5085     0.0000     0.0000     0.6591    15.1003
 1696.5000     4.5525     0.5085     0.0000     0.0000     0.6591    15.0957
 1697.0000     4.3575     0.5085     0.0000     0.0000     0.6591    16.0325
 1697.5000     4.3486     0.5085     0.0000     0.0000     0.6591    16.0277
 1698.0000     4.3413     0.5932     0.0000     0.0000     0.6591    16.9647
 1698.5000     4.5232     0.5932     0.0000     0.0000     0.6591    17.9016
 1699.0000     4.5141     0.5932     0.0000     0.0000     0.6591    20.7201
 1699.5000     4.8817     0.6780     0.0000     0.0000     0.6591    32.9540
 1700.0000     5.6262     0.8475     0.4237     0.0946     0.6592    52.7187
 1700.5000     6.7420     1.5384     1.6333     2.3603     0.6595    84.2644
 1701.0000     7.4850     2.7508     3.0409     4.1543     0.6598   159.1315
 1701.5000     8.9774     3.5593     4.2440     6.5143     0.6508   181.7394
 1702.0000    10.0950     3.8136     4.4156     8.3083     0.6512   196.8160
 1702.5000    10.4627     3.8983     4.5024     8.8759     0.6515   200.5955
 1703.0000    10.8285     3.8983     4.5045     8.8774     0.6613   200.6093
 1703.5000    10.8212     3.8983     4.5913     8.7846     0.6616   199.6782
 1704.0000    11.0032     3.8983     4.5934     8.6918     0.6620   198.7506
 1704.5000    11.1833     3.8983     4.5955     8.6934     0.7942   199.7093
 1705.0000    11.1741     3.8983     4.5975     8.6950     0.7945   199.7231
 1705.5000    11.3561     3.8983     4.6844     8.7912     0.7949   199.7369
