~VERSION INFORMATION
 VERS.                2.0:   CWLS LOG ASCII STANDARD - VERSION 2.0
 WRAP.                 NO:   ONE LINE PER DEPTH STEP
~WELL INFORMATION
#MNEM.UNIT      DATA TYPE    INFORMATION
#----------   ------------   ------------------------------
 STRT.F           19.5000:   START DEPTH
 STOP.F          690.5000:   STOP DEPTH
 STEP.F            0.5000:   STEP LENGTH
 NULL.          -999.2500:   NO VALUE
 COMP. FENIX & SCISSON INC:   COMPANY
 WELL. 37-22 SX 11 WI #3-11:   WELL
 FLD .             TEAPOT:   FIELD
 LOC .      S11 T38N R78W:   LOCATION
 CNTY.            NATRONA:   COUNTY
 STAT.            WYOMING:   STATE
 CTRY. UNITED STATES OF AMERICA:   COUNTRY
 SRVC.      Dresser Atlas:   SERVICE COMPANY
 DATE.        11-AUG-1980:   LOGDATE
 API .       490251084400:   API NUMBER
~CURVE INFORMATION
#MNEM.UNIT       API CODE    CURVE DESCRIPTION
#----------   ------------   ------------------------------
 DEPT.F                  :   
 SPR .MV     07 010 01 00:   SPONTANEOUS POTENTIAL
 SFL .OHMM   07 220 01 00:   SHALLOW FOCUSED LOG RESISTIVITY
 ILD .OHMM   07 120 46 00:   INDUCTION LOG DEEP
 ILM .OHMM   07 120 44 00:   INDUCTION LOG MEDIUM
 GRD .GAPI   45 310 01 00:   GAMMA RAY FROM DENSITY LOG
 CALD.IN     45 280 60 00:   CALIPER
 CORR.G/C3   45 356 01 00:   DENSITY CORRECTION
 RHOB.G/C3   45 350 01 00:   BULK DENSITY
 NPHI.DEC    42 890 12 00:   NEUTRON POROSITY SANDSTONE
 DPHI.DEC    45 890 12 00:   DENSITY POROSITY SANDSTONE
~PARAMETER INFORMATION
#MNEM.UNIT          VALUE    DESCRIPTION
#----------   ------------   ------------------------------
 PD  .                 GL:   PERMANENT DATUM
 EPD .F              5191:   ELEVATION PERMANENT DATUM
 LMF .                 KB:   LOG MEASURED FROM
 DAPD.F                 5:   FEET ABOVE PERMANENT DATUM
 DMF .                 KB:   DRILLING MEASURED FROM
 EKB .F              5196:   KELLING BUSHING
 EGL .F              5191:   GROUND LEVEL
 DATE.            8-11-80:   RUN DATE
 RUN .                  1:   RUN NUMBER
 DD  .F               680:   DEPTH DRILLER
 DL  .F               689:   DEPTH LOGGER
 BLI .F               687:   BOTTOM LOG INTERVAL
 TLI .F                20:   TOP LOG INTERVAL
 CS  .IN            8.625:   CASING SIZE
 BS  .IN            7.875:   BIT SIZE
 BSD .F               680:   BIT SIZE AT DEPTH
 DFT .           CHEM GEL:   DRILLING FLUID TYPE
 DFD .                9.9:   DRILLING FLUID DENSITY
 DFV .                 52:   DRILLING FLUID VISCOSITY
 DFPH.               11.5:   DRILLING FLUID PH
 DFL .                104:   DRILLING FLUID LOSS
 MSS .           FLOWLINE:   MUD SAMPLE SOURCE
 RMS .OHMM             .2:   RESISTIVITY MUD SAMPLE
 MST .F                74:   MUD SAMPLE TEMPERATURE
 RMF .OHMM            .15:   RESISTIVITY MUD FILTRATE SAMPLE
 MFST.F                74:   MUD FILTRATE SAMPLE TEMPERATURE
 RMC .OHMM            .25:   RESISTIVITY MUD CAKE
 MCST.F                74:   MUD CAKE SAMPLE TEMPERATURE
 MFSS.               CALC:   MUD FILTRATE SAMPLE SOURCE
 MCSS.               CALC:   MUD CAKE SAMPLE SOURCE
 TCS .HRS               3:   TIME CURCULATED STOPPED
 LUN .             HL6150:   LOGGING UNIT NUMBER
 LUL .                 FM:   LOGGING UNIT LOCATION
 ENGI.            BRANNEY:   RECORDING ENGINEER
 WITN.           MCINTYRE:   WITNESSED BY
 CLNT.            A2DTECH:   CLIENT CODE
 ORIG.           5" PRINT:   ORIGIN OF DATA
 UWI .       490251084400:   UNIQUE WELL ID
 DICO. A2D Technologies, Inc.:   DIGITIZING COMPANY
~OTHER INFORMATION
~A   DEPT      SPR        SFL        ILD        ILM        GRD       CALD       CORR       RHOB       NPHI       DPHI   
# ...
  321.0000   -55.5020     8.3740     7.3370     6.5590   117.9750     8.0620     0.0320     2.5000     0.2660     0.1090
  321.5000   -55.4450     8.4120     7.3500     6.5770   115.1980     8.0610     0.0340     2.5060     0.2610     0.1150
  322.0000   -55.3880     8.4500     7.3630     6.5940   116.0840     8.0600     0.0310     2.5020     0.2560     0.1170
  322.5000   -55.3320     8.4780     7.3770     6.6110   118.0370     8.0600     0.0210     2.4850     0.2510     0.1190
  323.0000   -55.2750     8.4980     7.4090     6.6290   121.8900     8.0590     0.0100     2.4690     0.2430     0.1280
  323.5000   -55.2180     8.5180     7.4420     6.6460   123.0270     8.0580     0.0070     2.4570     0.2470     0.1350
  324.0000   -55.1620     8.5380     7.4760     6.6640   123.6140     8.0580     0.0120     2.4670     0.2550     0.1300
  324.5000   -55.1060     8.5580     7.5090     6.6810   121.6800     8.0570     0.0180     2.4780     0.2630     0.1250
  325.0000   -55.0580     8.5780     7.5430     6.6990   119.4930     8.0560     0.0160     2.4870     0.2670     0.1220
  325.5000   -55.0590     8.5970     7.5770     6.7160   119.0990     8.0520     0.0190     2.4760     0.2680     0.1200
  326.0000   -55.0600     8.6170     7.6100     6.7340   120.1200     8.0370     0.0330     2.4910     0.2580     0.1170
  326.5000   -55.0600     8.6370     7.6440     6.7510   116.7010     8.0370     0.0470     2.5030     0.2600     0.1110
  327.0000   -55.0600     8.6570     7.6770     6.7680   117.2160     8.0370     0.0480     2.5080     0.2640     0.1050
  327.5000   -55.0600     8.6770     7.7110     6.7860   116.8470     8.0380     0.0390     2.4910     0.2580     0.1130
  328.0000   -55.0600     8.6970     7.7450     6.8150   117.0480     8.0380     0.0360     2.4830     0.2520     0.1200
  328.5000   -55.0590     8.7160     7.7780     6.8510   119.9040     8.0380     0.0420     2.4920     0.2610     0.1130
  329.0000   -55.0590     8.7370     7.8120     6.8860   120.7750     8.0390     0.0470     2.5000     0.2670     0.1070
  329.5000   -55.0600     8.7560     7.8450     6.9220   121.0010     8.0390     0.0520     2.5080     0.2610     0.1060
  330.0000   -55.0540     8.7760     7.8790     6.9570   120.0090     8.0390     0.0560     2.5160     0.2570     0.1050
  330.5000   -54.8310     8.8130     7.9130     6.9930   117.7560     8.0400     0.0500     2.5240     0.2550     0.0990
  331.0000   -54.5880     8.9980     7.9460     7.0280   116.0530     8.0400     0.0440     2.5230     0.2570     0.1010
  331.5000   -54.3450     9.1830     7.9800     7.0640   114.7810     8.0400     0.0370     2.5190     0.2540     0.1040
  332.0000   -54.1030     9.3670     8.0140     7.0990   116.1040     8.0410     0.0400     2.5140     0.2500     0.1050
  332.5000   -53.8630     9.5520     8.2370     7.1350   114.9320     8.0410     0.0440     2.5080     0.2460     0.1060
  333.0000   -53.6720     9.7370     8.4610     7.1700   116.8930     8.0420     0.0350     2.4950     0.2460     0.1120
  333.5000   -53.7090     9.9220     8.6850     7.3090   113.4600     8.0420     0.0260     2.4820     0.2450     0.1220
  334.0000   -53.7410    10.1070     8.9090     7.5200   113.5880     8.0420     0.0340     2.4800     0.2420     0.1200
  334.5000   -53.7720    10.2910     9.1330     7.7310   115.2620     8.0430     0.0410     2.4900     0.2390     0.1160
  335.0000   -53.8030    10.4610     9.3570     7.9420   114.2560     8.0430     0.0320     2.4970     0.2370     0.1130
  335.5000   -53.8340    10.8460     9.5810     8.1530   112.5680     8.0430     0.0380     2.5030     0.2400     0.1100
  336.0000   -53.8660    11.2030     9.8050     8.3640   113.4810     8.0440     0.0400     2.4940     0.2430     0.1160
  336.5000   -53.7670    11.5600    10.0300     8.5750   114.6120     8.0440     0.0340     2.4930     0.2330     0.1110
  337.0000   -53.5710    11.9170    10.2540     8.7860   111.6040     8.0440     0.0350     2.5040     0.2210     0.1100
  337.5000   -53.3750    12.2740    10.4780     8.9960   108.7630     8.0450     0.0360     2.5120     0.2240     0.1080
  338.0000   -53.1790    12.5730    10.7540     9.2070   106.7590     8.0450     0.0360     2.5210     0.2230     0.1000
  338.5000   -52.9830    12.3400    10.6330     9.4180   103.4860     8.0460     0.0230     2.5260     0.2210     0.1030
  339.0000   -52.7870    12.1400    10.4750     9.6310   105.7780     8.0460     0.0080     2.4990     0.2190     0.1130
  339.5000   -52.5920    11.9400    10.3170     9.5330   103.7680     8.0460     0.0030     2.4780     0.2210     0.1210
  340.0000   -52.3980    11.7390    10.1600     9.3680   101.3270     8.0470     0.0100     2.4700     0.2340     0.1310
  340.5000   -52.3090    11.5390    10.0020     9.2040   103.7590     8.0470     0.0180     2.4670     0.2490     0.1280
  341.0000   -52.4330    11.3390     9.8440     9.0400   106.9850     8.0470     0.0260     2.4770     0.2480     0.1240
  341.5000   -52.5540    11.1380     9.6860     8.8750   110.4860     8.0480     0.0340     2.4840     0.2480     0.1210
  342.0000   -52.6760    10.9380     9.5290     8.7110   110.0630     8.0480     0.0410     2.4920     0.2500     0.1250
  342.5000   -52.7970    10.7380     9.3710     8.5470   111.5460     8.0480     0.0480     2.5000     0.2490     0.1100
  343.0000   -52.9190    10.5580     9.1980     8.3820   109.6340     8.0490     0.0450     2.5030     0.2430     0.1140
  343.5000   -53.0420    10.4320     9.0920     8.2180   109.9460     8.0490     0.0410     2.4890     0.2380     0.1170
  344.0000   -53.0320    10.3170     8.9750     8.0540   109.2850     8.0500     0.0420     2.4850     0.2320     0.1110
  344.5000   -52.8870    10.2020     8.8580     7.8890   109.6640     8.0500     0.0490     2.4950     0.2240     0.1130
  345.0000   -52.7450    10.0880     8.7410     7.6540   110.6680     8.0500     0.0550     2.4910     0.2260     0.1170
  345.5000   -52.6040     9.9730     8.6240     7.7240   109.0610     8.0510     0.0580     2.4840     0.2320     0.1200
  346.0000   -52.4620     9.8580     8.5070     7.7200   107.7610     8.0510     0.0430     2.4760     0.2390     0.1240
  346.5000   -52.3210     9.7440     8.3900     7.7160   109.0070     8.0510     0.0280     2.4690     0.2450     0.1280
  347.0000   -52.1790     9.6310     8.3900     7.7130   108.9280     8.0520     0.0150     2.4620     0.2480     0.1330
  347.5000   -52.0370     9.5390     8.3900     7.7090   108.2180     8.0520     0.0240     2.4690     0.2510     0.1300
  348.0000   -51.8960     9.5350     8.3900     7.7060   109.0890     8.0520     0.0330     2.4820     0.2480     0.1220
  348.5000   -51.7540     9.5310     8.3900     7.7030   107.8060     8.0530     0.0420     2.4950     0.2420     0.1140
  349.0000   -51.6130     9.5260     8.3900     7.6990   106.4750     8.0530     0.0370     2.4990     0.2470     0.1160
  349.5000   -51.4710     9.5220     8.3900     7.6960   105.2280     8.0540     0.0290     2.4920     0.2530     0.1190
  350.0000   -51.3300     9.5180     8.3900     7.6930   106.4380     8.0540     0.0310     2.4880     0.2570     0.1150
  350.5000   -51.1910     9.5130     8.3900     7.6890   104.2900     8.0540     0.0400     2.4910     0.2540     0.1110
  351.0000   -51.1420     9.5090     8.3900     7.6860   103.5970     8.0550     0.0480     2.4930     0.2490     0.1180
  351.5000   -51.3300     9.5050     8.3900     7.6820   105.2740     8.0550     0.0460     2.4800     0.2440     0.1240
  352.0000   -51.5100     9.5010     8.3900     7.6790   107.7020     8.0550     0.0290     2.4660     0.2390     0.1300
  352.5000   -51.6900     9.4960     8.3900     7.6760   109.2270     8.0560     0.0140     2.4530     0.2360     0.1390
  353.0000   -51.8700     9.4920     8.3900     7.6720   105.3720     8.0560     0.0160     2.4550     0.2430     0.1370
  353.5000   -52.0490     9.4880     8.3910     7.6690   107.2300     8.0560     0.0230     2.4620     0.2400     0.1320
  354.0000   -52.2290     9.4830     8.3890     7.6660   109.3040     8.0570     0.0140     2.4670     0.2390     0.1340
