~VERSION INFORMATION
 VERS.                2.0:   CWLS LOG ASCII STANDARD - VERSION 2.0
 WRAP.                 NO:   ONE LINE PER DEPTH STEP
~WELL INFORMATION
#MNEM.UNIT      DATA TYPE    INFORMATION
#----------   ------------   ------------------------------
 STRT.F            2.0000:   START DEPTH
 STOP.F          500.0000:   STOP DEPTH
 STEP.F            0.1000:   STEP LENGTH
 NULL.          -999.2500:   NO VALUE
 COMP.   FLUOR DANIEL INC:   COMPANY
 WELL.   73-5 X 10 #73-10:   WELL
 FLD .             TEAPOT:   FIELD
 LOC .      S10 T38N R78W:   LOCATION
 CNTY.            NATRONA:   COUNTY
 STAT.            WYOMING:   STATE
 CTRY. UNITED STATES OF AMERICA:   COUNTRY
 SRVC.      Western Atlas:   SERVICE COMPANY
 DATE.        07-JUN-1995:   LOGDATE
 API .       490252271400:   API NUMBER
~CURVE INFORMATION
#MNEM.UNIT       API CODE    CURVE DESCRIPTION
#----------   ------------   ------------------------------
 DEPT.F                  :   
 GRR .GAPI   07 310 01 00:   GAMMA RAY
 RILD.OHMM   07 120 46 00:   INDUCTION LOG DEEP RESISTIVITY
 RILM.OHMM   07 120 44 00:   RESITIVITY LONG MEDIUM
~PARAMETER INFORMATION
#MNEM.UNIT          VALUE    DESCRIPTION
#----------   ------------   ------------------------------
 PD  .                 GL:   PERMANENT DATUM
 EPD .F              5175:   ELEVATION PERMANENT DATUM
 LMF .                 KB:   LOG MEASURED FROM
 DAPD.F                10:   FEET ABOVE PERMANENT DATUM
 DMF .                 KB:   DRILLING MEASURED FROM
 EKB .F              5185:   KELLING BUSHING
 EDF .F              5184:   DRILLING FLOOR
 EGL .F              5175:   GROUND LEVEL
 DATE.        07-JUN-1995:   RUN DATE
 RUN .                  1:   RUN NUMBER
 DD  .F               511:   DEPTH DRILLER
 DL  .F               508:   DEPTH LOGGER
 BLI .F               500:   BOTTOM LOG INTERVAL
 TLI .F                96:   TOP LOG INTERVAL
 CS  .IN            9.625:   CASING SIZE
 CBD .F                96:   CASING BOTTOM DRILLER
 CBL .F                96:   CASING BOTTOM LOGGER
 BS  .IN             8.75:   BIT SIZE
 BSD .F               511:   BIT SIZE AT DEPTH
 DFT .                AIR:   DRILLING FLUID TYPE
 MRT .F               116:   MAXIMUM RECORDED TEMPERATURE
 LUN .            HL 6530:   LOGGING UNIT NUMBER
 LUL .             CASPER:   LOGGING UNIT LOCATION
 ENGI.        VERN RAUTIO:   RECORDING ENGINEER
 WITN.        GARY STRONG:   WITNESSED BY
 CLNT.            A2DTECH:   CLIENT CODE
 ORIG.           5" PRINT:   ORIGIN OF DATA
 UWI .       490252271400:   UNIQUE WELL ID
 DICO. A2D Technologies, Inc.:   DIGITIZING COMPANY
~OTHER INFORMATION
~A    DEPT       GRR     RILD       RILM   
# ...
   93.0000    86.7550  -999.2500  -999.2500
   93.1000    87.0016  -999.2500  -999.2500
   93.2000    87.2482  -999.2500  -999.2500
   93.3000    87.5298  -999.2500  -999.2500
   93.4000    87.7414  -999.2500  -999.2500
   93.5000    87.9879  -999.2500  -999.2500
   93.6000    88.2345  -999.2500  -999.2500
   93.7000    88.5219  -999.2500  -999.2500
   93.8000    89.0447  -999.2500  -999.2500
   93.9000    89.2755  -999.2500  -999.2500
   94.0000    89.3494  -999.2500  -999.2500
   94.1000    89.3512  -999.2500  -999.2500
   94.2000    89.3530  -999.2500  -999.2500
   94.3000    89.3548  -999.2500  -999.2500
   94.4000    89.3566  -999.2500  -999.2500
   94.5000    89.3584  -999.2500  -999.2500
   94.6000    89.3602  -999.2500  -999.2500
   94.7000    89.3621  -999.2500  -999.2500
   94.8000    89.4088  -999.2500  -999.2500
   94.9000    89.9683  -999.2500  -999.2500
   95.0000    90.6024  -999.2500  -999.2500
   95.1000    91.1841  -999.2500  -999.2500
   95.2000    91.7735  -999.2500  -999.2500
   95.3000    92.5928  -999.2500  -999.2500
   95.4000    93.8929  -999.2500  -999.2500
   95.5000    95.2741  -999.2500  -999.2500
   95.6000    98.1325  -999.2500  -999.2500
   95.7000   101.4442  -999.2500  -999.2500
   95.8000   104.5675  -999.2500  -999.2500
   95.9000   107.5193  -999.2500  -999.2500
   96.0000   111.1929  -999.2500  -999.2500
   96.1000   115.0588  -999.2500  -999.2500
   96.2000   118.8408  -999.2500  -999.2500
   96.3000   121.7970  -999.2500  -999.2500
   96.4000   123.2442  -999.2500  -999.2500
   96.5000   124.6358  -999.2500  -999.2500
   96.6000   125.6956  -999.2500  -999.2500
   96.7000   126.6108  -999.2500  -999.2500
   96.8000   127.2482  -999.2500  -999.2500
   96.9000   127.6972  -999.2500  -999.2500
   97.0000   127.9579  -999.2500  -999.2500
   97.1000   127.9596  -999.2500  -999.2500
   97.2000   127.9614  -999.2500  -999.2500
   97.3000   127.9632  -999.2500  -999.2500
   97.4000   127.9036  -999.2500  -999.2500
   97.5000   127.6606  -999.2500  -999.2500
   97.6000   127.4177  -999.2500  -999.2500
   97.7000   127.1747  -999.2500  -999.2500
   97.8000   126.9317  -999.2500  -999.2500
   97.9000   126.6888  -999.2500  -999.2500
   98.0000   126.4217  -999.2500    91.8864
   98.1000   125.8695  -999.2500   692.4989
   98.2000   125.6586  -999.2500  1293.1115
   98.3000   125.4157  -999.2500  1837.9055
   98.4000   125.0731  -999.2500  1955.7452
   98.5000   124.6285  -999.2500  3027.6797
   98.6000   124.3724  -999.2500  4099.6138
   98.7000   123.9111  -999.2500  5239.8037
   98.8000   123.4233  -999.2500  8743.7998
   98.9000   122.9355  -999.2500  9889.9531
   99.0000   122.3856  -999.2500  9920.0059
   99.1000   121.6588  -999.2500  9920.6934
   99.2000   121.1711  -999.2500  9921.8408
   99.3000   120.8775  -999.2500  9978.5762
   99.4000   120.6345  -999.2500  9991.8164
   99.5000   120.3916  -999.2500  9962.0029
   99.6000   120.1733  -999.2500  9755.6621
   99.7000   120.1755  -999.2500  9164.0186
   99.8000   120.3904  -999.2500  7786.3828
   99.9000   120.6369  -999.2500  6034.7168
  100.0000   120.3282  -999.2500  3969.0535
  100.1000   120.0291  1601.8926  1903.3901
  100.2000   120.3739  1224.2533   150.1953
  100.3000   120.8721   846.6140   140.4457
  100.4000   121.3929   468.9746   106.2079
  100.5000   121.6315    91.3353    63.8200
  100.6000   122.0655    15.0559    36.5736
  100.7000   122.4327    13.1499    30.6443
  100.8000   122.6048    12.0013    26.2265
  100.9000   122.6066    11.3705    25.2278
  101.0000   122.6086    11.0630    24.6698
  101.1000   122.6102    11.0707    24.4743
  101.2000   122.6121    11.1409    24.4760
  101.3000   122.6139    11.1992    24.4954
  101.4000   122.5546    11.2640    24.8216
  101.5000   122.3162    11.3292    25.4143
  101.6000   122.3184    11.3948    26.6923
  101.7000   122.1167    11.4607    29.3755
  101.8000   122.0205    11.5367    33.3793
  101.9000   122.0223    11.5371    34.6383
  102.0000   122.0241    11.5375    34.6405
  102.1000   122.0260    11.5380    34.6429
  102.2000   122.2671    11.5236    34.4751
  102.3000   122.5171    11.4582    34.0912
  102.4000   122.6337    11.3807    33.7021
  102.5000   122.6355    11.3811    33.1550
  102.6000   122.6374    11.3816    32.0687
  102.7000   122.6393    11.4074    30.2425
  102.8000   122.4185    11.4734    27.8226
  102.9000   122.0026    11.5419    25.2675
  103.0000   121.2751    11.6066    22.7068
  103.1000   120.2841    11.6738    20.8095
  103.2000   119.3036    11.7785    18.4819
  103.3000   118.4334    11.8914    16.8725
  103.4000   118.2293    11.9691    16.6016
  103.5000   118.1355    12.1187    16.3960
  103.6000   118.2370    12.1832    16.0740
  103.7000   118.5335    12.2537    15.2723
  103.8000   119.0446    12.2893    14.0547
  103.9000   119.7717    12.3103    12.7977
  104.0000   120.8955    12.3757    12.4281
  104.1000   122.0026    12.2909    12.1642
  104.2000   122.9145    12.2302    11.9914
  104.3000   123.6311    12.0245    11.9240
  104.4000   124.1761    11.6638    11.9248
  104.5000   124.6275    11.2500    11.9236
  104.6000   124.9538    10.9971    11.8575
  104.7000   125.3227    10.7772    11.8449
  104.8000   125.7550    10.5772    11.8457
  104.9000   126.0050    10.3741    11.8465
  105.0000   126.2955    10.2210    11.8473
  105.1000   126.2970    10.0828    11.8483
  105.2000   126.2988     9.8507    11.8490
  105.3000   126.3006     9.7958    11.8498
  105.4000   126.2534     9.7402    11.8236
  105.5000   126.0030     9.6850    11.7694
  105.6000   125.7607     9.6496    11.7704
  105.7000   125.5143     9.6500    11.7712
  105.8000   125.2679     9.6504    11.7720
  105.9000   124.9363     9.6508    11.7412
  106.0000   124.4096     9.6512    11.6761
  106.1000   123.6044     9.6802    11.6122
  106.2000   122.6968     9.7363    11.6130
  106.3000   121.5315     9.7926    11.5629
  106.4000   120.1711     9.8556    11.5344
  106.5000   118.7520    10.0079    11.5146
  106.6000   117.4976    10.1027    11.4452
  106.7000   115.7840    10.2440    11.2993
  106.8000   115.5751    10.4659    11.3000
  106.9000   115.3287    10.6415    11.2613
  107.0000   115.1867    10.7130    11.2235
  107.1000   115.1886    10.8171    11.2143
  107.2000   115.1904    10.9027    11.1475
  107.3000   115.1922    10.9657    11.1482
  107.4000   115.1940    11.0292    11.1056
  107.5000   115.3363    11.0930    11.0727
  107.6000   115.4988    11.0934    11.0735
  107.7000   115.5352    11.0939    11.0742
  107.8000   115.8037    11.0944    11.0750
  107.9000   115.8054    11.0948    11.0282
  108.0000   115.9839    11.0851    11.0000
  108.1000   116.1102    11.0191    11.0007
  108.2000   116.1827    11.0196    11.0015
  108.3000   116.4151    10.9733    11.0024
  108.4000   116.4171    10.9444    11.0030
  108.5000   116.6315    10.9448    11.0038
  108.6000   116.8815    10.9453    10.9815
  108.7000   117.1315    10.9458    10.9291
  108.8000   117.3815    10.8897    10.9301
  108.9000   117.6315    10.8711    10.9308
  109.0000   117.8815    10.8715    10.9315
  109.1000   117.9355    10.8720    10.9323
  109.2000   118.0803    10.8724    10.9330
  109.3000   118.3303    10.8729    10.9338
  109.4000   118.5803    10.8733    10.8743
  109.5000   118.8465    10.8738    10.8597
  109.6000   118.8482    10.8472    10.8605
  109.7000   119.0291    10.7996    10.8612
  109.8000   119.2791    10.8000    10.8620
  109.9000   119.4560    10.8005    10.8629
  110.0000   119.4578    10.8009    10.8635
  110.1000   119.4599    10.8014    10.8643
  110.2000   119.4614    10.7779    10.8432
  110.3000   119.4633    10.7276    10.7906
  110.4000   119.4651    10.7281    10.7915
  110.5000   119.4669    10.7285    10.6800
  110.6000   119.4687    10.7290    10.6590
  110.7000   119.4705    10.7294    10.6075
  110.8000   119.4723    10.7299    10.6082
  110.9000   119.4741    10.7224    10.6087
  111.0000   119.4759    10.6567    10.6093
  111.1000   119.4777    10.6571    10.5787
