~VERSION INFORMATION
 VERS.                2.0:   CWLS LOG ASCII STANDARD - VERSION 2.0
 WRAP.                 NO:   ONE LINE PER DEPTH STEP
~WELL INFORMATION
#MNEM.UNIT      DATA TYPE    INFORMATION
#----------   ------------   ------------------------------
 STRT.F           34.0000:   START DEPTH
 STOP.F          555.0000:   STOP DEPTH
 STEP.F            0.5000:   STEP LENGTH
 NULL.          -999.2500:   NO VALUE
 COMP. FENIX & SCISSON-U.S. NAVY:   COMPANY
 WELL.    NPR #3 #17-S-11:   WELL
 FLD .             TEAPOT:   FIELD
 LOC .      S11 T38N R78W:   LOCATION
 CNTY.            NATRONA:   COUNTY
 STAT.            WYOMING:   STATE
 CTRY. UNITED STATES OF AMERICA:   COUNTRY
 SRVC.       Schlumberger:   SERVICE COMPANY
 DATE.        20-FEB-1977:   LOGDATE
 API .       490251028100:   API NUMBER
~CURVE INFORMATION
#MNEM.UNIT       API CODE    CURVE DESCRIPTION
#----------   ------------   ------------------------------
 DEPT.F                  :   
 SPR .MV     07 010 01 00:   SPONTANEOUS POTENTIAL
 ILD .OHMM   07 120 46 00:   INDUCTION LOG DEEP
 ILM .OHMM   07 120 44 00:   INDUCTION LOG MEDIUM
 LL8 .OHMM   07 220 08 00:   LATEROLOG-8 RES.
 CALD.IN     45 280 60 00:   CALIPER FROM DENSITY LOG
 GRD .GAPI   45 310 01 00:   GAMMA RAY FROM DENSITY LOG
 CORR.G/C3   45 356 01 00:   DENSITY CORRECTION
 RHOB.G/C3   45 350 01 00:   BULK DENSITY
 DPHI.DEC    45 890 12 00:   DENSITY POROSITY SANDSTONE
~PARAMETER INFORMATION
#MNEM.UNIT          VALUE    DESCRIPTION
#----------   ------------   ------------------------------
 PD  .                 GL:   PERMANENT DATUM
 EPD .F              5204:   ELEVATION PERMANENT DATUM
 LMF .                 GL:   LOG MEASURED FROM
 DMF .                 GL:   DRILLING MEASURED FROM
 EKB .F              5209:   KELLING BUSHING
 EGL .F              5204:   GROUND LEVEL
 DATE.        20-FEB-1977:   RUN DATE
 RUN .                  1:   RUN NUMBER
 DD  .F               556:   DEPTH DRILLER
 DL  .F               556:   DEPTH LOGGER
 BLI .F               555:   BOTTOM LOG INTERVAL
 TLI .F                42:   TOP LOG INTERVAL
 CS  .IN            8.625:   CASING SIZE
 CBD .F                42:   CASING BOTTOM DRILLER
 CBL .F                42:   CASING BOTTOM LOGGER
 BS  .IN            7.875:   BIT SIZE
 BSD .F               556:   BIT SIZE AT DEPTH
 DFT .            KCL MUD:   DRILLING FLUID TYPE
 DFD .                8.8:   DRILLING FLUID DENSITY
 DFV .                 33:   DRILLING FLUID VISCOSITY
 DFPH.                8.0:   DRILLING FLUID PH
 DFL .                7.6:   DRILLING FLUID LOSS
 MSS .           FLOWLINE:   MUD SAMPLE SOURCE
 RMS .OHMM            .44:   RESISTIVITY MUD SAMPLE
 MST .F                66:   MUD SAMPLE TEMPERATURE
 RMF .OHMM            .41:   RESISTIVITY MUD FILTRATE SAMPLE
 MFST.F                66:   MUD FILTRATE SAMPLE TEMPERATURE
 MFSS.               MEAS:   MUD FILTRATE SAMPLE SOURCE
 TCS .HRS               3:   TIME CURCULATED STOPPED
 LUN .               7680:   LOGGING UNIT NUMBER
 LUL .               CSPR:   LOGGING UNIT LOCATION
 ENGI.             TAYLOR:   RECORDING ENGINEER
 WITN.               JAPP:   WITNESSED BY
 CLNT.            A2DTECH:   CLIENT CODE
 ORIG.           5" PRINT:   ORIGIN OF DATA
 UWI .       490251028100:   UNIQUE WELL ID
 DICO. A2D Technologies, Inc.:   DIGITIZING COMPANY
~OTHER INFORMATION
~A   DEPT      SPR        ILD        ILM        LL8       CALD        GRD       CORR       RHOB       DPHI   
# ...
  435.5000   -41.1156    17.1580    15.9780    18.2468     8.1766    72.6589     0.0131     2.3813     0.1649
  436.0000   -41.1248    17.0362    15.6473    17.8650     8.1610    69.9351     0.0459     2.4047     0.1520
  436.5000   -40.9802    17.0327    15.4300    17.7347     8.1604    69.9263     0.0526     2.4138     0.1466
  437.0000   -40.9878    16.9117    15.3172    17.7276     8.1600    71.5011     0.0383     2.4063     0.1629
  437.5000   -40.8430    16.7722    15.2136    17.7204     8.1444    73.3022     0.0307     2.3799     0.1654
  438.0000   -41.0042    16.5565    15.2112    17.8362     8.1592    74.6509     0.0247     2.3769     0.1533
  438.5000   -40.8596    16.3255    15.2091    17.9695     8.2040    74.4158     0.0142     2.3928     0.1644
  439.0000   -40.8670    16.3222    15.2071    18.1953     8.3095    73.5020     0.0096     2.3974     0.1544
  439.5000   -40.8743    16.3189    15.2050    18.4394     8.4150    72.3619     0.0156     2.3950     0.1530
  440.0000   -40.7295    16.3156    15.2030    18.6905     8.4599    70.2865     0.0118     2.3831     0.1681
  440.5000   -40.7371    16.4258    15.2010    18.5523     8.3833    69.8552     0.0087     2.3696     0.1738
  441.0000   -40.7275    16.5365    15.1989    18.2902     8.2753    70.0730     0.0177     2.3658     0.1699
  441.5000   -40.5999    16.5331    15.1964    18.1568     8.2164    69.8357     0.0281     2.3719     0.1666
  442.0000   -40.6091    16.3016    15.1943    17.9002     8.2160    69.1481     0.0213     2.3765     0.1781
  442.5000   -40.4645    16.1858    15.1923    17.6472     8.2155    68.9130     0.0318     2.3546     0.1763
  443.0000   -40.4719    15.9600    15.1903    17.6399     8.2151    67.9992     0.0363     2.3758     0.1685
  443.5000   -40.4792    15.6287    14.9793    17.6312     8.2146    67.5379     0.0308     2.3834     0.1596
  444.0000   -40.4866    15.4106    14.4676    17.5026     8.2142    67.9816     0.0369     2.3942     0.1517
  444.5000   -40.4940    15.0907    14.1682    17.4956     8.1986    71.3664     0.0428     2.4084     0.1580
  445.0000   -40.5015    14.9835    13.8686    17.2483     8.1831    73.1749     0.0278     2.3963     0.1700
  445.5000   -40.6607    14.8771    13.6819    16.6554     8.1675    73.6111     0.0143     2.3692     0.1604
  446.0000   -40.5161    14.8740    13.6801    15.8621     8.1670    72.4689     0.0022     2.3715     0.1631
  446.5000   -40.5253    14.7677    13.5838    15.6379     8.1665    70.1976     0.0044     2.3844     0.1656
  447.0000   -40.5327    14.6628    13.4883    15.4162     8.1660    68.1526     0.0089     2.3844     0.1595
  447.5000   -40.5400    14.4582    13.3934    15.3043     8.1656    67.9197     0.0157     2.3844     0.1629
  448.0000   -40.5474    14.4553    13.2992    15.2968     8.2106    69.4924     0.0249     2.3905     0.1614
  448.5000   -40.5548    14.3527    13.1145    15.1852     8.2101    70.1623     0.0342     2.4034     0.1532
  449.0000   -40.5623    14.2507    13.0222    15.0745     8.2097    70.6059     0.0439     2.4097     0.1496
  449.5000   -40.5714    14.1495    13.0200    15.0684     8.2091    71.2758     0.0536     2.4313     0.1419
  450.0000   -40.4141    13.8558    12.9247    15.0395     8.2088    73.3032     0.0574     2.4336     0.1355
  450.5000   -40.2802    13.7831    12.8725    14.8896     8.2161    73.0729     0.0475     2.4291     0.1367
  451.0000   -40.1402    13.6572    12.8212    14.7454     8.2229    73.7461     0.0445     2.4322     0.1376
  451.5000   -40.1492    13.6535    12.7425    14.5381     8.2296    73.7416     0.0444     2.4360     0.1382
  452.0000   -40.1581    13.5556    12.7399    14.3346     8.2364    73.5110     0.0414     2.4375     0.1343
  452.5000   -40.1672    13.5519    12.6494    14.1339     8.2432    73.2803     0.0345     2.4300     0.1337
  453.0000   -40.1763    13.5482    12.5595    14.1301     8.2499    72.3709     0.0133     2.4162     0.1421
  453.5000   -40.1854    13.5445    12.3842    14.1262     8.2510    72.1402     0.0200     2.4065     0.1487
  454.0000   -40.3482    13.5409    12.2114    14.1224     8.2505    72.5943     0.0277     2.4117     0.1415
  454.5000   -40.3571    13.5371    12.1246    14.1186     8.2500    73.2881     0.0239     2.4263     0.1354
  455.0000   -40.3661    13.4245    12.1222    14.0175     8.2496    73.4844     0.0298     2.4226     0.1429
  455.5000   -40.3750    13.1593    12.0361    13.9171     8.2491    73.4789     0.0373     2.4203     0.1422
  456.0000   -40.3840    13.0650    12.0336    13.9133     8.2487    73.0219     0.0357     2.4226     0.1339
  456.5000   -40.3929    12.9713    11.9481    13.8099     8.2482    72.3388     0.0252     2.4324     0.1318
  457.0000   -40.4019    12.8783    11.9457    13.7147     8.2478    71.8819     0.0334     2.4415     0.1290
  457.5000   -40.4109    12.8748    11.8526    13.7102     8.2473    70.9724     0.0416     2.4513     0.1230
  458.0000   -40.4198    12.8713    11.6952    13.7064     8.2469    70.2893     0.0472     2.4559     0.1275
  458.5000   -40.2766    12.8678    11.6116    13.6083     8.2446    74.1310     0.0339     2.4461     0.1399
  459.0000   -40.2857    12.8643    11.6093    13.6046     8.2405    74.8054     0.0399     2.4046     0.1389
  459.5000   -40.2948    12.8608    11.6881    13.6009     8.2364    74.1221     0.0308     2.4182     0.1350
  460.0000   -40.3040    12.8573    11.6045    13.5035     8.2323    72.0362     0.0419     2.4311     0.1293
  460.5000   -40.3148    12.8538    11.4426    13.4999     8.2282    70.0407     0.0570     2.4454     0.1232
  461.0000   -40.3238    12.8502    11.3613    13.4962     8.2241    71.3928     0.0517     2.4583     0.1190
  461.5000   -40.3328    12.8460    11.3590    13.3996     8.2200    73.1983     0.0644     2.4726     0.1159
  462.0000   -40.3417    12.8425    11.4362    13.4890     8.2159    76.5876     0.0403     2.4817     0.1072
  462.5000   -40.3507    12.8390    11.5127    13.5788     8.2118    78.8456     0.0328     2.4433     0.1226
  463.0000   -40.2054    12.8355    11.5904    13.6693     8.2077    79.5210     0.0522     2.4644     0.1172
  463.5000   -40.2166    12.8320    11.7496    13.8559     8.2036    77.4793     0.0439     2.4901     0.1033
  464.0000   -40.2256    12.8286    11.8288    13.9473     8.1995    76.7961     0.0551     2.4969     0.1015
  464.5000   -40.2345    12.8251    11.8263    14.0403     8.1954    76.7917     0.0391     2.4667     0.1159
  465.0000   -40.2435    12.8216    11.9061    14.2320     8.1913    76.7873     0.0340     2.4358     0.1249
  465.5000   -40.2524    12.8181    11.9031    14.4272     8.1872    76.0996     0.0595     2.4803     0.1093
  466.0000   -40.2614    12.8146    11.9007    14.1262     8.1831    74.6938     0.0272     2.4695     0.1162
  466.5000   -40.4225    12.7227    11.8983    13.9284     8.1786    72.2480     0.0316     2.4306     0.1272
  467.0000   -40.4316    12.7192    11.7322    13.5448     8.1782    71.7922     0.0293     2.4220     0.1312
  467.5000   -40.5944    12.4536    11.3306    13.3551     8.1626    73.3703     0.0165     2.4058     0.1396
  468.0000   -40.7554    12.1942    11.0188    13.1682     8.1470    72.6872     0.0135     2.4141     0.1358
  468.5000   -40.9163    12.0232    10.6416    12.9838     8.1315    71.7778     0.0322     2.4503     0.1256
  469.0000   -40.7733    11.8546    10.3488    12.7984     8.1461    73.3571     0.0479     2.4737     0.1122
  469.5000   -40.7822    11.7696    10.1340    12.6226     8.1459    75.8413     0.0373     2.4647     0.1143
  470.0000   -40.6370    11.7664    10.1319    12.7060     8.1463    77.8731     0.0193     2.4421     0.1284
  470.5000   -40.4939    11.9273    10.1298    12.7916     8.1467    78.9999     0.0125     2.3946     0.1408
  471.0000   -40.3531    12.0070    10.1333    12.9653     8.1470    79.4480     0.0237     2.4270     0.1320
  471.5000   -40.2101    12.3408    10.2778    13.1432     8.1474    80.3620     0.0229     2.4610     0.1133
