~VERSION INFORMATION
 VERS.                2.0:   CWLS LOG ASCII STANDARD - VERSION 2.0
 WRAP.                 NO:   ONE LINE PER DEPTH STEP
~WELL INFORMATION
#MNEM.UNIT      DATA TYPE    INFORMATION
#----------   ------------   ------------------------------
 STRT.F           28.5000:   START DEPTH
 STOP.F          516.0000:   STOP DEPTH
 STEP.F            0.5000:   STEP LENGTH
 NULL.          -999.2500:   NO VALUE
 COMP. FENIX & SCISSON INC:   COMPANY
 WELL.         SX 3 #54-3:   WELL
 FLD .            WILDCAT:   FIELD
 LOC .       S3 T38N R78W:   LOCATION
 CNTY.            NATRONA:   COUNTY
 STAT.            WYOMING:   STATE
 CTRY. UNITED STATES OF AMERICA:   COUNTRY
 SRVC.            Unknown:   SERVICE COMPANY
 DATE.        22-SEP-1978:   LOGDATE
 API .       490251069000:   API NUMBER
~CURVE INFORMATION
#MNEM.UNIT       API CODE    CURVE DESCRIPTION
#----------   ------------   ------------------------------
 DEPT.F                  :   
 SPR .MV     05 010 01 00:   SPONTANEOUS POTENTIAL FROM RES.
 ILD .OHMM   05 120 46 00:   INDUCTION LOG DEEP
 SN  .OHMM   05 040 16 00:   SHORT NORMAL 16"
 CALD.IN     45 280 60 00:   CALIPER
 GRD .GAPI   45 310 01 00:   GAMMA RAY FROM DENSITY LOG
 CORR.G/C3   45 356 01 00:   DENSITY CORRECTION
 DEN .G/C3   45 350 01 00:   COMPENSATED BULK DENSTIY
 DPHI.DEC    45 890 12 00:   DENSITY POROSITY SANDSTONE
~PARAMETER INFORMATION
#MNEM.UNIT          VALUE    DESCRIPTION
#----------   ------------   ------------------------------
 PD  .                 GL:   PERMANENT DATUM
 EPD .F              5168:   ELEVATION PERMANENT DATUM
 LMF .                 KB:   LOG MEASURED FROM
 DAPD.F                 4:   FEET ABOVE PERMANENT DATUM
 DMF .                 KB:   DRILLING MEASURED FROM
 EKB .F              5172:   KELLING BUSHING
 EGL .F              5168:   GROUND LEVEL
 DATE.            9-22-78:   RUN DATE
 RUN .                  1:   RUN NUMBER
 DD  .F               510:   DEPTH DRILLER
 DL  .F               517:   DEPTH LOGGER
 BLI .F               510:   BOTTOM LOG INTERVAL
 TLI .F                40:   TOP LOG INTERVAL
 CS  .IN            8.625:   CASING SIZE
 CBD .F                40:   CASING BOTTOM DRILLER
 CBL .F                48:   CASING BOTTOM LOGGER
 BS  .IN            7.875:   BIT SIZE
 BSD .F               510:   BIT SIZE AT DEPTH
 DFT .            KCL MUD:   DRILLING FLUID TYPE
 DFD .                8.7:   DRILLING FLUID DENSITY
 DFV .                 39:   DRILLING FLUID VISCOSITY
 DFPH.                  9:   DRILLING FLUID PH
 DFL .                8.9:   DRILLING FLUID LOSS
 MSS .          FLOW LINE:   MUD SAMPLE SOURCE
 RMS .OHMM            .32:   RESISTIVITY MUD SAMPLE
 MST .F                68:   MUD SAMPLE TEMPERATURE
 RMF .OHMM            .26:   RESISTIVITY MUD FILTRATE SAMPLE
 MFST.F                72:   MUD FILTRATE SAMPLE TEMPERATURE
 RMC .OHMM            .28:   RESISTIVITY MUD CAKE
 MCST.F                75:   MUD CAKE SAMPLE TEMPERATURE
 MFSS.               MEAS:   MUD FILTRATE SAMPLE SOURCE
 MCSS.               MEAS:   MUD CAKE SAMPLE SOURCE
 RMB .OHMM            .32:   RESISTIVITY MUD AT BHT
 BHT .F                69:   BOTTOM HOLE TEMPERATURE
 TCS .HRS               3:   TIME CURCULATED STOPPED
 MRT .F                69:   MAXIMUM RECORDED TEMPERATURE
 LUN .               2958:   LOGGING UNIT NUMBER
 LUL .               CASP:   LOGGING UNIT LOCATION
 ENGI.           REYNOLDS:   RECORDING ENGINEER
 WITN.              AMEND:   WITNESSED BY
 CLNT.            A2DTECH:   CLIENT CODE
 ORIG.           5" PRINT:   ORIGIN OF DATA
 UWI .       490251069000:   UNIQUE WELL ID
 DICO. A2D Technologies, Inc.:   DIGITIZING COMPANY
~OTHER INFORMATION
~A   DEPT      SPR        ILD         SN       CALD         GRD      CORR        DEN       DPHI   
# ...
  433.5000   -39.2835    11.3633    11.6931     8.1065   100.4488     0.0336     2.5182     0.0963
  434.0000   -39.4867    11.3553    11.6855     8.1156   103.7839     0.0344     2.5278     0.0951
  434.5000   -39.6896    11.3474    11.6778     8.1004   102.9696     0.0351     2.5265     0.0984
  435.0000   -39.8925    11.3394    11.6702     8.0836   102.2035     0.0360     2.5207     0.1017
  435.5000   -40.0957    11.3314    11.6626     8.0668   100.5318     0.0368     2.5175     0.1075
  436.0000   -40.3022    11.3234    11.6549     8.0500    94.7781     0.0356     2.5052     0.1142
  436.5000   -40.3388    11.3155    11.6473     8.0360    93.7022     0.0336     2.4921     0.1143
  437.0000   -40.3392    11.3075    11.6397     8.0521    95.4751     0.0316     2.4864     0.1125
  437.5000   -40.3387    11.2995    11.6321     8.0689   102.7768     0.0296     2.4937     0.1130
  438.0000   -40.3386    11.2916    11.6245     8.0857   106.7380     0.0275     2.4940     0.1201
  438.5000   -40.3386    11.2837    11.6170     8.1029   106.7448     0.0273     2.4845     0.1274
  439.0000   -40.3386    11.2058    11.6052     8.1115   105.9368     0.0277     2.4750     0.1274
  439.5000   -40.3386    11.0450    11.6056     8.1084   105.1206     0.0281     2.4673     0.1266
  440.0000   -40.3386    10.8857    11.4897     8.1228   105.0017     0.0285     2.4675     0.1247
  440.5000   -40.3386    10.7290    11.4099     8.1334   105.2139     0.0289     2.4682     0.1226
  441.0000   -40.3386    10.5733    11.3378     8.1062   104.8002     0.0293     2.4712     0.1208
  441.5000   -40.3377    10.4685    11.2661     8.0786   101.8239     0.0297     2.4787     0.1176
  442.0000   -40.3313    10.4224    11.1949     8.0513    98.8660     0.0301     2.4869     0.1145
  442.5000   -40.6138    10.3765    11.1241     8.0416    97.3473     0.0305     2.4916     0.1136
  443.0000   -40.9514    10.3308    11.0538     8.0543    97.6837     0.0309     2.4902     0.1143
  443.5000   -41.2903    10.2852    10.9839     8.0668    98.6114     0.0313     2.4886     0.1151
  444.0000   -41.6322    10.2399    10.9145     8.0793   101.1365     0.0317     2.4871     0.1152
  444.5000   -41.7536    10.1948    10.8452     8.0918   103.6342     0.0321     2.4880     0.1148
  445.0000   -41.7855    10.1191    10.7710     8.0884   105.0358     0.0325     2.4903     0.1154
  445.5000   -41.8158     9.8835    10.6640     8.0716   103.7564     0.0329     2.4902     0.1166
  446.0000   -41.8463     9.6534    10.5481     8.0548   102.6528     0.0330     2.4876     0.1158
  446.5000   -41.8770     9.4266    10.4332     8.0379   104.7108     0.0330     2.4871     0.1109
  447.0000   -41.9077     9.3227    10.3194     8.0211   106.9957     0.0329     2.4969     0.1059
  447.5000   -41.9384     9.2197    10.2070     8.0042   110.3001     0.0298     2.5065     0.1010
  448.0000   -41.9691     9.1205    10.0958     8.0008   115.6917     0.0267     2.5164     0.0985
  448.5000   -41.9998     9.0540     9.9859     8.0097   115.4971     0.0236     2.5175     0.1091
  449.0000   -42.0305     8.9877     9.8769     8.0188   115.3286     0.0205     2.5052     0.1173
  449.5000   -42.0613     8.7580     9.7571     8.0279   115.1295     0.0172     2.4896     0.1336
  450.0000   -42.0923     8.0820     9.5318     8.0360   115.0267     0.0221     2.4623     0.1548
  450.5000   -42.1291     7.4582     9.3118     8.0361   116.7854     0.0281     2.4357     0.1654
  451.0000   -41.8759     6.8825     9.0969     8.0378   122.4284     0.0332     2.4084     0.1620
  451.5000   -41.5190     6.3513     8.8869     8.0491   125.9324     0.0332     2.4035     0.1521
  452.0000   -41.1598     6.0182     8.6606     8.0602   125.3175     0.0333     2.4374     0.1228
  452.5000   -40.8000     6.3119     8.2808     8.0714   120.8310     0.0335     2.4726     0.0992
  453.0000   -40.4416     6.4187     7.9177     8.0826   112.3110     0.0336     2.5074     0.0900
  453.5000   -40.1305     6.5534     7.5703     8.0939   108.6324     0.0338     2.5374     0.0858
  454.0000   -40.1344     6.6718     7.2367     8.0955   108.3620     0.0339     2.5323     0.0944
  454.5000   -40.2996     6.7237     6.9066     8.0745   108.1624     0.0340     2.5268     0.0986
  455.0000   -40.5083     7.1341     6.9167     8.0719   107.8016     0.0342     2.5214     0.0959
  455.5000   -40.7173     8.1579     7.0173     8.0683   107.4007     0.0343     2.5199     0.0905
  456.0000   -40.9242     9.4453     7.2395     8.0645   110.8132     0.0345     2.5284     0.0852
  456.5000   -41.1810    10.2984     7.9841     8.0603   110.7529     0.0346     2.5366     0.0818
  457.0000   -41.1543    10.3795     9.0268     8.0552   114.8345     0.0347     2.5401     0.0899
  457.5000   -40.8753    10.2764     9.6879     8.0754   118.7572     0.0349     2.5325     0.0958
  458.0000   -40.5871    10.2128    10.0641     8.0799   119.8683     0.0363     2.5252     0.0982
  458.5000   -40.3009    10.1895    10.2840     8.0938   121.0483     0.0410     2.5178     0.0977
  459.0000   -40.1422    10.1895    10.4355     8.1073   118.9645     0.0456     2.5174     0.0939
  459.5000   -40.1631    10.3410    10.6193     8.1209   111.5654     0.0502     2.5220     0.0902
  460.0000   -40.1817    10.5228    10.8063     8.1344   109.3895     0.0549     2.5279     0.0864
  460.5000   -40.2009    10.7084    10.9967     8.1283   108.4442     0.0590     2.5339     0.0827
  461.0000   -40.2198    10.8971    11.1906     8.1117   103.1295     0.0590     2.5399     0.0789
  461.5000   -40.2387    11.0890    11.3870     8.0950   104.6843     0.0569     2.5459     0.0752
  462.0000   -40.2577    11.2843    11.5397     8.0783   109.9834     0.0509     2.5519     0.0722
  462.5000   -40.2766    11.3840    11.6399     8.0618   114.2686     0.0449     2.5571     0.0804
  463.0000   -40.2954    11.3840    11.7420     8.0685   114.6820     0.0430     2.5484     0.0872
  463.5000   -40.3140    11.4211    11.8449     8.0945   113.3132     0.0430     2.5398     0.0918
  464.0000   -40.3281    11.4621    11.9488     8.1173   111.4791     0.0430     2.5313     0.0941
  464.5000   -40.6229    11.5032    12.0536     8.0962   109.9608     0.0430     2.5244     0.0950
  465.0000   -41.0132    11.5445    12.1445     8.0702   110.2319     0.0430     2.5218     0.0950
  465.5000   -41.4046    11.5859    12.1532     8.0442   111.3941     0.0430     2.5204     0.0947
  466.0000   -41.7397    11.6275    12.2130     8.0181   112.2495     0.0430     2.5242     0.0942
  466.5000   -41.5967    11.6692    12.2730     7.9921   112.4627     0.0430     2.5283     0.0960
  467.0000   -41.4488    11.7111    12.3333     7.9660   112.1997     0.0430     2.5260     0.0986
  467.5000   -41.3509    11.7531    12.3939     7.9392   109.7253     0.0418     2.5191     0.1011
  468.0000   -41.9891    11.7953    12.4548     7.9574   107.2951     0.0399     2.5123     0.1034
  468.5000   -42.3428    11.8376    12.5159     7.9835   105.5928     0.0379     2.5051     0.1034
  469.0000   -42.3305    11.8801    12.5774     8.0098   107.6076     0.0351     2.5036     0.1010
  469.5000   -42.3308    11.9222    12.6392     8.0351   112.9481     0.0313     2.5099     0.0982
  470.0000   -42.3307    11.8126    12.7013     8.0355   112.9346     0.0276     2.5163     0.0979
  470.5000   -42.3309    11.8445    12.7637     8.0771   113.0508     0.0270     2.5170     0.0966
  471.0000   -42.3307    11.8708    12.8362     8.0814   113.1992     0.0270     2.5186     0.0952
  471.5000   -42.3279    11.8972    12.7602     8.0861   111.7255     0.0270     2.5235     0.0939
  472.0000   -42.2122    11.9222    12.6702     8.0909   109.9469     0.0269     2.5301     0.0933
  472.5000   -42.1563    11.8391    12.5802     8.0958   109.9256     0.0298     2.5365     0.0942
  473.0000   -42.6992    11.7606    12.4910     8.1006   109.8708     0.0333     2.5298     0.0950
  473.5000   -43.2412    11.6826    12.4025     8.1054   109.8458     0.0369     2.5214     0.0950
