~VERSION INFORMATION
 VERS.                2.0:   CWLS LOG ASCII STANDARD - VERSION 2.0
 WRAP.                 NO:   ONE LINE PER DEPTH STEP
~WELL INFORMATION
#MNEM.UNIT      DATA TYPE    INFORMATION
#----------   ------------   ------------------------------
 STRT.F            0.0000:   START DEPTH
 STOP.F         4535.0000:   STOP DEPTH
 STEP.F            0.5000:   STEP LENGTH
 NULL.          -999.2500:   NO VALUE
 COMP.   FLUOR DANIEL INC:   COMPANY
 WELL.     56 X 15 #56-15:   WELL
 FLD .             TEAPOT:   FIELD
 LOC .      S15 T38N R78W:   LOCATION
 CNTY.            NATRONA:   COUNTY
 STAT.            WYOMING:   STATE
 CTRY. UNITED STATES OF AMERICA:   COUNTRY
 SRVC.      Dresser Atlas:   SERVICE COMPANY
 DATE.        03-MAY-1984:   LOGDATE
 API .       490252268500:   API NUMBER
~CURVE INFORMATION
#MNEM.UNIT       API CODE    CURVE DESCRIPTION
#----------   ------------   ------------------------------
 DEPT.F                  :   
 CNC .DEC    42 890 03 00:   NEUTRON POROSITY SANDSTONE
 PORD.DEC    45 890 12 00:   POROSITY DENSITY SANDSTONE
 RHOB.G/C3   45 350 01 00:   BULK DENSITY
 CORR.G/C3   45 356 01 00:   DENSITY CORRECTION
 DT  .US/F   60 520 00 00:   INTERVAL TRANSIT TIME
 RILD.OHMM   07 120 46 00:   INDUCTION LOG DEEP RESISTIVITY
 RILM.OHMM   07 120 44 00:   INDUCTION LOG MEDIUM RESISTIVITY
 CALR.IN     07 280 01 00:   CALIPER FROM RESISTIVITY
 GRR .GAPI   07 310 01 00:   GAMMA RAY FROM RESISTIVITY LOG
 SPR .MV     07 010 01 00:   SPONTANEOUS POTENTIAL
 RFOC.OHMM   07 220 04 00:   RESISTIVITY FOCUSED LOG
~PARAMETER INFORMATION
#MNEM.UNIT          VALUE    DESCRIPTION
#----------   ------------   ------------------------------
 PD  .                 GL:   PERMANENT DATUM
 EPD .F              5326:   ELEVATION PERMANENT DATUM
 LMF .                 KB:   LOG MEASURED FROM
 DAPD.F                12:   FEET ABOVE PERMANENT DATUM
 DMF .                 KB:   DRILLING MEASURED FROM
 EKB .F              5338:   KELLING BUSHING
 EDF .F              5337:   DRILLING FLOOR
 EGL .F              5326:   GROUND LEVEL
 DATE.        03-MAY-1984:   RUN DATE
 RUN .                  1:   RUN NUMBER
 DD  .F              4547:   DEPTH DRILLER
 DL  .F              4539:   DEPTH LOGGER
 BLI .F              4536:   BOTTOM LOG INTERVAL
 TLI .F              1021:   TOP LOG INTERVAL
 CS  .IN            8.625:   CASING SIZE
 CBD .F              1027:   CASING BOTTOM DRILLER
 CBL .F              1021:   CASING BOTTOM LOGGER
 BS  .IN            7.875:   BIT SIZE
 BSD .F              4547:   BIT SIZE AT DEPTH
 DFT .            KCL GEL:   DRILLING FLUID TYPE
 DFD .                9.1:   DRILLING FLUID DENSITY
 DFV .                 44:   DRILLING FLUID VISCOSITY
 DFPH.                  8:   DRILLING FLUID PH
 DFL .               14.5:   DRILLING FLUID LOSS
 MSS .            MUDTANK:   MUD SAMPLE SOURCE
 RMS .OHMM           0.56:   RESISTIVITY MUD SAMPLE
 MST .F                73:   MUD SAMPLE TEMPERATURE
 RMF .OHMM           0.42:   RESISTIVITY MUD FILTRATE SAMPLE
 MFST.F                73:   MUD FILTRATE SAMPLE TEMPERATURE
 RMC .OHMM           0.71:   RESISTIVITY MUD CAKE
 MCST.F                73:   MUD CAKE SAMPLE TEMPERATURE
 MFSS.               MEAS:   MUD FILTRATE SAMPLE SOURCE
 MCSS.               CALC:   MUD CAKE SAMPLE SOURCE
 RMB .OHMM           0.29:   RESISTIVITY MUD AT BHT
 BHT .F               141:   BOTTOM HOLE TEMPERATURE
 TCS .HRS             3.5:   TIME CURCULATED STOPPED
 MRT .F               125:   MAXIMUM RECORDED TEMPERATURE
 LUN .               6302:   LOGGING UNIT NUMBER
 LUL .               CODY:   LOGGING UNIT LOCATION
 ENGI.              GETTY:   RECORDING ENGINEER
 WITN.           JENNINGS:   WITNESSED BY
 CLNT.            A2DTECH:   CLIENT CODE
 ORIG.           5" PRINT:   ORIGIN OF DATA
 UWI .       490252268500:   UNIQUE WELL ID
 DICO. A2D Technologies, Inc.:   DIGITIZING COMPANY
~OTHER INFORMATION
~A    DEPT     CNC       PORD       RHOB       CORR         DT       RILD       RILM       CALR         GRR       SPR       RFOC   
# ...
 1281.0000  -999.2500  -999.2500  -999.2500  -999.2500  -999.2500    10.0390     9.0389    10.0723    83.4419    -5.4178     8.0287
 1281.5000  -999.2500  -999.2500  -999.2500  -999.2500  -999.2500     9.9014     8.9782    10.0574    81.6488    -5.5644     7.9181
 1282.0000  -999.2500  -999.2500  -999.2500  -999.2500  -999.2500     9.7657     8.8569    10.0576    80.4325    -5.7100     7.7549
 1282.5000  -999.2500  -999.2500  -999.2500  -999.2500  -999.2500     9.6988     8.6774    10.0577    79.8644    -5.5546     7.5951
 1283.0000  -999.2500  -999.2500  -999.2500  -999.2500  -999.2500     9.5659     8.5005    10.0579    81.3768    -5.5462     7.4904
 1283.5000  -999.2500  -999.2500  -999.2500  -999.2500  -999.2500     9.5004     8.3282    10.0580    86.1903    -5.2459     7.4386
 1284.0000  -999.2500  -999.2500  -999.2500  -999.2500  -999.2500     9.3703     8.2729    10.0432    86.4993    -4.9407     7.4386
 1284.5000  -999.2500  -999.2500  -999.2500  -999.2500  -999.2500     9.3062     8.3328    10.0283    85.6049    -4.6365     7.4904
 1285.0000  -999.2500  -999.2500  -999.2500  -999.2500  -999.2500     9.2425     8.3935    10.0285    86.2164    -4.6322     7.5951
 1285.5000  -999.2500  -999.2500  -999.2500  -999.2500  -999.2500     9.2433     8.3958    10.0136    85.9031    -4.4779     7.5951
 1286.0000  -999.2500  -999.2500  -999.2500  -999.2500  -999.2500     9.2439     8.3981     9.9988    82.6324    -4.4735     7.6480
 1286.5000  -999.2500  -999.2500  -999.2500  -999.2500  -999.2500     9.2445     8.3422     9.9840    80.5369    -4.3192     7.6480
 1287.0000  -999.2500  -999.2500  -999.2500  -999.2500  -999.2500     9.3095     8.3445     9.9691    85.9532    -4.0150     7.6480
 1287.5000  -999.2500  -999.2500  -999.2500  -999.2500  -999.2500     9.3343     8.3467     9.9693    90.7667    -4.1606     7.6480
 1288.0000  -999.2500  -999.2500  -999.2500  -999.2500  -999.2500     9.3755     8.2913     9.9544    93.1778    -4.4550     7.6480
 1288.5000  -999.2500  -999.2500  -999.2500  -999.2500  -999.2500     9.5071     8.2936     9.9546    93.1865    -4.7516     7.6480
 1289.0000  -999.2500  -999.2500  -999.2500  -999.2500  -999.2500     9.5078     8.2963     9.9547    92.5946    -4.8971     7.6480
 1289.5000  -999.2500  -999.2500  -999.2500  -999.2500  -999.2500     9.5747     8.2985     9.9699    92.6427    -5.1916     7.6480
 1290.0000  -999.2500  -999.2500  -999.2500  -999.2500  -999.2500     9.6420     8.3585    10.0000    93.5151    -5.1872     7.6480
 1290.5000  -999.2500  -999.2500  -999.2500  -999.2500  -999.2500     9.6426     8.4190    10.0451    92.0223    -5.1828     7.6480
 1291.0000  -999.2500  -999.2500  -999.2500  -999.2500  -999.2500     9.6433     8.4798    10.1053    89.0280    -5.1784     7.7013
 1291.5000  -999.2500  -999.2500  -999.2500  -999.2500  -999.2500     9.6439     8.5412    10.1664    88.4340    -4.8732     7.7013
 1292.0000  -999.2500  -999.2500  -999.2500  -999.2500  -999.2500     9.6446     8.5434    10.2405    89.0455    -4.7200     7.7013
 1292.5000  -999.2500  -999.2500  -999.2500  -999.2500  -999.2500     9.5786     8.5458    10.3006    88.4536    -5.1643     7.7549
 1293.0000  -999.2500  -999.2500  -999.2500  -999.2500  -999.2500     9.5130     8.4895    10.3607    85.4073    -5.4609     7.8089
 1293.5000  -999.2500  -999.2500  -999.2500  -999.2500  -999.2500     9.4479     8.4918    10.4209    83.3659    -5.6064     7.8089
 1294.0000  -999.2500  -999.2500  -999.2500  -999.2500  -999.2500     9.3185     8.4354    10.4510    86.0795    -5.7520     7.8089
 1294.5000  -999.2500  -999.2500  -999.2500  -999.2500  -999.2500     9.2546     8.4377    10.4511    88.4906    -5.7466     7.8089
 1295.0000  -999.2500  -999.2500  -999.2500  -999.2500  -999.2500     9.2554     8.3810    10.4513    88.7974    -5.5922     7.8089
 1295.5000  -999.2500  -999.2500  -999.2500  -999.2500  -999.2500     9.1920     8.2684    10.4664    86.1056    -5.4369     7.8089
 1296.0000  -999.2500  -999.2500  -999.2500  -999.2500  -999.2500     9.1926     8.2134    10.4666    84.0122    -5.4325     7.8089
 1296.5000  -999.2500  -999.2500  -999.2500  -999.2500  -999.2500     9.2572     8.2157    10.4817    84.6344    -5.4282     7.8089
 1297.0000  -999.2500  -999.2500  -999.2500  -999.2500  -999.2500     9.1940     8.1610    10.4819    85.5333    -5.5748     7.8089
 1297.5000  -999.2500  -999.2500  -999.2500  -999.2500  -999.2500     9.1946     8.0513    10.4820    86.1426    -5.7204     7.8089
 1298.0000  -999.2500  -999.2500  -999.2500  -999.2500  -999.2500     9.1316     7.9973    10.4822    86.7498    -5.5650     7.7013
 1298.5000  -999.2500  -999.2500  -999.2500  -999.2500  -999.2500     9.1323     7.8898    10.4823    85.2591    -5.5607     7.5951
 1299.0000  -999.2500  -999.2500  -999.2500  -999.2500  -999.2500     9.0697     7.8919    10.4825    78.3610    -5.4063     7.4904
 1299.5000  -999.2500  -999.2500  -999.2500  -999.2500  -999.2500     9.1335     7.9490    10.4826    73.5649    -5.4009     7.4904
 1300.0000  -999.2500  -999.2500  -999.2500  -999.2500  -999.2500     9.1342     7.9511    10.3778    72.3724    -5.5476     7.4831
 1300.5000  -999.2500  -999.2500  -999.2500  -999.2500  -999.2500     9.1356     8.0069    10.3611    79.4030    -5.8439     7.4401
 1301.0000  -999.2500  -999.2500  -999.2500  -999.2500  -999.2500     9.1923     7.9522    10.3332    85.5917    -6.1409     7.4938
 1301.5000  -999.2500  -999.2500  -999.2500  -999.2500  -999.2500     9.1948     8.0081    10.3183    88.9030    -6.1355     7.5475
 1302.0000  -999.2500  -999.2500  -999.2500  -999.2500  -999.2500     9.1973     8.0644    10.3034    88.7805    -5.9650     7.6016
 1302.5000  -999.2500  -999.2500  -999.2500  -999.2500  -999.2500     9.1361     8.0651    10.2736    85.6012    -5.6816     7.6032
 1303.0000  -999.2500  -999.2500  -999.2500  -999.2500  -999.2500     9.0753     8.1217    10.2438    82.0005    -5.6787     7.6047
 1303.5000  -999.2500  -999.2500  -999.2500  -999.2500  -999.2500     9.0779     8.1223    10.2139    80.5019    -5.9756     7.6063
 1304.0000  -999.2500  -999.2500  -999.2500  -999.2500  -999.2500     9.0175     8.1228    10.1841    80.2038    -6.1227     7.6078
 1304.5000  -999.2500  -999.2500  -999.2500  -999.2500  -999.2500     9.0204     8.0671    10.1393    82.3095    -6.2704     7.6093
 1305.0000  -999.2500  -999.2500  -999.2500  -999.2500  -999.2500     9.0080     8.0678    10.1094    82.6127    -6.4168     7.5582
 1305.5000  -999.2500  -999.2500  -999.2500  -999.2500  -999.2500     8.9622     8.0126    10.0796    83.2162    -6.5637     7.5075
 1306.0000  -999.2500  -999.2500  -999.2500  -999.2500  -999.2500     8.9026     7.9577    10.0647    84.1998    -6.2609     7.4571
 1306.5000  -999.2500  -999.2500  -999.2500  -999.2500  -999.2500     8.9055     7.9583    10.0499    88.0276    -5.6576     7.3558
 1307.0000  -999.2500  -999.2500  -999.2500  -999.2500  -999.2500     8.9080     7.9038    10.0501    88.3301    -5.5047     7.3064
 1307.5000  -999.2500  -999.2500  -999.2500  -999.2500  -999.2500     8.9104     7.8497    10.0352    84.1296    -5.3519     7.3082
 1308.0000  -999.2500  -999.2500  -999.2500  -999.2500  -999.2500     8.8511     7.8504    10.0504    80.8292    -5.3490     7.3097
 1308.5000  -999.2500  -999.2500  -999.2500  -999.2500  -999.2500     8.7928     7.8509    10.0670    78.7300    -5.3461     7.3112
 1309.0000  -999.2500  -999.2500  -999.2500  -999.2500  -999.2500     8.7337     7.9061    10.0807    82.6368    -5.3432     7.3127
 1309.5000  -999.2500  -999.2500  -999.2500  -999.2500  -999.2500     8.6756     7.9066    10.0808    85.0421    -5.3402     7.3142
 1310.0000  -999.2500  -999.2500  -999.2500  -999.2500  -999.2500     8.5588     7.9071    10.0810    85.6456    -5.4873     7.3157
 1310.5000  -999.2500  -999.2500  -999.2500  -999.2500  -999.2500     8.5013     7.9077    10.0811    84.7127    -5.4843     7.2665
 1311.0000  -999.2500  -999.2500  -999.2500  -999.2500  -999.2500     8.4452     7.8528    10.0813    82.9495    -5.4807     7.2177
