~VERSION INFORMATION
 VERS.                2.0:   CWLS LOG ASCII STANDARD - VERSION 2.0
 WRAP.                 NO:   ONE LINE PER DEPTH STEP
~WELL INFORMATION
#MNEM.UNIT      DATA TYPE    INFORMATION
#----------   ------------   ------------------------------
 STRT.F           12.0000:   START DEPTH
 STOP.F          793.0000:   STOP DEPTH
 STEP.F            0.5000:   STEP LENGTH
 NULL.          -999.2500:   NO VALUE
 COMP.   FLUOR DANIEL INC:   COMPANY
 WELL.   35-1-X-10 #35-10:   WELL
 FLD .            WILDCAT:   FIELD
 LOC .      S10 T38N R78W:   LOCATION
 CNTY.            NATRONA:   COUNTY
 STAT.            WYOMING:   STATE
 CTRY. UNITED STATES OF AMERICA:   COUNTRY
 SRVC.      Western Atlas:   SERVICE COMPANY
 DATE.        20-AUG-1996:   LOGDATE
 API .       490252282200:   API NUMBER
~CURVE INFORMATION
#MNEM.UNIT       API CODE    CURVE DESCRIPTION
#----------   ------------   ------------------------------
 DEPT.F                  :   
 RFOC.OHMM   07 220 04 00:   RESISTIVITY FOCUSED LOG
 RILD.OHMM   07 120 46 00:   INDUCTION LOG DEEP RESISTIVITY
 RILM.OHMM   07 120 44 00:   INDUCTION LOG MEDIUM RESISTIVITY
 SPR .MV     07 010 01 00:   SPONTANEOUS POTENTIAL
 CALD.IN     45 280 60 00:   CALIPER FROM DENSITY LOG
 GRD .GAPI   45 310 01 00:   GAMMA RAY FROM DENSITY LOG
 ZCOR.G/C3   45 356 01 00:   DENSITY CORRECTION
 ZDEN.G/C3   45 350 01 00:   BULK DENSITY
 PORZ.DEC    45 890 12 00:   DENSITY POROSITY SANDSTONE
 CNC .DEC    42 890 03 00:   NEUTRON POROSITY SANDSTONE
~PARAMETER INFORMATION
#MNEM.UNIT          VALUE    DESCRIPTION
#----------   ------------   ------------------------------
 PD  .                 GL:   PERMANENT DATUM
 EPD .F              5228:   ELEVATION PERMANENT DATUM
 LMF .                 KB:   LOG MEASURED FROM
 DAPD.F                10:   FEET ABOVE PERMANENT DATUM
 DMF .                 KB:   DRILLING MEASURED FROM
 EKB .F              5238:   KELLING BUSHING
 EGL .F              5228:   GROUND LEVEL
 DATE.        20-AUG-1996:   RUN DATE
 RUN .                  1:   RUN NUMBER
 DD  .F               794:   DEPTH DRILLER
 DL  .F               794:   DEPTH LOGGER
 BLI .F               793:   BOTTOM LOG INTERVAL
 TLI .F                12:   TOP LOG INTERVAL
 CS  .IN           13.375:   CASING SIZE
 CBD .F                58:   CASING BOTTOM DRILLER
 CBL .F                59:   CASING BOTTOM LOGGER
 BS  .IN            12.25:   BIT SIZE
 BSD .F               794:   BIT SIZE AT DEPTH
 DFT .           SPUD MUD:   DRILLING FLUID TYPE
 DFD .                9.2:   DRILLING FLUID DENSITY
 DFV .                 50:   DRILLING FLUID VISCOSITY
 DFPH.                  9:   DRILLING FLUID PH
 DFL .               13.8:   DRILLING FLUID LOSS
 MSS .              CIRC.:   MUD SAMPLE SOURCE
 RMS .OHMM           1.14:   RESISTIVITY MUD SAMPLE
 MST .F                77:   MUD SAMPLE TEMPERATURE
 RMF .OHMM           0.90:   RESISTIVITY MUD FILTRATE SAMPLE
 MFST.F                77:   MUD FILTRATE SAMPLE TEMPERATURE
 RMC .OHMM            1.4:   RESISTIVITY MUD CAKE
 MCST.F                77:   MUD CAKE SAMPLE TEMPERATURE
 MFSS.               CALC:   MUD FILTRATE SAMPLE SOURCE
 MCSS.               CALC:   MUD CAKE SAMPLE SOURCE
 RMB .OHMM            .84:   RESISTIVITY MUD AT BHT
 BHT .F               104:   BOTTOM HOLE TEMPERATURE
 TCS .HRS               3:   TIME CURCULATED STOPPED
 MRT .F               104:   MAXIMUM RECORDED TEMPERATURE
 LUN .            HL-6530:   LOGGING UNIT NUMBER
 LUL .             CASPER:   LOGGING UNIT LOCATION
 ENGI.           BROWNLOW:   RECORDING ENGINEER
 WITN.      SCHULTE/HARDY:   WITNESSED BY
 CLNT.            A2DTECH:   CLIENT CODE
 ORIG.           5" PRINT:   ORIGIN OF DATA
 UWI .       490252282200:   UNIQUE WELL ID
 DICO. A2D Technologies, Inc.:   DIGITIZING COMPANY
~OTHER INFORMATION
~A   DEPT     RFOC       RILD       RILM        SPR       CALD        GRD       ZCOR       ZDEN       PORZ        CNC   
# ...
  648.5000     7.3434     7.6706     7.4715   -27.2359    12.4476    81.8641     0.0358     2.5076     0.0867     0.3537
  649.0000     7.3951     7.6170     7.5230   -27.0831    12.4474    83.9101     0.0324     2.5106     0.0852     0.3465
  649.5000     7.3957     7.5637     7.4704   -26.9304    12.4434    85.7561     0.0352     2.5121     0.0831     0.3441
  650.0000     7.3937     7.5079     7.4613   -26.6263    12.4318    87.3107     0.0352     2.5015     0.0876     0.3531
  650.5000     7.3637     7.4702     7.3662   -26.5909    12.4305    84.8943     0.0409     2.4955     0.0931     0.3637
  651.0000     7.3337     7.4041     7.4681   -26.5555    12.4292    84.5921     0.0485     2.4955     0.0943     0.3624
  651.5000     7.3037     7.4026     7.3131   -26.5201    12.4279    84.5921     0.0621     2.5075     0.0900     0.3531
  652.0000     7.2327     7.3983     7.2589   -26.4847    12.4266    85.1964     0.0561     2.5158     0.0839     0.3474
  652.5000     7.0861     7.2467     7.2102   -26.4750    12.4253    86.4048     0.0439     2.5075     0.0861     0.3516
  653.0000     7.0356     7.1951     7.2596   -26.4750    12.4240    87.0091     0.0439     2.5022     0.0894     0.3525
  653.5000     7.0342     7.2441     7.3092   -26.6263    12.4228    87.9154     0.0439     2.5014     0.0900     0.3524
  654.0000     7.0328     7.2932     7.3591   -26.6263    12.4215    86.3806     0.0500     2.5021     0.0900     0.3452
  654.5000     7.0826     7.3422     7.4606   -26.6263    12.4202    84.5921     0.0621     2.5044     0.0897     0.3458
  655.0000     7.1779     7.4434     7.4596   -26.7776    12.4199    84.8943     0.0727     2.5059     0.0887     0.3504
  655.5000     7.2266     7.4938     7.4584   -26.7776    12.4202    86.1027     0.0773     2.5082     0.0878     0.3552
  656.0000     7.2251     7.4401     7.4574   -26.7776    12.4205    85.8006     0.0788     2.5104     0.0869     0.3558
  656.5000     7.2237     7.3360     7.4564   -26.7776    12.4208    84.2579     0.0696     2.5134     0.0854     0.3549
  657.0000     7.2223     7.2333     7.4554   -26.7776    12.4211    83.0816     0.0515     2.5157     0.0832     0.3552
  657.5000     7.2205     7.1818     7.4029   -26.7776    12.4215    83.3837     0.0545     2.5149     0.0827     0.3585
  658.0000     7.1690     7.1800     7.2997   -26.7776    12.4218    84.2900     0.0591     2.5043     0.0875     0.3627
  658.5000     7.1179     7.1289     7.1982   -26.7776    12.4221    84.2900     0.0652     2.5050     0.0890     0.3683
  659.0000     7.1164     7.1275     7.1475   -26.7776    12.4224    84.2900     0.0697     2.5080     0.0872     0.3739
  659.5000     7.1150     7.0278     7.0481   -26.7776    12.4227    83.6858     0.0727     2.5110     0.0850     0.3690
  660.0000     7.1136     6.8815     6.9021   -26.7776    12.4230    83.3837     0.0667     2.5125     0.0838     0.3597
  660.5000     6.9650     6.7329     6.7071   -26.7776    12.4233    84.5921     0.0621     2.5065     0.0844     0.3587
  661.0000     6.7255     6.4168     6.2616   -26.7776    12.4236    86.4129     0.0561     2.4966     0.0871     0.3627
  661.5000     6.2723     6.1111     5.9640   -26.7776    12.4087    88.8218     0.0455     2.4830     0.0919     0.3681
  662.0000     6.0567     5.8604     5.7600   -26.7776    12.4242    89.1239     0.0394     2.4717     0.0992     0.3753
  662.5000     6.0100     5.7784     5.7194   -26.7776    12.4245    88.5196     0.0424     2.4702     0.1091     0.3814
  663.0000     6.2248     5.8995     5.8807   -26.9289    12.4248    87.9154     0.0455     2.4853     0.1103     0.3826
  663.5000     6.5797     6.2345     6.2572   -27.0802    12.4402    86.6507     0.0515     2.5019     0.1037     0.3751
  664.0000     6.8588     6.4535     6.3881   -27.0802    12.4405    85.4985     0.0576     2.5071     0.0934     0.3647
  664.5000     7.0509     6.5881     6.6124   -27.2315    12.4408    85.4985     0.0500     2.4943     0.0873     0.3511
  665.0000     7.2485     6.8671     6.8448   -27.2315    12.4713    84.8943     0.0333     2.4882     0.0901     0.3415
  665.5000     7.4511     7.1579     7.1347   -27.2315    12.4740    83.9879     0.0348     2.4867     0.0982     0.3372
  666.0000     7.6067     7.4658     7.4466   -27.2315    12.4560    82.7795     0.0486     2.4942     0.0997     0.3351
  666.5000     7.7656     7.8308     7.7516   -27.2375    12.4420    83.6858     0.0576     2.5025     0.0982     0.3354
  667.0000     7.9278     8.0502     8.0241   -27.3828    12.4272    84.5921     0.0576     2.5147     0.0919     0.3382
  667.5000     8.0934     8.1612     8.1917   -27.5340    12.4275    83.9879     0.0561     2.5251     0.0843     0.3387
  668.0000     8.1482     8.2737     8.3628   -27.5340    12.4278    82.7754     0.0561     2.5282     0.0789     0.3366
  668.5000     8.1462     8.4458     8.4785   -27.6853    12.4297    81.2689     0.0561     2.5213     0.0740     0.3366
  669.0000     8.1446     8.6219     8.5958   -27.6853    12.4436    80.6646     0.0591     2.5145     0.0755     0.3372
  669.5000     8.1430     8.6798     8.7147   -27.6853    12.4438    81.2689     0.0576     2.5114     0.0814     0.3388
  670.0000     8.1413     8.6781     8.7132   -27.6853    12.4592    82.7795     0.0576     2.5092     0.0833     0.3453
  670.5000     8.1397     8.6764     8.7121   -27.6853    12.4595    84.6164     0.0561     2.5062     0.0836     0.3499
  671.0000     8.1377     8.6747     8.7109   -27.6853    12.4575    85.4985     0.0543     2.5039     0.0851     0.3514
  671.5000     8.1361     8.7378     8.7098   -27.6853    12.4450    82.7795     0.0500     2.5054     0.0878     0.3541
  672.0000     8.1916     8.7925     8.7083   -27.6853    12.4302    80.3625     0.0515     2.5144     0.0872     0.3575
  672.5000     8.3044     8.8519     8.7678   -27.6853    12.4305    80.3625     0.0561     2.5190     0.0839     0.3559
  673.0000     8.4190     8.8497     8.7666   -27.6853    12.4308    80.6646     0.0576     2.5189     0.0791     0.3477
  673.5000     8.5348     8.7867     8.7654   -27.8366    12.4312    80.6646     0.0591     2.5099     0.0830     0.3399
  674.0000     8.5331     8.7849     8.7643   -27.8366    12.4466    80.6646     0.0545     2.5030     0.0866     0.3398
  674.5000     8.5314     8.7832     8.7025   -27.8366    12.4469    80.6646     0.0545     2.5008     0.0905     0.3441
  675.0000     8.4706     8.7814     8.7011   -27.8366    12.4471    80.9668     0.0561     2.5038     0.0875     0.3371
  675.5000     8.4102     8.6581     8.7000   -27.8366    12.4474    82.4773     0.0559     2.5068     0.0869     0.3338
  676.0000     8.2919     8.5965     8.6387   -27.8366    12.4478    83.0816     0.0485     2.5037     0.0887     0.3323
  676.5000     8.1191     8.4175     8.5185   -27.8366    12.4481    82.1752     0.0439     2.5046     0.0887     0.3275
  677.0000     7.8947     8.2997     8.3420   -27.8366    12.4333    81.8731     0.0379     2.5082     0.0871     0.3256
  677.5000     7.7841     8.1269     8.2258   -27.8366    12.4486    82.4975     0.0333     2.5135     0.0838     0.3401
  678.0000     7.6750     8.0087     8.1114   -27.8366    12.4489    82.7795     0.0365     2.5188     0.0808     0.3329
  678.5000     7.6199     7.8460     7.9433   -27.6853    12.4493    82.4773     0.0500     2.5218     0.0775     0.3314
  679.0000     7.5656     7.7901     7.8328   -27.5340    12.4496    82.4773     0.0606     2.5271     0.0759     0.3413
  679.5000     7.5640     7.7347     7.7239   -27.5340    12.4499    82.4773     0.0682     2.5263     0.0747     0.3482
  680.0000     7.6157     7.7331     7.7157   -27.3828    12.4502    82.7795     0.0697     2.5202     0.0762     0.3443
  680.5000     7.6138     7.7316     7.6682   -27.2315    12.4505    82.7795     0.0680     2.5164     0.0789     0.3437
  681.0000     7.6654     7.7300     7.6672   -27.0802    12.4508    83.0816     0.0591     2.5164     0.0807     0.3479
  681.5000     7.7709     7.7281     7.7733   -26.9289    12.4511    84.8943     0.0500     2.5225     0.0804     0.3576
