~VERSION INFORMATION
 VERS.                2.0:   CWLS LOG ASCII STANDARD - VERSION 2.0
 WRAP.                 NO:   ONE LINE PER DEPTH STEP
~WELL INFORMATION
#MNEM.UNIT      DATA TYPE    INFORMATION
#----------   ------------   ------------------------------
 STRT.F           18.0000:   START DEPTH
 STOP.F          449.0000:   STOP DEPTH
 STEP.F            0.5000:   STEP LENGTH
 NULL.          -999.2500:   NO VALUE
 COMP.   LAWRENCE-ALLISON:   COMPANY
 WELL. NPR 3 #51-46SX10OB4:   WELL
 FLD .             TEAPOT:   FIELD
 LOC .      S10 T38N R78W:   LOCATION
 CNTY.            NATRONA:   COUNTY
 STAT.            WYOMING:   STATE
 CTRY. UNITED STATES OF AMERICA:   COUNTRY
 SRVC.      Dresser Atlas:   SERVICE COMPANY
 DATE.        19-NOV-1984:   LOGDATE
 API .       490251100700:   API NUMBER
~CURVE INFORMATION
#MNEM.UNIT       API CODE    CURVE DESCRIPTION
#----------   ------------   ------------------------------
 DEPT.F                  :   
 AC  .US/F   60 520 00 00:   ACCOUSTIC
 PORD.DEC    45 890 12 00:   POROSITY DENSITY SANDSTONE
 CNC .DEC    42 890 03 00:   NEUTRON POROSITY SANDSTONE
 CALD.IN     45 280 60 00:   CALIPER FROM DENSITY
 CORR.G/C3   45 356 01 00:   DENSITY CORRECTION
 DEN .G/C3   45 350 01 00:   COMPENSATED BULK DENSTIY
 GRD .GAPI   45 310 01 00:   GAMMA RAY FROM DENSITY LOG
~PARAMETER INFORMATION
#MNEM.UNIT          VALUE    DESCRIPTION
#----------   ------------   ------------------------------
 PD  .                 GL:   PERMANENT DATUM
 EPD .F              5163:   ELEVATION PERMANENT DATUM
 LMF .                 GL:   LOG MEASURED FROM
 DMF .                 GL:   DRILLING MEASURED FROM
 EGL .F              5163:   GROUND LEVEL
 DATE.        19-DEC-1984:   RUN DATE
 RUN .                  1:   RUN NUMBER
 DD  .F               450:   DEPTH DRILLER
 DL  .F               451:   DEPTH LOGGER
 BLI .F               449:   BOTTOM LOG INTERVAL
 TLI .F                20:   TOP LOG INTERVAL
 CS  .IN            8.625:   CASING SIZE
 CBD .F                20:   CASING BOTTOM DRILLER
 CBL .F                20:   CASING BOTTOM LOGGER
 BS  .IN             6.25:   BIT SIZE
 BSD .F               450:   BIT SIZE AT DEPTH
 DFT .          KCL WATER:   DRILLING FLUID TYPE
 MSS .            MUDTANK:   MUD SAMPLE SOURCE
 RMS .OHMM          0.146:   RESISTIVITY MUD SAMPLE
 MST .F               100:   MUD SAMPLE TEMPERATURE
 RMF .OHMM          0.110:   RESISTIVITY MUD FILTRATE SAMPLE
 MFST.F               100:   MUD FILTRATE SAMPLE TEMPERATURE
 RMC .OHMM          0.183:   RESISTIVITY MUD CAKE
 MCST.F               100:   MUD CAKE SAMPLE TEMPERATURE
 MFSS.               CALC:   MUD FILTRATE SAMPLE SOURCE
 MCSS.               CALC:   MUD CAKE SAMPLE SOURCE
 TCS .HRS               2:   TIME CURCULATED STOPPED
 MRT .F               100:   MAXIMUM RECORDED TEMPERATURE
 LUN .               6270:   LOGGING UNIT NUMBER
 ENGI.        TOM GAUGHAN:   RECORDING ENGINEER
 WITN.              LUERS:   WITNESSED BY
 CLNT.            A2DTECH:   CLIENT CODE
 ORIG.           5" PRINT:   ORIGIN OF DATA
 UWI .       490251100700:   UNIQUE WELL ID
 DICO. A2D Technologies, Inc.:   DIGITIZING COMPANY
~OTHER INFORMATION
~A   DEPT        AC      PORD        CNC       CALD       CORR        DEN        GRD   
# ...
  336.5000    92.0987     0.2081     0.2711     6.3545     0.0172     2.3290    72.4685
  337.0000    84.9229     0.2054     0.2632     6.3388     0.0262     2.3350    75.4909
  337.5000    81.4716     0.2005     0.2451     6.3382     0.0261     2.3509    76.6718
  338.0000    75.1115     0.1869     0.2113     6.3528     0.0245     2.3797    76.4458
  338.5000    70.8740     0.1641     0.1871     6.3673     0.0244     2.4221    73.3378
  339.0000    73.3189     0.1429     0.1599     6.3665     0.0167     2.4615    66.2705
  339.5000    77.8078     0.1065     0.1560     6.3509     0.0075     2.5063    63.7073
  340.0000    87.0137     0.0777     0.1572     6.3503     0.0119     2.5646    64.1561
  340.5000    93.1536     0.0671     0.1790     6.3497     0.0209     2.5692    67.4663
  341.0000    95.7558     0.0872     0.2101     6.3491     0.0239     2.5046    70.3248
  341.5000    97.4931     0.1256     0.2370     6.3485     0.0283     2.4378    72.4303
  342.0000    98.5229     0.1676     0.2539     6.3631     0.0282     2.3839    74.5357
  342.5000    99.3955     0.1856     0.2600     6.3776     0.0281     2.3641    75.4363
  343.0000    99.6392     0.1927     0.2624     6.3920     0.0204     2.3550    75.4333
  343.5000    99.3306     0.1970     0.2651     6.3913     0.0097     2.3504    75.1292
  344.0000    99.0239     0.2025     0.2712     6.3907     0.0020     2.3427    74.8257
  344.5000    99.0337     0.1994     0.2742     6.4051     0.0216     2.3442    76.4786
  345.0000    99.1987     0.1940     0.2733     6.4045     0.0290     2.3548    79.3371
  345.5000    99.0493     0.1894     0.2703     6.4039     0.0244     2.3623    80.9907
  346.0000    98.7407     0.1882     0.2676     6.4033    -0.0003     2.3592    79.6323
  346.5000    98.2001     0.1946     0.2673     6.4027    -0.0076     2.3516    77.8221
  347.0000    97.8934     0.1965     0.2685     6.4021     0.0031     2.3493    79.3251
  347.5000    97.5082     0.1949     0.2676     6.4015     0.0121     2.3532    81.5812
  348.0000    97.2013     0.1919     0.2673     6.4009     0.0196     2.3585    84.1384
  348.5000    96.8946     0.1886     0.2716     6.4002     0.0177     2.3605    83.6837
  349.0000    96.8239     0.1916     0.2752     6.3996     0.0070     2.3552    79.6144
  349.5000    96.9104     0.1947     0.2716     6.3990     0.0024     2.3521    75.6958
  350.0000    96.9969     0.1931     0.2695     6.3995     0.0022     2.3559    75.2410
  350.5000    97.2406     0.1871     0.2698     6.4104     0.0006     2.3655    78.8524
  351.0000    97.3317     0.1844     0.2698     6.4214    -0.0009     2.3687    80.3554
  351.5000    97.5708     0.1841     0.2704     6.4324    -0.0025     2.3701    80.9548
  352.0000    97.4120     0.1817     0.2719     6.4424     0.0049     2.3732    81.5542
  352.5000    97.2484     0.1787     0.2726     6.4421     0.0185     2.3784    80.4970
  353.0000    96.7154     0.1817     0.2704     6.4418     0.0153     2.3753    79.1385
  353.5000    96.0314     0.1842     0.2708     6.4415     0.0031     2.3715    80.7922
  354.0000    95.4889     0.1848     0.2705     6.4261     0.0136     2.3692    83.1988
  354.5000    95.4161     0.1823     0.2563     6.4258     0.0030     2.3707    83.1958
  355.0000    95.4259     0.1799     0.2436     6.4255    -0.0047     2.3753    82.2892
  355.5000    95.2765     0.1816     0.2364     6.4252    -0.0033     2.3759    81.2319
  356.0000    95.0484     0.1839     0.2367     6.4400     0.0012     2.3705    83.6385
  356.5000    94.7418     0.1824     0.2373     6.4396     0.0011     2.3707    88.9066
  357.0000    94.5118     0.1785     0.2350     6.4243    -0.0005     2.3822    91.4639
  357.5000    94.4429     0.1715     0.2291     6.4090     0.0054     2.3912    92.5151
  358.0000    94.3721     0.1670     0.2249     6.4087     0.0129     2.3972    93.4157
  358.5000    94.2993     0.1655     0.2276     6.4084     0.0234     2.4025    93.8645
  359.0000    94.0732     0.1615     0.2343     6.4081     0.0369     2.4101    91.1506
  359.5000    93.6879     0.1579     0.2388     6.4078     0.0414     2.4153    86.3283
  360.0000    93.3007     0.1561     0.2476     6.3924     0.0382     2.4181    84.5181
  360.5000    92.7274     0.1576     0.2519     6.3921     0.0304     2.4142    84.5151
  361.0000    92.4978     0.1591     0.2494     6.3918     0.0198     2.4134    84.0602
  361.5000    92.1109     0.1595     0.2443     6.3765     0.0151     2.4157    82.5512
  362.0000    91.8813     0.1561     0.2307     6.3762     0.0137     2.4179    81.3434
  362.5000    91.6517     0.1549     0.2271     6.3609     0.0119     2.4186    80.7380
  363.0000    91.1863     0.1552     0.2268     6.3756     0.0090     2.4178    80.1325
  363.5000    90.6422     0.1577     0.2308     6.3753     0.0089     2.4163    78.3223
  364.0000    90.1767     0.1611     0.2298     6.3750     0.0088     2.4124    78.7711
  364.5000    89.9456     0.1583     0.2207     6.3747     0.0102     2.4109    81.4789
  365.0000    89.8732     0.1532     0.2230     6.3744     0.0086     2.4146    82.3795
  365.5000    90.0382     0.1486     0.2450     6.3590     0.0085     2.4267    81.0211
  366.0000    90.2017     0.1493     0.2535     6.3587     0.0099     2.4313    79.9639
  366.5000    89.9721     0.1524     0.2414     6.3584     0.0083     2.4267    79.8102
  367.0000    89.8981     0.1541     0.2354     6.3581     0.0037     2.4213    79.3554
  367.5000    89.3556     0.1511     0.2375     6.3578     0.0051     2.4251    79.2018
  368.0000    88.3398     0.1353     0.2396     6.3575     0.0111     2.4432    80.1024
  368.5000    87.0882     0.1269     0.2408     6.3723     0.0488     2.4667    82.2078
  369.0000    85.2863     0.1220     0.2378     6.3569     0.0744     2.4781    82.6566
  369.5000    84.4276     0.1163     0.2354     6.3416     0.0804     2.4849    80.8464
  370.0000    85.5346     0.1096     0.2330     6.3413     0.0486     2.4932    81.1446
  370.5000    86.6493     0.1044     0.2303     6.3260     0.0333     2.5022    82.3464
  371.0000    87.5284     0.1038     0.2279     6.3106     0.0378     2.5052    82.7952
  371.5000    87.9198     0.1102     0.2285     6.3103     0.0437     2.4931    81.7380
  372.0000    88.0755     0.1206     0.2385     6.3100     0.0346     2.4809    80.5301
  372.5000    88.0818     0.1248     0.2406     6.3097     0.0194     2.4741    78.8705
  373.0000    88.0893     0.1267     0.2365     6.3094     0.0041     2.4702    77.8132
  373.5000    88.0955     0.1276     0.2334     6.3091     0.0116     2.4679    78.1115
  374.0000    88.1018     0.1279     0.2412     6.3088     0.0282     2.4663    80.5181
  374.5000    88.1866     0.1282     0.2415     6.3085     0.0326     2.4663    84.7319
  375.0000    88.1929     0.1279     0.2346     6.2932     0.0265     2.4655    88.9458
  375.5000    88.1991     0.1276     0.2349     6.2929     0.0188     2.4662    91.3524
  376.0000    88.3626     0.1246     0.2388     6.2926     0.0278     2.4684    91.0482
  376.5000    88.4474     0.1207     0.2521     6.2923     0.0413     2.4752    88.9367
  377.0000    88.4537     0.1210     0.2597     6.2920     0.0473     2.4782    87.7289
  377.5000    88.4599     0.1219     0.2606     6.2917     0.0351     2.4774    88.3283
  378.0000    88.4661     0.1216     0.2528     6.2914     0.0274     2.4751    88.9277
  378.5000    88.4724     0.1176     0.2486     6.3062     0.0243     2.4781    88.3223
  379.0000    88.4786     0.1138     0.2434     6.3058     0.0273     2.4849    87.8675
  379.5000    88.4062     0.1162     0.2374     6.3055     0.0317     2.4894    87.7139
  380.0000    88.1766     0.1199     0.2311     6.3052     0.0301     2.4863    87.5602
  380.5000    87.8684     0.1232     0.2271     6.3049     0.0164     2.4810    87.5572
  381.0000    87.7945     0.1259     0.2244     6.3046     0.0027     2.4749    88.9096
  381.5000    88.0381     0.1290     0.2241     6.3194     0.0117     2.4665    92.5211
