~VERSION INFORMATION
 VERS.                2.0:   CWLS LOG ASCII STANDARD - VERSION 2.0
 WRAP.                 NO:   ONE LINE PER DEPTH STEP
~WELL INFORMATION
#MNEM.UNIT      DATA TYPE    INFORMATION
#----------   ------------   ------------------------------
 STRT.F           46.0000:   START DEPTH
 STOP.F          522.0000:   STOP DEPTH
 STEP.F            0.5000:   STEP LENGTH
 NULL.          -999.2500:   NO VALUE
 COMP.       F D SERV INC:   COMPANY
 WELL.  82-4 SX 10 #82-10:   WELL
 FLD .             TEAPOT:   FIELD
 LOC .      S10 T38N R78W:   LOCATION
 CNTY.            NATRONA:   COUNTY
 STAT.            WYOMING:   STATE
 CTRY. UNITED STATES OF AMERICA:   COUNTRY
 SRVC.     Atlas Wireline:   SERVICE COMPANY
 DATE.        04-FEB-1993:   LOGDATE
 API .       490252257900:   API NUMBER
~CURVE INFORMATION
#MNEM.UNIT       API CODE    CURVE DESCRIPTION
#----------   ------------   ------------------------------
 DEPT.F                  :   
 C13 .IN     45 280 13 00:   CALIPER FROM DENSITY LOG
 GRD .GAPI   45 310 01 00:   GAMMA RAY FROM DENSITY LOG
 PORS.DEC    42 890 03 00:   NEUTRON POROSITY SANDSTONE
 PORZ.DEC    45 890 12 00:   DENSITY POROSITY SANDSTONE
 ZCOR.G/C3   45 356 01 00:   DENSITY CORRECTION
 ZDEN.G/C3   45 350 01 00:   BULK DENSITY
 RILD.OHMM   07 120 46 00:   INDUCTION LOG DEEP RESISTIVITY
 RILM.OHMM   07 120 44 00:   INDUCTION LOG MEDIUM RESISTIVITY
~PARAMETER INFORMATION
#MNEM.UNIT          VALUE    DESCRIPTION
#----------   ------------   ------------------------------
 PD  .                 GL:   PERMANENT DATUM
 EPD .F              5145:   ELEVATION PERMANENT DATUM
 LMF .                 KB:   LOG MEASURED FROM
 DAPD.F                10:   FEET ABOVE PERMANENT DATUM
 DMF .                 KB:   DRILLING MEASURED FROM
 EKB .F              5155:   KELLING BUSHING
 EDF .F              5154:   DRILLING FLOOR
 EGL .F              5145:   GROUND LEVEL
 DATE.        04-FEB-1993:   RUN DATE
 RUN .                  1:   RUN NUMBER
 DD  .F               525:   DEPTH DRILLER
 DL  .F               525:   DEPTH LOGGER
 BLI .F               517:   BOTTOM LOG INTERVAL
 TLI .F                81:   TOP LOG INTERVAL
 CS  .IN            8.625:   CASING SIZE
 CBD .F                45:   CASING BOTTOM DRILLER
 CBL .F                81:   CASING BOTTOM LOGGER
 BS  .IN            7.875:   BIT SIZE
 BSD .F               525:   BIT SIZE AT DEPTH
 DFT .                AIR:   DRILLING FLUID TYPE
 MRT .F                58:   MAXIMUM RECORDED TEMPERATURE
 LUN .            HL 6274:   LOGGING UNIT NUMBER
 LUL .             CASPER:   LOGGING UNIT LOCATION
 ENGI.          V. RAUTIO:   RECORDING ENGINEER
 WITN.          G. STRONG:   WITNESSED BY
 CLNT.            A2DTECH:   CLIENT CODE
 ORIG.           5" PRINT:   ORIGIN OF DATA
 UWI .       490252257900:   UNIQUE WELL ID
 DICO. A2D Technologies, Inc.:   DIGITIZING COMPANY
~OTHER INFORMATION
~A   DEPT      C13         GRD      PORS       PORZ       ZCOR       ZDEN       RILD       RILM   
# ...
  167.5000     8.4584   152.1435     0.3150     0.1105    -0.0002     2.4641     7.7397     7.6863
  168.0000     8.4584   152.7404     0.3141     0.1110     0.0013     2.4656     7.6344     7.5817
  168.5000     8.4585   153.9370     0.3135     0.1122     0.0058     2.4649     7.5828     7.5305
  169.0000     8.4586   155.7326     0.3132     0.1134     0.0073     2.4641     7.5315     7.4283
  169.5000     8.4587   156.6293     0.3126     0.1131     0.0118     2.4641     7.4808     7.2767
  170.0000     8.4588   157.5267     0.3159     0.1125     0.0163     2.4642     7.3791     7.1777
  170.5000     8.4589   157.5232     0.3171     0.1122     0.0194     2.4642     7.2285     7.0802
  171.0000     8.4590   158.1194     0.3174     0.1122     0.0119     2.4642     7.1301     6.8880
  171.5000     8.4591   159.0162     0.3174     0.1112     0.0029     2.4649     6.8890     6.6089
  172.0000     8.4592   159.6137     0.3177     0.1133    -0.0031     2.4627     6.5191     6.2543
  172.5000     8.4593   159.3104     0.3182     0.1172    -0.0001     2.4582     5.9405     5.7570
  173.0000     8.4594   160.5063     0.3205     0.1193     0.0044     2.4544     5.2993     5.2265
  173.5000     8.4595   163.2021     0.3238     0.1190     0.0090     2.4544     5.0496     5.0846
  174.0000     8.4588   166.4976     0.3295     0.1184     0.0060     2.4537     5.0502     5.0502
  174.5000     8.4582   165.5352     0.3388     0.1289    -0.0030     2.4386     5.0511     5.0160
  175.0000     8.4575   160.5339     0.3529     0.1489    -0.0030     2.4115     5.0517     5.0517
  175.5000     8.4569   155.6941     0.3536     0.1713    -0.0015     2.3736     5.1583     5.1661
  176.0000     8.4563   151.7925     0.3493     0.1848     0.0210     2.3445     5.3444     5.3776
  176.5000     8.4557   155.0881     0.3319     0.1878     0.0330     2.3573     5.6451     5.6842
  177.0000     8.4551   156.8844     0.3186     0.1610     0.0121     2.3829     5.8041     6.0499
  177.5000     8.4545   157.4812     0.3202     0.1255     0.0136     2.4233     6.0508     6.5291
  178.0000     8.4539   158.0774     0.3247     0.1125     0.0151     2.4635     6.5300     6.8538
  178.5000     8.4532   158.6750     0.3223     0.1116     0.0121     2.4643     6.9502     7.1451
  179.0000     8.4526   159.8709     0.3198     0.1116     0.0061     2.4650     7.1461     7.3005
  179.5000     8.4520   161.0675     0.3186     0.1116     0.0016     2.4651     7.3474     7.5016
  180.0000     8.4514   162.8638     0.3198     0.1113     0.0031     2.4658     7.5547     7.6598
  180.5000     8.4508   163.1608     0.3211     0.1107     0.0062     2.4673     7.6609     7.7140
  181.0000     8.4502   162.2577     0.3214     0.1091     0.0032     2.4688     7.7686     7.8769
  181.5000     8.4495   162.2549     0.3205     0.1052     0.0002     2.4756     7.8235     7.9326
  182.0000     8.4489   160.4523     0.3180     0.0974     0.0002     2.4862     7.8791     8.0441
  182.5000     8.4483   158.0507     0.3126     0.0880     0.0122     2.5035     7.9348     8.1010
  183.0000     8.4477   155.9489     0.3102     0.0648     0.0182     2.5306     7.9908     8.1585
  183.5000     8.4471   156.9496     0.3078     0.0462     0.0122     2.5833     8.0476     8.2162
  184.0000     8.4465   161.0400     0.3104     0.0386     0.0003     2.5773     8.1045     8.2743
  184.5000     8.4458   162.2373     0.3156     0.0648     0.0048     2.5337     8.2184     8.3906
  185.0000     8.4452   161.0344     0.3174     0.0961     0.0063     2.4945     8.2195     8.3919
  185.5000     8.4446   161.7072     0.3186     0.1015     0.0078     2.4810     8.3353     8.5099
  186.0000     8.4440   164.6263     0.3198     0.1039     0.0063     2.4795     8.3942     8.5700
  186.5000     8.4434   167.9218     0.3195     0.1024     0.0063     2.4795     8.4535     8.6309
  187.0000     8.4428   170.0180     0.3180     0.1020     0.0034     2.4780     8.5133     8.6320
  187.5000     8.4422   170.3150     0.3168     0.1041     0.0004     2.4772     8.5737     8.6331
  188.0000     8.4415   165.8137     0.3162     0.1047    -0.0011     2.4802     8.6343     8.6343
  188.5000     8.4409   162.2127     0.3150     0.1043    -0.0056     2.4825     8.6954     8.6357
  189.0000     8.4403   161.0105     0.3144     0.0996    -0.0041     2.4856     8.6968     8.6368
  189.5000     8.4397   161.6073     0.3135     0.0956    -0.0026     2.4908     8.6979     8.6379
  190.0000     8.4391   162.2042     0.3126     0.0935    -0.0010     2.4946     8.6990     8.6390
  190.5000     8.4385   162.2007     0.3114     0.0923    -0.0010     2.4976     8.6956     8.5806
  191.0000     8.4378   160.3988     0.3111     0.0941    -0.0010     2.4952     8.5818     8.5226
  191.5000     8.4372   159.1959     0.3108     0.0962    -0.0025     2.4903     8.4650     8.4069
  192.0000     8.4366   159.4936     0.3114     0.0989    -0.0025     2.4841     8.3501     8.3500
  192.5000     8.4360   159.7906     0.3156     0.1007    -0.0115     2.4826     8.2368     8.2936
  193.0000     8.4354   160.0949     0.3174     0.1019    -0.0085     2.4826     8.2378     8.2375
  193.5000     8.4348   160.6832     0.3174     0.1006     0.0006     2.4833     8.1818     8.1820
  194.0000     8.4341   161.5806     0.3168     0.0994     0.0126     2.4841     8.1260     8.0710
  194.5000     8.4335   163.0763     0.3165     0.1009     0.0156     2.4826     7.9064     7.9609
  195.0000     8.4329   163.9731     0.3165     0.1021     0.0072     2.4819     7.7450     7.7987
  195.5000     8.4323   164.5699     0.3174     0.1027    -0.0039     2.4819     7.5347     7.5349
  196.0000     8.4317   166.6654     0.3199     0.1021    -0.0009     2.4826     7.3181     7.2798
  196.5000     8.4311   168.1618     0.3229     0.1018     0.0036     2.4826     6.9368     6.8414
  197.0000     8.4304   169.3903     0.3247     0.1011     0.0067     2.4826     6.5643     6.5637
  197.5000     8.4298   169.6554     0.3271     0.1005     0.0037     2.4780     6.1266     6.1267
  198.0000     8.4290   168.1527     0.3316     0.1101     0.0007     2.4601     5.3732     5.5621
  198.5000     8.4282   166.9504     0.3379     0.1195     0.0007     2.4465     4.8110     4.9802
  199.0000     8.4274   165.6601     0.3433     0.1264    -0.0008     2.4375     4.1326     4.2551
  199.5000     8.4266   165.1457     0.3481     0.1351    -0.0053     2.4267     3.5938     3.4771
  200.0000     8.4258   166.9413     0.3538     0.1510    -0.0142     2.4074     3.1350     3.0919
  200.5000     8.4250   168.7376     0.3638     0.1642    -0.0202     2.3871     2.8070     2.8461
  201.0000     8.4242   169.3345     0.3746     0.1931    -0.0112     2.3410     2.6380     2.6747
  201.5000     8.4233   168.7961     0.3812     0.2189    -0.0067     2.2901     2.5842     2.6202
  202.0000     8.4225   163.6873     0.3812     0.2485     0.0008     2.2169     2.6206     2.6286
  202.5000     8.4217   158.5786     0.3773     0.2840     0.0166     2.1800     2.6574     2.6583
  203.0000     8.4209   153.1120     0.3643     0.2882     0.0428     2.1851     2.6948     2.8090
  203.5000     8.4201   153.7061     0.3433     0.2653     0.0518     2.2103     2.8094     3.0314
  204.0000     8.4193   158.4967     0.3366     0.2232     0.0353     2.2622     3.0528     3.3399
  204.5000     8.4185   160.8899     0.3405     0.1675     0.0234     2.3575     3.5549     3.8359
  205.0000     8.4177   163.2831     0.3375     0.1389     0.0159     2.4361     4.0688     4.3449
  205.5000     8.4169   165.1465     0.3330     0.1160     0.0084     2.4648     5.0246     5.0245
  206.0000     8.4161   168.9677     0.3327     0.0968     0.0099     2.4919     5.6131     5.5744
  206.5000     8.4153   171.0624     0.3348     0.0934     0.0114     2.4934     5.9743     6.0996
  207.0000     8.4144   171.0554     0.3369     0.0940     0.0130     2.4934     6.3589     6.3589
  207.5000     8.4136   169.8490     0.3390     0.0964     0.0130     2.4882     6.5381     6.5380
