~VERSION INFORMATION
 VERS.                2.0:   CWLS LOG ASCII STANDARD - VERSION 2.0
 WRAP.                 NO:   ONE LINE PER DEPTH STEP
~WELL INFORMATION
#MNEM.UNIT      DATA TYPE    INFORMATION
#----------   ------------   ------------------------------
 STRT.F            2.0000:   START DEPTH
 STOP.F          592.0000:   STOP DEPTH
 STEP.F            0.1000:   STEP LENGTH
 NULL.          -999.2500:   NO VALUE
 COMP. BROWN JOHN E&C INC:   COMPANY
 WELL. NAVAL PETROLEUM RESERVE 3 SX-3 #73-3:   WELL
 FLD .             TEAPOT:   FIELD
 LOC .       S3 T38N R78W:   LOCATION
 CNTY.            NATRONA:   COUNTY
 STAT.            WYOMING:   STATE
 CTRY. UNITED STATES OF AMERICA:   COUNTRY
 SRVC.     Atlas Wireline:   SERVICE COMPANY
 DATE.        22-APR-1992:   LOGDATE
 API .       490252251000:   API NUMBER
~CURVE INFORMATION
#MNEM.UNIT       API CODE    CURVE DESCRIPTION
#----------   ------------   ------------------------------
 DEPT.F                  :   
 GRR .GAPI   07 310 01 00:   GAMMA RAY
 RILD.OHMM   07 120 46 00:   INDUCTION LOG DEEP RESISTIVITY
 RILM.OHMM   07 120 44 00:   INDUCTION LOG MEDIUM RESISTIVITY
~PARAMETER INFORMATION
#MNEM.UNIT          VALUE    DESCRIPTION
#----------   ------------   ------------------------------
 PD  .                 GL:   PERMANENT DATUM
 EPD .F              5148:   ELEVATION PERMANENT DATUM
 LMF .                 KB:   LOG MEASURED FROM
 DAPD.F                 5:   FEET ABOVE PERMANENT DATUM
 DMF .                 KB:   DRILLING MEASURED FROM
 EKB .F              5153:   KELLING BUSHING
 EDF .F              5152:   DRILLING FLOOR
 EGL .F              5148:   GROUND LEVEL
 DATE.        22-APR-1992:   RUN DATE
 RUN .                  1:   RUN NUMBER
 DD  .F               600:   DEPTH DRILLER
 DL  .F               601:   DEPTH LOGGER
 BLI .F               592:   BOTTOM LOG INTERVAL
 TLI .F                51:   TOP LOG INTERVAL
 CS  .IN            8.625:   CASING SIZE
 CBD .F                48:   CASING BOTTOM DRILLER
 CBL .F                51:   CASING BOTTOM LOGGER
 BS  .IN            7.875:   BIT SIZE
 BSD .F               600:   BIT SIZE AT DEPTH
 DFT .                AIR:   DRILLING FLUID TYPE
 LUN .            HL-5272:   LOGGING UNIT NUMBER
 LUL .             CASPER:   LOGGING UNIT LOCATION
 ENGI.       P. RAGMUSSEN:   RECORDING ENGINEER
 WITN.          G. STRONG:   WITNESSED BY
 CLNT.            A2DTECH:   CLIENT CODE
 ORIG.           5" PRINT:   ORIGIN OF DATA
 UWI .       490252251000:   UNIQUE WELL ID
 DICO. A2D Technologies, Inc.:   DIGITIZING COMPANY
~OTHER INFORMATION
~A    DEPT      GRR      RILD       RILM   
# ...
   38.4000    57.8082  -999.2500  -999.2500
   38.5000    57.7862  -999.2500  -999.2500
   38.6000    58.0881  -999.2500  -999.2500
   38.7000    58.5913  -999.2500  -999.2500
   38.8000    59.0773  -999.2500  -999.2500
   38.9000    59.3879  -999.2500  -999.2500
   39.0000    59.8912  -999.2500  -999.2500
   39.1000    60.5611  -999.2500  -999.2500
   39.2000    61.0560  -999.2500  -999.2500
   39.3000    61.6394  -999.2500  -999.2500
   39.4000    62.0451  -999.2500  -999.2500
   39.5000    62.3954  -999.2500  -999.2500
   39.6000    62.6444  -999.2500  -999.2500
   39.7000    62.8935  -999.2500  -999.2500
   39.8000    63.1701  -999.2500  -999.2500
   39.9000    63.1733  -999.2500  -999.2500
   40.0000    63.0156  -999.2500  -999.2500
   40.1000    62.7737  -999.2500  -999.2500
   40.2000    62.5319  -999.2500  -999.2500
   40.3000    62.2803  -999.2500  -999.2500
   40.4000    62.0482  -999.2500  -999.2500
   40.5000    61.8063  -999.2500  -999.2500
   40.6000    61.5644  -999.2500  -999.2500
   40.7000    61.3226  -999.2500  -999.2500
   40.8000    61.0733  -999.2500  -999.2500
   40.9000    60.5862  -999.2500  -999.2500
   41.0000    60.4901  -999.2500  -999.2500
   41.1000    60.3551  -999.2500  -999.2500
   41.2000    60.1948  -999.2500  -999.2500
   41.3000    60.2228  -999.2500  -999.2500
   41.4000    60.5052  -999.2500  -999.2500
   41.5000    60.5084  -999.2500  -999.2500
   41.6000    60.6677  -999.2500  -999.2500
   41.7000    60.9168  -999.2500  -999.2500
   41.8000    61.1243  -999.2500  -999.2500
   41.9000    61.1282  -999.2500  -999.2500
   42.0000    61.3616  -999.2500  -999.2500
   42.1000    61.6107  -999.2500  -999.2500
   42.2000    61.8599  -999.2500  -999.2500
   42.3000    62.1090  -999.2500  -999.2500
   42.4000    62.3581  -999.2500  -999.2500
   42.5000    62.6072  -999.2500  -999.2500
   42.6000    62.8562  -999.2500  -999.2500
   42.7000    63.2382  -999.2500  -999.2500
   42.8000    63.6571  -999.2500  -999.2500
   42.9000    63.9061  -999.2500  -999.2500
   43.0000    64.1942  -999.2500  -999.2500
   43.1000    64.6115  -999.2500  -999.2500
   43.2000    65.1062  -999.2500  -999.2500
   43.3000    65.6939  -999.2500  -999.2500
   43.4000    66.4337  -999.2500  -999.2500
   43.5000    67.2378  -999.2500  -999.2500
   43.6000    68.1383  -999.2500  -999.2500
   43.7000    68.9568  -999.2500  -999.2500
   43.8000    69.9173  -999.2500  -999.2500
   43.9000    71.1482  -999.2500  -999.2500
   44.0000    72.3995  -999.2500  -999.2500
   44.1000    73.1274  -999.2500  -999.2500
   44.2000    73.3143  -999.2500  -999.2500
   44.3000    73.3180  -999.2500  -999.2500
   44.4000    73.3216  -999.2500  -999.2500
   44.5000    73.3123  -999.2500  -999.2500
   44.6000    73.0270  -999.2500  -999.2500
   44.7000    72.8285  -999.2500  -999.2500
   44.8000    72.1534  -999.2500  -999.2500
   44.9000    71.2623  -999.2500  -999.2500
   45.0000    70.4994  -999.2500  -999.2500
   45.1000    69.4140  -999.2500  -999.2500
   45.2000    68.1054  -999.2500  -999.2500
   45.3000    66.4742  -999.2500  -999.2500
   45.4000    64.8638  -999.2500  -999.2500
   45.5000    63.4897  -999.2500  -999.2500
   45.6000    62.4728  -999.2500  -999.2500
   45.7000    61.5329  -999.2500  -999.2500
   45.8000    60.7336  -999.2500  -999.2500
   45.9000    60.2439  -999.2500  -999.2500
   46.0000    60.0666  -999.2500  -999.2500
   46.1000    60.0702  -999.2500  -999.2500
   46.2000    60.0739  -999.2500  -999.2500
   46.3000    60.4691  -999.2500  -999.2500
   46.4000    61.6576  -999.2500  -999.2500
   46.5000    63.2982  -999.2500  -999.2500
   46.6000    64.7252  -999.2500  -999.2500
   46.7000    65.8413  -999.2500  -999.2500
   46.8000    66.4835  -999.2500  -999.2500
   46.9000    67.0677  -999.2500  -999.2500
   47.0000    67.5624  -999.2500  -999.2500
   47.1000    68.0569  -999.2500  -999.2500
   47.2000    68.5824  -999.2500  -999.2500
   47.3000    69.0462  -999.2500  -999.2500
   47.4000    69.5406  -999.2500  -999.2500
   47.5000    70.0351  -999.2500  -999.2500
   47.6000    70.6477  -999.2500  -999.2500
   47.7000    71.6364  -999.2500  -999.2500
   47.8000    73.1136  -999.2500  -999.2500
   47.9000    74.7800  -999.2500  -999.2500
   48.0000    76.2359  -999.2500  -999.2500
   48.1000    77.3150  -999.2500  -999.2500
   48.2000    78.0549  -999.2500  -999.2500
   48.3000    78.9101  -999.2500  -999.2500
   48.4000    79.1205  -999.2500  -999.2500
   48.5000    79.2193  -999.2500  -999.2500
   48.6000    79.1297  -999.2500  -999.2500
   48.7000    78.9235  -999.2500  -999.2500
   48.8000    78.9280  -999.2500  -999.2500
   48.9000    78.7068  -999.2500  -999.2500
   49.0000    78.6324  -999.2500  -999.2500
   49.1000    78.6360  -999.2500  -999.2500
   49.2000    78.6397  -999.2500  -999.2500
   49.3000    78.6433  -999.2500  -999.2500
   49.4000    78.8886  -999.2500  -999.2500
   49.5000    78.9531  -999.2500  -999.2500
   49.6000    79.0842  -999.2500  -999.2500
   49.7000    79.3334  -999.2500  -999.2500
   49.8000    79.5824  -999.2500  -999.2500
   49.9000    79.8760  -999.2500  -999.2500
   50.0000    82.4161  -999.2500  -999.2500
   50.1000    85.5063  -999.2500  -999.2500
   50.2000    88.5965  -999.2500  -999.2500
   50.3000    91.6867  -999.2500  -999.2500
   50.4000    94.7769  -999.2500  -999.2500
   50.5000    97.8672  -999.2500  -999.2500
   50.6000   101.3653  -999.2500  -999.2500
   50.7000   105.0046  -999.2500  -999.2500
   50.8000   107.1430  -999.2500  -999.2500
   50.9000   109.6654  -999.2500  -999.2500
   51.0000   113.8417  1982.4261  1959.6915
   51.1000   115.8917  1968.7854  1899.9078
   51.2000   116.6040  1948.1815   203.2474
   51.3000   117.3448    55.7497   133.8646
   51.4000   118.0855    31.7177    64.4818
   51.5000   118.7565    10.6467    11.7654
   51.6000   119.2507     8.2222    10.1297
   51.7000   119.8288     5.7978     8.4940
   51.8000   120.4431     3.3734     6.8583
   51.9000   120.9607     2.1453     5.2226
   52.0000   121.4280     1.9521     3.5869
   52.1000   122.0597     1.9312     2.7743
   52.2000   122.7186     1.9190     2.7719
   52.3000   123.2902     1.9191     2.8052
   52.4000   124.6742     1.9192     2.8813
   52.5000   125.7585     1.9193     2.9357
   52.6000   126.8318     1.9234     3.0237
   52.7000   127.7145     1.9464     3.1482
   52.8000   128.4061     1.9997     3.3148
   52.9000   128.9132     2.0920     3.5269
   53.0000   129.1539     2.2207     3.8318
   53.1000   129.4012     2.3764     4.1470
   53.2000   129.6485     2.5428     4.4520
   53.3000   129.8958     2.7768     4.7218
   53.4000   130.1264     2.8942     4.8594
   53.5000   130.1272     3.0561     4.9417
   53.6000   129.9203     3.3168     5.0052
   53.7000   129.6741     3.7438     5.1084
   53.8000   129.2367     4.2113     5.2373
   53.9000   128.5371     4.7755     5.3272
   54.0000   128.0121     5.3397     5.4339
   54.1000   127.3210     5.9039     5.5650
   54.2000   126.5814     6.4681     5.7656
   54.3000   125.9608     6.9862     6.0938
   54.4000   125.4052     7.3942     6.5641
   54.5000   124.6654     7.6240     6.9350
   54.6000   123.7798     7.6244     7.7093
   54.7000   123.1866     7.5951     8.3610
   54.8000   122.4471     7.5330     8.7353
   54.9000   121.6216     7.3559     8.8620
   55.0000   120.6048     6.8696     8.9127
   55.1000   119.2442     6.5307     8.9132
   55.2000   117.9181     6.3147     8.8750
   55.3000   116.7691     6.1759     8.7985
   55.4000   116.0016     6.0933     8.6848
   55.5000   115.5622     6.0591     8.5233
   55.6000   115.3138     6.0202     8.1443
   55.7000   115.3144     5.9915     7.9137
   55.8000   115.3150     5.9790     7.6237
   55.9000   115.7132     5.9792     7.3119
   56.0000   116.5307     5.9795     6.9934
   56.1000   117.5177     5.9798     6.7037
   56.2000   118.6458     5.9801     6.4956
   56.3000   119.0695     6.1767     6.3792
   56.4000   119.5636     6.3921     6.3417
   56.5000   120.2573     6.5111     6.3420
