~VERSION INFORMATION
 VERS.                2.0:   CWLS LOG ASCII STANDARD - VERSION 2.0
 WRAP.                 NO:   ONE LINE PER DEPTH STEP
~WELL INFORMATION
#MNEM.UNIT      DATA TYPE    INFORMATION
#----------   ------------   ------------------------------
 STRT.F           28.0000:   START DEPTH
 STOP.F          856.0000:   STOP DEPTH
 STEP.F            0.5000:   STEP LENGTH
 NULL.          -999.2500:   NO VALUE
 COMP. FENIX & SCISSON INC:   COMPANY
 WELL. NPR 3  76 SX #76-27:   WELL
 FLD .             TEAPOT:   FIELD
 LOC .      S27 T39N R78W:   LOCATION
 CNTY.            NATRONA:   COUNTY
 STAT.            WYOMING:   STATE
 CTRY. UNITED STATES OF AMERICA:   COUNTRY
 SRVC.            Unknown:   SERVICE COMPANY
 DATE.        06-SEP-1978:   LOGDATE
 API .       490251069600:   API NUMBER
~CURVE INFORMATION
#MNEM.UNIT       API CODE    CURVE DESCRIPTION
#----------   ------------   ------------------------------
 DEPT.F                  :   
 SPR .MV     05 010 01 00:   SPONTANEOUS POTENTIAL FROM RES.
 SN  .OHMM   05 040 16 00:   SHORT NORMAL 16"
 ILD .OHMM   05 120 46 00:   INDUCTION LOG DEEP
 NPHI.DEC    42 890 03 00:   NEUTRON POROSITY SANDSTONE
 GRD .GAPI   45 310 01 00:   GAMMA RAY FROM DENSITY LOG
 CALD.IN     45 280 60 00:   CALIPER
 RHOB.G/C3   45 350 01 00:   BULK DENSITY
 DPHI.DEC    45 890 12 00:   DENSITY POROSITY SANDSTONE
 CORR.G/C3   45 356 01 00:   DENSITY CORRECTION
~PARAMETER INFORMATION
#MNEM.UNIT          VALUE    DESCRIPTION
#----------   ------------   ------------------------------
 PD  .                 GL:   PERMANENT DATUM
 EPD .F              5062:   ELEVATION PERMANENT DATUM
 LMF .                 KB:   LOG MEASURED FROM
 DAPD.F                 4:   FEET ABOVE PERMANENT DATUM
 DMF .                 KB:   DRILLING MEASURED FROM
 EKB .F              5066:   KELLING BUSHING
 EGL .F              5062:   GROUND LEVEL
 DATE.             9-6-78:   RUN DATE
 RUN .                  1:   RUN NUMBER
 DD  .F               865:   DEPTH DRILLER
 DL  .F               857:   DEPTH LOGGER
 BLI .F               851:   BOTTOM LOG INTERVAL
 TLI .F                40:   TOP LOG INTERVAL
 CS  .IN            8.625:   CASING SIZE
 CBD .F                43:   CASING BOTTOM DRILLER
 CBL .F                43:   CASING BOTTOM LOGGER
 BS  .IN            7.875:   BIT SIZE
 BSD .F               865:   BIT SIZE AT DEPTH
 DFT .                KCL:   DRILLING FLUID TYPE
 DFD .                8.4:   DRILLING FLUID DENSITY
 DFV .                 40:   DRILLING FLUID VISCOSITY
 DFPH.                  9:   DRILLING FLUID PH
 DFL .                  6:   DRILLING FLUID LOSS
 MSS .           FLOWLINE:   MUD SAMPLE SOURCE
 RMS .OHMM            .14:   RESISTIVITY MUD SAMPLE
 MST .F                84:   MUD SAMPLE TEMPERATURE
 RMF .OHMM             .1:   RESISTIVITY MUD FILTRATE SAMPLE
 MFST.F                94:   MUD FILTRATE SAMPLE TEMPERATURE
 RMC .OHMM            .18:   RESISTIVITY MUD CAKE
 MCST.F                92:   MUD CAKE SAMPLE TEMPERATURE
 MFSS.               MEAS:   MUD FILTRATE SAMPLE SOURCE
 MCSS.               MEAS:   MUD CAKE SAMPLE SOURCE
 RMB .OHMM           .145:   RESISTIVITY MUD AT BHT
 BHT .F                82:   BOTTOM HOLE TEMPERATURE
 TCS .HRS               3:   TIME CURCULATED STOPPED
 MRT .F                82:   MAXIMUM RECORDED TEMPERATURE
 LUN .               2958:   LOGGING UNIT NUMBER
 LUL .               CASP:   LOGGING UNIT LOCATION
 ENGI.           REYNOLDS:   RECORDING ENGINEER
 WITN.           MCGINLEY:   WITNESSED BY
 CLNT.            A2DTECH:   CLIENT CODE
 ORIG.           5" PRINT:   ORIGIN OF DATA
 UWI .       490251069600:   UNIQUE WELL ID
 DICO. A2D Technologies, Inc.:   DIGITIZING COMPANY
~OTHER INFORMATION
~A   DEPT      SPR         SN        ILD       NPHI         GRD      CALD       RHOB       DPHI       CORR   
# ...
  831.0000   -51.4938     9.6963     9.2974     0.3932    84.7761     7.6948     2.5240     0.0898     0.0230
  831.5000   -51.1308     9.8462     8.8910     0.3926    85.1167     7.7303     2.5302     0.0904     0.0230
  832.0000   -51.0862     9.9999     8.2522     0.3936    83.5087     7.7654     2.5353     0.0918     0.0208
  832.5000   -51.0872    10.1138     8.4235     0.3934    82.1162     7.8003     2.5368     0.0931     0.0288
  833.0000   -51.0803    10.2252     8.7396     0.3870    82.2970     7.8305     2.5327     0.0920     0.0406
  833.5000   -50.9518    10.3366     8.9970     0.3865    81.3073     7.8298     2.5303     0.0890     0.0520
  834.0000   -50.8256    10.4492     9.2066     0.3848    80.1680     7.8297     2.5369     0.0861     0.0530
  834.5000   -50.6976    10.5631     9.4211     0.3743    80.4709     7.8297     2.5433     0.0851     0.0397
  835.0000   -50.8104    10.6782     9.6405     0.3690    81.1194     7.8297     2.5497     0.0918     0.0212
  835.5000   -51.0455    10.7945     9.8666     0.3685    81.7947     7.8297     2.5476     0.0984     0.0134
  836.0000   -51.2632    10.9007    10.0140     0.3681    79.2274     7.8294     2.5359     0.1050     0.0110
  836.5000   -50.5421    10.9896    10.0602     0.3681    76.0979     7.8279     2.5243     0.1016     0.0129
  837.0000   -49.7419    11.0793    10.1067     0.3710    75.4917     7.8810     2.5151     0.0974     0.0207
  837.5000   -49.5917    11.1695    10.1533     0.3772    77.8066     7.9309     2.5196     0.0934     0.0297
  838.0000   -49.4545    11.1951    10.2002     0.3835    79.9205     7.9695     2.5247     0.0937     0.0309
  838.5000   -49.3141    11.2201    10.2473     0.3873    80.3848     7.9650     2.5297     0.0934     0.0284
  839.0000   -49.1698    11.2452    10.2946     0.3852    81.9317     7.8934     2.5304     0.0926     0.0230
  839.5000   -49.2386    11.2705    10.3421     0.3748    83.9181     7.8222     2.5304     0.0947     0.0162
  840.0000   -49.4576    11.2959    10.3793     0.3689    83.7101     7.7485     2.5304     0.0965     0.0121
  840.5000   -49.6794    11.3213    10.3793     0.3746    81.1964     7.7309     2.5300     0.0982     0.0080
  841.0000   -49.8958    11.3467    10.3471     0.3826    81.0383     7.7326     2.5266     0.0982     0.0095
  841.5000   -49.9586    11.3762    10.2957     0.3825    81.2680     7.7398     2.5266     0.0970     0.0173
  842.0000   -50.0146    11.3170    10.2445     0.3758    81.5198     7.7467     2.5269     0.0946     0.0253
  842.5000   -50.0712    11.2464    10.1937     0.3573    79.3510     7.7536     2.5272     0.0910     0.0342
  843.0000   -50.1279    11.1760    10.1431     0.3426  -999.2500     7.7605     2.5312     0.0867     0.0409
  843.5000   -50.1851    11.1060    10.0927     0.3560  -999.2500     7.7674     2.5362     0.0827     0.0408
  844.0000   -50.2431    11.0519    10.0426     0.3733  -999.2500     7.7702     2.5412     0.0815     0.0408
  844.5000   -50.2884    11.0169    10.0054     0.3743  -999.2500     7.7685     2.5462     0.0815     0.0425
  845.0000   -50.1097    10.9819    10.0046     0.3739  -999.2500     7.7666     2.5496     0.0828     0.0453
  845.5000   -49.9276    10.9471    10.0079     0.3699  -999.2500     7.7647     2.5502     0.0841     0.0484
  846.0000   -49.9121    10.9124     9.7943     0.3655  -999.2500     7.7628     2.5508     0.0847     0.0443
  846.5000   -50.4224    10.8778     9.5578     0.3661  -999.2500     7.7609     2.5512     0.0843     0.0418
  847.0000   -51.3018    10.8433     9.3257     0.3695  -999.2500     7.7591     2.5481     0.0835     0.0404
  847.5000   -51.2886    10.8089     9.0993     0.3672  -999.2500     7.7572     2.5464     0.0846     0.0391
  848.0000   -51.5994    10.7746     8.8780     0.3639  -999.2500     7.7553     2.5469     0.0870     0.0378
  848.5000   -52.9820    10.7405     8.6632     0.3625  -999.2500     7.7535     2.5474     0.0863     0.0364
  849.0000   -53.8656    10.7064     8.4976     0.3641  -999.2500     7.7522     2.5451     0.0851     0.0351
  849.5000   -53.5077    10.6726     8.3406     0.3697  -999.2500     7.7470     2.5426     0.0897     0.0339
  850.0000   -51.9876    10.6690     8.1959     0.3757  -999.2500     7.6757     2.5401     0.0923     0.0343
  850.5000   -52.7162    10.6690     8.3074     0.3817  -999.2500  -999.2500     2.5376     0.0936     0.0349
  851.0000   -54.0270    10.6179     8.1478     0.3876  -999.2500  -999.2500     2.5351     0.0912     0.0358
  851.5000  -999.2500  -999.2500  -999.2500     0.3980  -999.2500  -999.2500     2.5344     0.0883     0.0392
  852.0000  -999.2500  -999.2500  -999.2500     0.4090  -999.2500  -999.2500     2.5383     0.0886     0.0425
  852.5000  -999.2500  -999.2500  -999.2500     0.4120  -999.2500  -999.2500     2.5380     0.0902     0.0438
  853.0000  -999.2500  -999.2500  -999.2500     0.4263  -999.2500  -999.2500     2.5374     0.0918     0.0449
  853.5000  -999.2500  -999.2500  -999.2500     0.4437  -999.2500  -999.2500     2.5373     0.0911     0.0461
  854.0000  -999.2500  -999.2500  -999.2500     0.4608  -999.2500  -999.2500     2.5373     0.0887     0.0511
  854.5000  -999.2500  -999.2500  -999.2500     0.4588  -999.2500  -999.2500     2.5405     0.0865     0.0886
  855.0000  -999.2500  -999.2500  -999.2500     0.4277  -999.2500  -999.2500     2.5472     0.0849     0.0311
  855.5000  -999.2500  -999.2500  -999.2500  -999.2500  -999.2500  -999.2500     2.5549     0.0829    -0.0067
  856.0000  -999.2500  -999.2500  -999.2500  -999.2500  -999.2500  -999.2500     2.5935     0.1014    -0.0129
