~VERSION INFORMATION
 VERS.                2.0:   CWLS LOG ASCII STANDARD - VERSION 2.0
 WRAP.                 NO:   ONE LINE PER DEPTH STEP
~WELL INFORMATION
#MNEM.UNIT      DATA TYPE    INFORMATION
#----------   ------------   ------------------------------
 STRT.F            3.0000:   START DEPTH
 STOP.F          515.0000:   STOP DEPTH
 STEP.F            0.5000:   STEP LENGTH
 NULL.          -999.2500:   NO VALUE
 COMP. LAWRENCE/ALLISON INC:   COMPANY
 WELL.      77-35 SX #3-3:   WELL
 FLD .             TEAPOT:   FIELD
 LOC .       S3 T38N R78W:   LOCATION
 CNTY.            NATRONA:   COUNTY
 STAT.            WYOMING:   STATE
 CTRY. UNITED STATES OF AMERICA:   COUNTRY
 SRVC.           Gearhart:   SERVICE COMPANY
 DATE.        24-JUN-1988:   LOGDATE
 API .       490251123200:   API NUMBER
~CURVE INFORMATION
#MNEM.UNIT       API CODE    CURVE DESCRIPTION
#----------   ------------   ------------------------------
 DEPT.F                  :   
 GRR .GAPI   07 310 01 00:   GAMMA RAY
 RILD.OHMM   07 120 46 00:   INDUCTION LOG DEEP RESISTIVITY
 RILM.OHMM   07 120 44 00:   INDUCTION LOG MEDIUM RESISTIVITY
~PARAMETER INFORMATION
#MNEM.UNIT          VALUE    DESCRIPTION
#----------   ------------   ------------------------------
 PD  .                 GL:   PERMANENT DATUM
 EPD .F              5154:   ELEVATION PERMANENT DATUM
 LMF .                 KB:   LOG MEASURED FROM
 DAPD.F                10:   FEET ABOVE PERMANENT DATUM
 DMF .                 KB:   DRILLING MEASURED FROM
 EKB .F              5164:   KELLING BUSHING
 EGL .F              5154:   GROUND LEVEL
 DATE.        24-JUN-1988:   RUN DATE
 RUN .                  1:   RUN NUMBER
 DD  .F               520:   DEPTH DRILLER
 DL  .F               523:   DEPTH LOGGER
 BLI .F             514.5:   BOTTOM LOG INTERVAL
 TLI .F                50:   TOP LOG INTERVAL
 CS  .IN            9.625:   CASING SIZE
 CBD .F                50:   CASING BOTTOM DRILLER
 CBL .F                50:   CASING BOTTOM LOGGER
 BS  .IN             8.75:   BIT SIZE
 BSD .F               520:   BIT SIZE AT DEPTH
 DFT .                AIR:   DRILLING FLUID TYPE
 TLAB.HRS            0645:   TIME LOGGER AT BOTTOM
 MRT .F                70:   MAXIMUM RECORDED TEMPERATURE
 LUN .               7597:   LOGGING UNIT NUMBER
 LUL .           GILLETTE:   LOGGING UNIT LOCATION
 ENGI.          HUCKFELDT:   RECORDING ENGINEER
 WITN.             STRONG:   WITNESSED BY
 CLNT.            A2DTECH:   CLIENT CODE
 ORIG.           5" PRINT:   ORIGIN OF DATA
 UWI .       490251123200:   UNIQUE WELL ID
 DICO. A2D Technologies, Inc.:   DIGITIZING COMPANY
~OTHER INFORMATION
~A    DEPT      GRR      RILD       RILM   
# ...
  276.0000   157.5123     8.3820     8.5198
  276.5000   157.5335     8.3808     8.5191
  277.0000   158.5040     8.3797     8.4592
  277.5000   160.3760     8.3785     8.3411
  278.0000   160.6503     8.4377     8.2824
  278.5000   160.3611     8.6187     8.2241
  279.0000   160.0772     8.7946     8.1662
  279.5000   157.6644     8.7931     8.2231
  280.0000   154.0268     8.7307     8.5150
  280.5000   150.3893     8.3713     8.6950
  281.0000   146.7517     7.8603     8.7554
  281.5000   146.1577     7.1273     8.7499
  282.0000   146.7937     6.6922     8.0725
  282.5000   153.2171     6.4168     6.9010
  283.0000   160.2502     6.2829     5.5946
  283.5000   167.6244     6.2385     5.0020
  284.0000   175.1837     6.2814     4.8637
  284.5000   178.6059     6.4132     5.0364
  285.0000   172.5345     6.5940     5.5930
  285.5000   161.5799     7.0699     6.2987
  286.0000   152.1496     7.6868     7.1933
  286.5000   149.4267     8.4863     7.8225
  287.0000   148.5278     9.4308     8.6265
  287.5000   148.2439    10.1005     9.5132
  288.0000   148.8799    10.5186     9.9954
  288.5000   150.7301    10.6651    10.0592
  289.0000   151.9653    10.6636    10.0584
  289.5000   147.1135    10.8121    10.0577
  290.0000   149.5735    11.3521    10.0570
  290.5000   151.7296    12.1715    10.0563
  291.0000   152.9695    13.2335    10.3409
  291.5000   147.3708    14.6928    11.0892
  292.0000   127.7114    16.1995    12.5759
  292.5000   113.4031    17.8607    15.8394
  293.0000    99.3997    20.2500    19.2641
  293.5000    82.6524    22.6406    22.3101
  294.0000    68.6490    25.3133    25.5226
  294.5000    68.0550    27.9116    29.6333
  295.0000    72.3495    29.1127    32.7681
  295.5000    77.8583    29.7374    33.9318
  296.0000    83.0622    30.1641    34.4080
  296.5000    87.0466    30.7584    34.1653
  297.0000    89.5066    30.9696    33.6884
  297.5000    90.4422    30.9643    33.4513
  298.0000    91.0729    30.3182    33.4490
  298.5000    86.3328    31.6111    34.1559
  299.0000    78.6201    31.8293    34.8777
  299.5000    74.9825    31.8238    36.3698
  300.0000    74.6934    31.8358    36.8795
  300.5000    76.5406    31.9283    35.7570
  301.0000    80.5190    32.0333    34.3688
  301.5000    86.6316    32.2544    33.6460
  302.0000    90.3051    32.7024    33.4023
  302.5000    91.2348    33.1577    33.8635
  303.0000    87.2051    33.8550    35.6029
  303.5000    84.7815    34.5681    36.8418
  304.0000    83.9627    35.2938    37.3159
  304.5000    86.7253    35.7853    37.3031
  305.0000    88.5696    36.5379    37.2928
  305.5000    87.9748    36.5328    37.0227
  306.0000    86.1605    36.5276    36.7546
  306.5000    84.9523    36.2398    36.4884
  307.0000    88.6295    36.0110    36.2242
  307.5000    90.7787    35.7545    36.2142
  308.0000    91.4034    35.7496    36.2042
  308.5000    92.9428    35.7447    36.7041
  309.0000    96.6163    35.9914    37.2111
  309.5000    99.6801    36.2387    38.2559
  310.0000   102.7439    36.4876    39.0563
  310.5000   103.3687    36.4813    39.3195
  311.0000    97.7338    37.2485    39.5846
  311.5000    91.2073    38.5666    37.6805
  312.0000    87.8649    40.2112    35.8704
  312.5000    94.8958    41.9260    34.8713
  313.0000    99.1791    42.2141    34.6211
  313.5000   100.4136    41.9144    35.5910
  314.0000   101.6443    39.6281    37.3664
  314.5000    95.5655    37.4353    37.8823
  315.0000    94.6621    35.8974    37.0856
  315.5000    94.9858    34.9351    35.5519
  316.0000    97.1349    33.4971    33.3740
  316.5000   102.9426    31.6728    31.3295
  317.0000   106.6161    29.7395    29.6167
  317.5000   110.2896    28.1198    27.8024
  318.0000   111.5244    26.9623    26.4545
  318.5000   111.4584    26.0336    25.7295
  319.0000   109.1189    25.4904    25.0113
  319.5000   107.9106    25.6655    24.4853
  320.0000   110.3683    26.0238    24.1385
  320.5000   112.5175    26.2025    23.9637
  321.0000   111.9227    26.3817    23.9571
  321.5000   111.6291    26.0121    23.9505
  322.0000   114.0869    25.2921    24.1136
  322.5000   115.0165    25.2887    24.2762
  323.0000   113.5071    25.2851    24.6097
  323.5000   109.2538    25.3088    24.9511
  324.0000   105.6103    25.6328    25.6501
  324.5000   109.2838    25.6293    25.8231
  325.0000   111.7378    25.8054    26.1796
  325.5000   113.6027    25.9826    26.1723
  326.0000   114.2073    25.9790    25.9826
  326.5000   112.3963    25.9755    25.7929
  327.0000   111.1880    25.7912    25.7858
  327.5000   112.7312    25.7876    25.9614
  328.0000   115.4901    25.9656    25.9524
  328.5000   114.8953    25.9612    25.9453
  329.0000   114.2968    25.7770    25.5779
  329.5000   114.9253    25.4160    25.3927
  330.0000   116.4647    25.2357    25.0331
  330.5000   113.7358    24.7091    24.8518
  331.0000   110.7020    24.3540    24.4999
  331.5000   108.2779    23.8546    24.1529
  332.0000   106.7685    23.4922    23.8109
  332.5000   107.6982    23.1905    23.4737
  333.0000   110.8232    23.0259    22.9692
  333.5000   114.9035    22.8626    22.3191
  334.0000   119.9420    22.7004    21.5649
  334.5000   117.8229    22.5393    21.1114
  335.0000   115.7037    22.5362    20.8124
  335.5000   115.1052    22.6910    20.5177
  336.0000   118.4776    22.8468    21.0939
  336.5000   121.8463    23.1650    21.8386
  337.0000   121.8613    23.3241    22.7682
  337.5000   119.4372    23.6490    23.0841
  338.0000   113.9644    23.6456    23.2397
  338.5000   111.5404    23.1522    22.7494
  339.0000   110.0310    22.6671    22.2709
  339.5000   109.7409    22.1848    21.8025
  340.0000   110.3659    21.7128    21.4938
  340.5000   111.9258    21.1307    21.0319
  341.0000   113.4857    20.6898    20.7243
  341.5000   115.2926    20.1172    20.3061
  342.0000   115.6125    20.1144    20.1591
  342.5000   115.6275    20.1116    19.7351
  343.0000   115.9474    19.9690    19.7297
  343.5000   116.5721    19.5523    19.4503
  344.0000   116.8920    19.2785    19.3094
  344.5000   113.8582    19.0085    18.7716
  345.0000   112.9548    18.6119    18.2487
  345.5000   116.0223    18.4798    17.6168
  346.0000   117.5617    18.4773    17.1261
  346.5000   114.8328    18.3462    16.6491
  347.0000   111.4941    18.3437    16.4133
  347.5000   109.9848    18.3411    16.1809
  348.0000   112.1953    18.2109    16.4043
  348.5000   115.9298    17.9559    16.3997
  349.0000   119.1798    17.8280    16.2799
  349.5000   121.0241    17.7015    16.3908
  350.0000   119.6333    17.6799    16.3862
  350.5000   117.4075    17.4401    16.4732
  351.0000   115.1816    17.2003    16.5536
  351.5000   112.5667    16.9604    16.6098
  352.0000   113.5024    16.7329    16.3763
  352.5000   114.7430    16.4997    16.1466
  353.0000   115.3738    16.3838    15.6990
  353.5000   116.0046    16.2686    15.2638
  354.0000   116.3305    16.0419    15.0498
  354.5000   116.3516    15.9292    14.7353
  355.0000   115.4580    15.7072    14.6306
  355.5000   115.1738    15.5968    14.5266
  356.0000   117.0245    15.4872    14.8326
  356.5000   119.8059    15.3784    14.8305
  357.0000   121.3598    15.1641    14.6225
  357.5000   121.9658    15.0575    14.2172
  358.0000   118.6546    14.8477    13.9188
  358.5000   115.6107    14.8466    13.7249
  359.0000   115.3216    14.8456    13.6272
  359.5000   116.5675    14.8446    13.5300
  360.0000   120.2471    14.8436    13.5282
  360.5000   123.9267    14.8550    13.6212
  361.0000   124.2526    15.0685    13.8112
  361.5000   124.2737    15.1547    14.0043
  362.0000   122.7703    15.4742    14.1996
  362.5000   120.3524    15.5818    14.3976
  363.0000   120.0633    15.5804    14.7003
  363.5000   120.0896    15.6888    14.8020
  364.0000   120.1107    15.6875    14.7994
  364.5000   118.6073    15.4688    14.7974
  365.0000   116.1894    15.1471    14.7953
  365.5000   112.8568    14.7289    14.6902
  366.0000   110.1339    14.6254    14.4842
  366.5000   112.7083    14.3212    14.2720
