~VERSION INFORMATION
 VERS.                2.0:   CWLS LOG ASCII STANDARD - VERSION 2.0
 WRAP.                 NO:   ONE LINE PER DEPTH STEP
~WELL INFORMATION
#MNEM.UNIT      DATA TYPE    INFORMATION
#----------   ------------   ------------------------------
 STRT.F           24.5000:   START DEPTH
 STOP.F          506.0000:   STOP DEPTH
 STEP.F            0.5000:   STEP LENGTH
 NULL.          -999.2500:   NO VALUE
 COMP. FENIX & SCISSON INC:   COMPANY
 WELL.    NPR 3 SX #44-10:   WELL
 FLD .        TEAPOT DOME:   FIELD
 LOC .      S10 T38N R78W:   LOCATION
 CNTY.            NATRONA:   COUNTY
 STAT.            WYOMING:   STATE
 CTRY. UNITED STATES OF AMERICA:   COUNTRY
 SRVC.           BIRDWELL:   SERVICE COMPANY
 DATE.        14-NOV-1978:   LOGDATE
 API .       490251074700:   API NUMBER
~CURVE INFORMATION
#MNEM.UNIT       API CODE    CURVE DESCRIPTION
#----------   ------------   ------------------------------
 DEPT.F                  :   
 SPR .MV     05 010 01 00:   SPONTANEOUS POTENTIAL FROM RES.
 IL  .OHMM   05 120 00 00:   INDUCTION LOG
 SN  .OHMM   05 040 16 00:   SHORT NORMAL 16"
 CALD.IN     45 280 60 00:   CALIPER
 GRD .GAPI   45 310 01 00:   GAMMA RAY FROM DENSITY LOG
 RHOB.G/C3   45 350 01 00:   BULK DENSITY
 DPHI.DEC    45 890 12 00:   DENSITY POROSITY SANDSTONE
 DRHO.G/C3   45 356 01 00:   DENSITY CORRECTION
~PARAMETER INFORMATION
#MNEM.UNIT          VALUE    DESCRIPTION
#----------   ------------   ------------------------------
 PD  .                 GL:   PERMANENT DATUM
 EPD .F              5211:   ELEVATION PERMANENT DATUM
 LMF .                 KB:   LOG MEASURED FROM
 DAPD.F                 4:   FEET ABOVE PERMANENT DATUM
 DMF .                 KB:   DRILLING MEASURED FROM
 EKB .F              5215:   KELLING BUSHING
 EGL .F              5211:   GROUND LEVEL
 DATE.           11-14-78:   RUN DATE
 RUN .                  1:   RUN NUMBER
 DD  .F               510:   DEPTH DRILLER
 DL  .F               506:   DEPTH LOGGER
 BLI .F               500:   BOTTOM LOG INTERVAL
 TLI .F                45:   TOP LOG INTERVAL
 CS  .IN            8.625:   CASING SIZE
 CBD .F                40:   CASING BOTTOM DRILLER
 CBL .F                40:   CASING BOTTOM LOGGER
 BS  .IN            7.875:   BIT SIZE
 BSD .F               510:   BIT SIZE AT DEPTH
 DFT .            SEA MUD:   DRILLING FLUID TYPE
 DFD .                8.7:   DRILLING FLUID DENSITY
 DFV .                 35:   DRILLING FLUID VISCOSITY
 DFPH.               10.5:   DRILLING FLUID PH
 MSS .            MUD PIT:   MUD SAMPLE SOURCE
 RMS .OHMM            .51:   RESISTIVITY MUD SAMPLE
 MST .F                54:   MUD SAMPLE TEMPERATURE
 RMF .OHMM            .45:   RESISTIVITY MUD FILTRATE SAMPLE
 MFST.F                54:   MUD FILTRATE SAMPLE TEMPERATURE
 RMC .OHMM             .5:   RESISTIVITY MUD CAKE
 MCST.F                60:   MUD CAKE SAMPLE TEMPERATURE
 MFSS.           MEASURED:   MUD FILTRATE SAMPLE SOURCE
 MCSS.           MEASURED:   MUD CAKE SAMPLE SOURCE
 RMB .OHMM            .49:   RESISTIVITY MUD AT BHT
 BHT .F                56:   BOTTOM HOLE TEMPERATURE
 TCS .HRS               2:   TIME CURCULATED STOPPED
 MRT .F                56:   MAXIMUM RECORDED TEMPERATURE
 LUN .               2958:   LOGGING UNIT NUMBER
 LUL .               CASP:   LOGGING UNIT LOCATION
 ENGI.             MILLER:   RECORDING ENGINEER
 WITN.           DINSMORE:   WITNESSED BY
 CLNT.            A2DTECH:   CLIENT CODE
 ORIG.       2", 5" PRINT:   ORIGIN OF DATA
 UWI .       490251074700:   UNIQUE WELL ID
 DICO. A2D Technologies, Inc.:   DIGITIZING COMPANY
~OTHER INFORMATION
~A   DEPT      SPR         IL         SN       CALD         GRD      RHOB       DPHI       DRHO   
# ...
  227.0000   -17.8540     5.5150     6.1020     7.8810   111.7260     2.4460     0.1380     0.0400
  227.5000   -18.4380     5.5010     6.0330     7.8950   109.0690     2.4570     0.1300     0.0420
  228.0000   -19.0140     5.6110     6.0330     7.9090   104.9260     2.4630     0.1210     0.0430
  228.5000   -19.0460     5.8940     6.4910     7.9230   101.2070     2.4740     0.1150     0.0450
  229.0000   -19.0010     6.1760     6.9560     7.9360   102.3720     2.4880     0.1100     0.0460
  229.5000   -18.9540     6.4590     7.3500     7.9500   105.2400     2.5010     0.1050     0.0470
  230.0000   -18.9100     6.7410     7.7240     7.9640   108.0840     2.5140     0.0990     0.0490
  230.5000   -18.9730     7.0240     8.0990     7.9700   109.7500     2.5270     0.0940     0.0500
  231.0000   -19.3220     7.3070     8.4740     7.9610   107.4440     2.5290     0.0890     0.0520
  231.5000   -20.7820     7.5960     8.8480     7.9490   104.0190     2.5310     0.0840     0.0530
  232.0000   -23.5930     7.5960     9.2230     7.9380   103.7950     2.5300     0.0920     0.0540
  232.5000   -20.4400     7.5960     9.5970     7.9260   103.6670     2.5190     0.0990     0.0560
  233.0000   -21.6320     7.5960     9.8400     7.9140   102.3210     2.5090     0.1060     0.0590
  233.5000   -22.9230     7.5960     9.8560     7.9030   102.3090     2.4990     0.1120     0.0620
  234.0000   -22.1790     7.5960     9.8720     7.8910   104.0200     2.4910     0.1010     0.0770
  234.5000   -19.3690     7.5960     9.8880     7.8790   105.3720     2.5060     0.0930     0.0890
  235.0000   -16.7460     7.5960     9.9050     7.8680   105.3170     2.5200     0.0870     0.0930
  235.5000   -16.6600     7.4520     9.9250     7.8560   105.0960     2.5280     0.0890     0.0960
  236.0000   -16.6610     7.2540     9.7720     7.8440   104.9420     2.5250     0.0910     0.0970
  236.5000   -16.6510     7.2020     9.5710     7.8330   105.2560     2.5210     0.0930     0.0990
  237.0000   -17.1700     7.1320     9.3700     7.8210   105.5620     2.5200     0.0920     0.1000
  237.5000   -17.7780     7.0620     9.1680     7.8090   106.0630     2.5240     0.0870     0.1000
  238.0000   -18.3850     6.9930     8.9670     7.7980   107.2090     2.5270     0.0900     0.1000
  238.5000   -18.9070     6.9230     8.7660     7.7950   109.1110     2.5230     0.0930     0.1000
  239.0000   -18.9780     6.8010     8.5640     7.8270   110.0670     2.5160     0.0980     0.1010
  239.5000   -19.0630     6.5980     8.3630     7.8590   110.5830     2.5090     0.1060     0.1010
  240.0000   -19.1510     6.3240     8.1620     7.8920   110.9440     2.5000     0.1140     0.1010
  240.5000   -19.2390     6.0720     7.9090     7.9240   113.2270     2.4860     0.1220     0.1020
  241.0000   -19.2940     5.9560     7.5560     7.9570   115.5920     2.4720     0.1300     0.1060
  241.5000   -19.4160     5.8390     7.2030     7.9890   116.5720     2.4580     0.1370     0.1110
  242.0000   -19.6050     5.7610     6.8490     8.0220   115.6640     2.4440     0.1380     0.1150
  242.5000   -21.2610     5.8840     6.4960     8.0190   113.4350     2.4430     0.1260     0.1180
  243.0000   -23.2820     6.0070     6.2020     8.0060   111.2370     2.4580     0.1100     0.1100
  243.5000   -25.2090     6.1300     6.6840     7.9920   110.5170     2.4850     0.0940     0.1020
  244.0000   -20.7980     6.2530     7.2040     7.9780   110.4540     2.5130     0.0840     0.0950
  244.5000   -22.7050     6.3760     7.7240     7.9640   110.4060     2.5400     0.0830     0.0930
  245.0000   -25.2160     6.6610     8.2440     7.9500   110.3560     2.5420     0.0820     0.0910
  245.5000   -24.0310     7.0940     8.7630     7.9360   110.2860     2.5410     0.0860     0.0890
  246.0000   -21.5890     7.5280     9.2830     7.9210   111.3590     2.5310     0.0920     0.0860
  246.5000   -19.2630     7.7440     9.7520     7.9070   112.8000     2.5200     0.0980     0.0870
  247.0000   -23.2620     7.7560     9.8230     7.8930   113.9760     2.5120     0.0940     0.0920
  247.5000   -21.0340     7.7670     9.8930     7.8790   113.1110     2.5180     0.0900     0.0960
  248.0000   -21.2650     7.7790     9.9640     7.8650   112.2470     2.5250     0.0850     0.0960
  248.5000   -21.6610     7.7910    10.0350     7.8510   111.1280     2.5320     0.0820     0.0820
  249.0000   -22.0620     7.8030    10.1060     7.8530   109.0290     2.5380     0.0820     0.0690
  249.5000   -22.4570     7.8140    10.1770     7.8580   106.9690     2.5390     0.0890     0.0550
  250.0000   -22.8480     7.8260    10.2480     7.8620   104.3380     2.5280     0.0960     0.0420
  250.5000   -23.0880     7.8380    10.2980     7.8670   105.5690     2.5160     0.1040     0.0280
  251.0000   -22.8890     7.8500    10.2170     7.8710   108.0170     2.5050     0.1080     0.0280
  251.5000   -22.6990     7.8620    10.1560     7.8760   110.4690     2.4970     0.1080     0.0290
  252.0000   -22.4760     7.8730    10.0940     7.8810   112.9260     2.4960     0.1080     0.0300
  252.5000   -21.4920     7.8810    10.0320     7.8850   115.1740     2.4950     0.1120     0.0310
  253.0000   -20.5280     7.8520     9.9700     7.8900   114.6290     2.4940     0.1080     0.0340
  253.5000   -19.5590     7.8290     9.9250     7.9120   113.7150     2.4960     0.1040     0.0430
  254.0000   -18.6380     7.8070     9.9200     7.9360   113.0470     2.5050     0.1000     0.0490
  254.5000   -21.6270     7.7840     9.9130     7.9610   114.4390     2.5150     0.0960     0.0550
  255.0000   -25.1990     7.7610     9.9050     7.9850   116.2180     2.5200     0.0920     0.0550
  255.5000   -28.3950     7.7380     9.8980     8.0090   116.9410     2.5240     0.0870     0.0500
  256.0000   -26.0810     7.7150     9.8900     8.0120   111.9550     2.5260     0.0910     0.0450
  256.5000   -23.6740     7.6920     9.8830     8.0150   111.8110     2.5220     0.0960     0.0410
  257.0000   -22.1230     7.6690     9.8750     8.0170   112.6750     2.5180     0.0950     0.0380
  257.5000   -21.6560     7.6460     9.8680     8.0190   112.0930     2.5170     0.0930     0.0340
  258.0000   -22.0360     7.6230     9.8600     8.0220   110.9690     2.5210     0.0910     0.0310
  258.5000   -22.8180     7.6000     9.8530     8.0240   111.8310     2.5240     0.0890     0.0270
  259.0000   -23.6010     7.4900     9.8460     8.0270   114.1430     2.5280     0.0880     0.0230
  259.5000   -23.9940     7.3620     9.8390     8.0290   116.4460     2.5300     0.0900     0.0160
  260.0000   -24.4100     7.2340     9.7480     8.0310   117.7470     2.5240     0.0960     0.0100
  260.5000   -24.8220     7.1060     9.5430     8.0340   117.2470     2.5130     0.1030     0.0040
  261.0000   -25.1660     7.0470     9.3390     8.0360   116.7740     2.5020     0.1090     0.0030
  261.5000   -24.9980     7.0240     9.1350     8.0390   116.2850     2.4910     0.1140     0.0030
  262.0000   -24.8090     7.0010     8.9300     8.0410   115.3110     2.4920     0.1110     0.0020
  262.5000   -24.6210     6.9000     8.7260     8.0430   114.3640     2.4940     0.1090     0.0020
  263.0000   -24.4340     6.6720     8.5220     8.0460   114.2690     2.4960     0.1080     0.0010
  263.5000   -24.2480     6.4440     8.3170     8.0480   117.0110     2.4980     0.1080     0.0050
  264.0000   -24.0620     6.2020     8.1130     8.0510   120.0690     2.4970     0.1090     0.0080
  264.5000   -24.3180     6.2020     7.7610     8.0530   123.0250     2.4940     0.1230     0.0120
  265.0000   -25.3300     6.2020     7.3040     8.0550   123.4810     2.4700     0.1370     0.0160
  265.5000   -26.3230     6.2020     6.9270     8.0580   121.1760     2.4400     0.1450     0.0200
  266.0000   -27.2140     6.2020     6.9810     8.0600   116.8340     2.4490     0.1330     0.0170
  266.5000   -31.3920     6.2020     7.0730     8.0620   112.4920     2.4670     0.1220     0.0110
  267.0000   -28.9970     6.2020     7.1660     8.0650   108.7940     2.4850     0.1120     0.0050
