~VERSION INFORMATION
 VERS.                2.0:   CWLS LOG ASCII STANDARD - VERSION 2.0
 WRAP.                 NO:   ONE LINE PER DEPTH STEP
~WELL INFORMATION
#MNEM.UNIT      DATA TYPE    INFORMATION
#----------   ------------   ------------------------------
 STRT.F           12.0000:   START DEPTH
 STOP.F          549.0000:   STOP DEPTH
 STEP.F            0.5000:   STEP LENGTH
 NULL.          -999.2500:   NO VALUE
 COMP. LAWRENCE/ALLISON INC:   COMPANY
 WELL.  58-64-1 SX 3 #3-3:   WELL
 FLD .             TEAPOT:   FIELD
 LOC .       S3 T38N R78W:   LOCATION
 CNTY.            NATRONA:   COUNTY
 STAT.            WYOMING:   STATE
 CTRY. UNITED STATES OF AMERICA:   COUNTRY
 SRVC.      Dresser Atlas:   SERVICE COMPANY
 DATE.        05-DEC-1984:   LOGDATE
 API .       490251117800:   API NUMBER
~CURVE INFORMATION
#MNEM.UNIT       API CODE    CURVE DESCRIPTION
#----------   ------------   ------------------------------
 DEPT.F                  :   
 RFOC.OHMM   07 220 04 00:   RESISTIVITY FOCUSED LOG
 RILD.OHMM   07 120 46 00:   INDUCTION LOG DEEP RESISTIVITY
 RILM.OHMM   07 120 44 00:   INDUCTION LOG MEDIUM RESISTIVITY
 SPR .MV     07 010 01 00:   SPONTANEOUS POTENTIAL
 CALD.IN     45 280 60 00:   CALIPER FROM DENSITY LOG
 CNC .DEC    42 890 03 00:   NEUTRON POROSITY SANDSTONE
 CORR.G/C3   45 356 01 00:   DENSITY CORRECTION
 DEN .G/C3   45 350 01 00:   COMPENSATED BULK DENSTIY
 GRD .GAPI   45 310 01 00:   GAMMA RAY FROM DENSITY LOG
 PORD.DEC    45 890 12 00:   POROSITY DENSITY SANDSTONE
 DT  .US/F   60 520 00 00:   INTERVAL TRANSIT TIME
~PARAMETER INFORMATION
#MNEM.UNIT          VALUE    DESCRIPTION
#----------   ------------   ------------------------------
 PD  .                 GL:   PERMANENT DATUM
 EPD .F              5188:   ELEVATION PERMANENT DATUM
 LMF .                 KB:   LOG MEASURED FROM
 DMF .                 KB:   DRILLING MEASURED FROM
 EGL .F              5188:   GROUND LEVEL
 DATE.         5-DEC-1984:   RUN DATE
 RUN .                  1:   RUN NUMBER
 DD  .F               556:   DEPTH DRILLER
 DL  .F               551:   DEPTH LOGGER
 BLI .F               549:   BOTTOM LOG INTERVAL
 CS  .IN            8.625:   CASING SIZE
 CBD .F                20:   CASING BOTTOM DRILLER
 CBL .F                20:   CASING BOTTOM LOGGER
 BS  .IN            7.875:   BIT SIZE
 BSD .F               556:   BIT SIZE AT DEPTH
 DFT .          KCL WATER:   DRILLING FLUID TYPE
 MSS .           FLOWLINE:   MUD SAMPLE SOURCE
 RMS .OHMM            .36:   RESISTIVITY MUD SAMPLE
 MST .F                70:   MUD SAMPLE TEMPERATURE
 RMF .OHMM            .26:   RESISTIVITY MUD FILTRATE SAMPLE
 MFST.F                70:   MUD FILTRATE SAMPLE TEMPERATURE
 RMC .OHMM            .46:   RESISTIVITY MUD CAKE
 MCST.F                70:   MUD CAKE SAMPLE TEMPERATURE
 MFSS.               CALC:   MUD FILTRATE SAMPLE SOURCE
 MCSS.               CALC:   MUD CAKE SAMPLE SOURCE
 RMB .OHMM            .29:   RESISTIVITY MUD AT BHT
 BHT .F                85:   BOTTOM HOLE TEMPERATURE
 TCS .HRS               3:   TIME CURCULATED STOPPED
 MRT .F               100:   MAXIMUM RECORDED TEMPERATURE
 LUN .               6274:   LOGGING UNIT NUMBER
 LUL .               GLTE:   LOGGING UNIT LOCATION
 ENGI.             RAUTIO:   RECORDING ENGINEER
 WITN.       GROOMS/LUERS:   WITNESSED BY
 CLNT.            A2DTECH:   CLIENT CODE
 ORIG.         2.5" PRINT:   ORIGIN OF DATA
 UWI .       490251117800:   UNIQUE WELL ID
 DICO. A2D Technologies, Inc.:   DIGITIZING COMPANY
~OTHER INFORMATION
~A   DEPT     RFOC       RILD       RILM        SPR       CALD        CNC       CORR        DEN         GRD      PORD         DT   
# ...
  103.5000    10.0392     9.9455     9.9406   -61.1696     8.1545     0.2742     0.0181     2.4699    99.2209     0.1250   102.9012
  104.0000     9.9198     9.6685     9.7986   -61.4841     8.1515     0.2700     0.0173     2.4690    98.4090     0.1244   103.1111
  104.5000     9.7760     9.5310     9.6585   -62.1026     8.1486     0.2663     0.0302     2.4705   101.3587     0.1232   103.2044
  105.0000     9.6342     9.3954     9.3890   -62.1131     8.1456     0.2632     0.0423     2.4743   102.0567     0.1220   103.1448
  105.5000     9.5235     9.3915     9.2548   -62.1236     8.1426     0.2604     0.0544     2.4782    98.9493     0.1202   103.0551
  106.0000     9.5195     9.3877     9.1225   -62.4381     8.1396     0.2618     0.0483     2.4766    98.3708     0.1196   102.9050
  106.5000     9.6493     9.3838     9.1181   -62.4486     8.1391     0.2637     0.0331     2.4751    99.5759     0.1191   102.8424
  107.0000     9.6826     9.5115     9.1137   -62.4591     8.1387     0.2656     0.0180     2.4736   101.9986     0.1215   102.6048
  107.5000     9.7764     9.5074     9.2369   -62.7736     8.1382     0.2673     0.0149     2.4720   101.3818     0.1215   102.6056
  108.0000     9.7718     9.5034     9.2325   -62.7842     8.1378     0.2686     0.0240     2.4705    98.3333     0.1215   102.4555
  108.5000     9.7677     9.6327     9.2280   -62.7948     8.1373     0.2675     0.0300     2.4690    98.2168     0.1218   102.3728
  109.0000     9.9011     9.6286     9.3528   -62.8055     8.1369     0.2643     0.0369     2.4675    99.5313     0.1248   102.6762
  109.5000     9.8963     9.6246     9.3482   -62.8161     8.1364     0.2603     0.0440     2.4675   100.7386     0.1265   102.9796
  110.0000     9.8921     9.4877     9.3350   -62.8267     8.1360     0.2563     0.0565     2.4706    99.5135     0.1248   103.3534
  110.5000     9.8880     9.3527     9.2101   -62.8374     8.1355     0.2546     0.0590     2.4752    98.2887     0.1219   103.5151
  111.0000     9.7473     9.2197     9.0650   -62.8480     8.1350     0.2576     0.0514     2.4763    98.9260     0.1201   103.5158
  111.5000     9.6813     8.8377     8.8095   -62.8587     8.1648     0.2643     0.0450     2.4761    99.4868     0.1219   103.6674
  112.0000     9.1578     8.3510     8.4260   -62.8693     8.1643     0.2722     0.0373     2.4699    98.2614     0.1269   103.8190
  112.5000     8.2976     7.7878     8.0732   -62.8799     8.1639     0.2794     0.0269     2.4619    97.0374     0.1319   104.0460
  113.0000     7.8414     7.5693     7.7549   -63.1945     8.1937     0.2837     0.0178     2.4541    99.3191     0.1379   104.5767
  113.5000     7.7858     7.4675     7.5579   -63.2052     8.1931     0.2825     0.0117     2.4482   102.4377     0.1388   105.1828
  114.0000     7.7825     7.5691     7.5542   -63.2158     8.1927     0.2801     0.0087     2.4459   106.3789     0.1370   106.0181
  114.5000     7.9524     7.5766     7.6568   -63.5304     8.1922     0.2777     0.0147     2.4489   107.9440     0.1380   106.5377
  115.0000     8.1068     7.6811     7.7603   -63.6373     8.1918     0.2765     0.0298     2.4483   105.5015     0.1405   106.0759
  115.5000     8.3321     7.7871     7.8653   -64.1596     8.1914     0.2741     0.0268     2.4466   105.4924     0.1421   105.2391
  116.0000     8.5637     7.9890     7.8946   -64.5836     8.1909     0.2723     0.0177     2.4444   106.4235     0.1434   104.4284
  116.5000     8.6800     8.1157     8.0794   -65.0927     8.1905     0.2738     0.0116     2.4398   105.4724     0.1431   105.0646
  117.0000     8.6765     8.2276     8.1886   -65.1033     8.1900     0.2794     0.0119     2.4407   106.6793     0.1409   105.6365
  117.5000     8.7949     8.3192     8.2994   -65.1140     8.1594     0.2848     0.0185     2.4443   109.1020     0.1329   105.4663
  118.0000     8.7908     8.4322     8.4563   -64.9889     8.1589     0.2863     0.0309     2.4519   107.8773     0.1280   105.0990
  118.5000     8.6657     8.4284     8.5245   -64.8313     8.1585     0.2789     0.0433     2.4610   105.4368     0.1256   104.7338
  119.0000     8.6621     8.4248     8.5203   -64.8419     8.1580     0.2729     0.0540     2.4647   105.4278     0.1293   104.3444
  119.5000     8.6586     8.4213     8.5162   -64.6971     8.1576     0.2680     0.0387     2.4519   107.8506     0.1342   104.4336
  120.0000     8.6550     8.4178     8.5120   -64.3972     8.1571     0.2622     0.0212     2.4473   107.8825     0.1366   104.7362
  120.5000     8.7726     8.4475     8.5079   -64.2660     8.1566     0.2554     0.0159     2.4519   110.2644     0.1354   104.8878
  121.0000     8.7690     8.5291     8.6229   -64.2766     8.1562     0.2520     0.0267     2.4564   112.6871     0.1312   104.7376
  121.5000     8.8882     8.6451     8.6187   -64.2894     8.1557     0.2514     0.0344     2.4625   110.7589     0.1270   104.2860
  122.0000     9.0090     8.8020     8.7352   -64.2999     8.1553     0.2528     0.0387     2.4670   107.6515     0.1246   103.8342
  122.5000     9.0052     8.9235     8.9235   -64.3104     8.1548     0.2575     0.0266     2.4637   106.3678     0.1278   103.5333
  123.0000     9.2555     9.1734     9.0467   -64.3209     8.1543     0.2672     0.0145     2.4577   104.1398     0.1319   103.2323
  123.5000     9.5127     9.4303     9.2207   -64.3314     8.1236     0.2751     0.0023     2.4549   104.4610     0.1317   102.9314
  124.0000     9.6420     9.6429     9.4763   -64.3420     8.1232     0.2781    -0.0068     2.4613   106.9422     0.1292   102.6305
  124.5000     9.6380     9.4522     9.6053   -64.3525     8.1228     0.2781    -0.0007     2.4648   108.5917     0.1268   102.6313
  125.0000     9.5010     9.3157     9.5998   -64.3630     8.1223     0.2805     0.0053     2.4670   110.1824     0.1251   102.9338
  125.5000     9.1062     9.0009     9.2030   -64.3735     8.1219     0.2884     0.0113     2.4613   108.3921     0.1260   103.2362
  126.0000     8.8502     8.6789     8.5804   -64.3841     8.1214     0.2963     0.0174     2.4557   108.0446     0.1315   103.8402
  126.5000     8.6085     8.4896     8.2257   -64.3946     8.1512     0.2951     0.0234     2.4564   108.9392     0.1339   104.2935
  127.0000     8.9817     8.3688     8.3369   -64.4051     8.1508     0.2830     0.0234     2.4594   108.9284     0.1302   104.7467
  127.5000     9.1063     8.3653     8.3329   -64.4156     8.1667     0.2757     0.0234     2.4633   108.9194     0.1253   105.0491
  128.0000     9.3465     8.3618     8.4460   -64.4262     8.1801     0.2708     0.0234     2.4700   107.6947     0.1224   105.3515
  128.5000     9.2133     8.4194     8.4415   -64.4367     8.1796     0.2660     0.0242     2.4730   104.0384     0.1200   104.8998
  129.0000     9.0822     8.5355     8.4374   -64.4472     8.1792     0.2650     0.0304     2.4791   100.9900     0.1188   104.4481
  129.5000     8.9530     8.5870     8.4333   -64.1538     8.1787     0.2705     0.0378     2.4794   100.3732     0.1213   103.8455
  130.0000     8.8256     8.5834     8.4293   -64.1643     8.1782     0.2769     0.0476     2.4684   101.5801     0.1273   103.5445
  130.5000     8.8219     8.5798     8.4252   -64.1748     8.1778     0.2784     0.0491     2.4608   105.2186     0.1310   103.8470
  131.0000     8.7890     8.5762     8.4211   -64.4924     8.2076     0.2739     0.0368     2.4563   110.0729     0.1322   104.3002
  131.5000     8.8150     8.4535     8.3008   -65.1079     8.2373     0.2692     0.0258     2.4578   113.8207     0.1274   104.4518
  132.0000     8.8109     8.3333     8.1821   -65.1185     8.2369     0.2658     0.0233     2.4608   117.4630     0.1214   104.4526
  132.5000     8.8072     8.3298     8.1782   -65.4559     8.2364     0.2670     0.0293     2.4669   117.9490     0.1190   104.1517
  133.0000     8.8035     8.3264     8.1743   -66.0811     8.2359     0.2707     0.0475     2.4731   115.8845     0.1203   103.8508
  133.5000     8.7998     8.3229     8.1703   -66.7062     8.2354     0.2731     0.0596     2.4710   113.3850     0.1242   103.8515
