~VERSION INFORMATION
 VERS.                2.0:   CWLS LOG ASCII STANDARD - VERSION 2.0
 WRAP.                 NO:   ONE LINE PER DEPTH STEP
~WELL INFORMATION
#MNEM.UNIT      DATA TYPE    INFORMATION
#----------   ------------   ------------------------------
 STRT.F            0.0000:   START DEPTH
 STOP.F         4535.0000:   STOP DEPTH
 STEP.F            0.5000:   STEP LENGTH
 NULL.          -999.2500:   NO VALUE
 COMP. LAWRENCE - ALLISON & ASSOCIATES:   COMPANY
 WELL.    NPR ##3 56-X-15:   WELL
 FLD .   TEAPOT NAVAL RES:   FIELD
 LOC .      S15 T38N R78W:   LOCATION
 CNTY.            NATRONA:   COUNTY
 STAT.            WYOMING:   STATE
 CTRY. UNITED STATES OF AMERICA:   COUNTRY
 SRVC.      Dresser Atlas:   SERVICE COMPANY
 DATE.        03-MAY-1984:   LOGDATE
 API .       490251095900:   API NUMBER
~CURVE INFORMATION
#MNEM.UNIT       API CODE    CURVE DESCRIPTION
#----------   ------------   ------------------------------
 DEPT.F                  :   
 CORR.G/C3   45 356 01 00:   DENSITY CORRECTION
 DEN .G/C3   45 350 01 00:   COMPENSATED BULK DENSTIY
 PORD.DEC    45 890 12 00:   POROSITY DENSITY SANDSTONE
 CNC .DEC    42 890 03 00:   NEUTRON POROSITY SANDSTONE
 GRR .GAPI   07 310 01 00:   GAMMA RAY
 CALR.IN     07 280 01 00:   CALIPER FROM RESISTIVITY
 SPR .MV     07 010 01 00:   SPONTANEOUS POTENTIAL
 RILD.OHMM   07 120 46 00:   INDUCTION LOG DEEP RESISTIVITY
 RILM.OHMM   07 120 44 00:   INDUCTION LOG MEDIUM RESISTIVITY
 RFOC.OHMM   07 220 04 00:   RESISTIVITY FOCUSED LOG
 AC  .US/F   60 520 00 00:   ACCOUSTIC
~PARAMETER INFORMATION
#MNEM.UNIT          VALUE    DESCRIPTION
#----------   ------------   ------------------------------
 PD  .                 GL:   PERMANENT DATUM
 EPD .F              5326:   ELEVATION PERMANENT DATUM
 LMF .                 KB:   LOG MEASURED FROM
 DAPD.F                12:   FEET ABOVE PERMANENT DATUM
 DMF .                 KB:   DRILLING MEASURED FROM
 EKB .F              5338:   KELLING BUSHING
 EDF .F              5337:   DRILLING FLOOR
 EGL .F              5326:   GROUND LEVEL
 DATE.        03-MAY-1984:   RUN DATE
 RUN .                  1:   RUN NUMBER
 DD  .F              4547:   DEPTH DRILLER
 DL  .F              4539:   DEPTH LOGGER
 BLI .F              4536:   BOTTOM LOG INTERVAL
 CS  .IN            8.625:   CASING SIZE
 CBD .F              1027:   CASING BOTTOM DRILLER
 CBL .F              1021:   CASING BOTTOM LOGGER
 BS  .IN            7.875:   BIT SIZE
 BSD .F              4547:   BIT SIZE AT DEPTH
 DFT .            KCL GEL:   DRILLING FLUID TYPE
 DFD .                9.1:   DRILLING FLUID DENSITY
 DFV .                 44:   DRILLING FLUID VISCOSITY
 DFPH.                  8:   DRILLING FLUID PH
 DFL .               14.5:   DRILLING FLUID LOSS
 MSS .           MUD TANK:   MUD SAMPLE SOURCE
 RMS .OHMM           0.56:   RESISTIVITY MUD SAMPLE
 MST .F                73:   MUD SAMPLE TEMPERATURE
 RMF .OHMM           0.42:   RESISTIVITY MUD FILTRATE SAMPLE
 MFST.F                73:   MUD FILTRATE SAMPLE TEMPERATURE
 RMC .OHMM           0.71:   RESISTIVITY MUD CAKE
 MCST.F                73:   MUD CAKE SAMPLE TEMPERATURE
 MFSS.               MEAS:   MUD FILTRATE SAMPLE SOURCE
 MCSS.               CALC:   MUD CAKE SAMPLE SOURCE
 RMB .OHMM           0.29:   RESISTIVITY MUD AT BHT
 BHT .F               141:   BOTTOM HOLE TEMPERATURE
 TCS .HRS             3.5:   TIME CURCULATED STOPPED
 MRT .F               125:   MAXIMUM RECORDED TEMPERATURE
 LUN .               6302:   LOGGING UNIT NUMBER
 LUL .               CODY:   LOGGING UNIT LOCATION
 ENGI.              GETTY:   RECORDING ENGINEER
 WITN.           JENNINGS:   WITNESSED BY
 CLNT.            A2DTECH:   CLIENT CODE
 ORIG.           5" PRINT:   ORIGIN OF DATA
 UWI .       490251095900:   UNIQUE WELL ID
 DICO. A2D Technologies, Inc.:   DIGITIZING COMPANY
~OTHER INFORMATION
~A    DEPT    CORR        DEN       PORD        CNC        GRR       CALR        SPR       RILD       RILM       RFOC         AC   
# ...
 3355.0000     0.0193     2.5404     0.0604     0.2774   116.2994     8.5843   -10.9910     5.7410     5.9582     6.2258    88.7571
 3355.5000     0.0614     2.5547     0.0580     0.2786   109.6739     8.5837   -10.9940     5.7375     5.9976     6.3525    88.3841
 3356.0000     0.0523     2.5554     0.0640     0.2746   109.0656     8.5982   -10.9970     5.7754     5.9940     6.4380    88.0864
 3356.5000     0.0311     2.5394     0.0731     0.2722   110.8588     8.6140   -11.0000     5.7319     5.9911     6.3437    87.9385
 3357.0000    -0.0037     2.5252     0.0774     0.2698   111.1528     8.6271   -10.8528     5.7291     5.9467     6.2086    88.0185
 3357.5000    -0.0054     2.5236     0.0759     0.2624   108.7356     8.5949   -10.7056     5.7263     5.9026     6.1187    88.0976
 3358.0000     0.0006     2.5269     0.0702     0.2422   107.5236     8.5506   -10.6926     5.7236     5.8998     6.1571    88.0260
 3358.5000     0.0322     2.5410     0.0663     0.2407   107.2138     8.5349   -10.5615     5.7208     5.8561     6.3702    87.5023
 3359.0000     0.0518     2.5408     0.0678     0.2471   108.1070     8.5494   -10.7149     5.6784     5.8127     6.7296    86.6771
 3359.5000     0.0591     2.5393     0.0681     0.2487   111.4063     8.5488   -10.7179     5.6757     5.7696     7.0123    86.0026
 3360.0000     0.0356     2.5385     0.0685     0.2493   117.7131     8.5482   -10.8710     5.5947     5.6872     6.7202    85.8548
 3360.5000     0.0131     2.5362     0.0715     0.2578   122.5161     8.5627   -10.8740     5.5148     5.6060     6.2650    86.3116
 3361.0000     0.0045     2.5301     0.0767     0.2600   121.9056     8.5598   -10.8770     5.4361     5.5644     6.0891    86.9936
 3361.5000     0.0104     2.5142     0.0879     0.2488   117.3853     8.5464   -10.7297     5.3214     5.5232     6.0427    87.6002
 3362.0000     0.0133     2.4961     0.0957     0.2437   114.3688     8.5458   -10.5826     5.2820     5.4823     5.9967    88.2068
 3362.5000     0.0041     2.4923     0.0943     0.2471   116.4650     8.5452   -10.4354     5.3162     5.5185     5.9511    88.8134
 3363.0000    -0.0050     2.4998     0.0849     0.2502   119.4636     8.5446   -10.4386     5.3136     5.5537     5.8649    89.5708
 3363.5000    -0.0066     2.5194     0.0729     0.2529   121.2591     8.5440   -10.2913     5.3487     5.5897     5.8203    89.9513
 3364.0000     0.0279     2.5480     0.0608     0.2502   118.5433     8.5434    -9.9940     5.3834     5.6266     5.8578    89.9551
 3364.5000     0.0565     2.5661     0.0518     0.2472   108.9102     8.5428    -9.6968     5.4560     5.7818     5.9346    89.5067
 3365.0000     0.0217     2.5668     0.0551     0.2424   106.7959     8.5573    -9.5497     5.5297     5.8599     6.0135    88.8322
 3365.5000     0.0050     2.5540     0.0600     0.2322   109.7945     8.5566    -9.4025     5.6427     6.0222     6.1358    87.8563
 3366.0000     0.0094     2.5517     0.0549     0.2237   111.8907     8.5560    -9.2553     5.7587     6.1461     6.2607    86.5036
 3366.5000     0.0350     2.5637     0.0497     0.2171   112.4855     8.5554    -9.2583     5.9181     6.3163     6.4326    85.3016
 3367.0000     0.0635     2.5720     0.0477     0.2141   111.2712     8.5548    -9.4115     6.0818     6.4464     6.6553    84.3258
 3367.5000     0.0770     2.5727     0.0504     0.2154   108.8562     8.5542    -9.7148     6.2501     6.5790     6.7449    83.3498
 3368.0000     0.0271     2.5659     0.0534     0.2245   106.1404     8.5385   -10.0181     6.4231     6.6679     6.7872    82.2232
 3368.5000     0.0180     2.5605     0.0556     0.2315   104.3269     8.5229   -10.3214     6.5106     6.7579     6.8298    81.4734
 3369.0000     0.0239     2.5567     0.0580     0.2266   104.0171     8.4922   -10.6247     6.5985     6.8018     6.8239    81.2510
 3369.5000     0.0464     2.5567     0.0574     0.2228   104.6119     8.4614   -10.9280     6.6867     6.7985     6.8191    81.2549
 3370.0000     0.0704     2.5589     0.0560     0.2216   105.5029     8.4458   -11.0811     6.6835     6.7952     6.8144    81.4093
 3370.5000     0.0703     2.5634     0.0551     0.2257   106.0976     8.4301   -11.5346     6.6802     6.7919     6.8097    81.5638
 3371.0000     0.0642     2.5626     0.0557     0.2366   103.6803     8.4295   -11.8379     6.6770     6.7886     6.9002    81.3415
 3371.5000     0.0519     2.5588     0.0655     0.2408   100.3631     8.4289   -11.9910     6.6737     6.7382     6.9930    80.9684
 3372.0000     0.0409     2.5429     0.0714     0.2363    99.7548     8.4434   -11.8438     6.6705     6.7350     7.1838    80.4447
 3372.5000    -0.0060     2.5217     0.0863     0.2352   101.8488     8.4428   -11.6967     6.4846     6.7279     7.2805    80.0716
 3373.0000    -0.0047     2.5043     0.0896     0.2352   105.1481     8.4723   -11.0991     6.3038     6.5850     7.1242    79.8493
 3373.5000     0.0027     2.5027     0.0869     0.2340   109.0488     8.5018   -10.3514     6.0857     6.3955     6.6416    80.1545
 3374.0000     0.0086     2.5156     0.0852     0.2283   112.6488     8.5313    -9.3033     5.5575     5.9978     6.1916    80.6858
 3374.5000     0.0054     2.5133     0.0873     0.2256   117.1511     8.5609    -8.5556     5.0052     5.3139     6.1445    81.1417
 3375.0000    -0.0023     2.5019     0.1024     0.2293   120.1496     8.5754    -7.8078     4.4766     4.7168     6.0555    81.6729
 3375.5000    -0.0220     2.4638     0.1466     0.2478   122.5466     8.6198    -6.7574     3.8671     4.1472     5.8448    82.5841
 3376.0000    -0.0463     2.4038     0.2215     0.2908   130.3572     8.6493    -5.4053     3.2491     3.4181     5.4111    83.8059
 3376.5000    -0.1068     2.2708     0.2738     0.3182   140.8745     8.6790    -3.6067     3.0296     3.1213     4.4516    86.3136
 3377.0000    -0.1266     2.1154     0.3261     0.3045   143.5745     8.6934    -2.7109     3.0072     3.0767     3.3694    90.1445
 3377.5000    -0.0965     2.1059     0.3213     0.2690   139.6535     8.7079    -2.2672     3.0477     3.0539     2.7720    95.7485
 3378.0000    -0.0394     2.1578     0.2545     0.2428   129.1181     8.6318    -2.4263     3.1104     3.1604     2.5134   102.3614
 3378.5000     0.0268     2.3973     0.1177     0.2268   113.1693     8.4505    -3.0311     3.1744     3.3628     2.7110   101.3459
 3379.0000     0.0297     2.5054     0.0830     0.2147   107.1452     8.4047    -3.9444     3.3775     3.6790     3.6521    95.2702
 3379.5000     0.0250     2.5370     0.0649     0.2056   105.6325     8.3891    -5.0002     3.7990     4.0531     5.0938    86.8655
 3380.0000     0.0354     2.5446     0.0643     0.2039   104.7212     8.3734    -6.2062     4.3328     4.5593     6.6290    79.4541
 3380.5000     0.0491     2.5423     0.0655     0.2116   104.1107     8.3880    -7.4121     4.9417     5.2368     6.3529    79.0767
 3381.0000     0.0306     2.5415     0.0658     0.2107   104.1017     8.4175    -8.6066     5.4817     6.1846     6.1745    79.3821
 3381.5000     0.0184     2.5482     0.0580     0.2098   104.6942     8.4320    -9.6746     5.9552     6.4898     6.2566    79.2973
 3382.0000     0.0107     2.5663     0.0520     0.2162   109.1964     8.4464   -11.0307     6.2925     6.5327     6.8431    78.7726
 3382.5000     0.0000     2.5701     0.0502     0.2299   113.0972     8.4457   -12.5375     6.3775     6.4386     6.7910    78.5652
 3383.0000     0.0104     2.5655     0.0527     0.2314   113.6920     8.4451   -14.0443     6.3302     6.3466     6.5093    78.7197
 3383.5000     0.0299     2.5594     0.0569     0.2203   107.0642     8.4445   -14.9159     6.2398     6.2996     6.2392    79.7784
 3384.0000     0.0508     2.5511     0.0621     0.2115   102.2431     8.4591   -15.0691     6.1082     6.1666     6.0221    80.8372
 3384.5000     0.0416     2.5435     0.0666     0.2143   103.7379     8.4734   -14.7527     6.0210     6.0364     5.9349    81.8206
 3385.0000     0.0053     2.5404     0.0676     0.2249   106.7364     8.4728   -14.1542     5.9764     5.9917     5.8897    82.7286
