~VERSION INFORMATION
 VERS.                2.0:   CWLS LOG ASCII STANDARD - VERSION 2.0
 WRAP.                 NO:   ONE LINE PER DEPTH STEP
~WELL INFORMATION
#MNEM.UNIT      DATA TYPE    INFORMATION
#----------   ------------   ------------------------------
 STRT.F            9.0000:   START DEPTH
 STOP.F          512.0000:   STOP DEPTH
 STEP.F            0.5000:   STEP LENGTH
 NULL.          -999.2500:   NO VALUE
 COMP. LAWRENCE-ALLISON &AS:   COMPANY
 WELL. NPR 3 #61-21SX10UP2:   WELL
 FLD .             TEAPOT:   FIELD
 LOC .      S10 T38N R78W:   LOCATION
 CNTY.            NATRONA:   COUNTY
 STAT.            WYOMING:   STATE
 CTRY. UNITED STATES OF AMERICA:   COUNTRY
 SRVC.      Dresser Atlas:   SERVICE COMPANY
 DATE.        13-DEC-1984:   LOGDATE
 API .       490251100500:   API NUMBER
~CURVE INFORMATION
#MNEM.UNIT       API CODE    CURVE DESCRIPTION
#----------   ------------   ------------------------------
 DEPT.F                  :   
 PORD.DEC    45 890 12 00:   POROSITY DENSITY SANDSTONE
 CNCF.DEC    42 890 03 00:   NEUTRON POROSITY SANDSTONE
 GRD .GAPI   45 310 01 00:   GAMMA RAY FROM DENSITY LOG
 CALD.IN     45 280 60 00:   CALIPER FROM DENSITY LOG
 CORR.G/C3   45 356 01 00:   DENSITY CORRECTION
 DEN .G/C3   45 350 01 00:   COMPENSATED BULK DENSTIY
 AC  .US/F   60 520 00 00:   ACCOUSTIC
 RILD.OHMM   07 120 46 00:   INDUCTION LOG DEEP RESISTIVITY
 RILM.OHMM   07 120 44 00:   INDUCTION LOG MEDIUM RESISTIVITY
 RFOC.OHMM   07 220 04 00:   RESISTIVITY FOCUSED LOG
 SPR .MV     11 010 01 00:   SPONTANEOUS POTENTIAL FROM RES.
 RS  .OHMM   11 220 09 00:   RESISTIVITY SHALLOW
 RD  .OHMM   11 220 10 00:   RESISTIVITY DEEP
~PARAMETER INFORMATION
#MNEM.UNIT          VALUE    DESCRIPTION
#----------   ------------   ------------------------------
 PD  .                 GL:   PERMANENT DATUM
 EPD .F              5157:   ELEVATION PERMANENT DATUM
 LMF .                 GL:   LOG MEASURED FROM
 DMF .                 GL:   DRILLING MEASURED FROM
 EGL .F              5157:   GROUND LEVEL
 DATE.         12-13-1984:   RUN DATE
 RUN .                  1:   RUN NUMBER
 DD  .F               514:   DEPTH DRILLER
 DL  .F               513:   DEPTH LOGGER
 BLI .F               512:   BOTTOM LOG INTERVAL
 TLI .F                20:   TOP LOG INTERVAL
 CS  .IN            8.625:   CASING SIZE
 CBD .F                20:   CASING BOTTOM DRILLER
 CBL .F                20:   CASING BOTTOM LOGGER
 BS  .IN            7.875:   BIT SIZE
 BSD .F               514:   BIT SIZE AT DEPTH
 DFT .          KCL WATER:   DRILLING FLUID TYPE
 MSS .           FLOWLINE:   MUD SAMPLE SOURCE
 RMS .OHMM            .17:   RESISTIVITY MUD SAMPLE
 MST .F                95:   MUD SAMPLE TEMPERATURE
 RMF .OHMM            .08:   RESISTIVITY MUD FILTRATE SAMPLE
 MFST.F                95:   MUD FILTRATE SAMPLE TEMPERATURE
 RMC .OHMM            .14:   RESISTIVITY MUD CAKE
 MCST.F                95:   MUD CAKE SAMPLE TEMPERATURE
 MFSS.               CALC:   MUD FILTRATE SAMPLE SOURCE
 MCSS.               CALC:   MUD CAKE SAMPLE SOURCE
 TCS .HRS              10:   TIME CURCULATED STOPPED
 MRT .F               100:   MAXIMUM RECORDED TEMPERATURE
 LUN .               6270:   LOGGING UNIT NUMBER
 LUL .                 FM:   LOGGING UNIT LOCATION
 ENGI.            LEBSOCK:   RECORDING ENGINEER
 WITN.        GREG GROOMS:   WITNESSED BY
 CLNT.            A2DTECH:   CLIENT CODE
 ORIG.           5" PRINT:   ORIGIN OF DATA
 UWI .       490251100500:   UNIQUE WELL ID
 DICO. A2D Technologies, Inc.:   DIGITIZING COMPANY
~OTHER INFORMATION
~A    DEPT    PORD       CNCF        GRD       CALD       CORR        DEN          AC      RILD       RILM       RFOC        SPR         RS         RD   
# ...
  373.0000     0.1409     0.2300    83.8253     7.7508    -0.0448     2.4491    91.3340    15.6627    13.8920    15.6458   -64.8817    15.2284    16.8411
  373.5000     0.1307     0.2275    83.9759     7.7203    -0.0569     2.4657    90.2841    15.4347    13.7908    15.6394   -64.8906    15.2221    16.9497
  374.0000     0.1196     0.2261    83.0482     7.7050    -0.0554     2.4823    88.4801    15.4252    14.0772    15.7438   -64.8996    15.5359    17.1797
  374.5000     0.1145     0.2334    83.0908     7.7047    -0.0479     2.4898    86.1482    15.3088    14.7757    16.0678   -65.0585    15.8562    17.4129
  375.0000     0.1148     0.2340    83.7249     7.7195    -0.0359     2.4853    85.3245    15.0879    15.6172    17.0997   -65.3673    16.4094    17.8960
  375.5000     0.1194     0.2298    84.1265     7.7493    -0.0223     2.4822    84.9534    14.9740    14.9727    17.4552   -65.5262    16.8643    18.2656
  376.0000     0.1218     0.2256    82.7711     7.7641    -0.0163     2.4798    86.0905    14.7580    14.2552    16.3866   -65.6852    16.3958    18.2578
  376.5000     0.1234     0.2263    82.9217     7.7638    -0.0118     2.4728    88.4632    14.5451    13.6669    15.6008   -65.8441    15.7205    17.2638
  377.0000     0.1265     0.2323    83.6747     7.7635    -0.0058     2.4640    89.8402    14.5361    13.1944    14.9564   -65.8531    15.2837    16.3239
  377.5000     0.1333     0.2463    84.2771     7.7632     0.0048     2.4572    91.0871    14.5271    13.0074    14.5397   -66.0120    15.0668    15.9806
  378.0000     0.1368     0.2520    84.8795     7.7629     0.0229     2.4527    91.5455    14.6217    12.9127    14.4329   -66.0210    14.9564    15.9740
  378.5000     0.1356     0.2517    85.1807     7.7626     0.0426     2.4534    91.6269    14.7147    12.8185    14.4269   -66.1799    14.8468    15.9673
  379.0000     0.1350     0.2506    85.0301     7.7612     0.0439     2.4541    91.4820    14.8082    12.7122    14.7403   -66.3388    14.9455    15.9607
  379.5000     0.1351     0.2482    84.5783     7.7469     0.0375     2.4526    91.3356    14.6942    12.5438    14.9257   -66.6477    14.9378    15.8436
  380.0000     0.1357     0.2410    83.8253     7.7486     0.0316     2.4518    91.1152    14.5833    12.4524    14.8145   -66.8066    14.7258    15.8224
  380.5000     0.1358     0.2345    85.1807     7.7614     0.0255     2.4518    91.1227    14.4733    12.2759    14.6037   -66.9875    14.4163    15.6120
  381.0000     0.1352     0.2316    87.4398     7.7611     0.0193     2.4525    91.3548    14.4643    12.1019    14.3958   -66.9742    14.1134    15.3902
  381.5000     0.1304     0.2383    89.3976     7.7607     0.0105     2.4563    91.5116    14.2556    12.0137    14.1909   -66.9835    13.9131    15.1703
  382.0000     0.1256     0.2411    89.0964     7.7604     0.0015     2.4646    91.4421    14.1481    11.9262    13.9889   -66.8422    13.8111    15.0591
  382.5000     0.1238     0.2351    86.6867     7.7450     0.0226     2.4706    90.6938    13.9406    11.8394    13.8862   -66.8534    13.8054    15.0529
  383.0000     0.1214     0.2260    86.8373     7.7297     0.0376     2.4743    89.2443    13.8309    11.7531    13.9774   -66.8623    14.1882    15.2571
  383.5000     0.1184     0.2239    87.8916     7.7143     0.0316     2.4789    87.7884    13.7220    11.8323    14.1676   -66.8713    14.9920    15.4642
  384.0000     0.1161     0.2264    87.7410     7.6838     0.0210     2.4827    86.1128    13.6302    11.9931    14.9728   -66.8803    15.6231    16.0040
  384.5000     0.1155     0.2382    86.6867     7.6684     0.0073     2.4864    85.8910    13.5257    12.2422    16.4988   -67.0392    15.8365    16.6782
  385.0000     0.1167     0.2470    86.6867     7.6833     0.0013     2.4856    88.0854    13.4236    12.5839    15.8174   -67.3480    15.2885    17.1428
  385.5000     0.1186     0.2482    87.2892     7.6829     0.0103     2.4825    90.2029    13.2299    12.9352    14.9544   -67.6568    14.7609    16.2078
  386.0000     0.1217     0.2494    87.5904     7.7128     0.0359     2.4765    90.8122    13.2218    13.2037    14.2372   -68.1155    14.3508    15.8670
  386.5000     0.1267     0.2703    86.3640     7.7125     0.0253     2.4681    91.1198    13.3987    13.2958    13.8404   -68.7242    14.1471    15.7506
  387.0000     0.1320     0.2667    83.0723     7.7273     0.0042     2.4598    91.2765    13.4839    13.4734    13.7388   -69.1829    14.0434    15.6351
  387.5000     0.1332     0.2480    83.6747     7.7270    -0.0049     2.4568    91.4333    13.3821    13.3595    13.7489   -69.4917    13.9405    15.6287
  388.0000     0.1293     0.2432    85.7831     7.7116     0.0041     2.4613    91.5146    13.3738    12.9118    13.8235   -69.8006    13.8383    15.5141
  388.5000     0.1291     0.2465    87.7410     7.7113     0.0207     2.4658    91.5959    13.3656    12.6404    13.7205   -69.9595    13.8326    15.4003
  389.0000     0.1315     0.2626    89.3976     7.7110     0.0312     2.4612    91.6773    13.3573    12.5483    13.6197   -69.9684    13.7312    15.3940
  389.5000     0.1394     0.2671    90.0000     7.6956     0.0176     2.4536    91.6833    13.2565    12.4580    13.6141   -69.9774    13.7255    15.2811
  390.0000     0.1416     0.2596    89.0964     7.6953     0.0100     2.4453    91.6893    13.0653    12.4526    13.5141   -69.9864    13.6250    15.1690
  390.5000     0.1416     0.2515    90.1506     7.6950     0.0040     2.4430    91.6965    12.8768    12.2761    13.4148   -69.9953    13.4316    15.0578
  391.0000     0.1407     0.2497    89.0964     7.6947    -0.0021     2.4445    91.8532    12.6910    11.8518    13.3163   -70.4541    13.3331    14.9474
  391.5000     0.1390     0.2524    88.6446     7.6944    -0.0051     2.4460    92.0854    12.7717    11.3627    13.2184   -70.9128    13.2354    14.8378
  392.0000     0.1360     0.2537    90.7530     7.6941    -0.0082     2.4490    92.3176    12.9426    10.9699    13.2130   -71.3715    12.9573    14.6270
  392.5000     0.1327     0.2516    92.1084     7.6938    -0.0052     2.4529    92.4743    12.8449    10.8144    13.1159   -71.8303    12.8594    14.3195
  393.0000     0.1273     0.2444    90.3012     7.6935     0.0068     2.4630    92.7065    12.5708    10.7356    13.0196   -72.1391    12.5920    14.1161
  393.5000     0.1222     0.2405    88.3434     7.6932     0.0385     2.4746    92.8632    12.2192    10.6574    12.9240   -72.4479    12.4997    14.0126
  394.0000     0.1234     0.2423    89.0964     7.7080     0.0596     2.4723    93.0200    12.0339    10.5063    12.7400   -72.4569    12.3223    13.9098
  394.5000     0.1259     0.2469    91.8072     7.7077     0.0565     2.4640    93.2522    11.7742    10.2846    12.6458   -72.3137    12.2224    13.6173
  395.0000     0.1300     0.2550    93.0120     7.7074     0.0383     2.4564    93.4089    11.4547     9.7880    12.4663   -71.8751    12.0472    13.5143
  395.5000     0.1371     0.2599    93.3133     7.7071     0.0170     2.4496    93.6411    11.2894     9.5117    12.2888   -71.5820    11.8871    13.2273
  396.0000     0.1405     0.2609    92.7108     7.6917    -0.0058     2.4458    93.9487    11.0494     9.3850    12.1139   -71.2911    11.7043    12.9465
  396.5000     0.1363     0.2627    91.0406     7.7065    -0.0254     2.4496    94.1908    10.8145     9.0600    11.8576   -71.0025    11.5366    12.6716
  397.0000     0.1315     0.2651    89.8273     7.7039    -0.0326     2.4571    94.5653    10.4384     8.5065    11.6888   -70.8593    11.2301    12.3167
  397.5000     0.1291     0.2715    89.3976     7.6908    -0.0240     2.4639    94.8729     9.3331     8.0425    11.4425   -70.7183    10.9941    11.9566
  398.0000     0.1274     0.2833    89.5723     7.6904     0.0035     2.4661    95.2559     7.6765     7.6039    11.2797   -70.5773    10.7631    11.4919
  398.5000     0.1277     0.2830    93.4639     7.6751     0.0246     2.4662    95.9405     7.0574     6.9917    11.1191   -70.4364    10.3917    11.0950
