~VERSION INFORMATION
 VERS.                2.0:   CWLS LOG ASCII STANDARD - VERSION 2.0
 WRAP.                 NO:   ONE LINE PER DEPTH STEP
~WELL INFORMATION
#MNEM.UNIT      DATA TYPE    INFORMATION
#----------   ------------   ------------------------------
 STRT.F          717.0000:   START DEPTH
 STOP.F         2448.0000:   STOP DEPTH
 STEP.F            0.5000:   STEP LENGTH
 NULL.          -999.2500:   NO VALUE
 COMP.   FLUOR DANIEL INC:   COMPANY
 WELL. NAVAL PETROLEUM RESERVE 3X27 #34-27:   WELL
 FLD .             TEAPOT:   FIELD
 LOC .      S27 T39N R78W:   LOCATION
 CNTY.            NATRONA:   COUNTY
 STAT.            WYOMING:   STATE
 CTRY. UNITED STATES OF AMERICA:   COUNTRY
 SRVC.            Unknown:   SERVICE COMPANY
 DATE.        17-MAY-1996:   LOGDATE
 API .       490252279300:   API NUMBER
~CURVE INFORMATION
#MNEM.UNIT       API CODE    CURVE DESCRIPTION
#----------   ------------   ------------------------------
 DEPT.F                  :   
 TGAS.TC/CC  91 830 01 00:   TOTAL GAS UNIT
 ROP .FT/HR  91 810 01 00:   RAT OF DRILLING PENETRATION
~PARAMETER INFORMATION
#MNEM.UNIT          VALUE    DESCRIPTION
#----------   ------------   ------------------------------
 EPD .F              5039:   ELEVATION PERMANENT DATUM
 EKB .F              5049:   KELLING BUSHING
 EGL .F              5039:   GROUND LEVEL
 DATE.        17-MAY-1996:   RUN DATE
 RUN .                  1:   RUN NUMBER
 ENGI.     R.HUSK/C.TOWER:   RECORDING ENGINEER
 CLNT.            A2DTECH:   CLIENT CODE
 ORIG.           5" PRINT:   ORIGIN OF DATA
 UWI .       490252279300:   UNIQUE WELL ID
 DICO. A2D Technologies, Inc.:   DIGITIZING COMPANY
~OTHER INFORMATION
~A   DEPT       TGAS        ROP 
  717.0000     0.6113     0.5297
  717.5000     0.8036     0.5301
  718.0000     0.8073     0.7842
  718.5000     0.8104     0.7846
  719.0000     0.6244     0.7850
  719.5000     0.6275     0.7854
  720.0000     0.4407     1.0113
  720.5000     0.2555     1.0117
  721.0000     0.2586     1.0121
  721.5000     0.2617     1.0125
  722.0000     0.2648     1.0128
  722.5000     0.2679     1.0132
  723.0000     0.2710     1.0230
  723.5000     0.2742     1.0233
  724.0000     0.2773     1.0237
  724.5000     0.2810     0.5353
  725.0000     0.2841     0.5357
  725.5000     0.2872     0.5455
  726.0000     0.2903     0.5459
  726.5000     0.2934     0.5463
  727.0000     0.2965     0.5467
  727.5000     0.2998     0.5471
  728.0000     0.3029     0.5474
  728.5000     0.3060     0.5384
  729.0000     0.4982     0.5388
  729.5000     0.5013     0.5391
  730.0000     0.5044     0.5395
  730.5000     0.5075     0.5399
  731.0000     0.5106     0.5496
  731.5000     0.5137     0.5500
  732.0000     0.5168     0.5506
  732.5000     0.5200     0.6917
  733.0000     0.5237     0.6921
  733.5000     0.5268     0.6926
  734.0000     0.5299     0.5425
  734.5000     0.5330     0.5523
  735.0000     0.3462     0.5527
  735.5000     0.3501     0.5530
  736.0000     0.3532     0.5439
  736.5000     0.3563     0.5444
  737.0000     0.3593     0.5448
  737.5000     0.3624     0.5451
  738.0000     0.3655     0.5455
  738.5000     0.3687     0.5459
  739.0000     0.5609     0.5462
  739.5000     0.5647     0.5466
  740.0000     0.5670     0.6317
  740.5000     0.5419     0.6320
  741.0000     0.5188     0.6229
  741.5000     0.4956     0.6234
  742.0000     0.4724     0.6237
  742.5000     0.4493     0.6241
  743.0000     0.4261     0.6245
  743.5000     0.2231     0.6248
  744.0000     0.2277     0.7568
  744.5000     0.2324     0.7572
  745.0000     0.0468     0.7575
  745.5000     0.0525     0.7579
  746.0000     0.0572     0.6455
  746.5000     0.2509     0.6459
  747.0000     0.2555     0.6463
  747.5000     0.4492     0.6467
  748.0000     0.4539     0.6471
  748.5000     0.4585     0.6474
  749.0000     0.2741     0.6478
  749.5000     0.2789     0.6482
  750.0000     0.4736     0.6485
  750.5000     0.4782     1.3068
  751.0000     0.4829     1.3072
  751.5000     0.4875     1.3075
  752.0000     0.4921     1.3079
  752.5000     0.3065     1.1767
  753.0000     0.3123     1.1677
  753.5000     0.3170     1.1774
  754.0000     0.3216     1.3095
  754.5000     0.1371     1.3098
  755.0000     0.1418     1.3102
  755.5000     0.1465     1.3106
  756.0000     0.3403     0.8880
  756.5000     0.3460     0.7661
  757.0000     0.5397     0.7666
  757.5000     0.3541     0.7669
  758.0000     0.3599     0.7673
  758.5000     0.3645     0.7771
  759.0000     0.3691     0.7774
  759.5000     0.3738     0.7684
  760.0000     0.3784     0.9004
  760.5000     0.3830     0.9101
  761.0000     0.3877     0.9011
  761.5000     0.3923     0.9016
  762.0000     0.5861     0.9019
  762.5000     0.7799     0.9023
  763.0000     0.7855     0.9027
  763.5000     0.7902     0.9030
  764.0000     0.7948     0.9034
  764.5000     0.7995     0.9038
  765.0000     0.8041     0.9041
  765.5000     0.6185     0.9045
  766.0000     0.6243     0.9049
  766.5000     0.6289     0.9053
  767.0000     0.4443     0.9056
  767.5000     0.4491     0.9155
  768.0000     0.4538     1.0192
  768.5000     0.4585     1.0196
  769.0000     0.2740     1.0105
  769.5000     0.2797     1.0109
  770.0000     0.2844     1.0113
  770.5000     0.4781     0.8143
  771.0000     0.4827     0.8147
  771.5000     0.4874     0.8151
  772.0000     0.6807     0.8154
  772.5000     0.6857     0.8252
  773.0000     0.6904     0.8256
  773.5000     0.8841     0.8259
  774.0000     0.8887     0.8169
  774.5000     1.0825     0.7233
  775.0000     1.0872     0.7143
  775.5000     1.0929     0.7147
  776.0000     1.0975     0.7057
  776.5000     1.1021     0.7155
  777.0000     1.1068     0.7063
  777.5000     1.1114     0.7068
  778.0000     1.1160     0.7072
  778.5000     1.1207     0.7075
  779.0000     1.1253     0.6985
  779.5000     1.1299     0.6989
  780.0000     0.9454     0.7086
  780.5000     0.9501     0.7090
  781.0000     0.7657     0.7095
  781.5000     0.7705     0.7098
  782.0000     0.7761     0.7290
  782.5000     0.7808     0.9173
  783.0000     0.7854     0.9082
  783.5000     0.7900     0.9181
  784.0000     0.7947     0.9185
  784.5000     0.7993     1.0504
  785.0000     0.8040     1.0508
  785.5000     0.8086     1.0511
  786.0000     0.8132     0.6380
  786.5000     0.8179     0.6479
  787.0000     0.8225     0.6575
  787.5000     0.8272     0.6579
  788.0000     0.8319     0.6558
  788.5000     0.8376     0.6480
  789.0000     0.8422     0.6403
  789.5000     0.8468     0.6325
  790.0000     0.8515     0.6391
  790.5000     0.8556     0.6391
  791.0000     0.8608     0.6391
  791.5000     0.8654     0.6391
  792.0000     0.8700     0.6391
  792.5000     0.8747     0.6391
  793.0000     0.8793     0.6391
  793.5000     0.8839     0.6391
  794.0000     0.8887     0.6391
  794.5000     0.8934     0.6391
  795.0000     0.8990     0.6391
  795.5000     0.9036     0.6391
  796.0000     0.9083     0.6391
  796.5000     1.1020     0.6391
  797.0000     1.1066     0.6391
  797.5000     1.1113     0.6391
  798.0000     1.1159     0.6391
  798.5000     1.1205     0.6391
  799.0000     1.1252     0.6391
  799.5000     1.1298     0.6391
  800.0000     1.3235     0.6297
  800.5000     1.2405     0.6297
  801.0000     1.1575     0.6391
  801.5000     1.0746     0.6297
  802.0000     0.9916     0.6297
  802.5000     1.1345     0.6391
  803.0000     1.1345     0.6391
  803.5000     1.1363     0.6297
  804.0000     1.3235     0.6297
  804.5000     1.3235     0.6308
  805.0000     1.3235     0.6391
  805.5000     1.3235     0.6391
  806.0000     1.3235     0.6391
  806.5000     1.5126     0.6485
  807.0000     1.5126     0.6485
  807.5000     1.3235     0.6485
  808.0000     1.3235     0.6485
  808.5000     1.3235     0.6485
  809.0000     1.3235     0.6391
  809.5000     1.3128     0.6391
  810.0000     1.1345     0.6391
  810.5000     1.1345     0.6391
  811.0000     1.1345     0.6391
  811.5000     0.9454     0.6391
  812.0000     0.9454     0.6391
  812.5000     0.9454     0.6391
  813.0000     0.9454     0.6391
  813.5000     0.9454     0.6391
  814.0000     0.9454     0.6391
  814.5000     0.9454     0.6391
  815.0000     0.9454     0.6391
  815.5000     0.9454     0.6297
  816.0000     0.9454     0.6297
  816.5000     0.9454     0.6297
  817.0000     0.9454     0.6297
  817.5000     0.9454     0.6391
  818.0000     0.9454     0.8365
  818.5000     0.7563     0.8365
  819.0000     0.7563     0.8365
  819.5000     0.7563     0.8365
  820.0000     0.7563     0.7519
  820.5000     0.9454     0.7519
  821.0000     0.9454     0.7613
  821.5000     0.9454     0.7519
  822.0000     0.9454     0.6203
  822.5000     0.9454     0.6297
  823.0000     0.9454     0.6297
  823.5000     0.9454     0.6297
  824.0000     0.9454     0.6297
  824.5000     0.9454     0.6297
  825.0000     0.9454     0.6297
  825.5000     0.9454     0.6297
  826.0000     0.9454     0.6297
  826.5000     0.9454     0.6297
  827.0000     0.9454     0.6297
  827.5000     0.9454     0.6391
  828.0000     0.9454     0.6391
  828.5000     0.9454     0.6485
  829.0000     0.9454     0.6579
  829.5000     0.9454     0.6579
  830.0000     0.9454     0.6673
  830.5000     0.9454     0.6673
  831.0000     1.1345     0.6579
  831.5000     1.1345     0.6673
  832.0000     1.1345     0.6579
  832.5000     1.1345     0.6579
  833.0000     1.1345     0.6673
  833.5000     1.1345     0.6673
  834.0000     1.1345     0.6673
  834.5000     1.1345     0.6673
  835.0000     1.1345     0.6673
  835.5000     1.1345     0.6673
  836.0000     1.3235     0.6673
  836.5000     1.3235     0.6673
  837.0000     1.2775     0.6579
  837.5000     1.1345     0.6673
  838.0000     1.1345     0.6673
