~VERSION INFORMATION
 VERS.                2.0:   CWLS LOG ASCII STANDARD - VERSION 2.0
 WRAP.                 NO:   ONE LINE PER DEPTH STEP
~WELL INFORMATION
#MNEM.UNIT      DATA TYPE    INFORMATION
#----------   ------------   ------------------------------
 STRT.F           11.5000:   START DEPTH
 STOP.F          583.0000:   STOP DEPTH
 STEP.F            0.5000:   STEP LENGTH
 NULL.          -999.2500:   NO VALUE
 COMP.    FENIX & SCISSON:   COMPANY
 WELL.      41 SX 3 #41-3:   WELL
 FLD .             TEAPOT:   FIELD
 LOC .       S3 T38N R78W:   LOCATION
 CNTY.            NATRONA:   COUNTY
 STAT.            WYOMING:   STATE
 CTRY. UNITED STATES OF AMERICA:   COUNTRY
 SRVC.            Unknown:   SERVICE COMPANY
 DATE.        01-DEC-1978:   LOGDATE
 API .       490251074000:   API NUMBER
~CURVE INFORMATION
#MNEM.UNIT       API CODE    CURVE DESCRIPTION
#----------   ------------   ------------------------------
 DEPT.F                  :   
 SPR .MV     05 010 01 00:   SPONTANEOUS POTENTIAL FROM RES.
 SN  .OHMM   05 040 16 00:   SHORT NORMAL 16"
 IL  .OHMM   05 120 00 00:   INDUCTION LOG
 GRD .GAPI   45 310 01 00:   GAMMA RAY FROM DENSITY LOG
 CALD.IN     45 280 60 00:   CALIPER
 DEN .G/C3   45 350 01 00:   COMPENSATED BULK DENSTIY
 CORR.G/C3   45 356 01 00:   DENSITY CORRECTION
 DPHI.DEC    45 890 12 00:   DENSITY POROSITY SANDSTONE
~PARAMETER INFORMATION
#MNEM.UNIT          VALUE    DESCRIPTION
#----------   ------------   ------------------------------
 PD  .                 GL:   PERMANENT DATUM
 EPD .F              5150:   ELEVATION PERMANENT DATUM
 LMF .                 KB:   LOG MEASURED FROM
 DAPD.F                 4:   FEET ABOVE PERMANENT DATUM
 DMF .                 KB:   DRILLING MEASURED FROM
 EKB .F              5154:   KELLING BUSHING
 EGL .F              5150:   GROUND LEVEL
 DATE.            12-1-78:   RUN DATE
 RUN .                  1:   RUN NUMBER
 DD  .F               600:   DEPTH DRILLER
 DL  .F               582:   DEPTH LOGGER
 BLI .F               576:   BOTTOM LOG INTERVAL
 TLI .F                42:   TOP LOG INTERVAL
 CS  .IN            8.625:   CASING SIZE
 CBD .F                40:   CASING BOTTOM DRILLER
 CBL .F                41:   CASING BOTTOM LOGGER
 BS  .IN            7.875:   BIT SIZE
 BSD .F               600:   BIT SIZE AT DEPTH
 DFT .                KCL:   DRILLING FLUID TYPE
 DFD .                8.8:   DRILLING FLUID DENSITY
 DFV .                 35:   DRILLING FLUID VISCOSITY
 DFPH.               11.2:   DRILLING FLUID PH
 DFL .               11.6:   DRILLING FLUID LOSS
 MSS .          FLOW LINE:   MUD SAMPLE SOURCE
 RMS .OHMM            .36:   RESISTIVITY MUD SAMPLE
 MST .F                52:   MUD SAMPLE TEMPERATURE
 RMF .OHMM            .36:   RESISTIVITY MUD FILTRATE SAMPLE
 MFST.F                55:   MUD FILTRATE SAMPLE TEMPERATURE
 RMC .OHMM            .42:   RESISTIVITY MUD CAKE
 MCST.F                60:   MUD CAKE SAMPLE TEMPERATURE
 MFSS.           MEASURED:   MUD FILTRATE SAMPLE SOURCE
 MCSS.           MEASURED:   MUD CAKE SAMPLE SOURCE
 RMB .OHMM            .32:   RESISTIVITY MUD AT BHT
 BHT .F                58:   BOTTOM HOLE TEMPERATURE
 MRT .F                58:   MAXIMUM RECORDED TEMPERATURE
 LUN .               2958:   LOGGING UNIT NUMBER
 LUL .                CPR:   LOGGING UNIT LOCATION
 ENGI.            ROLLINS:   RECORDING ENGINEER
 WITN.              AMEND:   WITNESSED BY
 CLNT.            A2DTECH:   CLIENT CODE
 ORIG.       2", 5" PRINT:   ORIGIN OF DATA
 UWI .       490251074000:   UNIQUE WELL ID
 DICO. A2D Technologies, Inc.:   DIGITIZING COMPANY
~OTHER INFORMATION
~A   DEPT      SPR         SN         IL         GRD      CALD        DEN       CORR       DPHI   
# ...
   52.0000  -999.2500     6.6719     6.3694   132.8345     8.0288     2.4383     0.0140     0.1520
   52.5000  -999.2500     5.5375     7.0954   130.1255     8.0137     2.4351     0.0130     0.1588
   53.0000  -999.2500     4.7771     7.5120   124.8445     7.9578     2.4313     0.0120     0.1603
   53.5000  -999.2500     7.1069     7.2395   121.2641     7.9026     2.4276     0.0109     0.1618
   54.0000  -999.2500     4.9569     7.3697   118.7686     7.8473     2.4251     0.0160     0.1631
   54.5000  -999.2500    94.4174     7.5391   117.9873     7.7918     2.4265     0.0183     0.1572
   55.0000  -999.2500    88.1582     7.7168   119.6849     7.7362     2.4278     0.0172     0.1581
   55.5000  -999.2500    85.2942     7.6731   121.4165     7.6828     2.4284     0.0159     0.1590
   56.0000  -999.2500   155.1168     7.5083   124.5618     7.6864     2.4264     0.0153     0.1670
   56.5000  -999.2500   297.5690     7.1069   127.7172     7.6951     2.4145     0.0243     0.1763
   57.0000  -999.2500   340.9770     7.6521   130.0972     7.7035     2.4015     0.0331     0.1859
   57.5000  -999.2500   339.9436     7.6521   129.3933     7.7115     2.3885     0.0419     0.1883
   58.0000  -999.2500   337.8416     7.2408   126.3150     7.7226     2.3744     0.0506     0.1870
   58.5000    -2.4851   341.0652     6.2171   122.8325     7.7855     2.3881     0.0539     0.1584
   59.0000    -2.7027   344.1416     7.7948   119.3644     7.8448     2.4105     0.0432     0.1619
   59.5000     6.2624   412.3481     7.2728   116.9983     7.9036     2.4204     0.0327     0.1662
   60.0000     1.8385   322.5406     7.4326   119.6503     7.9627     2.4046     0.0221     0.1699
   60.5000    -3.6779   294.1436     7.9570   123.0390     8.0212     2.4109     0.0276     0.1625
   61.0000    21.1456    13.9863     8.0984   127.9168     8.0430     2.4172     0.0355     0.1540
   61.5000    62.5414    14.4747     8.1168   130.1967     8.0589     2.4260     0.0434     0.1454
   62.0000   -43.8370     9.1202     8.1353   130.4798     8.0748     2.4428     0.0491     0.1369
   62.5000    -4.6057    14.4747     8.1538   126.0222     8.0870     2.4713     0.0525     0.1334
   63.0000    44.6322    14.1547     8.2337   121.2783     8.0835     2.4725     0.0510     0.1323
   63.5000   -30.3181     5.5894     8.3789   118.6444     8.0801     2.4718     0.0497     0.1308
   64.0000     1.0934     6.1126     8.5491   116.2731     8.0768     2.4749     0.0517     0.1291
   64.5000    -1.0537     7.0742     8.3677   113.9026     8.0735     2.4795     0.0590     0.1275
   65.0000    -3.6779     1.1840     8.1632   111.6961     8.0702     2.4796     0.0608     0.1269
   65.5000     1.4911     2.4320     8.8710   111.5561     8.0668     2.4796     0.0593     0.1273
   66.0000    -2.1801     3.3013     9.2049   117.0533     8.0635     2.4798     0.0505     0.1328
   66.5000    -0.0239     3.0946     8.8770   123.0649     8.0602     2.4716     0.0418     0.1385
   67.0000     2.1649     6.4798     8.0648   127.3999     8.0569     2.4621     0.0427     0.1432
   67.5000    -2.1233     5.7465     7.7231   128.6154     8.0536     2.4525     0.0490     0.1425
   68.0000    -4.9505     8.2227     7.7480   127.6056     8.0503     2.4509     0.0601     0.1361
   68.5000    10.3481    11.4897     7.7665   126.8413     8.0470     2.4602     0.0714     0.1296
   69.0000    -2.2671     7.3215     7.7851   126.5315     8.0437     2.4695     0.0698     0.1300
   69.5000     8.6571     4.9591     7.8567   126.0174     8.0404     2.4759     0.0602     0.1344
   70.0000     7.3052     6.3656     7.9863   122.1911     8.0371     2.4668     0.0502     0.1400
   70.5000     5.1685     9.2197     8.1181   118.6137     8.0337     2.4556     0.0546     0.1456
   71.0000     5.3073     8.6285     8.2520   114.9826     8.0304     2.4499     0.0558     0.1485
   71.5000     5.8979     6.4576     8.4705   110.9975     8.0271     2.4578     0.0527     0.1475
   72.0000     3.4522     4.8662     8.4484   112.4151     8.0238     2.4595     0.0516     0.1464
   72.5000     1.0623     5.9552     8.3938   114.5134     8.0205     2.4512     0.0565     0.1454
   73.0000    -0.4805     7.2940     8.3394   116.1424     8.0172     2.4492     0.0608     0.1450
   73.5000     5.3123     8.4705     8.2854   117.0301     8.0139     2.4508     0.0615     0.1447
   74.0000    -0.2350     4.1589     8.2318   116.4897     8.0104     2.4525     0.0621     0.1441
   74.5000     2.9004     5.6473     8.1785   116.5537     8.0099     2.4542     0.0627     0.1426
   75.0000     3.5612     8.2010     8.1256   119.4457     8.0102     2.4558     0.0628     0.1410
   75.5000     1.8069     4.2531     8.0882   122.3138     8.0105     2.4575     0.0627     0.1394
   76.0000     8.5400     4.8293     8.1826   120.9722     8.0109     2.4592     0.0574     0.1379
   76.5000    11.8499     5.7208     8.2706   118.8874     8.0112     2.4608     0.0516     0.1375
   77.0000     9.3960     6.7769     8.3597   116.7961     8.0115     2.4625     0.0460     0.1379
   77.5000     3.4757     8.8710     8.4335   115.2062     8.0119     2.4607     0.0402     0.1399
   78.0000    10.4217     5.0962     8.4984   116.7982     8.0122     2.4586     0.0379     0.1425
   78.5000     4.1059     7.3067     8.5486   118.3829     8.0125     2.4564     0.0404     0.1423
   79.0000    -3.2617     5.4932     8.2549   119.9328     8.0129     2.4577     0.0430     0.1381
   79.5000    19.3932     3.9347     8.0156   119.1845     8.0132     2.4606     0.0441     0.1378
   80.0000    -9.8034    15.0196     7.7231   115.5826     8.0135     2.4634     0.0416     0.1407
   80.5000     8.3027    22.9726     7.7452   114.5202     8.0139     2.4589     0.0391     0.1447
   81.0000     7.6922     7.5817     7.7755   118.8299     8.0142     2.4539     0.0429     0.1484
   81.5000    -7.0097    12.3710     7.8058   119.3774     8.0145     2.4488     0.0476     0.1470
   82.0000    -8.0344     9.2383     7.8363   120.1572     8.0148     2.4477     0.0472     0.1441
   82.5000    -8.0193     7.5030     7.8669   124.1457     8.0152     2.4477     0.0366     0.1438
   83.0000    -8.1556     6.0182     7.8976   128.1500     8.0155     2.4487     0.0282     0.1461
   83.5000    -8.7397     6.6435     7.9362   131.2990     8.0158     2.4500     0.0258     0.1460
   84.0000    -8.0190     8.3155     7.8864   128.9021     8.0162     2.4512     0.0234     0.1436
   84.5000    -7.7550     7.3263     7.8009   126.5082     8.0165     2.4526     0.0229     0.1416
   85.0000    -9.5242     6.2447     7.7162   124.1305     8.0168     2.4499     0.0229     0.1455
   85.5000    -8.3229     7.4622     7.6325   122.0870     8.0172     2.4465     0.0229     0.1511
   86.0000    -6.1443     9.0364     7.5498   122.1604     8.0175     2.4432     0.0230     0.1509
   86.5000   -13.0697     6.1537     7.5120   121.3012     8.0178     2.4423     0.0291     0.1488
   87.0000    -6.9436     6.7437     7.5120   121.1289     8.0182     2.4437     0.0356     0.1483
   87.5000   -13.4452     8.1900     7.5120   121.4065     8.0185     2.4463     0.0421     0.1466
   88.0000    -6.6889     5.7460     7.5120   124.1664     8.0188     2.4529     0.0483     0.1436
   88.5000   -10.0847     6.1523     7.5429   127.1344     8.0191     2.4593     0.0361     0.1406
   89.0000   -12.9048     6.7861     7.5888   129.3444     8.0195     2.4574     0.0227     0.1455
   89.5000   -10.7745     9.5374     7.6465   130.6869     8.0198     2.4508     0.0127     0.1516
   90.0000   -16.3829    18.2459     7.3889   131.8434     8.0201     2.4440     0.0129     0.1496
   90.5000    -6.1491    34.8139     6.9127   130.7832     8.0205     2.4404     0.0129     0.1463
   91.0000   -10.4644    16.9361     7.5817   128.4863     8.0208     2.4450     0.0130     0.1434
   91.5000   -14.9987     8.3155     7.2648   126.1896     8.0211     2.4495     0.0130     0.1404
   92.0000   -12.2451    17.9013     7.3595   124.3390     8.0215     2.4540     0.0130     0.1389
