~VERSION INFORMATION
 VERS.                2.0:   CWLS LOG ASCII STANDARD - VERSION 2.0
 WRAP.                 NO:   ONE LINE PER DEPTH STEP
~WELL INFORMATION
#MNEM.UNIT      DATA TYPE    INFORMATION
#----------   ------------   ------------------------------
 STRT.F            4.0000:   START DEPTH
 STOP.F          584.0000:   STOP DEPTH
 STEP.F            0.1000:   STEP LENGTH
 NULL.          -999.2500:   NO VALUE
 COMP.       F D SERV INC:   COMPANY
 WELL. N P R 3 SX-3 #62-3:   WELL
 FLD .             TEAPOT:   FIELD
 LOC .       S3 T38N R78W:   LOCATION
 CNTY.            NATRONA:   COUNTY
 STAT.            WYOMING:   STATE
 CTRY. UNITED STATES OF AMERICA:   COUNTRY
 SRVC.     Atlas Wireline:   SERVICE COMPANY
 DATE.        17-APR-1992:   LOGDATE
 API .       490252251600:   API NUMBER
~CURVE INFORMATION
#MNEM.UNIT       API CODE    CURVE DESCRIPTION
#----------   ------------   ------------------------------
 DEPT.F                  :   
 GRR .GAPI   07 310 01 00:   GAMMA RAY
 RILD.OHMM   07 120 46 00:   INDUCTION LOG DEEP RESISTIVITY
 RILM.OHMM   07 120 44 00:   INDUCTION LOG MEDIUM RESISTIVITY
~PARAMETER INFORMATION
#MNEM.UNIT          VALUE    DESCRIPTION
#----------   ------------   ------------------------------
 PD  .                 GL:   PERMANENT DATUM
 EPD .F              5135:   ELEVATION PERMANENT DATUM
 LMF .                 KB:   LOG MEASURED FROM
 DAPD.F                 5:   FEET ABOVE PERMANENT DATUM
 DMF .                 KB:   DRILLING MEASURED FROM
 EKB .F              5140:   KELLING BUSHING
 EDF .F              5139:   DRILLING FLOOR
 EGL .F              5135:   GROUND LEVEL
 DATE.        17-APR-1992:   RUN DATE
 RUN .                  1:   RUN NUMBER
 DD  .F               589:   DEPTH DRILLER
 DL  .F               590:   DEPTH LOGGER
 BLI .F               584:   BOTTOM LOG INTERVAL
 TLI .F                48:   TOP LOG INTERVAL
 CS  .IN            8.625:   CASING SIZE
 CBD .F                48:   CASING BOTTOM DRILLER
 CBL .F                48:   CASING BOTTOM LOGGER
 BS  .IN            7.875:   BIT SIZE
 BSD .F               589:   BIT SIZE AT DEPTH
 DFT .                AIR:   DRILLING FLUID TYPE
 TCS .HRS               2:   TIME CURCULATED STOPPED
 MRT .F                85:   MAXIMUM RECORDED TEMPERATURE
 LUN .            HL-6274:   LOGGING UNIT NUMBER
 LUL .             CASPER:   LOGGING UNIT LOCATION
 ENGI.             RAUTIO:   RECORDING ENGINEER
 WITN.        GARY STRONG:   WITNESSED BY
 CLNT.            A2DTECH:   CLIENT CODE
 ORIG.           5" PRINT:   ORIGIN OF DATA
 UWI .       490252251600:   UNIQUE WELL ID
 DICO. A2D Technologies, Inc.:   DIGITIZING COMPANY
~OTHER INFORMATION
~A    DEPT      GRR      RILD       RILM   
# ...
  422.6000    93.3263    17.5603    16.4266
  422.7000    93.4346    17.5584    16.4253
  422.8000    93.7418    17.5564    16.4237
  422.9000    94.2581    17.6094    16.4220
  423.0000    94.5084    17.6756    16.4205
  423.1000    94.7621    17.6736    16.4187
  423.2000    95.2925    17.6714    16.5038
  423.3000    96.0576    17.7597    16.5970
  423.4000    96.7732    17.7915    16.6906
  423.5000    97.0591    17.8353    16.7601
  423.6000    97.7275    17.9123    16.7619
  423.7000    98.1596    17.9103    16.8741
  423.8000    98.4134    17.9083    16.8727
  423.9000    98.7198    17.9875    16.9868
  424.0000    99.2375    18.0298    17.1437
  424.1000    99.2356    18.0278    17.2404
  424.2000    99.2338    18.0258    17.3441
  424.3000    99.2319    18.0236    17.3425
  424.4000    99.2300    18.0218    17.4118
  424.5000    99.2041    18.0914    17.5598
  424.6000    98.9135    18.1933    17.7047
  424.7000    98.6891    18.2693    17.7030
  424.8000    98.4316    18.2672    17.7010
  424.9000    98.2831    18.2648    17.6996
  425.0000    98.2291    18.2631    17.6978
  425.1000    97.9668    18.2611    17.6960
  425.2000    97.9650    18.2591    17.6943
  425.3000    97.5753    18.2409    17.6925
  425.4000    97.1992    18.1278    17.5951
  425.5000    97.0219    18.0292    17.4930
  425.6000    96.9735    17.9976    17.3914
  425.7000    96.3929    17.9956    17.3188
  425.8000    95.9471    17.9936    17.3171
  425.9000    95.4340    17.9916    17.3151
  426.0000    94.8125    17.9892    17.2301
  426.1000    93.8382    17.9015    17.1914
  426.2000    92.0087    17.7347    17.1105
  426.3000    90.2558    17.5704    16.9316
  426.4000    89.6241    17.4680    16.8298
  426.5000    89.5031    17.3621    16.8282
  426.6000    89.5807    17.2651    16.6842
  426.7000    89.8573    17.0922    16.4439
  426.8000    90.4348    16.9457    16.1620
  426.9000    90.6546    16.8470    15.8995
  427.0000    91.2375    16.7412    15.7945
  427.1000    91.8947    16.5219    15.7932
  427.2000    92.4042    16.5203    15.7338
  427.3000    92.9256    16.4579    15.6051
  427.4000    93.4230    16.4016    15.4610
  427.5000    93.9322    16.3808    15.4594
  427.6000    94.4416    16.2838    15.4580
  427.7000    94.9510    16.0997    15.3895
  427.8000    95.4382    16.0542    15.3473
  427.9000    95.7266    16.0524    15.2903
  428.0000    96.1665    16.0208    15.1229
  428.1000    96.5120    15.9178    15.0243
  428.2000    96.6587    15.7139    14.9478
  428.3000    96.6569    15.6328    14.8056
  428.4000    96.6550    15.6012    14.6719
  428.5000    96.9022    15.5596    14.5866
  428.6000    96.9638    15.4489    14.5015
  428.7000    96.9619    15.2717    14.3359
  428.8000    96.9600    15.1828    14.2342
  428.9000    96.9581    15.1626    14.1964
  429.0000    96.9560    15.1117    14.1680
  429.1000    96.7342    14.9939    14.0948
  429.2000    96.6400    14.8321    14.0933
  429.3000    96.6381    14.7379    14.0203
  429.4000    96.6362    14.6598    13.9926
  429.5000    96.6343    14.6322    13.9912
  429.6000    96.6325    14.5520    13.9714
  429.7000    96.4391    14.4052    13.8911
  429.8000    96.3162    14.3238    13.8897
  429.9000    96.2367    14.3219    13.8884
  430.0000    95.9794    14.2541    13.8870
  430.1000    95.6854    14.2193    13.8856
  430.2000    95.4641    14.1873    13.8842
  430.3000    95.3694    14.0922    13.8828
  430.4000    95.2617    13.9195    13.8815
  430.5000    95.0531    13.9180    13.8257
  430.6000    95.0512    13.9165    13.7822
  430.7000    95.0494    13.9149    13.7809
  430.8000    95.2383    13.9134    13.7795
  430.9000    95.3581    13.9073    13.7779
  431.0000    95.3562    13.8132    13.7768
  431.1000    95.3745    13.8784    13.7754
  431.2000    95.6647    13.9072    13.7741
  431.3000    95.6631    13.9057    13.7615
  431.4000    95.6612    13.9041    13.6754
  431.5000    95.6594    13.9025    13.7467
  431.6000    95.6092    13.9010    13.7687
  431.7000    95.3431    13.8994    13.7674
  431.8000    95.3413    13.8979    13.7660
  431.9000    95.3394    13.8963    13.7646
  432.0000    95.3375    13.8948    13.7631
  432.1000    95.1828    13.8930    13.7620
  432.2000    94.6700    13.8917    13.7606
  432.3000    94.0816    13.9414    13.7893
  432.4000    93.6435    13.9859    13.8671
  432.5000    93.1304    14.0007    13.9501
  432.6000    92.6171    14.0808    14.0241
  432.7000    92.1038    14.0793    14.0453
  432.8000    91.5724    14.1396    14.0841
  432.9000    91.3241    14.1749    14.1410
  433.0000    91.2562    14.1998    14.1396
  433.1000    91.3871    14.2712    14.1380
  433.2000    91.5650    14.2693    14.1368
  433.3000    91.5821    14.2678    14.1855
  433.4000    91.8735    14.2663    14.2332
  433.5000    92.3073    14.3014    14.2461
  433.6000    92.6559    14.3631    14.3302
  433.7000    92.9096    14.3608    14.3289
  433.8000    93.1166    14.2772    14.3274
  433.9000    92.8962    14.2583    14.3260
  434.0000    93.1498    14.2567    14.3007
  434.1000    93.4230    14.2551    14.2235
  434.2000    93.8939    14.2429    14.2219
  434.3000    93.8650    14.1525    14.2207
  434.4000    93.4851    14.0776    14.2193
  434.5000    92.9061    13.9956    14.1846
  434.6000    92.1376    13.9140    14.1175
  434.7000    91.2240    13.8529    14.1161
  434.8000    90.8075    13.8514    14.0367
  434.9000    90.1437    13.8495    13.8366
  435.0000    89.4686    13.8482    13.7230
  435.1000    88.9189    13.7997    13.6976
  435.2000    88.0899    13.7194    13.6179
  435.3000    87.6170    13.6394    13.5284
  435.4000    87.1038    13.5548    13.3938
  435.5000    86.7125    13.4810    13.3382
  435.6000    86.4550    13.4574    13.3044
  435.7000    86.1975    13.4178    13.2427
  435.8000    85.8909    13.3608    13.2414
  435.9000    85.6825    13.3593    13.2401
  436.0000    85.2751    13.3575    13.2388
  436.1000    84.7619    13.3563    13.2375
  436.2000    84.2849    13.3077    13.2363
  436.3000    84.0067    13.2603    13.2350
  436.4000    83.2999    13.2588    13.2335
  436.5000    82.3533    13.2573    13.2323
  436.6000    81.4501    13.2559    13.2310
  436.7000    80.9387    13.1984    13.2298
  436.8000    81.1999    13.1606    13.2285
  436.9000    81.8078    13.1592    13.2272
  437.0000    82.2187    13.1516    13.2259
  437.1000    82.7281    13.0644    13.2246
  437.2000    83.3301    13.0631    13.2233
  437.3000    84.1303    13.0617    13.2220
  437.4000    85.2361    13.0602    13.2207
  437.5000    86.1725    13.0587    13.2193
  437.6000    87.1929    13.0572    13.1504
  437.7000    88.0925    13.0558    13.1248
  437.8000    88.9847    13.0544    13.1235
  437.9000    90.2819    13.0529    13.1222
  438.0000    92.7246    13.0514    13.1198
  438.1000    93.5454    13.0499    13.0435
  438.2000    94.1200    13.0483    13.0270
  438.3000    94.2819    13.0471    13.0257
  438.4000    94.3151    13.0456    12.9981
  438.5000    94.5905    13.0108    12.9325
  438.6000    94.3550    12.9519    12.9311
  438.7000    94.0976    12.9498    12.9300
  438.8000    93.8401    12.8744    12.8776
  438.9000    93.5194    12.7420    12.8028
  439.0000    93.0126    12.5548    12.7102
  439.1000    92.7040    12.4131    12.5687
  439.2000    92.4974    12.4210    12.5672
  439.3000    92.3881    12.4972    12.4503
  439.4000    92.2949    12.5613    12.3488
  439.5000    92.0718    12.5821    12.3292
  439.6000    92.0698    12.6148    12.3988
  439.7000    92.3013    12.6675    12.4737
  439.8000    92.3787    12.6662    12.4726
  439.9000    92.3769    12.6645    12.5221
  440.0000    92.3124    12.6633    12.5576
  440.1000    92.0607    12.6619    12.5564
  440.2000    92.0588    12.6605    12.5551
  440.3000    92.0569    12.6591    12.5537
  440.4000    91.9076    12.6576    12.5527
  440.5000    91.6501    12.5887    12.5515
  440.6000    91.3587    12.4137    12.5226
  440.7000    90.7992    12.3046    12.4266
