~VERSION INFORMATION
 VERS.                2.0:   CWLS LOG ASCII STANDARD - VERSION 2.0
 WRAP.                 NO:   ONE LINE PER DEPTH STEP
~WELL INFORMATION
#MNEM.UNIT      DATA TYPE    INFORMATION
#----------   ------------   ------------------------------
 STRT.F           20.0000:   START DEPTH
 STOP.F          469.0000:   STOP DEPTH
 STEP.F            0.5000:   STEP LENGTH
 NULL.          -999.2500:   NO VALUE
 COMP. FENIX & SCISSON INC:   COMPANY
 WELL.       SX 3FO #26-3:   WELL
 FLD .             TEAPOT:   FIELD
 LOC .       S3 T38N R78W:   LOCATION
 CNTY.            NATRONA:   COUNTY
 STAT.            WYOMING:   STATE
 CTRY. UNITED STATES OF AMERICA:   COUNTRY
 SRVC.              Welex:   SERVICE COMPANY
 DATE.        02-JUL-1980:   LOGDATE
 API .       490251082500:   API NUMBER
~CURVE INFORMATION
#MNEM.UNIT       API CODE    CURVE DESCRIPTION
#----------   ------------   ------------------------------
 DEPT.F                  :   
 CALD.IN     45 280 60 00:   CALIPER
 GRD .GAPI   45 310 01 00:   GAMMA RAY FROM DENSITY LOG
 CORR.G/C3   45 356 01 00:   DENSITY CORRECTION
 RHOB.G/C3   45 350 01 00:   BULK DENSITY
 DPHI.DEC    45 890 12 00:   DENSITY POROSITY SANDSTONE
~PARAMETER INFORMATION
#MNEM.UNIT          VALUE    DESCRIPTION
#----------   ------------   ------------------------------
 PD  .                 GL:   PERMANENT DATUM
 EPD .F              5163:   ELEVATION PERMANENT DATUM
 LMF .                 KB:   LOG MEASURED FROM
 DAPD.F                 5:   FEET ABOVE PERMANENT DATUM
 DMF .                 KB:   DRILLING MEASURED FROM
 EKB .F              5168:   KELLING BUSHING
 EGL .F              5163:   GROUND LEVEL
 DATE.             7-2-80:   RUN DATE
 RUN .                  1:   RUN NUMBER
 DD  .F               470:   DEPTH DRILLER
 DL  .F               472:   DEPTH LOGGER
 BLI .F               470:   BOTTOM LOG INTERVAL
 TLI .F                20:   TOP LOG INTERVAL
 CS  .IN                7:   CASING SIZE
 CBD .F                43:   CASING BOTTOM DRILLER
 BS  .IN             6.25:   BIT SIZE
 BSD .F               470:   BIT SIZE AT DEPTH
 DFT .        AIR DRILLED:   DRILLING FLUID TYPE
 BHT .F                76:   BOTTOM HOLE TEMPERATURE
 TCS .HRS             1.5:   TIME CURCULATED STOPPED
 MRT .F                76:   MAXIMUM RECORDED TEMPERATURE
 ENGI.        REIN/GLASER:   RECORDING ENGINEER
 WITN.            RHOADES:   WITNESSED BY
 CLNT.            A2DTECH:   CLIENT CODE
 ORIG.           5" PRINT:   ORIGIN OF DATA
 UWI .       490251082500:   UNIQUE WELL ID
 DICO. A2D Technologies, Inc.:   DIGITIZING COMPANY
~OTHER INFORMATION
~A   DEPT     CALD         GRD      CORR       RHOB       DPHI   
# ...
  264.0000     6.2665   108.9548     0.0141     2.4656     0.1327
  264.5000     6.2573   106.9934     0.0172     2.4636     0.1339
  265.0000     6.2480   105.0527     0.0251     2.4629     0.1346
  265.5000     6.2388   103.7975     0.0330     2.4623     0.1352
  266.0000     6.2296   105.4859     0.0354     2.4589     0.1355
  266.5000     6.2203   110.2703     0.0331     2.4538     0.1378
  267.0000     6.2111   113.7121     0.0309     2.4520     0.1405
  267.5000     6.2018   113.8664     0.0286     2.4527     0.1408
  268.0000     6.1926   110.2647     0.0265     2.4611     0.1393
  268.5000     6.1831   100.5032     0.0190     2.4707     0.1291
  269.0000     6.1825    98.6139     0.0108     2.4720     0.1287
  269.5000     6.1840    99.7677     0.0071     2.4675     0.1291
  270.0000     6.1855   101.2975     0.0131     2.4724     0.1287
  270.5000     6.1871   102.1451     0.0187     2.4780     0.1279
  271.0000     6.1886   102.8408     0.0240     2.4734     0.1295
  271.5000     6.1901   103.3804     0.0261     2.4679     0.1320
  272.0000     6.1917   103.1717     0.0281     2.4621     0.1327
  272.5000     6.1932    99.3518     0.0301     2.4559     0.1388
  273.0000     6.1947    99.1691     0.0321     2.4497     0.1423
  273.5000     6.1963    98.2207     0.0341     2.4435     0.1460
  274.0000     6.1978    92.1877     0.0362     2.4371     0.1497
  274.5000     6.1994    85.3237     0.0410     2.4292     0.1531
  275.0000     6.2009    78.4722     0.0457     2.4215     0.1592
  275.5000     6.2012    71.6132     0.0494     2.4134     0.1649
  276.0000     6.2012    64.7362     0.0436     2.3939     0.1710
  276.5000     6.2012    57.7672     0.0379     2.3725     0.1876
  277.0000     6.2013    56.4675     0.0338     2.3550     0.1971
  277.5000     6.2057    58.5846     0.0340     2.3407     0.2066
  278.0000     6.2102    61.5771     0.0361     2.3265     0.2156
  278.5000     6.2146    64.4168     0.0384     2.3141     0.2216
  279.0000     6.2191    64.2605     0.0408     2.3160     0.2220
  279.5000     6.2236    60.8572     0.0459     2.3141     0.2234
  280.0000     6.2280    58.0215     0.0537     2.3073     0.2264
  280.5000     6.2325    56.0944     0.0620     2.3135     0.2253
  281.0000     6.2370    56.2230     0.0630     2.3106     0.2257
  281.5000     6.2414    57.4461     0.0567     2.3043     0.2288
  282.0000     6.2459    57.7276     0.0504     2.2971     0.2329
  282.5000     6.2504    55.5144     0.0441     2.2897     0.2373
  283.0000     6.2549    55.3856     0.0438     2.2890     0.2392
  283.5000     6.2594    55.7402     0.0442     2.2945     0.2362
  284.0000     6.2608    54.2178     0.0520     2.3005     0.2323
  284.5000     6.2574    53.4785     0.0593     2.3065     0.2284
  285.0000     6.2538    53.8133     0.0640     2.3102     0.2252
  285.5000     6.2503    52.0454     0.0640     2.3079     0.2267
  286.0000     6.2468    49.8741     0.0578     2.3055     0.2285
  286.5000     6.2433    50.4138     0.0508     2.3031     0.2303
  287.0000     6.2398    53.3145     0.0437     2.3012     0.2320
  287.5000     6.2363    55.9146     0.0367     2.3016     0.2314
  288.0000     6.2328    56.1685     0.0340     2.3022     0.2309
  288.5000     6.2293    54.1776     0.0345     2.2986     0.2330
  289.0000     6.2258    51.7573     0.0355     2.2928     0.2367
  289.5000     6.2223    49.3161     0.0364     2.2882     0.2388
  290.0000     6.2205    47.0811     0.0374     2.2953     0.2368
  290.5000     6.2195    47.2375     0.0398     2.3035     0.2318
  291.0000     6.2185    48.2035     0.0442     2.3180     0.2231
  291.5000     6.2176    49.0887     0.0486     2.3338     0.2120
  292.0000     6.2166    51.8595     0.0530     2.3590     0.1994
  292.5000     6.2156    55.4170     0.0574     2.3776     0.1852
  293.0000     6.2147    58.7300     0.0598     2.3853     0.1822
  293.5000     6.2137    59.6566     0.0581     2.3850     0.1814
  294.0000     6.2127    61.9919     0.0565     2.3928     0.1788
  294.5000     6.2118    63.0826     0.0562     2.4043     0.1714
  295.0000     6.2108    63.6395     0.0575     2.4117     0.1658
  295.5000     6.2098    63.9008     0.0587     2.4183     0.1627
  296.0000     6.2088    62.3296     0.0597     2.4232     0.1598
  296.5000     6.2079    60.7499     0.0561     2.4220     0.1593
  297.0000     6.2069    59.7021     0.0526     2.4204     0.1597
  297.5000     6.2059    61.0860     0.0490     2.4175     0.1602
  298.0000     6.2050    62.9854     0.0451     2.4113     0.1617
  298.5000     6.2040    64.9337     0.0411     2.4012     0.1722
  299.0000     6.2030    65.4860     0.0402     2.3960     0.1738
  299.5000     6.2020    65.4209     0.0457     2.4014     0.1714
  300.0000     6.2015    65.3451     0.0510     2.4011     0.1716
  300.5000     6.2072    65.3193     0.0565     2.3991     0.1734
  301.0000     6.2128    65.7507     0.0584     2.3962     0.1741
  301.5000     6.2183    66.2963     0.0592     2.3922     0.1759
  302.0000     6.2204    68.3637     0.0597     2.3836     0.1810
  302.5000     6.2190    70.2721     0.0581     2.3760     0.1858
  303.0000     6.2175    69.0628     0.0566     2.3757     0.1875
  303.5000     6.2161    67.8830     0.0550     2.3751     0.1884
  304.0000     6.2146    69.6980     0.0530     2.3681     0.1913
  304.5000     6.2132    70.6923     0.0499     2.3600     0.1961
  305.0000     6.2118    69.3075     0.0469     2.3582     0.1976
  305.5000     6.2103    67.7499     0.0440     2.3587     0.1981
  306.0000     6.2089    67.3704     0.0416     2.3549     0.1975
  306.5000     6.2074    69.0688     0.0407     2.3544     0.1985
  307.0000     6.2060    70.7555     0.0409     2.3605     0.1974
  307.5000     6.2046    71.6329     0.0491     2.3667     0.1934
  308.0000     6.2031    71.5513     0.0573     2.3728     0.1891
  308.5000     6.2019    71.4613     0.0655     2.3783     0.1853
  309.0000     6.1872    72.2491     0.0659     2.3786     0.1865
  309.5000     6.1667    73.4494     0.0659     2.3789     0.1859
  310.0000     6.1460    72.9614     0.0681     2.3791     0.1839
  310.5000     6.1252    72.0404     0.0726     2.3825     0.1817
  311.0000     6.1044    73.2194     0.0778     2.3888     0.1782
  311.5000     6.1027    74.1066     0.0842     2.3950     0.1742
  312.0000     6.1041    74.3883     0.0891     2.3991     0.1734
  312.5000     6.1055    73.2284     0.0797     2.3968     0.1738
  313.0000     6.1068    72.1125     0.0713     2.3945     0.1742
  313.5000     6.1082    71.0225     0.0648     2.3921     0.1755
  314.0000     6.1096    70.8517     0.0578     2.3897     0.1770
  314.5000     6.1109    70.9586     0.0508     2.3870     0.1789
  315.0000     6.1123    71.1238     0.0448     2.3842     0.1809
  315.5000     6.1136    71.2893     0.0387     2.3814     0.1829
  316.0000     6.1150    71.4560     0.0325     2.3781     0.1856
  316.5000     6.1164    71.6250     0.0264     2.3720     0.1885
  317.0000     6.1177    71.5990     0.0202     2.3672     0.1914
  317.5000     6.1191    71.4663     0.0142     2.3672     0.1918
  318.0000     6.1205    71.0383     0.0138     2.3758     0.1901
  318.5000     6.1226    70.5485     0.0208     2.3876     0.1799
  319.0000     6.1281    70.3275     0.0297     2.3994     0.1716
  319.5000     6.1335    67.2369     0.0386     2.4111     0.1659
  320.0000     6.1389    63.9696     0.0478     2.4306     0.1554
  320.5000     6.1442    63.8952     0.0575     2.4534     0.1459
  321.0000     6.1496    64.9182     0.0580     2.4638     0.1367
  321.5000     6.1550    65.9150     0.0567     2.4746     0.1295
  322.0000     6.1609    66.4228     0.0559     2.4850     0.1221
  322.5000     6.1452    64.2888     0.0559     2.4954     0.1160
  323.0000     6.1253    62.0916     0.0559     2.5057     0.1106
  323.5000     6.1051    59.8995     0.0559     2.5142     0.1052
  324.0000     6.1016    57.7128     0.0517     2.5081     0.1052
  324.5000     6.1016    55.7235     0.0448     2.4955     0.1165
