~VERSION INFORMATION
 VERS.                2.0:   CWLS LOG ASCII STANDARD - VERSION 2.0
 WRAP.                 NO:   ONE LINE PER DEPTH STEP
~WELL INFORMATION
#MNEM.UNIT      DATA TYPE    INFORMATION
#----------   ------------   ------------------------------
 STRT.F           33.5000:   START DEPTH
 STOP.F          680.0000:   STOP DEPTH
 STEP.F            0.5000:   STEP LENGTH
 NULL.          -999.2500:   NO VALUE
 COMP. FENIX & SCISSON INC:   COMPANY
 WELL.       NPR 3 #66-34:   WELL
 FLD .             TEAPOT:   FIELD
 LOC .      S34 T39N R78W:   LOCATION
 CNTY.            NATRONA:   COUNTY
 STAT.            WYOMING:   STATE
 CTRY. UNITED STATES OF AMERICA:   COUNTRY
 SRVC.           BIRDWELL:   SERVICE COMPANY
 DATE.        12-AUG-1978:   LOGDATE
 API .       490251068400:   API NUMBER
~CURVE INFORMATION
#MNEM.UNIT       API CODE    CURVE DESCRIPTION
#----------   ------------   ------------------------------
 DEPT.F                  :   
 SPR .MV     05 010 01 00:   SPONTANEOUS POTENTIAL FROM RES.
 SN  .OHMM   05 040 16 00:   SHORT NORMAL 16"
 IL  .OHMM   05 120 00 00:   INDUCTION LOG
 CORR.G/C3   45 356 01 00:   DENSITY CORRECTION
 GRD .GAPI   45 310 01 00:   GAMMA RAY FROM DENSITY LOG
 RHOB.G/C3   45 350 01 00:   BULK DENSITY
 DPHI.DEC    45 890 12 00:   DENSITY POROSITY SANDSTONE
 CALD.IN     45 280 60 00:   CALIPER
~PARAMETER INFORMATION
#MNEM.UNIT          VALUE    DESCRIPTION
#----------   ------------   ------------------------------
 PD  .                 GL:   PERMANENT DATUM
 EPD .F              5078:   ELEVATION PERMANENT DATUM
 LMF .                 KB:   LOG MEASURED FROM
 DAPD.F                 4:   FEET ABOVE PERMANENT DATUM
 DMF .                 KB:   DRILLING MEASURED FROM
 EKB .F              5082:   KELLING BUSHING
 EGL .F              5078:   GROUND LEVEL
 DATE.            8-12-78:   RUN DATE
 RUN .                  1:   RUN NUMBER
 DD  .F               675:   DEPTH DRILLER
 DL  .F               686:   DEPTH LOGGER
 BLI .F               680:   BOTTOM LOG INTERVAL
 TLI .F                50:   TOP LOG INTERVAL
 CS  .IN            8.625:   CASING SIZE
 CBD .F                40:   CASING BOTTOM DRILLER
 BS  .IN            7.875:   BIT SIZE
 BSD .F               675:   BIT SIZE AT DEPTH
 DFT .                KCL:   DRILLING FLUID TYPE
 DFL .               10.4:   DRILLING FLUID LOSS
 MSS .          FLOW LINE:   MUD SAMPLE SOURCE
 RMS .OHMM            .18:   RESISTIVITY MUD SAMPLE
 MST .F                90:   MUD SAMPLE TEMPERATURE
 RMF .OHMM            .16:   RESISTIVITY MUD FILTRATE SAMPLE
 MFST.F                90:   MUD FILTRATE SAMPLE TEMPERATURE
 RMC .OHMM            .32:   RESISTIVITY MUD CAKE
 MCST.F                90:   MUD CAKE SAMPLE TEMPERATURE
 MFSS.               MEAS:   MUD FILTRATE SAMPLE SOURCE
 TCS .HRS               3:   TIME CURCULATED STOPPED
 LUN .               3006:   LOGGING UNIT NUMBER
 LUL .               CASP:   LOGGING UNIT LOCATION
 ENGI.             MILLER:   RECORDING ENGINEER
 WITN.           MCGINLEY:   WITNESSED BY
 CLNT.            A2DTECH:   CLIENT CODE
 ORIG.           5" PRINT:   ORIGIN OF DATA
 UWI .       490251068400:   UNIQUE WELL ID
 DICO. A2D Technologies, Inc.:   DIGITIZING COMPANY
~OTHER INFORMATION
~A   DEPT      SPR         SN         IL       CORR         GRD      RHOB       DPHI       CALD   
# ...
  317.0000   -52.1852     6.7605     6.2341     0.0065    86.6674     2.4841     0.1183     8.1499
  317.5000   -52.1047     6.7872     6.1739     0.0118    89.3954     2.4847     0.1180     8.1641
  318.0000   -52.1879     6.8141     6.2030     0.0177    89.6170     2.4953     0.1099     8.1782
  318.5000   -52.2826     6.8303     6.2550     0.0222    87.6040     2.5076     0.1032     8.1660
  319.0000   -52.3762     6.8153     6.3074     0.0197    82.9064     2.5039     0.1032     8.1254
  319.5000   -52.4722     6.8028     6.3464     0.0172    77.8503     2.4973     0.1098     8.1110
  320.0000   -52.4332     6.7905     6.3064     0.0183    77.2460     2.4939     0.1128     8.1340
  320.5000   -52.3383     6.7781     6.2693     0.0211    80.9342     2.4958     0.1112     8.1568
  321.0000   -52.2414     6.7683     6.2309     0.0240    84.0236     2.4978     0.1096     8.1801
  321.5000   -52.1446     6.7826     6.2486     0.0264    86.0103     2.4960     0.1116     8.1651
  322.0000   -52.0479     6.7954     6.2671     0.0169    86.9327     2.4862     0.1180     8.1470
  322.5000   -51.9523     6.8082     6.2884     0.0069    86.7426     2.4765     0.1244     8.1287
  323.0000   -51.9318     6.8211     6.2437     0.0044    86.9748     2.4668     0.1293     8.1398
  323.5000   -52.0009     6.8287     6.1917     0.0070    87.4176     2.4659     0.1283     8.1702
  324.0000   -52.0696     6.8127     6.1406     0.0096    86.8411     2.4703     0.1281     8.1721
  324.5000   -52.0864     6.7993     6.1170     0.0096    85.3344     2.4672     0.1303     8.1521
  325.0000   -52.0003     6.7860     6.1168     0.0095    83.8544     2.4617     0.1292     8.1489
  325.5000   -51.9141     6.7677     6.1175     0.0197    85.2170     2.4750     0.1212     8.1642
  326.0000   -51.8284     6.8106     6.2807     0.0300    88.1737     2.4986     0.1131     8.1796
  326.5000   -51.7425     6.8780     6.4640     0.0287    89.0889     2.4946     0.1128     8.1950
  327.0000   -51.7380     6.9461     6.4945     0.0262    87.4142     2.4908     0.1150     8.1949
  327.5000   -51.8107     7.0149     6.5236     0.0237    86.0718     2.4871     0.1171     8.1587
  328.0000   -51.8865     7.0857     6.5835     0.0213    86.2009     2.4837     0.1191     8.1228
  328.5000   -51.8764     7.2132     6.6716     0.0208    87.9263     2.4847     0.1164     8.0873
  329.0000   -51.8462     7.3456     6.8051     0.0225    89.8046     2.4927     0.1130     8.0670
  329.5000   -51.8156     7.5053     6.9628     0.0241    91.6979     2.4991     0.1107     8.0920
  330.0000   -51.7853     7.6989     7.1231     0.0258    93.3288     2.4990     0.1101     8.1167
  330.5000   -51.7549     7.9111     7.2872     0.0274    91.5565     2.5000     0.1069     8.1052
  331.0000   -51.7244     7.8879     7.4550     0.0281    86.4551     2.5069     0.1014     8.0831
  331.5000   -51.6979     7.8631     7.6267     0.0261    81.3358     2.5113     0.0988     8.0637
  332.0000   -51.7062     7.8388     7.6962     0.0242    80.4040     2.5094     0.1012     8.1057
  332.5000   -51.8986     7.8388     7.6568     0.0222    83.4461     2.5032     0.1051     8.1060
  333.0000   -52.0962     7.9518     7.6258     0.0204    86.5705     2.5013     0.1064     8.0723
  333.5000   -52.2943     8.0312     7.7597     0.0193    89.7963     2.5064     0.1048     8.0383
  334.0000   -52.4912     8.1317     7.9841     0.0186    89.6762     2.5066     0.1032     8.0427
  334.5000   -52.4495     8.0928     7.9402     0.0202    88.8590     2.4991     0.1039     8.0817
  335.0000   -52.3922     8.0410     7.8616     0.0217    89.8428     2.4999     0.1050     8.1201
  335.5000   -52.3362     7.9893     7.7837     0.0233    94.2052     2.5005     0.1056     8.1139
  336.0000   -52.2805     7.9379     7.6962     0.0234    94.9471     2.5001     0.1111     8.0931
  336.5000   -52.2248     7.9111     7.7078     0.0178    90.1715     2.4950     0.1163     8.0726
  337.0000   -52.1691     7.9695     7.7252     0.0123    85.7609     2.4901     0.1146     8.0617
  337.5000   -52.1109     8.0092     7.7426     0.0086    86.0545     2.4853     0.1171     8.0671
  338.0000   -52.1354     8.0578     7.7600     0.0109    90.2357     2.4802     0.1191     8.0892
  338.5000   -52.1821     7.9793     7.7672     0.0121    92.7829     2.4777     0.1220     8.1105
  339.0000   -52.2291     7.8806     7.6284     0.0090    92.2426     2.4751     0.1243     8.1317
  339.5000   -52.2756     7.7831     7.5306     0.0121    88.7070     2.4740     0.1236     8.1533
  340.0000   -52.2828     7.6991     7.4341     0.0168    85.1228     2.4787     0.1197     8.1429
  340.5000   -52.2472     7.7295     7.3508     0.0199    85.2703     2.4838     0.1160     8.1132
  341.0000   -52.2118     7.7672     7.4865     0.0168    90.2948     2.4783     0.1200     8.0832
  341.5000   -52.1762     7.6738     7.4374     0.0187    93.9833     2.4731     0.1249     8.0613
  342.0000   -52.1405     7.5538     7.3491     0.0212    95.6712     2.4741     0.1247     8.0655
  342.5000   -52.1041     7.4356     7.2627     0.0188    93.2778     2.4762     0.1215     8.0784
  343.0000   -52.1281     7.4186     7.2170     0.0120    88.7717     2.4705     0.1279     8.0912
  343.5000   -52.1614     7.4296     7.2371     0.0066    85.8600     2.4588     0.1375     8.1039
  344.0000   -52.1948     7.4456     7.2508     0.0147    87.2661     2.4535     0.1375     8.1169
  344.5000   -52.2281     7.4615     7.2645     0.0231    89.5052     2.4623     0.1275     8.1097
  345.0000   -52.2613     7.4776     7.2836     0.0222    90.4312     2.4690     0.1235     8.0917
  345.5000   -52.2940     7.4858     7.2342     0.0170    87.4658     2.4632     0.1355     8.0928
  346.0000   -52.3318     7.4158     7.1541     0.0151    84.0586     2.4586     0.1350     8.1166
  346.5000   -52.3700     7.3544     7.0750     0.0164    82.3258     2.4646     0.1288     8.1402
  347.0000   -52.4082     7.3777     7.0209     0.0176    80.6250     2.4704     0.1238     8.1241
  347.5000   -52.4463     7.4167     7.0694     0.0182    79.9683     2.4741     0.1226     8.1050
  348.0000   -52.4849     7.4556     7.1067     0.0175    84.0376     2.4707     0.1257     8.0860
  348.5000   -52.4778     7.4868     7.1511     0.0168    89.1208     2.4651     0.1287     8.0671
  349.0000   -52.4415     7.4263     7.0937     0.0156    90.3877     2.4631     0.1290     8.0480
  349.5000   -52.4046     7.3762     7.0241     0.0157    88.4284     2.4643     0.1285     8.0421
  350.0000   -52.3676     7.3265     6.9551     0.0185    87.7025     2.4658     0.1276     8.0533
  350.5000   -52.3307     7.2771     6.8870     0.0212    87.1166     2.4672     0.1267     8.0769
  351.0000   -52.3058     7.2170     6.8270     0.0215    85.9205     2.4675     0.1263     8.1004
  351.5000   -52.3518     7.2281     6.8113     0.0200    87.7287     2.4637     0.1292     8.1240
  352.0000   -52.3968     7.2423     6.7952     0.0184    90.7142     2.4649     0.1319     8.1418
  352.5000   -52.4417     7.2568     6.7791     0.0222    91.1127     2.4690     0.1251     8.1365
  353.0000   -52.4859     7.2711     6.7519     0.0233    89.3712     2.4732     0.1237     8.1190
  353.5000   -52.5659     7.2835     6.6957     0.0199    87.6226     2.4739     0.1208     8.1017
  354.0000   -52.6597     7.2446     6.6407     0.0195    85.7391     2.4665     0.1307     8.0844
  354.5000   -52.7538     7.2103     6.5861     0.0222    80.8154     2.4639     0.1291     8.0667
  355.0000   -52.8460     7.1758     6.5319     0.0189    77.5040     2.4615     0.1355     8.0764
  355.5000   -52.8418     7.1309     6.5049     0.0146    81.9002     2.4545     0.1357     8.0968
  356.0000   -52.7063     7.0526     6.4829     0.0155    86.6570     2.4532     0.1357     8.1186
  356.5000   -52.5719     6.9571     6.4610     0.0165    90.3624     2.4539     0.1347     8.0978
  357.0000   -52.4361     6.9661     6.4391     0.0165    90.1879     2.4547     0.1347     8.0907
