~VERSION INFORMATION
 VERS.                2.0:   CWLS LOG ASCII STANDARD - VERSION 2.0
 WRAP.                 NO:   ONE LINE PER DEPTH STEP
~WELL INFORMATION
#MNEM.UNIT      DATA TYPE    INFORMATION
#----------   ------------   ------------------------------
 STRT.F            3.0000:   START DEPTH
 STOP.F          523.0000:   STOP DEPTH
 STEP.F            0.1000:   STEP LENGTH
 NULL.          -999.2500:   NO VALUE
 COMP.     BROWN JOHN E&C:   COMPANY
 WELL.   NPR 3 #52-2-SX-3:   WELL
 FLD .             TEAPOT:   FIELD
 LOC .       S3 T38N R78W:   LOCATION
 CNTY.            NATRONA:   COUNTY
 STAT.            WYOMING:   STATE
 CTRY. UNITED STATES OF AMERICA:   COUNTRY
 SRVC.     Atlas Wireline:   SERVICE COMPANY
 DATE.        18-APR-1992:   LOGDATE
 API .       490252251500:   API NUMBER
~CURVE INFORMATION
#MNEM.UNIT       API CODE    CURVE DESCRIPTION
#----------   ------------   ------------------------------
 DEPT.F                  :   
 GRR .GAPI   07 310 01 00:   GAMMA RAY
 RILD.OHMM   07 120 46 00:   INDUCTION LOG DEEP RESISTIVITY
 RILM.OHMM   07 120 44 00:   INDUCTION LOG MEDIUM RESISTIVITY
~PARAMETER INFORMATION
#MNEM.UNIT          VALUE    DESCRIPTION
#----------   ------------   ------------------------------
 PD  .                 GL:   PERMANENT DATUM
 EPD .F              5128:   ELEVATION PERMANENT DATUM
 LMF .                 KB:   LOG MEASURED FROM
 DAPD.F                 5:   FEET ABOVE PERMANENT DATUM
 DMF .                 KB:   DRILLING MEASURED FROM
 EKB .F              5133:   KELLING BUSHING
 EDF .F              5132:   DRILLING FLOOR
 EGL .F              5128:   GROUND LEVEL
 DATE.        18-APR-1992:   RUN DATE
 RUN .                  1:   RUN NUMBER
 DD  .F               525:   DEPTH DRILLER
 DL  .F               526:   DEPTH LOGGER
 BLI .F               524:   BOTTOM LOG INTERVAL
 CS  .IN            8.625:   CASING SIZE
 CBD .F                48:   CASING BOTTOM DRILLER
 CBL .F                49:   CASING BOTTOM LOGGER
 BS  .IN            7.875:   BIT SIZE
 BSD .F               525:   BIT SIZE AT DEPTH
 DFT .                AIR:   DRILLING FLUID TYPE
 TCS .HRS               2:   TIME CURCULATED STOPPED
 MRT .F                87:   MAXIMUM RECORDED TEMPERATURE
 LUN .            HL 6274:   LOGGING UNIT NUMBER
 LUL .             CASPER:   LOGGING UNIT LOCATION
 ENGI.            LEBSOCK:   RECORDING ENGINEER
 WITN.             STRONG:   WITNESSED BY
 CLNT.            A2DTECH:   CLIENT CODE
 ORIG.       2", 5" PRINT:   ORIGIN OF DATA
 UWI .       490252251500:   UNIQUE WELL ID
 DICO. A2D Technologies, Inc.:   DIGITIZING COMPANY
~OTHER INFORMATION
~A    DEPT     GRR       RILD       RILM   
# ...
  348.8000    98.0510    19.8774    18.2785
  348.9000    97.5569    19.8760    18.2772
  349.0000    96.9697    19.8746    18.2759
  349.1000    96.3681    19.8732    18.2747
  349.2000    95.6267    19.8718    18.2734
  349.3000    94.7967    19.8704    18.3529
  349.4000    93.8739    19.9300    18.4564
  349.5000    93.3333    20.0070    18.5605
  349.6000    92.6618    20.0056    18.6651
  349.7000    91.9206    20.0040    18.7846
  349.8000    91.6271    20.0028    18.7835
  349.9000    92.2099    20.0014    18.8505
  350.0000    93.9394    20.1673    19.0477
  350.1000    94.6812    20.5757    19.3765
  350.2000    95.4545    21.0015    19.5851
  350.3000    96.6385    21.0009    19.5851
  350.4000    97.5128    21.0003    19.5851
  350.5000    98.1293    20.9997    19.5851
  350.6000    98.5543    20.9991    19.5851
  350.7000    98.8017    20.9986    19.5851
  350.8000    99.0909    20.9979    19.5851
  350.9000    99.2962    20.9974    19.5851
  351.0000    99.3939    20.9968    19.5851
  351.1000    99.3939    20.9962    19.5851
  351.2000    99.3939    20.9956    19.5851
  351.3000    99.3939    20.9950    19.5851
  351.4000    98.9350    21.1060    19.5851
  351.5000    98.0931    21.1411    19.5851
  351.6000    97.2219    21.1982    19.5851
  351.7000    96.5422    21.2881    19.5851
  351.8000    96.0542    21.2907    19.5851
  351.9000    95.7576    21.4361    19.5851
  352.0000    95.7576    21.4356    19.5851
  352.1000    96.0420    21.4350    19.5851
  352.2000    96.6230    21.4773    19.5851
  352.3000    97.3341    21.5842    19.5851
  352.4000    97.8788    21.5835    19.5851
  352.5000    98.1010    21.5829    19.5851
  352.6000    98.5147    21.5823    19.5851
  352.7000    99.0093    21.5817    19.5851
  352.8000    99.4489    21.5811    19.5851
  352.9000    99.6970    21.5805    19.5851
  353.0000    99.9435    21.5799    19.5851
  353.1000   100.0000    21.5793    19.5851
  353.2000    99.8650    21.5787    19.5851
  353.3000    99.5386    21.5781    19.5851
  353.4000    99.0909    21.5775    19.5851
  353.5000    99.0909    21.5768    19.5851
  353.6000    98.8760    21.5763    19.5851
  353.7000    98.6287    21.5757    19.5851
  353.8000    98.4848    21.5751    19.5851
  353.9000    98.4848    21.5509    19.5182
  354.0000    98.4848    21.4236    19.4072
  354.1000    98.4848    21.4230    19.3133
  354.2000    98.6683    21.4224    19.3133
  354.3000    98.7879    21.3590    19.2118
  354.4000    98.8598    21.2369    19.1026
  354.5000    99.0909    21.1155    18.9430
  354.6000    99.0909    20.9756    18.7543
  354.7000    99.2986    20.9751    18.6452
  354.8000    99.3939    20.9013    18.4340
  354.9000    99.3939    20.7818    18.3079
  355.0000    99.4343    20.6630    18.2632
  355.1000    99.6970    20.5376    18.2272
  355.2000    99.6970    20.4276    18.1235
  355.3000    99.6970    20.3109    18.0097
  355.4000    99.6970    20.2509    18.0097
  355.5000    99.6970    20.2203    18.0097
  355.6000    99.7059    20.1046    17.9642
  355.7000   100.0000    19.9681    17.8843
  355.8000   100.4008    19.9676    17.8843
  355.9000   100.8954    19.9007    17.8843
  356.0000   101.3899    19.7869    17.8843
  356.1000   101.8846    19.6888    17.8843
  356.2000   102.4242    19.6882    17.8843
  356.3000   102.6489    19.5861    17.8750
  356.4000   103.0651    19.5501    17.7597
  356.5000   103.5597    19.5495    17.7597
  356.6000   104.0542    19.5232    17.7597
  356.7000   104.5455    19.4123    17.7597
  356.8000   104.5455    19.4118    17.7597
  356.9000   104.3523    19.4112    17.7597
  357.0000   103.9678    19.4107    17.7597
  357.1000   103.5548    19.4101    17.7597
  357.2000   103.3075    19.4096    17.7597
  357.3000   103.0303    19.4090    17.7307
  357.4000   102.5955    19.4085    17.6361
  357.5000   102.4242    19.4080    17.6361
  357.6000   102.3184    19.3602    17.5522
  357.7000   102.1212    19.2717    17.5133
  357.8000   102.1212    19.2712    17.4749
  357.9000   101.6380    19.2707    17.3755
  358.0000   101.1435    19.2701    17.2702
  358.1000   100.5188    19.2120    17.2702
  358.2000    99.9256    19.0697    17.2006
  358.3000    99.6784    18.8607    17.1499
  358.4000    99.3939    18.7368    17.1248
  358.5000    99.3939    18.6458    17.0273
  358.6000    99.3939    18.5393    16.9119
  358.7000    99.3939    18.4334    16.9119
  358.8000    99.3083    18.3280    16.8560
  358.9000    98.7879    18.2178    16.7601
  359.0000    98.5535    18.2173    16.6648
  359.1000    97.9490    18.1420    16.5610
  359.2000    97.2072    18.0384    16.4759
  359.3000    96.5326    17.9353    16.4457
  359.4000    96.0606    17.8327    16.4033
  359.5000    96.0606    17.7126    16.3312
  359.6000    95.8578    17.7121    16.3309
  359.7000    95.6105    17.5924    16.2381
  359.8000    95.4545    17.4653    16.1458
  359.9000    95.5257    17.4506    16.1045
  360.0000    96.0606    17.3427    16.0746
  360.1000    96.5147    17.2518    15.9832
  360.2000    97.0093    17.1532    15.8810
  360.3000    97.5038    17.0552    15.8810
  360.4000    97.9984    16.9811    15.8223
  360.5000    98.4930    16.9790    15.7323
  360.6000    98.9875    16.8820    15.6606
  360.7000    99.4820    16.7856    15.6606
  360.8000    99.8368    16.7435    15.5739
  360.9000   100.0841    16.7430    15.5515
  361.0000   100.3313    16.7317    15.5515
  361.1000   100.6061    16.6255    15.5253
  361.2000   100.3862    16.5411    15.4432
  361.3000   100.3030    16.4466    15.4432
  361.4000   100.3030    16.3934    15.4432
  361.5000   100.3030    16.3731    15.4432
  361.6000   100.3030    16.2783    15.4432
  361.7000   100.3030    16.2779    15.4432
  361.8000   100.3030    16.2070    15.4432
  361.9000   100.3030    16.1636    15.4432
  362.0000   100.3030    16.1632    15.4432
  362.1000   100.3030    16.1627    15.4432
  362.2000   100.3030    16.1622    15.4669
  362.3000   100.3030    16.0829    15.5515
  362.4000   100.3030    16.0488    15.5515
  362.5000   100.3030    16.0484    15.5515
  362.6000   100.3030    16.0479    15.5515
  362.7000   100.3030    16.0474    15.5515
  362.8000   100.3030    16.1349    15.5515
  362.9000   100.3030    16.1591    15.5515
  363.0000   100.1778    16.1586    15.5515
  363.1000    99.9305    16.1582    15.6129
  363.2000    99.6970    16.1629    15.6606
  363.3000    99.6970    16.2705    15.6606
  363.4000    99.9022    16.2701    15.6606
  363.5000   100.2990    16.3260    15.6606
  363.6000   100.6998    16.3833    15.6606
  363.7000   100.9471    16.3973    15.6606
  363.8000   101.2121    16.4972    15.6606
  363.9000   101.6712    16.4968    15.6606
  364.0000   102.1657    16.4964    15.6606
  364.1000   102.4242    16.5409    15.5818
  364.2000   102.3620    16.6111    15.5515
  364.3000   102.1212    16.6132    15.5515
  364.4000   102.1212    16.7266    15.5515
  364.5000   102.1212    16.7262    15.5515
  364.6000   101.6947    16.7257    15.5515
  364.7000   100.9528    16.7253    15.5515
  364.8000   100.2417    16.7248    15.5515
  364.9000    99.6970    16.7243    15.5515
  365.0000    99.0304    16.7239    15.5515
  365.1000    98.6214    16.7234    15.5515
  365.2000    98.1528    16.6804    15.5515
  365.3000    97.5208    16.6060    15.4958
  365.4000    97.2727    16.6055    15.4432
  365.5000    97.2727    16.6051    15.4432
  365.6000    97.2727    16.6046    15.4432
  365.7000    97.2727    16.6041    15.4432
  365.8000    97.2727    16.6037    15.4432
  365.9000    97.2727    16.6032    15.4432
  366.0000    97.2727    16.6027    15.4432
  366.1000    97.2727    16.5203    15.4432
  366.2000    97.2727    16.4862    15.4432
  366.3000    97.1693    16.4858    15.4432
  366.4000    96.8266    16.4853    15.3905
  366.5000    96.0606    16.4848    15.3357
  366.6000    95.3429    16.3938    15.3357
  366.7000    94.7846    16.3691    15.3357
  366.8000    94.1624    16.3687    15.3357
  366.9000    93.4925    16.3412    15.3357
