~VERSION INFORMATION
 VERS.                2.0:   CWLS LOG ASCII STANDARD - VERSION 2.0
 WRAP.                 NO:   ONE LINE PER DEPTH STEP
~WELL INFORMATION
#MNEM.UNIT      DATA TYPE    INFORMATION
#----------   ------------   ------------------------------
 STRT.F            0.0000:   START DEPTH
 STOP.F          504.0000:   STOP DEPTH
 STEP.F            0.5000:   STEP LENGTH
 NULL.          -999.2500:   NO VALUE
 COMP.       F D SERV INC:   COMPANY
 WELL. NAVAL PETROLEUM RESERVE 3 SX-1 #72-2-10:   WELL
 FLD .      nN. P. R. NO3:   FIELD
 LOC .      S10 T38N R78W:   LOCATION
 CNTY.            NATRONA:   COUNTY
 STAT.            WYOMING:   STATE
 CTRY. UNITED STATES OF AMERICA:   COUNTRY
 SRVC.     Atlas Wireline:   SERVICE COMPANY
 DATE.        09-DEC-1992:   LOGDATE
 API .       490252257300:   API NUMBER
~CURVE INFORMATION
#MNEM.UNIT       API CODE    CURVE DESCRIPTION
#----------   ------------   ------------------------------
 DEPT.F                  :   
 GRR .GAPI   07 310 01 00:   GAMMA RAY
 RILD.OHMM   07 120 46 00:   INDUCTION LOG DEEP RESISTIVITY
 RILM.OHMM   07 120 44 00:   RESITIVITY LONG MEDIUM
~PARAMETER INFORMATION
#MNEM.UNIT          VALUE    DESCRIPTION
#----------   ------------   ------------------------------
 PD  .                 GL:   PERMANENT DATUM
 EPD .F              5169:   ELEVATION PERMANENT DATUM
 LMF .                 KB:   LOG MEASURED FROM
 DAPD.F                10:   FEET ABOVE PERMANENT DATUM
 DMF .                 KB:   DRILLING MEASURED FROM
 EKB .F              5179:   KELLING BUSHING
 EDF .F              5178:   DRILLING FLOOR
 EGL .F              5169:   GROUND LEVEL
 DATE.        09-DEC-1992:   RUN DATE
 RUN .                  1:   RUN NUMBER
 DD  .F               525:   DEPTH DRILLER
 DL  .F               519:   DEPTH LOGGER
 BLI .F               510:   BOTTOM LOG INTERVAL
 CS  .IN            8.625:   CASING SIZE
 CBD .F                83:   CASING BOTTOM DRILLER
 CBL .F                84:   CASING BOTTOM LOGGER
 BS  .IN            7.875:   BIT SIZE
 BSD .F               525:   BIT SIZE AT DEPTH
 DFT .           AIR FOAM:   DRILLING FLUID TYPE
 BHT .F                64:   BOTTOM HOLE TEMPERATURE
 MRT .F                64:   MAXIMUM RECORDED TEMPERATURE
 LUN .           HL- 6274:   LOGGING UNIT NUMBER
 LUL .             CASPER:   LOGGING UNIT LOCATION
 ENGI.       P. RASMUSSEN:   RECORDING ENGINEER
 WITN.          G. STRONG:   WITNESSED BY
 CLNT.            A2DTECH:   CLIENT CODE
 ORIG.           5" PRINT:   ORIGIN OF DATA
 UWI .       490252257300:   UNIQUE WELL ID
 DICO. A2D Technologies, Inc.:   DIGITIZING COMPANY
~OTHER INFORMATION
~A    DEPT      GRR      RILD       RILM   
# ...
  182.0000   128.9157     7.1988     7.4185
  182.5000   127.1084     7.3985     7.6311
  183.0000   124.0964     7.5517     7.7273
  183.5000   125.3012     7.6550     7.7262
  184.0000   125.9036     7.8136     7.7791
  184.5000   124.6596     7.8185     7.7778
  185.0000   119.5783     7.8088     7.7231
  185.5000   118.0723     7.7529     7.6688
  186.0000   120.4819     7.5914     7.5101
  186.5000   124.3976     7.4850     7.4058
  187.0000   127.4096     7.3291     7.3029
  187.5000   129.2169     7.1765     7.2432
  188.0000   128.9157     7.0758     7.1013
  188.5000   128.6145     6.8332     6.9063
  189.0000   128.9519     6.6392     6.6704
  189.5000   130.1205     6.3582     6.3100
  190.0000   129.8193     5.9855     5.8870
  190.5000   129.5181     5.5835     5.4924
  191.0000   129.5181     5.2812     5.0889
  191.5000   128.6145     5.2433     4.9824
  192.0000   126.5060     5.2419     5.1252
  192.5000   121.3855     5.2772     5.2357
  193.0000   121.6867     5.3122     5.4130
  193.5000   122.8916     5.4598     5.6030
  194.0000   126.2330     5.6973     6.0877
  194.5000   125.3012     6.2238     6.3013
  195.0000   122.8916     6.6223     6.5677
  195.5000   122.8916     6.9014     6.8455
  196.0000   124.0964     7.1923     7.0857
  196.5000   124.6988     7.4436     7.3343
  197.0000   125.0000     7.5459     7.5428
  197.5000   125.6024     7.5963     7.6434
  198.0000   127.4096     7.7532     7.6955
  198.5000   131.6335     7.8062     7.7479
  199.0000   132.5301     7.9185     7.8547
  199.5000   132.8313     7.9645     7.9082
  200.0000   132.7310     7.9618     7.9623
  200.5000   127.7143     8.0723     8.0221
  201.0000   119.5847     8.1270     8.1271
  201.5000   116.5749     8.1824     8.2390
  202.0000   119.2894     8.2381     8.2952
  202.5000   125.0152     8.2370     8.3520
  203.0000   131.6447     8.2931     8.4089
  203.5000   131.6697     8.3493     8.4662
  204.0000   128.0201     8.4065     8.5236
  204.5000   128.3836     8.4635     8.5816
  205.0000   132.5608     8.5212     8.5805
  205.5000   132.8650     8.5200     8.6389
  206.0000   127.7474     8.5780     8.6375
  206.5000   125.3400     8.5177     8.5767
  207.0000   127.7533     8.4578     8.4576
  207.5000   130.1659     8.4498     8.3401
  208.0000   132.2773     8.3968     8.2815
  208.5000   134.0874     8.3378     8.2232
  209.0000   134.6928     8.2791     8.2221
  209.5000   132.8625     8.2209     8.2210
  210.0000   129.2370     8.1630     8.1031
  210.5000   131.9915     7.9941     8.0497
  211.0000   132.5969     7.9930     7.9929
  211.5000   132.5998     7.9919     7.9918
  212.0000   133.8076     7.8810     7.8808
  212.5000   136.8226     7.5505     7.7177
  213.0000   137.1267     7.1331     7.4026
  213.5000   137.1297     6.5795     6.8114
  214.0000   135.9278     6.0961     5.9708
  214.5000   132.3163     5.4939     5.4184
  215.0000   129.5883     4.9856     4.7762
  215.5000   127.4287     4.2805     4.3101
  216.0000   126.9035     3.7522     3.8844
  216.5000   127.8108     3.4051     3.4050
  217.0000   129.9221     3.1331     3.1114
  217.5000   132.3347     2.8999     2.8828
  218.0000   131.7353     2.7244     2.7271
  218.5000   125.7141     2.6522     2.7079
  219.0000   115.4761     2.6335     2.7076
  219.5000   112.1657     2.7071     2.8428
  220.0000   115.1808     2.9413     3.0535
  220.5000   126.6647     3.2180     3.4487
  221.0000   131.2530     3.6195     4.0157
  221.5000   133.8651     4.2439     4.5481
  222.0000   131.4584     4.8400     5.0105
  222.5000   132.0637     5.2236     5.2952
  223.0000   135.3799     5.5707     5.5575
  223.5000   139.9009     5.9139     5.7525
  224.0000   142.6147     6.1640     5.9957
  224.5000   142.3165     6.3803     6.2116
  225.0000   136.2953     6.5136     6.5588
  225.5000   132.3826     6.5125     6.5577
  226.0000   133.5984     6.3337     6.2899
  226.5000   137.6024     5.9915     5.9915
  227.0000   142.0307     5.7072     5.7072
  227.5000   145.0457     5.4742     5.4364
  228.0000   147.4583     5.2478     5.2144
  228.5000   148.9665     5.0590     5.0713
  229.0000   144.7533     4.8979     4.9664
  229.5000   141.7442     4.8299     4.8941
  230.0000   142.6508     4.8372     4.8292
  230.5000   143.5574     4.8623     4.8623
  231.0000   142.9579     4.9295     4.9980
  231.5000   139.6476     5.1023     5.2455
  232.0000   140.8835     5.3550     5.4296
  232.5000   141.1602     5.7780     5.6985
  233.0000   138.1511     6.1528     6.0223
  233.5000   134.8401     6.4597     6.2770
  234.0000   137.5546     6.7260     6.6349
  234.5000   138.7624     6.9140     6.9267
  235.0000   137.8617     7.1566     7.3068
  235.5000   137.5627     7.4077     7.5632
  236.0000   140.2773     7.6148     7.8286
  236.5000   143.8947     7.8276     7.9921
  237.0000   144.5000     7.8810     7.9908
  237.5000   143.5242     7.7715     7.7714
  238.0000   139.4780     7.6628     7.6635
  238.5000   136.0751     7.4992     7.5049
  239.0000   137.5848     7.3494     7.3465
  239.5000   140.2986     7.1476     7.1894
  240.0000   142.7112     6.9997     6.9997
  240.5000   143.0153     6.8549     6.7606
  241.0000   143.3195     6.5750     6.6207
  241.5000   143.0212     6.2630     6.3945
  242.0000   139.1085     5.8838     5.9247
  242.5000   136.6968     5.4139     5.3394
  243.0000   139.8051     5.0861     4.9471
  243.5000   143.3835     4.8113     4.6968
  244.0000   146.0487     4.8164     4.6149
  244.5000   146.9553     4.8479     4.8098
  245.0000   146.0546     4.9103     5.0132
  245.5000   140.3347     4.9780     5.2615
  246.0000   138.5297     5.2608     5.6380
  246.5000   140.6418     5.6373     5.9584
  247.0000   141.8495     6.1249     6.3407
  247.5000   140.3465     6.8892     6.7476
  248.0000   139.1446     7.2304     7.0329
  248.5000   144.6266     7.4347     7.2306
  249.0000   147.6767     7.5875     7.4897
  249.5000   148.4908     7.6392     7.5865
  250.0000   147.2889     7.6910     7.6913
  250.5000   148.7986     7.8516     7.7980
  251.0000   150.0064     7.9048     7.8515
  251.5000   150.3098     7.9589     7.8510
  252.0000   146.6990     7.9576     7.8505
  252.5000   144.5935     7.9016     7.8498
  253.0000   143.6929     7.9005     7.7951
  253.5000   143.6958     7.8995     7.7946
  254.0000   144.6747     7.8439     7.8482
  254.5000   148.6777     7.7887     7.7935
  255.0000   151.5367     7.7876     7.7930
  255.5000   150.9372     7.7866     7.7387
  256.0000   147.6269     7.7853     7.6848
  256.5000   144.6178     7.7842     7.6312
  257.0000   142.2111     7.7832     7.6307
  257.5000   141.9121     7.7821     7.6832
  258.0000   146.4339     7.7274     7.6826
  258.5000   152.7621     7.6730     7.6821
  259.0000   153.9699     7.6190     7.6285
  259.5000   153.2741     7.4614     7.5231
  260.0000   147.0488     7.2031     7.1666
  260.5000   144.9433     6.8484     6.7799
  261.0000   146.4523     6.4042     6.4581
  261.5000   147.6600     6.0582     6.1475
  262.0000   148.5666     5.9328     5.9427
  262.5000   151.5816     5.9320     5.9423
  263.0000   153.3917     5.9727     5.9419
  263.5000   153.0935     5.9304     5.9829
  264.0000   148.8796     5.8887     5.9824
  264.5000   149.8223     5.7270     5.9820
  265.0000   153.1828     5.5698     5.8993
  265.5000   155.5156     5.3424     5.6589
  266.0000   152.5065     5.1957     5.2741
  266.5000   151.0027     5.1950     5.1352
  267.0000   150.1028     5.2666     5.1349
  267.5000   146.7925     5.3393     5.2423
  268.0000   141.0725     5.4132     5.4266
  268.5000   136.2562     5.6030     5.6174
  269.0000   135.9217     5.9214     5.8961
  269.5000   137.7681     6.2146     6.1458
  270.0000   136.5462     6.5224     6.4061
  270.5000   135.3643     6.7514     6.6812
  271.0000   137.1752     6.9886     6.9192
  271.5000   140.4915     7.1340     7.0568
  272.0000   144.1089     7.0347     6.9592
  272.5000   146.2202     6.7475     6.7686
