~VERSION INFORMATION
 VERS.                2.0:   CWLS LOG ASCII STANDARD - VERSION 2.0
 WRAP.                 NO:   ONE LINE PER DEPTH STEP
~WELL INFORMATION
#MNEM.UNIT      DATA TYPE    INFORMATION
#----------   ------------   ------------------------------
 STRT.F            0.0000:   START DEPTH
 STOP.F          649.0000:   STOP DEPTH
 STEP.F            0.1000:   STEP LENGTH
 NULL.          -999.2500:   NO VALUE
 COMP.   FLUOR DANIEL INC:   COMPANY
 WELL.     17-1 X 2 #17-2:   WELL
 FLD .             TEAPOT:   FIELD
 LOC .       S2 T38N R78W:   LOCATION
 CNTY.            NATRONA:   COUNTY
 STAT.            WYOMING:   STATE
 CTRY. UNITED STATES OF AMERICA:   COUNTRY
 SRVC.      Western Atlas:   SERVICE COMPANY
 DATE.        20-MAY-1995:   LOGDATE
 API .       490252271000:   API NUMBER
~CURVE INFORMATION
#MNEM.UNIT       API CODE    CURVE DESCRIPTION
#----------   ------------   ------------------------------
 DEPT.F                  :   
 GRR .GAPI   07 310 01 00:   GAMMA RAY
 RILD.OHMM   07 120 46 00:   INDUCTION LOG DEEP RESISTIVITY
 RILM.OHMM   07 120 44 00:   RESITIVITY LOG MEDIUM
~PARAMETER INFORMATION
#MNEM.UNIT          VALUE    DESCRIPTION
#----------   ------------   ------------------------------
 PD  .                 GL:   PERMANENT DATUM
 EPD .F              5145:   ELEVATION PERMANENT DATUM
 LMF .                 KB:   LOG MEASURED FROM
 DAPD.F                10:   FEET ABOVE PERMANENT DATUM
 DMF .                 KB:   DRILLING MEASURED FROM
 EKB .F              5155:   KELLING BUSHING
 EDF .F              5154:   DRILLING FLOOR
 EGL .F              5145:   GROUND LEVEL
 DATE.        20-MAY-1995:   RUN DATE
 RUN .                  1:   RUN NUMBER
 DD  .F               657:   DEPTH DRILLER
 DL  .F               657:   DEPTH LOGGER
 BLI .F               649:   BOTTOM LOG INTERVAL
 CS  .IN            9.625:   CASING SIZE
 CBD .F                82:   CASING BOTTOM DRILLER
 CBL .F                82:   CASING BOTTOM LOGGER
 BS  .IN             8.75:   BIT SIZE
 BSD .F               657:   BIT SIZE AT DEPTH
 DFT .                AIR:   DRILLING FLUID TYPE
 MRT .F                92:   MAXIMUM RECORDED TEMPERATURE
 LUN .            HL 6530:   LOGGING UNIT NUMBER
 LUL .             CASPER:   LOGGING UNIT LOCATION
 ENGI.        VERN RAUTIO:   RECORDING ENGINEER
 WITN.        STEVE HARDY:   WITNESSED BY
 CLNT.            A2DTECH:   CLIENT CODE
 ORIG.           5" PRINT:   ORIGIN OF DATA
 UWI .       490252271000:   UNIQUE WELL ID
 DICO. A2D Technologies, Inc.:   DIGITIZING COMPANY
~OTHER INFORMATION
~A    DEPT      GRR      RILD       RILM   
# ...
  564.2000   136.7860     8.5470     8.4530
  564.3000   136.2210     8.5266     8.4536
  564.4000   135.3823     8.4891     8.4543
  564.5000   134.3973     8.4897     8.4548
  564.6000   133.4123     8.4423     8.4554
  564.7000   132.3825     8.4322     8.4382
  564.8000   131.0987     8.4060     8.3980
  564.9000   130.3915     8.3589     8.3987
  565.0000   129.6528     8.3177     8.3992
  565.1000   129.0405     8.3184     8.3657
  565.2000   128.4780     8.2763     8.3423
  565.3000   127.7551     8.2620     8.3297
  565.4000   127.1845     8.2407     8.2857
  565.5000   126.9784     8.2060     8.2864
  565.6000   126.8851     8.2052     8.2869
  565.7000   127.1770     8.1505     8.2875
  565.8000   127.9181     8.1510     8.2690
  565.9000   128.6987     8.1242     8.2312
  566.0000   129.1665     8.0958     8.2319
  566.1000   130.0172     8.0963     8.2324
  566.2000   131.1274     8.0969     8.1980
  566.3000   132.3613     8.0544     8.1766
  566.4000   133.5570     8.0421     8.1627
  566.5000   134.1360     8.0426     8.1212
  566.6000   135.2757     8.0304     8.1218
  566.7000   136.6514     7.9881     8.0820
  566.8000   138.0272     7.9888     8.0667
  566.9000   139.2547     7.9510     8.0472
  567.0000   139.7769     7.9064     8.0120
  567.1000   139.7792     7.8621     8.0126
  567.2000   139.9634     7.8263     8.0131
  567.3000   140.0857     7.8269     7.9781
  567.4000   140.0141     7.7844     7.9334
  567.5000   139.6681     7.7408     7.8888
  567.6000   137.9816     7.7207     7.8501
  567.7000   137.3418     7.7074     7.8508
  567.8000   136.7611     7.6642     7.8108
  567.9000   136.4802     7.6160     7.7975
  568.0000   136.5350     7.6165     7.7772
  568.1000   136.7867     7.5885     7.7336
  568.2000   136.7891     7.5649     7.6901
  568.3000   136.7915     7.5654     7.6391
  568.4000   136.7940     7.5659     7.6041
  568.5000   136.8809     7.5234     7.5872
  568.6000   137.1616     7.5147     7.5714
  568.7000   137.7064     7.5152     7.5357
  568.8000   137.7086     7.5157     7.5363
  568.9000   137.7110     7.5162     7.4965
  569.0000   137.7134     7.5168     7.4852
  569.1000   137.7158     7.4784     7.4643
  569.2000   137.6916     7.4658     7.4344
  569.3000   136.8161     7.4463     7.4350
  569.4000   135.6018     7.4153     7.4356
  569.5000   134.1174     7.4158     7.4360
  569.6000   132.8231     7.4164     7.4365
  569.7000   131.8350     7.3824     7.4196
  569.8000   130.7947     7.3661     7.3860
  569.9000   129.8575     7.3506     7.3866
  570.0000   128.5068     7.3094     7.3871
  570.1000   127.2769     7.2661     7.3876
  570.2000   126.4346     7.2666     7.3881
  570.3000   125.9219     7.2372     7.3753
  570.4000   125.0779     7.2174     7.3339
  570.5000   124.6535     7.2061     7.2879
  570.6000   124.3198     7.1685     7.2883
  570.7000   124.1798     7.1691     7.2614
  570.8000   124.2336     7.1349     7.2389
  570.9000   124.4863     7.1204     7.2301
  571.0000   124.7341     7.1209     7.1898
  571.1000   124.9843     7.1214     7.1903
  571.2000   125.3720     7.1219     7.1908
  571.3000   125.7863     7.0829     7.1680
  571.4000   126.0962     7.0737     7.1421
  571.5000   126.9143     7.0525     7.1426
  571.6000   127.8106     7.0129     7.1431
  571.7000   128.4649     6.9736     7.1065
  571.8000   128.9629     6.9300     7.0666
  571.9000   129.3989     6.8956     7.0270
  572.0000   129.6571     6.8570     6.9978
  572.1000   130.2472     6.8185     6.9967
  572.2000   130.4511     6.7803     6.9505
  572.3000   130.7013     6.7423     6.9184
  572.4000   131.1397     6.7045     6.8561
  572.5000   131.8049     6.6669     6.8086
  572.6000   132.0689     6.6295     6.8026
  572.7000   132.3052     6.6056     6.7625
  572.8000   132.7355     6.6010     6.7629
  572.9000   133.1073     6.5609     6.7353
  573.0000   133.3575     6.5614     6.6975
  573.1000   133.6262     6.5880     6.6599
  573.2000   134.1952     6.6079     6.6253
  573.3000   134.4097     6.6183     6.6259
  573.4000   134.5013     6.6549     6.6263
  573.5000   134.7127     6.6554     6.6268
  573.6000   135.1601     6.6871     6.6272
  573.7000   135.4136     6.7026     6.6277
  573.8000   135.6605     6.7179     6.6281
  573.9000   135.7201     6.7567     6.6286
  574.0000   135.8592     6.7976     6.6580
  574.1000   136.1095     6.7981     6.6965
  574.2000   136.3306     6.8270     6.7352
  574.3000   136.3333     6.8463     6.7741
  574.4000   136.3354     6.8584     6.8176
  574.5000   136.5068     6.8980     6.8527
  574.6000   136.7569     6.9435     6.8660
  574.7000   136.9460     6.9439     6.8842
  574.8000   136.9484     6.9698     6.9148
  574.9000   136.9513     7.0100     6.9159
  575.0000   136.9532     7.0505     6.9559
  575.1000   136.9557     7.0918     6.9644
  575.2000   136.9581     7.1322     6.9879
  575.3000   136.9605     7.1422     7.0139
  575.4000   136.9630     7.1650     7.0144
  575.5000   136.9653     7.2200     7.0149
  575.6000   136.9677     7.2985     7.0524
  575.7000   136.9701     7.3452     7.0931
  575.8000   136.9726     7.4208     7.1341
  575.9000   136.9572     7.4774     7.1754
  576.0000   136.6761     7.5402     7.2169
  576.1000   136.4665     7.6270     7.2657
  576.2000   136.0635     7.7140     7.3703
  576.3000   135.6742     7.7586     7.4715
  576.4000   135.3292     7.8392     7.5577
  576.5000   134.5762     7.9295     7.6603
  576.6000   134.0910     8.0207     7.8448
  576.7000   133.4080     8.1130     7.9313
  576.8000   132.5312     8.2135     8.0228
  576.9000   131.2963     8.2574     8.1153
  577.0000   129.5355     8.3051     8.1947
  577.1000   127.3511     8.3299     8.2420
  577.2000   126.6873     8.3433     8.2962
  577.3000   126.2827     8.3915     8.2967
  577.4000   126.1514     8.4481     8.3279
  577.5000   126.2142     8.4887     8.3760
  577.6000   126.4643     8.5378     8.4244
  577.7000   126.7625     8.5678     8.4736
  577.8000   126.9647     8.5770     8.5221
  577.9000   127.2149     8.6286     8.5338
  578.0000   127.5576     8.6764     8.5613
  578.1000   128.0555     8.7266     8.6108
  578.2000   128.5842     8.7770     8.6606
  578.3000   129.2837     8.8277     8.7158
  578.4000   129.8508     8.8744     8.7611
  578.5000   130.3489     8.8751     8.7777
  578.6000   130.9886     8.9195     8.8246
  578.7000   131.9819     8.9711     8.9139
  578.8000   133.1237     9.0008     8.9654
  578.9000   133.7583     9.0123     9.0274
  579.0000   134.3469     9.0647     9.0280
  579.1000   134.9476     9.0144     9.0588
  579.2000   135.5953     9.0033     9.1112
  579.3000   135.8504     9.0040     9.1638
  579.4000   136.0957     9.0046     9.2205
  579.5000   136.3459     9.0052     9.2182
  579.6000   136.3258     9.0059     9.2157
  579.7000   136.1617     9.0065     9.2133
  579.8000   136.1093     9.0071     9.2108
  579.9000   135.5635     9.0077     9.2083
  580.0000   134.6807     9.0083     9.2059
  580.1000   133.6922     9.0090     9.2034
  580.2000   132.4769     9.0097     9.2009
  580.3000   131.1117     8.9690     9.1985
  580.4000   130.1340     8.9486     9.1960
  580.5000   129.5450     8.9492     9.1935
  580.6000   128.9484     8.9498     9.1910
  580.7000   128.3530     8.9505     9.1886
  580.8000   127.9516     8.9510     9.1861
  580.9000   127.7063     8.9517     9.1836
  581.0000   127.4451     8.9523     9.1812
  581.1000   127.4474     8.9529     9.1787
  581.2000   127.4498     8.9535     9.1762
  581.3000   127.3283     8.9542     9.1738
  581.4000   127.1529     8.9548     9.1713
  581.5000   127.1553     8.9554     9.1688
  581.6000   127.1581     8.9560     9.1663
  581.7000   127.1602     8.9566     9.1639
  581.8000   128.0991     8.9573     9.1614
  581.9000   129.4857     8.9579     9.1589
  582.0000   130.6304     8.9585     9.1565
  582.1000   131.3931     8.9591     9.1540
  582.2000   132.6057     8.9597     9.1515
  582.3000   133.8473     8.9604     9.1491
