~VERSION INFORMATION
 VERS.                2.0:   CWLS LOG ASCII STANDARD - VERSION 2.0
 WRAP.                 NO:   ONE LINE PER DEPTH STEP
~WELL INFORMATION
#MNEM.UNIT      DATA TYPE    INFORMATION
#----------   ------------   ------------------------------
 STRT.F           28.0000:   START DEPTH
 STOP.F          563.0000:   STOP DEPTH
 STEP.F            0.1000:   STEP LENGTH
 NULL.          -999.2500:   NO VALUE
 COMP.       F D SERV INC:   COMPANY
 WELL.    SX-3 62-4 #62-3:   WELL
 FLD .          N.P.R. #3:   FIELD
 LOC .       S3 T38N R78W:   LOCATION
 CNTY.            NATRONA:   COUNTY
 STAT.            WYOMING:   STATE
 CTRY. UNITED STATES OF AMERICA:   COUNTRY
 SRVC.     Atlas Wireline:   SERVICE COMPANY
 DATE.        03-MAY-1992:   LOGDATE
 API .       490252252100:   API NUMBER
~CURVE INFORMATION
#MNEM.UNIT       API CODE    CURVE DESCRIPTION
#----------   ------------   ------------------------------
 DEPT.F                  :   
 RILD.OHMM   07 120 46 00:   INDUCTION LOG DEEP RESISTIVITY
 RILM.OHMM   07 120 44 00:   INDUCTION LOG MEDIUM RESISTIVITY
 CALD.IN     45 280 60 00:   CALIPER FROM DENSITY LOG
 CORR.G/C3   45 356 01 00:   DENSITY CORRECTION
 DEN .G/C3   45 350 01 00:   COMPENSATED BULK DENSTIY
 GRD .GAPI   45 310 01 00:   GAMMA RAY FROM DENSITY LOG
 PORD.DEC    45 890 12 00:   POROSITY DENSITY SANDSTONE
~PARAMETER INFORMATION
#MNEM.UNIT          VALUE    DESCRIPTION
#----------   ------------   ------------------------------
 PD  .                 GL:   PERMANENT DATUM
 EPD .F              5156:   ELEVATION PERMANENT DATUM
 LMF .                 KB:   LOG MEASURED FROM
 DAPD.F                 5:   FEET ABOVE PERMANENT DATUM
 DMF .                 KB:   DRILLING MEASURED FROM
 EKB .F              5161:   KELLING BUSHING
 EGL .F              5156:   GROUND LEVEL
 DATE.        03-MAY-1992:   RUN DATE
 RUN .                  1:   RUN NUMBER
 DD  .F               565:   DEPTH DRILLER
 DL  .F               566:   DEPTH LOGGER
 BLI .F               564:   BOTTOM LOG INTERVAL
 TLI .F                50:   TOP LOG INTERVAL
 CS  .IN            8.625:   CASING SIZE
 CBD .F                49:   CASING BOTTOM DRILLER
 CBL .F                50:   CASING BOTTOM LOGGER
 BS  .IN            7.875:   BIT SIZE
 BSD .F               565:   BIT SIZE AT DEPTH
 DFT .        AIR DRILLED:   DRILLING FLUID TYPE
 LUN .             HL 632:   LOGGING UNIT NUMBER
 LUL .           RK. SPGS:   LOGGING UNIT LOCATION
 ENGI.               RALL:   RECORDING ENGINEER
 WITN.             STRONG:   WITNESSED BY
 CLNT.            A2DTECH:   CLIENT CODE
 ORIG.           5" PRINT:   ORIGIN OF DATA
 UWI .       490252252100:   UNIQUE WELL ID
 DICO. A2D Technologies, Inc.:   DIGITIZING COMPANY
~OTHER INFORMATION
~A   DEPT     RILD       RILM       CALD       CORR        DEN        GRD       PORD   
# ...
  346.5000     4.8768     4.9117     8.2168     0.0018     2.4304   179.7554     0.1262
  346.6000     4.9001     4.9485     8.2167     0.0019     2.4306   179.5465     0.1271
  346.7000     4.8998     5.0061     8.2165     0.0033     2.4331   179.4516     0.1274
  346.8000     4.8996     5.0702     8.2163     0.0044     2.4357   179.2363     0.1269
  346.9000     4.9207     5.1233     8.2161     0.0056     2.4393   178.7893     0.1258
  347.0000     4.9489     5.1829     8.2068     0.0063     2.4446   178.5369     0.1242
  347.1000     4.9674     5.2432     8.2007     0.0060     2.4502   178.2399     0.1228
  347.2000     4.9672     5.3042     8.2005     0.0048     2.4554   178.0322     0.1217
  347.3000     4.9670     5.3659     8.2004     0.0048     2.4596   177.7798     0.1207
  347.4000     4.9668     5.4335     8.2002     0.0026     2.4628   177.4216     0.1194
  347.5000     4.9666     5.4915     8.2000     0.0009     2.4671   177.0287     0.1176
  347.6000     4.9812     5.5554     8.1998     0.0002     2.4710   177.0226     0.1155
  347.7000     5.0008     5.6201     8.1996    -0.0001     2.4744   176.7244     0.1120
  347.8000     5.0036     5.6746     8.1995    -0.0013     2.4778   176.5179     0.1089
  347.9000     5.0351     5.7074     8.1993    -0.0013     2.4815   176.2655     0.1062
  348.0000     5.0611     5.7425     8.1991    -0.0024     2.4854   175.9608     0.1031
  348.1000     5.0901     5.8051     8.1989    -0.0028     2.4885   175.8148     0.0991
  348.2000     5.1048     5.8475     8.1987    -0.0028     2.4911   175.8136     0.0965
  348.3000     5.1214     5.9000     8.1986    -0.0031     2.4929   175.8661     0.0955
  348.4000     5.1803     5.9565     8.2029    -0.0044     2.4941   176.1128     0.0947
  348.5000     5.2478     6.0016     8.2133    -0.0044     2.4954   176.1114     0.0941
  348.6000     5.3005     6.1114     8.2130    -0.0044     2.4967   176.3143     0.0936
  348.7000     5.3617     6.1452     8.2129    -0.0036     2.4973   176.5643     0.0932
  348.8000     5.4235     6.1807     8.2127    -0.0029     2.4979   176.8143     0.0929
  348.9000     5.4859     6.2370     8.2125    -0.0029     2.4981   177.0117     0.0927
  349.0000     5.5476     6.3095     8.2123    -0.0029     2.4981   177.0106     0.0924
  349.1000     5.5844     6.3765     8.2121    -0.0014     2.4981   177.3108     0.0923
  349.2000     5.6387     6.4143     8.2120    -0.0014     2.4981   177.5125     0.0924
  349.3000     5.7037     6.4871     8.2118    -0.0014     2.4981   177.7625     0.0926
  349.4000     5.7839     6.5330     8.2116    -0.0015     2.4976   178.0125     0.0926
  349.5000     5.8765     6.5708     8.2114    -0.0012     2.4966   178.2624     0.0926
  349.6000     5.9448     6.6237     8.2112     0.0000     2.4954   178.5125     0.0926
  349.7000     6.0675     6.6933     8.2111     0.0000     2.4941   178.8118     0.0929
  349.8000     6.1534     6.7323     8.2109     0.0000     2.4928   179.0124     0.0934
  349.9000     6.2382     6.7710     8.2107     0.0000     2.4955   179.5643     0.0939
  350.0000     6.3101     6.7788     8.2105     0.0000     2.4949   181.3749     0.0947
  350.1000     6.3755     6.8020     8.2103     0.0000     2.4942   183.0312     0.0945
  350.2000     6.4124     6.8410     8.2102     0.0000     2.4936   183.3285     0.0947
  350.3000     6.4857     6.8729     8.2100     0.0000     2.4928   183.2728     0.0950
  350.4000     6.5308     6.8727     8.2099     0.0045     2.4923   183.0180     0.0950
  350.5000     6.5682     6.9114     8.2099     0.0045     2.4920   182.7175     0.0950
  350.6000     6.6058     6.9511     8.2098     0.0045     2.4923   182.5084     0.0950
  350.7000     6.6436     6.9910     8.2097     0.0060     2.4928   182.2536     0.0950
  350.8000     6.6831     7.0311     8.2096     0.0050     2.4928   181.9988     0.0950
  350.9000     6.7200     7.0651     8.2096     0.0045     2.4943   181.7440     0.0947
  351.0000     6.7291     7.0648     8.2095     0.0040     2.4948   181.4791     0.0941
  351.1000     6.7288     7.0646     8.2094     0.0027     2.4958   180.8931     0.0933
  351.2000     6.7419     7.0949     8.2093     0.0015     2.4968   180.6779     0.0926
  351.3000     6.7751     7.1134     8.2093     0.0000     2.4976   180.4231     0.0918
  351.4000     6.7748     7.1269     8.2092     0.0000     2.4989   180.0537     0.0911
  351.5000     6.8110     7.1626     8.2091     0.0000     2.5003   179.6119     0.0902
  351.6000     6.8214     7.1623     8.2090    -0.0006     2.5008   179.3571     0.0896
  351.7000     6.8211     7.1621     8.2089    -0.0015     2.5023   179.0688     0.0888
  351.8000     6.8208     7.1619     8.2089    -0.0014     2.5039   178.8475     0.0881
  351.9000     6.8205     7.1617     8.2088     0.0000     2.5051   178.5926     0.0874
  352.0000     6.8202     7.1615     8.2087     0.0000     2.5064   178.4585     0.0869
  352.1000     6.8200     7.1570     8.2086     0.0017     2.5078   178.4561     0.0863
  352.2000     6.8197     7.1094     8.2085     0.0042     2.5083   178.4758     0.0854
  352.3000     6.8194     7.1127     8.2085     0.0064     2.5090   178.7527     0.0848
  352.4000     6.8191     7.1164     8.2146     0.0077     2.5096   178.7505     0.0843
  352.5000     6.8188     7.1200     8.2233     0.0105     2.5104   178.9241     0.0837
  352.6000     6.8185     7.1236     8.2232     0.0117     2.5117   179.1741     0.0830
  352.7000     6.8183     7.1272     8.2231     0.0120     2.5130   179.3466     0.0824
  352.8000     6.8180     7.1309     8.2345     0.0120     2.5142   179.3442     0.0817
  352.9000     6.8177     7.1345     8.2380     0.0120     2.5150   179.3416     0.0810
  353.0000     6.8174     7.1381     8.2379     0.0119     2.5159   179.3394     0.0802
  353.1000     6.8171     7.1417     8.2378     0.0105     2.5172   179.3369     0.0796
  353.2000     6.8168     7.1454     8.2377     0.0094     2.5184   179.3345     0.0791
  353.3000     6.8499     7.1490     8.2376     0.0082     2.5197   179.3321     0.0791
  353.4000     6.8637     7.1526     8.2375     0.0069     2.5210   179.3297     0.0791
  353.5000     6.8634     7.1562     8.2374     0.0060     2.5212   179.3271     0.0789
  353.6000     6.8632     7.1599     8.2374     0.0059     2.5216   179.5622     0.0788
  353.7000     6.8638     7.1635     8.2373     0.0045     2.5222   179.6241     0.0788
  353.8000     6.9103     7.1671     8.2372     0.0034     2.5227   179.6217     0.0788
  353.9000     6.9101     7.1707     8.2371     0.0021     2.5227   179.7088     0.0785
  354.0000     6.9098     7.1744     8.2370     0.0008     2.5219   179.9189     0.0785
  354.1000     6.9095     7.1780     8.2369     0.0000     2.5214   179.9160     0.0783
  354.2000     6.9092     7.1816     8.2368    -0.0002     2.5212   180.1570     0.0782
  354.3000     6.9089     7.1852     8.2367    -0.0015     2.5212   180.4071     0.0783
  354.4000     6.9086     7.1889     8.2366    -0.0027     2.5211   180.5122     0.0785
  354.5000     6.9083     7.1925     8.2365    -0.0039     2.5211   180.7009     0.0785
  354.6000     6.9080     7.1961     8.2365    -0.0052     2.5211   181.1570     0.0787
  354.7000     6.9078     7.1997     8.2364    -0.0060     2.5211   181.4099     0.0788
  354.8000     6.9075     7.2010     8.2363    -0.0060     2.5211   181.6569     0.0789
  354.9000     6.9072     7.2007     8.2362    -0.0060     2.5211   181.7068     0.0791
  355.0000     6.9069     7.2004     8.2361    -0.0060     2.5211   182.0061     0.0791
  355.1000     6.9066     7.2001     8.2360    -0.0060     2.5211   182.4068     0.0791
  355.2000     6.9063     7.1586     8.2359    -0.0060     2.5218   182.6568     0.0786
  355.3000     6.9199     7.1497     8.2358    -0.0056     2.5218   182.9068     0.0783
  355.4000     6.9539     7.1494     8.2280    -0.0045     2.5223   183.2026     0.0781
  355.5000     6.9535     7.1491     8.2206    -0.0045     2.5229   183.4067     0.0777
