~VERSION INFORMATION
 VERS.                2.0:   CWLS LOG ASCII STANDARD - VERSION 2.0
 WRAP.                 NO:   ONE LINE PER DEPTH STEP
~WELL INFORMATION
#MNEM.UNIT      DATA TYPE    INFORMATION
#----------   ------------   ------------------------------
 STRT.F           24.5000:   START DEPTH
 STOP.F          506.0000:   STOP DEPTH
 STEP.F            0.5000:   STEP LENGTH
 NULL.          -999.2500:   NO VALUE
 COMP. FENIX & SCISSON INC:   COMPANY
 WELL.    NPR 3 SX #44-10:   WELL
 FLD .        TEAPOT DOME:   FIELD
 LOC .      S10 T38N R78W:   LOCATION
 CNTY.            NATRONA:   COUNTY
 STAT.            WYOMING:   STATE
 CTRY. UNITED STATES OF AMERICA:   COUNTRY
 SRVC.           BIRDWELL:   SERVICE COMPANY
 DATE.        14-NOV-1978:   LOGDATE
 API .       490251074700:   API NUMBER
~CURVE INFORMATION
#MNEM.UNIT       API CODE    CURVE DESCRIPTION
#----------   ------------   ------------------------------
 DEPT.F                  :   
 SPR .MV     05 010 01 00:   SPONTANEOUS POTENTIAL FROM RES.
 IL  .OHMM   05 120 00 00:   INDUCTION LOG
 SN  .OHMM   05 040 16 00:   SHORT NORMAL 16"
 CALD.IN     45 280 60 00:   CALIPER
 GRD .GAPI   45 310 01 00:   GAMMA RAY FROM DENSITY LOG
 RHOB.G/C3   45 350 01 00:   BULK DENSITY
 DPHI.DEC    45 890 12 00:   DENSITY POROSITY SANDSTONE
 DRHO.G/C3   45 356 01 00:   DENSITY CORRECTION
~PARAMETER INFORMATION
#MNEM.UNIT          VALUE    DESCRIPTION
#----------   ------------   ------------------------------
 PD  .                 GL:   PERMANENT DATUM
 EPD .F              5211:   ELEVATION PERMANENT DATUM
 LMF .                 KB:   LOG MEASURED FROM
 DAPD.F                 4:   FEET ABOVE PERMANENT DATUM
 DMF .                 KB:   DRILLING MEASURED FROM
 EKB .F              5215:   KELLING BUSHING
 EGL .F              5211:   GROUND LEVEL
 DATE.           11-14-78:   RUN DATE
 RUN .                  1:   RUN NUMBER
 DD  .F               510:   DEPTH DRILLER
 DL  .F               506:   DEPTH LOGGER
 BLI .F               500:   BOTTOM LOG INTERVAL
 TLI .F                45:   TOP LOG INTERVAL
 CS  .IN            8.625:   CASING SIZE
 CBD .F                40:   CASING BOTTOM DRILLER
 CBL .F                40:   CASING BOTTOM LOGGER
 BS  .IN            7.875:   BIT SIZE
 BSD .F               510:   BIT SIZE AT DEPTH
 DFT .            SEA MUD:   DRILLING FLUID TYPE
 DFD .                8.7:   DRILLING FLUID DENSITY
 DFV .                 35:   DRILLING FLUID VISCOSITY
 DFPH.               10.5:   DRILLING FLUID PH
 MSS .            MUD PIT:   MUD SAMPLE SOURCE
 RMS .OHMM            .51:   RESISTIVITY MUD SAMPLE
 MST .F                54:   MUD SAMPLE TEMPERATURE
 RMF .OHMM            .45:   RESISTIVITY MUD FILTRATE SAMPLE
 MFST.F                54:   MUD FILTRATE SAMPLE TEMPERATURE
 RMC .OHMM             .5:   RESISTIVITY MUD CAKE
 MCST.F                60:   MUD CAKE SAMPLE TEMPERATURE
 MFSS.           MEASURED:   MUD FILTRATE SAMPLE SOURCE
 MCSS.           MEASURED:   MUD CAKE SAMPLE SOURCE
 RMB .OHMM            .49:   RESISTIVITY MUD AT BHT
 BHT .F                56:   BOTTOM HOLE TEMPERATURE
 TCS .HRS               2:   TIME CURCULATED STOPPED
 MRT .F                56:   MAXIMUM RECORDED TEMPERATURE
 LUN .               2958:   LOGGING UNIT NUMBER
 LUL .               CASP:   LOGGING UNIT LOCATION
 ENGI.             MILLER:   RECORDING ENGINEER
 WITN.           DINSMORE:   WITNESSED BY
 CLNT.            A2DTECH:   CLIENT CODE
 ORIG.       2", 5" PRINT:   ORIGIN OF DATA
 UWI .       490251074700:   UNIQUE WELL ID
 DICO. A2D Technologies, Inc.:   DIGITIZING COMPANY
~OTHER INFORMATION
~A   DEPT      SPR         IL         SN       CALD         GRD      RHOB       DPHI       DRHO   
# ...
   65.0000   -59.9400     9.3910    11.7160     8.0980   100.5700     2.5090     0.0930     0.0440
   65.5000   -60.1560     9.3910    11.6780     8.0680   103.8090     2.5080     0.1020     0.0420
   66.0000   -60.3710     9.3910    11.6390     8.0380   105.7940     2.5040     0.1040     0.0400
   66.5000   -60.5850     9.3910    11.6010     8.0080   106.0080     2.5010     0.1030     0.0350
   67.0000   -60.9090     9.3910    11.5620     7.9780   106.0340     2.5030     0.1030     0.0240
   67.5000   -61.3830     9.3910    11.5240     7.9480   105.9880     2.5050     0.1050     0.0140
   68.0000   -61.8540     9.3910    11.4850     7.9180   103.8050     2.5040     0.1120     0.0090
   68.5000   -62.3070     9.3910    11.4470     7.8880   101.3970     2.4940     0.1140     0.0060
   69.0000   -62.3250     9.3910    11.4080     7.8580   100.6660     2.4840     0.1140     0.0060
   69.5000   -62.3270     9.3910    11.3700     7.8280   101.2920     2.4800     0.1140     0.0060
   70.0000   -62.3290     9.3910    11.3310     7.7980   102.6250     2.4900     0.1120     0.0060
   70.5000   -62.3390     9.3910    11.2930     7.7710   104.1170     2.4970     0.1100     0.0060
   71.0000   -63.3660     9.3910    11.2540     7.7770   104.5890     2.4990     0.1080     0.0060
   71.5000   -66.7480     9.3910    11.2160     7.7830   103.1430     2.5000     0.1060     0.0060
   72.0000   -63.0640     9.3910    11.1770     7.7900   101.5840     2.5070     0.1040     0.0060
   72.5000   -62.6950     9.3910    11.1390     7.7330   100.0310     2.5080     0.1050     0.0060
   73.0000   -61.0230     9.3910    11.1000     7.6490    98.8860     2.5020     0.1080     0.0070
   73.5000   -58.8040     9.3910    11.0770     7.5720   100.0340     2.4980     0.1110     0.0070
   74.0000   -57.7040     9.3910    11.0630     7.5960   101.3210     2.4960     0.1140     0.0070
   74.5000   -56.6550     9.3910    11.0490     7.6330   103.1750     2.4930     0.1170     0.0070
   75.0000   -55.6160     9.3910    11.0350     7.6700   105.4070     2.4850     0.1180     0.0070
   75.5000   -54.5760     9.3910    11.0210     7.7080   106.5830     2.4770     0.1170     0.0070
   76.0000   -53.5360     9.3910    11.0060     7.6900   106.1370     2.4830     0.1160     0.0070
   76.5000   -52.4950     9.3910    10.9920     7.6720   105.3360     2.4870     0.1160     0.0070
   77.0000   -51.4550     9.3910    10.9780     7.7610   103.3770     2.4850     0.1190     0.0070
   77.5000   -50.4150     9.3910    10.9640     7.8330    97.7540     2.4770     0.1250     0.0110
   78.0000   -49.3750     9.3910    10.9500     7.7930    95.7170     2.4680     0.1310     0.0290
   78.5000   -48.3350     9.3910    10.9360     7.6700    96.8430     2.4590     0.1370     0.0480
   79.0000   -47.2950     9.3910    10.9220     7.5430    98.9050     2.4530     0.1300     0.0630
   79.5000   -46.2550     9.3910    10.9070     7.4920   100.3060     2.4710     0.1210     0.0690
   80.0000   -45.2140     9.3910    10.8930     7.5180    99.2200     2.4880     0.1120     0.0650
   80.5000   -44.1700     9.3910    10.8840     7.7010    98.0710     2.5050     0.1060     0.0590
   81.0000   -43.1200     9.3910    10.9580     7.7100    97.5000     2.5060     0.1040     0.0460
   81.5000   -42.5980     9.3910    11.0160     7.7100    98.9430     2.5070     0.1030     0.0370
   82.0000   -43.2530     9.3910    11.0740     7.7100   100.3960     2.5070     0.1010     0.0370
   82.5000   -44.1530     9.3910    11.1320     7.7100   101.7560     2.5080     0.0980     0.0360
   83.0000   -43.2250     9.3910    11.1890     7.7100   102.1640     2.5160     0.0960     0.0370
   83.5000   -39.2920     9.3910    11.2470     7.7100   102.3490     2.5240     0.0940     0.0400
   84.0000   -38.8990     9.3910    11.3050     7.7100   104.2530     2.5310     0.0930     0.0430
   84.5000   -38.4340     9.3910    11.3630     7.7320   105.5100     2.5310     0.0930     0.0450
   85.0000   -37.9490     9.3910    11.4210     7.7920   106.4840     2.5250     0.0930     0.0480
   85.5000   -37.4590     9.3860    11.4780     7.8510   108.6260     2.5190     0.0970     0.0510
   86.0000   -36.9700     9.3630    11.5070     7.9110   109.1900     2.5130     0.1010     0.0540
   86.5000   -36.4800     9.3390    11.5170     7.9700   108.6900     2.5080     0.1040     0.0580
   87.0000   -35.9890     9.3150    11.5280     8.0280   108.4390     2.5020     0.1080     0.0650
   87.5000   -35.4820     9.2920    11.5390     8.0290   108.3690     2.4960     0.1120     0.0760
   88.0000   -35.4540     9.2680    11.5500     8.0660   106.7250     2.4900     0.1060     0.0970
   88.5000   -35.4170     9.2450    11.5600     8.0690   104.8080     2.4940     0.0970     0.1180
   89.0000   -35.3420     9.2210    11.5710     8.0660   102.9660     2.5090     0.0890     0.1390
   89.5000   -35.2670     9.1970    11.5820     8.0630   102.9090     2.5240     0.0810     0.1510
   90.0000   -35.1920     9.1740    11.5930     8.0590   103.2140     2.5390     0.0730     0.1430
   90.5000   -35.1170     9.1500    11.6030     8.0560   104.7890     2.5490     0.0740     0.1270
   91.0000   -35.0430     9.1270    11.6090     8.0530   106.1130     2.5510     0.0790     0.1000
   91.5000   -34.9700     9.1030    11.2830     8.0490   106.9070     2.5460     0.0850     0.0730
   92.0000   -34.9000     9.0790    11.0290     8.0460   106.8390     2.5320     0.0900     0.0580
   92.5000   -34.9930     9.0560    10.7740     8.0430   106.7890     2.5190     0.0960     0.0530
   93.0000   -35.6940     9.0320    10.6850     8.0400   106.7340     2.5100     0.1010     0.0470
   93.5000   -36.7560     9.0090    10.6850     8.0360   107.5410     2.5090     0.1050     0.0370
   94.0000   -37.7950     8.9850    10.6760     8.0330   109.4400     2.5040     0.1090     0.0260
   94.5000   -38.2910     8.9610    10.6350     8.0300   110.4810     2.4970     0.1110     0.0140
   95.0000   -35.9460     8.9380    10.5950     8.0260   108.3990     2.4930     0.1130     0.0080
   95.5000   -35.2990     8.9140    10.5550     8.0230   107.3950     2.4890     0.1150     0.0050
   96.0000   -35.0610     8.8850    10.5150     8.0200   107.6360     2.4850     0.1180     0.0040
   96.5000   -34.8340     9.0300    10.4890     8.0160   106.6960     2.4810     0.1160     0.0040
   97.0000   -34.4790     9.1380    10.4900     8.0130   104.7290     2.4820     0.1080     0.0040
   97.5000   -33.4220     9.2460    10.4890     8.0120   104.5860     2.4970     0.1000     0.0040
   98.0000   -32.3530     9.3540    10.6160     8.0520   104.4560     2.5120     0.0920     0.0040
   98.5000   -31.2670     9.4610    10.7490     8.0910   103.6090     2.5270     0.0840     0.0040
   99.0000   -31.1940     9.5690    10.8820     8.1300   102.7750     2.5420     0.0780     0.0040
   99.5000   -31.1750     9.6770    11.0160     8.1500   101.9230     2.5440     0.0830     0.0050
  100.0000   -31.1580     9.7850    11.1890     8.1510   101.7870     2.5370     0.0860     0.0050
  100.5000   -31.1400     9.8930    11.1740     8.1520   103.1030     2.5260     0.0890     0.0050
  101.0000   -31.1220     9.9250    11.1520     8.1520   104.4240     2.5160     0.0920     0.0050
  101.5000   -31.1030     9.9250    11.1310     8.1530   104.4650     2.5090     0.0950     0.0050
  102.0000   -31.0850     9.9250    11.1090     8.1540   104.4260     2.5100     0.0970     0.0050
  102.5000   -31.0670     9.9250    11.0860     8.1550   104.3840     2.5120     0.1000     0.0050
  103.0000   -31.0510     9.9250    11.0860     8.1560   104.3450     2.5090     0.1010     0.0060
  103.5000   -31.0340     9.9250    11.0860     8.1570   104.3140     2.5070     0.1010     0.0060
  104.0000   -31.0070     9.9250    11.0860     8.1570   104.7430     2.5080     0.1010     0.0060
  104.5000   -31.7350     9.9250    11.0860     8.1580   105.6600     2.5190     0.1000     0.0060
  105.0000   -33.1670     9.9250    11.0860     8.1590   105.9630     2.5160     0.1000     0.0060
