~VERSION INFORMATION
 VERS.                2.0:   CWLS LOG ASCII STANDARD - VERSION 2.0
 WRAP.                 NO:   ONE LINE PER DEPTH STEP
~WELL INFORMATION
#MNEM.UNIT      DATA TYPE    INFORMATION
#----------   ------------   ------------------------------
 STRT.F            0.0000:   START DEPTH
 STOP.F          530.0000:   STOP DEPTH
 STEP.F            0.5000:   STEP LENGTH
 NULL.          -999.2500:   NO VALUE
 COMP. FENIX & SCISSON INC:   COMPANY
 WELL.      74 SX 3 #74-3:   WELL
 FLD .             TEAPOT:   FIELD
 LOC .       S3 T38N R78W:   LOCATION
 CNTY.            NATRONA:   COUNTY
 STAT.            WYOMING:   STATE
 CTRY. UNITED STATES OF AMERICA:   COUNTRY
 SRVC.            Unknown:   SERVICE COMPANY
 DATE.        20-SEP-1978:   LOGDATE
 API .       490251072200:   API NUMBER
~CURVE INFORMATION
#MNEM.UNIT       API CODE    CURVE DESCRIPTION
#----------   ------------   ------------------------------
 DEPT.F                  :   
 CALD.IN     45 280 60 00:   CALIPER
 GRD .GAPI   45 310 01 00:   GAMMA RAY FROM DENSITY LOG
 RHOB.G/C3   45 350 01 00:   BULK DENSITY
 DPHI.DEC    45 890 12 00:   DENSITY POROSITY SANDSTONE
 CORR.G/C3   45 356 01 00:   DENSITY CORRECTION
 SPR .MV     05 010 01 00:   SPONTANEOUS POTENTIAL FROM RES.
 SN  .OHMM   05 040 16 00:   SHORT NORMAL 16"
 ILD .OHMM   05 120 46 00:   INDUCTION LOG DEEP
~PARAMETER INFORMATION
#MNEM.UNIT          VALUE    DESCRIPTION
#----------   ------------   ------------------------------
 PD  .                 GL:   PERMANENT DATUM
 EPD .F              5139:   ELEVATION PERMANENT DATUM
 LMF .                 KB:   LOG MEASURED FROM
 DAPD.F                 4:   FEET ABOVE PERMANENT DATUM
 DMF .                 KB:   DRILLING MEASURED FROM
 EKB .F              5143:   KELLING BUSHING
 EGL .F              5139:   GROUND LEVEL
 DATE.            9-20-78:   RUN DATE
 RUN .                  1:   RUN NUMBER
 DD  .F               532:   DEPTH DRILLER
 DL  .F               530:   DEPTH LOGGER
 BLI .F               524:   BOTTOM LOG INTERVAL
 TLI .F                40:   TOP LOG INTERVAL
 CS  .IN            8.625:   CASING SIZE
 CBD .F                40:   CASING BOTTOM DRILLER
 CBL .F                40:   CASING BOTTOM LOGGER
 BS  .IN            7.875:   BIT SIZE
 BSD .F               532:   BIT SIZE AT DEPTH
 DFT .                KCL:   DRILLING FLUID TYPE
 DFD .                8.8:   DRILLING FLUID DENSITY
 DFV .                 38:   DRILLING FLUID VISCOSITY
 DFPH.                  9:   DRILLING FLUID PH
 DFL .                6.2:   DRILLING FLUID LOSS
 MSS .                PIT:   MUD SAMPLE SOURCE
 BHT .F                69:   BOTTOM HOLE TEMPERATURE
 TCS .HRS               3:   TIME CURCULATED STOPPED
 MRT .F                69:   MAXIMUM RECORDED TEMPERATURE
 LUN .               2958:   LOGGING UNIT NUMBER
 LUL .             CASPER:   LOGGING UNIT LOCATION
 ENGI.           REYNOLDS:   RECORDING ENGINEER
 WITN.           DINSMORE:   WITNESSED BY
 CLNT.            A2DTECH:   CLIENT CODE
 ORIG.       2", 5" PRINT:   ORIGIN OF DATA
 UWI .       490251072200:   UNIQUE WELL ID
 DICO. A2D Technologies, Inc.:   DIGITIZING COMPANY
~OTHER INFORMATION
~A    DEPT    CALD         GRD      RHOB       DPHI       CORR        SPR         SN        ILD   
# ...
  243.0000     7.4423   102.5313     2.2831     0.2180     0.0172   -29.8890     3.8198     3.5211
  243.5000     7.4107   100.8438     2.2976     0.1997     0.0280   -29.6982     3.7903     3.5211
  244.0000     7.4535   101.1166     2.3369     0.1814     0.0388   -29.5126     3.9332     3.5211
  244.5000     7.4903   100.2824     2.3778     0.1632     0.0394   -29.4258     4.2592     3.7410
  245.0000     7.4702    99.2185     2.4184     0.1449     0.0331   -29.4761     4.7123     3.9689
  245.5000     7.4496    96.6484     2.4451     0.1297     0.0250   -29.5246     5.2136     4.4624
  246.0000     7.4299    93.1800     2.4553     0.1258     0.0171   -29.5736     5.7683     5.0058
  246.5000     7.4633    89.6845     2.4628     0.1219     0.0119   -29.6225     6.3820     5.6153
  247.0000     7.3124    86.1664     2.4700     0.1184     0.0085   -29.6714     7.0242     6.2992
  247.5000     7.3880    85.7382     2.4769     0.1156     0.0075   -29.7202     7.5577     6.7263
  248.0000     7.4517    86.6716     2.4799     0.1151     0.0063   -29.7691     7.8633     7.1216
  248.5000     7.5093    88.7100     2.4820     0.1148     0.0052   -29.8180     8.1057     7.4262
  249.0000     7.5104    97.4705     2.4820     0.1170     0.0041   -29.8668     8.2155     7.4370
  249.5000     7.5106   100.8267     2.4798     0.1190     0.0030   -29.9157     8.2147     7.4478
  250.0000     7.5066   103.3131     2.4768     0.1198     0.0019   -29.9646     8.2146     7.4586
  250.5000     7.4438   105.7851     2.4737     0.1203     0.0008   -30.0134     8.2145     7.4694
  251.0000     7.3876   108.0385     2.4729     0.1201    -0.0002   -30.0623     8.2146     7.4803
  251.5000     7.4355   107.9880     2.4740     0.1169    -0.0009   -30.1112     8.2151     7.4919
  252.0000     7.4591   107.9522     2.4762     0.1175    -0.0006   -30.1600     8.2160     7.3144
  252.5000     7.4681   106.3451     2.4784     0.1195    -0.0002   -30.2089     8.1737     7.0792
  253.0000     7.4482   102.1492     2.4772     0.1254     0.0001   -30.2578     7.9046     6.8511
  253.5000     7.3727    99.3687     2.4690     0.1346     0.0004   -30.3070     7.6444     6.6304
  254.0000     7.5431    97.3506     2.4546     0.1437     0.0008   -30.3557     7.3927     6.4171
  254.5000     7.4993    99.7634     2.4402     0.1529     0.0022   -30.3814     7.1493     6.2841
  255.0000     7.4914   105.4278     2.4255     0.1586     0.0056   -30.2798     6.9599     6.2702
  255.5000     7.6017   111.1455     2.4193     0.1462     0.0125   -30.1801     6.9599     6.2563
  256.0000     7.4895   111.9683     2.4326     0.1371     0.0217   -30.0795     7.0458     6.2425
  256.5000     7.5233   111.1411     2.4470     0.1280     0.0295   -29.9303     7.2568     6.2318
  257.0000     7.5504   109.4682     2.4612     0.1197     0.0307   -29.5479     7.4740     6.5022
  257.5000     7.5417   107.6786     2.4755     0.1177     0.0294   -29.3933     7.6980     6.7306
  258.0000     7.5327   105.8808     2.4800     0.1179     0.0195   -29.3672     7.9285     6.9676
  258.5000     7.5128   105.4127     2.4800     0.1181     0.0155   -29.3436     8.1660     7.2127
  259.0000     7.4721   107.8914     2.4799     0.1181     0.0150   -29.3200     8.4105     7.4666
  259.5000     7.4489   110.0447     2.4799     0.1158     0.0150   -29.2963     8.6624     7.7298
  260.0000     7.4883   110.3987     2.4819     0.1127     0.0151   -29.2725     8.9219     8.0011
  260.5000     7.5286   110.7416     2.4860     0.1095     0.0151   -29.2487     9.1891     8.2461
  261.0000     7.4987   111.2792     2.4900     0.1064     0.0151   -29.2250     9.4311     8.4619
  261.5000     7.4491   110.7015     2.4940     0.1041     0.0151   -29.2074     9.4005     8.5227
  262.0000     7.4550   106.8463     2.4980     0.1028     0.0151   -29.2069     9.3732     8.5227
  262.5000     7.4597   103.2077     2.5020     0.1065     0.0151   -29.2089     9.3460     8.5151
  263.0000     7.4645   100.8766     2.5030     0.1100     0.0151   -29.4072     9.3190     8.4645
  263.5000     7.4691   100.3257     2.4948     0.1126     0.0151   -29.6297     9.2919     8.4142
  264.0000     7.4738   100.6963     2.4877     0.1145     0.0151   -29.8483     9.2655     8.3642
  264.5000     7.4785   101.5690     2.4839     0.1164     0.0151   -29.9496     9.1613     8.3145
  265.0000     7.4832   102.6100     2.4801     0.1182     0.0151   -29.7773     9.0379     8.2650
  265.5000     7.4878   103.1625     2.4762     0.1201     0.0151   -29.6111     8.9162     8.2163
  266.0000     7.5089   102.8129     2.4724     0.1221     0.0151   -29.6027     8.7961     8.1671
  266.5000     7.5423   101.6177     2.4700     0.1212     0.0151   -29.6037     8.6811     8.1392
  267.0000     7.5593   100.3801     2.4699     0.1209     0.0151   -29.6040     8.4468     7.6943
  267.5000     7.4842    99.3031     2.4700     0.1235     0.0151   -29.6039     8.2253     7.2856
  268.0000     7.4690    98.4321     2.4666     0.1278     0.0151   -29.6040     7.9773     6.8980
  268.5000     7.4628    98.3447     2.4594     0.1326     0.0151   -29.6035     7.6471     6.5313
  269.0000     7.4569    98.7743     2.4521     0.1373     0.0151   -29.6472     7.3306     6.3271
  269.5000     7.4499    99.4717     2.4449     0.1421     0.0151   -29.7185     7.0272     6.2895
  270.0000     7.4961   100.0031     2.4378     0.1477     0.0151   -29.7930     6.7082     6.3629
  270.5000     7.5032    99.8222     2.4340     0.1409     0.0150   -29.6997     6.8982     6.4462
  271.0000     7.4370    99.6518     2.4353     0.1325     0.0141   -29.5753     7.1154     6.5307
  271.5000     7.5319    99.4822     2.4494     0.1242     0.0133   -29.4501     7.4374     6.6163
  272.0000     7.5348    99.9412     2.4637     0.1208     0.0092   -29.3251     7.8681     6.7082
  272.5000     7.5011   101.7611     2.4767     0.1199     0.0051   -29.2005     8.3231     7.1805
  273.0000     7.4901   102.9157     2.4765     0.1191     0.0059   -29.0761     8.8099     7.6311
  273.5000     7.4900    98.5195     2.4759     0.1184     0.0068   -29.0234     9.0881     7.9009
  274.0000     7.4496    95.6823     2.4787     0.1164     0.0077   -29.0532     9.1534     8.1933
  274.5000     7.5876    95.0578     2.4820     0.1130     0.0086   -29.0824     9.2191     8.4528
  275.0000     7.4791    97.3589     2.4857     0.1095     0.0083   -29.1118     9.3161     8.4966
  275.5000     7.5984    94.0723     2.4896     0.1061     0.0069   -29.1413     9.4811     8.5406
  276.0000     7.3018    94.7822     2.4936     0.1049     0.0054   -29.1710     9.6544     8.5848
  276.5000     7.6917    96.4262     2.4968     0.1063     0.0040   -29.2062     9.8303     8.6293
  277.0000     7.3136    95.4295     2.4944     0.1076     0.0030   -28.9657     9.9668     8.6740
  277.5000     7.4707    95.8374     2.4921     0.1108     0.0032   -28.6342     9.9377     8.7189
  278.0000     7.5640    96.1050     2.4897     0.1135     0.0034   -28.3017     9.9142     8.7614
  278.5000     7.4943    95.2988     2.4874     0.1145     0.0035   -27.9671     9.8908     8.7615
  279.0000     7.4858    94.8072     2.4859     0.1139     0.0037   -27.8239     9.8675     8.7614
  279.5000     7.4820    95.3340     2.4860     0.1121     0.0038   -27.8238     9.8442     8.7614
  280.0000     7.4781    95.7119     2.4884     0.1103     0.0040   -27.5628     9.8209     8.7614
  280.5000     7.4740    96.2208     2.4909     0.1090     0.0041   -27.1090     9.7977     8.7614
  281.0000     7.4701    96.7586     2.4901     0.1100     0.0043   -27.2064     9.7746     8.7614
  281.5000     7.4702    98.0174     2.4892     0.1110     0.0044   -27.4177     9.7515     8.7614
  282.0000     7.4702    99.2859     2.4883     0.1119     0.0046   -27.4262     9.7285     8.7614
  282.5000     7.4679    98.9885     2.4875     0.1129     0.0047   -27.4261     9.7055     8.7614
  283.0000     7.3643    96.8404     2.4870     0.1139     0.0049   -27.4789     9.6478     8.7616
