~VERSION INFORMATION
 VERS.                2.0:   CWLS LOG ASCII STANDARD - VERSION 2.0
 WRAP.                 NO:   ONE LINE PER DEPTH STEP
~WELL INFORMATION
#MNEM.UNIT      DATA TYPE    INFORMATION
#----------   ------------   ------------------------------
 STRT.F            2.0000:   START DEPTH
 STOP.F          560.0000:   STOP DEPTH
 STEP.F            0.1000:   STEP LENGTH
 NULL.          -999.2500:   NO VALUE
 COMP.       F D SERV INC:   COMPANY
 WELL. NAVAL PETROLEUM RESERVE 3 SX-3 #88-3:   WELL
 FLD .             NPR #3:   FIELD
 LOC .       S3 T38N R78W:   LOCATION
 CNTY.            NATRONA:   COUNTY
 STAT.            WYOMING:   STATE
 CTRY. UNITED STATES OF AMERICA:   COUNTRY
 SRVC.      Western Atlas:   SERVICE COMPANY
 DATE.        30-OCT-1992:   LOGDATE
 API .       490252254900:   API NUMBER
~CURVE INFORMATION
#MNEM.UNIT       API CODE    CURVE DESCRIPTION
#----------   ------------   ------------------------------
 DEPT.F                  :   
 GRR .GAPI   07 310 01 00:   GAMMA RAY
 RILD.OHMM   07 120 46 00:   INDUCTION LOG DEEP RESISTIVITY
 RILM.OHMM   07 120 44 00:   INDUCTION LOG MEDIUM RESISTIVITY
~PARAMETER INFORMATION
#MNEM.UNIT          VALUE    DESCRIPTION
#----------   ------------   ------------------------------
 PD  .                 GL:   PERMANENT DATUM
 EPD .F              5131:   ELEVATION PERMANENT DATUM
 LMF .                 KB:   LOG MEASURED FROM
 DAPD.F                10:   FEET ABOVE PERMANENT DATUM
 DMF .                 KB:   DRILLING MEASURED FROM
 EKB .F              5141:   KELLING BUSHING
 EDF .F              5140:   DRILLING FLOOR
 EGL .F              5131:   GROUND LEVEL
 DATE.        30-OCT-1992:   RUN DATE
 RUN .                  1:   RUN NUMBER
 DD  .F               568:   DEPTH DRILLER
 DL  .F               568:   DEPTH LOGGER
 BLI .F               560:   BOTTOM LOG INTERVAL
 CS  .IN            8.625:   CASING SIZE
 CBD .F                73:   CASING BOTTOM DRILLER
 CBL .F                73:   CASING BOTTOM LOGGER
 BS  .IN            7.875:   BIT SIZE
 BSD .F               568:   BIT SIZE AT DEPTH
 DFT .           AIR FOAM:   DRILLING FLUID TYPE
 BHT .F                63:   BOTTOM HOLE TEMPERATURE
 TCS .HRS               2:   TIME CURCULATED STOPPED
 MRT .F                63:   MAXIMUM RECORDED TEMPERATURE
 LUN .            HL-6274:   LOGGING UNIT NUMBER
 LUL .             CASPER:   LOGGING UNIT LOCATION
 ENGI.             RAUTIO:   RECORDING ENGINEER
 WITN.          BOB SYLAR:   WITNESSED BY
 CLNT.            A2DTECH:   CLIENT CODE
 ORIG.           5" PRINT:   ORIGIN OF DATA
 UWI .       490252254900:   UNIQUE WELL ID
 DICO. A2D Technologies, Inc.:   DIGITIZING COMPANY
~OTHER INFORMATION
~A    DEPT      GRR      RILD       RILM   
# ...
  129.4000   136.0638     8.2397     8.0279
  129.5000   136.1755     8.2155     8.0116
  129.6000   136.3633     8.1680     7.9727
  129.7000   136.3627     8.1277     7.9728
  129.8000   136.3620     8.1283     7.9730
  129.9000   136.3615     8.0827     7.9353
  130.0000   136.5414     8.0731     7.9182
  130.1000   136.6611     8.0736     7.8975
  130.2000   136.7479     8.0540     7.8638
  130.3000   137.0015     8.0188     7.8639
  130.4000   137.2607     8.0192     7.8640
  130.5000   137.5088     8.0197     7.8641
  130.6000   137.9645     7.9788     7.8642
  130.7000   138.3168     7.9652     7.8643
  130.8000   138.7886     7.9415     7.8645
  130.9000   139.4256     7.9112     7.8646
  131.0000   139.6953     7.9116     7.8647
  131.1000   140.2640     7.9121     7.8648
  131.2000   140.4872     7.8674     7.8268
  131.3000   140.5636     7.8584     7.8108
  131.4000   140.6937     7.8306     7.8109
  131.5000   140.9474     7.8050     7.8110
  131.6000   141.2010     7.7940     7.8111
  131.7000   141.4634     7.7520     7.8112
  131.8000   141.4628     7.7525     7.7690
  131.9000   141.4622     7.7127     7.7575
  132.0000   141.4617     7.6999     7.7320
  132.1000   141.4610     7.6766     7.7043
  132.2000   141.4604     7.6476     7.6951
  132.3000   141.4598     7.6407     7.6513
  132.4000   141.4592     7.5957     7.6515
  132.5000   141.4586     7.5962     7.6137
  132.6000   141.1100     7.5966     7.5693
  132.7000   140.7284     7.5694     7.5252
  132.8000   140.1496     7.5256     7.4947
  132.9000   138.8778     7.4934     7.4948
  133.0000   137.5458     7.4938     7.4949
  133.1000   137.0609     7.4943     7.4950
  133.2000   136.1605     7.4554     7.4616
  133.3000   135.4412     7.4434     7.4435
  133.4000   135.0348     7.4438     7.4436
  133.5000   134.7799     7.4442     7.4437
  133.6000   134.5348     7.4446     7.4438
  133.7000   134.8348     7.4450     7.4439
  133.8000   135.0516     7.4455     7.4440
  133.9000   135.3053     7.4106     7.4441
  134.0000   135.4346     7.3949     7.4442
  134.1000   135.5118     7.3953     7.4303
  134.2000   135.7654     7.3957     7.3931
  134.3000   136.0343     7.3962     7.3932
  134.4000   136.0337     7.3966     7.3933
  134.5000   136.0331     7.3970     7.4274
  134.6000   136.0325     7.3974     7.4186
  134.7000   136.0319     7.3978     7.3936
  134.8000   136.0313     7.3982     7.3937
  134.9000   136.0242     7.3986     7.3965
  135.0000   135.7292     7.3990     7.4453
  135.1000   135.7287     7.3995     7.4453
  135.2000   135.5605     7.4355     7.4455
  135.3000   135.4268     7.4516     7.4456
  135.4000   135.4262     7.4520     7.4457
  135.5000   135.3975     7.4525     7.4458
  135.6000   135.1242     7.4529     7.4459
  135.7000   135.1236     7.4533     7.4460
  135.8000   134.9337     7.4537     7.4461
  135.9000   134.8217     7.4541     7.4734
  136.0000   134.7248     7.4545     7.4980
  136.1000   134.5197     7.4712     7.4981
  136.2000   134.5159     7.5071     7.4982
  136.3000   134.2177     7.5075     7.4983
  136.4000   133.7953     7.5080     7.4984
  136.5000   133.1218     7.5449     7.5303
  136.6000   132.5943     7.5896     7.5507
  136.7000   132.3395     7.6138     7.5508
  136.8000   132.1095     7.6143     7.5509
  136.9000   132.1088     7.6193     7.5510
  137.0000   131.8757     7.6680     7.5511
  137.1000   131.8069     7.6684     7.5876
  137.2000   131.8063     7.7022     7.6037
  137.3000   131.7127     7.7225     7.6244
  137.4000   131.5044     7.7401     7.6567
  137.5000   131.5038     7.7860     7.6569
  137.6000   131.2023     7.8314     7.6570
  137.7000   131.2018     7.8319     7.6571
  137.8000   131.0400     7.8323     7.6572
  137.9000   130.8999     7.8327     7.6824
  138.0000   130.8311     7.8549     7.7106
  138.1000   130.5329     7.8880     7.7107
  138.2000   129.6950     7.8935     7.7116
  138.3000   129.2357     7.9437     7.7644
  138.4000   128.5437     7.9441     7.7645
  138.5000   128.0531     7.9795     7.7646
  138.6000   127.7983     8.0268     7.7647
  138.7000   127.5868     8.0561     7.7648
  138.8000   127.5862     8.0663     7.7703
  138.9000   127.5854     8.1130     7.8190
  139.0000   127.5850     8.1135     7.8191
  139.1000   127.7423     8.1541     7.8540
  139.2000   127.9960     8.2024     7.9272
  139.3000   128.2496     8.2511     8.0020
  139.4000   128.5033     8.2855     8.0492
  139.5000   128.7849     8.2917     8.0966
  139.6000   129.0105     8.3439     8.1513
  139.7000   129.2642     8.3444     8.1924
  139.8000   129.5178     8.3819     8.2407
  139.9000   129.7714     8.4316     8.2893
  140.0000   129.9851     8.4621     8.3227
  140.1000   129.9844     8.4731     8.3294
  140.2000   129.7359     8.5218     8.3807
  140.3000   129.4811     8.5223     8.4279
  140.4000   128.9167     8.5227     8.4391
  140.5000   128.2617     8.5567     8.4393
  140.6000   127.6909     8.5828     8.4394
  140.7000   126.9276     8.5988     8.4395
  140.8000   126.0703     8.6434     8.4396
  140.9000   125.1779     8.6439     8.4397
  141.0000   124.5133     8.6924     8.4398
  141.1000   124.1341     8.7049     8.4744
  141.2000   123.8793     8.7352     8.4987
  141.3000   123.6614     8.7663     8.4988
  141.4000   123.6607     8.7668     8.4989
  141.5000   123.6601     8.7672     8.4990
  141.6000   123.8576     8.7678     8.4992
  141.7000   124.4144     8.7682     8.4993
  141.8000   125.1765     8.7687     8.4994
  141.9000   126.0558     8.7692     8.4995
  142.0000   127.3624     8.7697     8.4996
  142.1000   129.6715     8.7702     8.4997
  142.2000   130.5500     8.7707     8.4999
  142.3000   131.3931     8.7711     8.5000
  142.4000   132.0285     8.7716     8.5001
  142.5000   132.5364     8.7721     8.4738
  142.6000   133.0442     8.7726     8.4417
  142.7000   133.5777     8.7731     8.4418
  142.8000   134.0600     8.7736     8.4419
  142.9000   134.3729     8.7741     8.4421
  143.0000   134.6266     8.7745     8.4422
  143.1000   134.7784     8.7399     8.4423
  143.2000   134.7777     8.6893     8.4424
  143.3000   134.7771     8.6554     8.4425
  143.4000   134.7765     8.6487     8.4382
  143.5000   134.7759     8.5966     8.3846
  143.6000   134.9454     8.5971     8.3847
  143.7000   135.0755     8.5585     8.3490
  143.8000   135.1519     8.5388     8.3271
  143.9000   135.3751     8.5184     8.3092
  144.0000   135.3744     8.4808     8.2699
  144.1000   135.3738     8.4813     8.2700
  144.2000   135.3732     8.4818     8.2701
  144.3000   135.3726     8.4389     8.2702
  144.4000   135.1747     8.4242     8.2703
  144.5000   134.7178     8.4247     8.2478
  144.6000   134.4424     8.4251     8.2135
  144.7000   133.9189     8.4256     8.2136
  144.8000   133.7976     8.4261     8.2138
  144.9000   133.6221     8.4265     8.1693
  145.0000   133.1526     8.3883     8.1573
  145.1000   132.8903     8.3694     8.1304
  145.2000   132.6417     8.3490     8.1013
  145.3000   132.5867     8.3126     8.1014
  145.4000   132.4321     8.3130     8.1003
  145.5000   132.2831     8.3135     8.0458
  145.6000   132.3414     8.3139     8.0459
  145.7000   132.5820     8.3144     8.0776
  145.8000   132.5806     8.3149     8.1020
  145.9000   132.5795     8.3153     8.1021
  146.0000   132.5783     8.3158     8.1022
  146.1000   132.7028     8.3163     8.1023
  146.2000   132.9558     8.3644     8.1024
  146.3000   133.1772     8.3749     8.1025
  146.4000   133.1758     8.3754     8.1027
  146.5000   133.1747     8.3758     8.1028
  146.6000   133.1735     8.3763     8.1136
  146.7000   133.3173     8.3768     8.1593
  146.8000   133.5703     8.3773     8.1594
  146.9000   133.7723     8.3777     8.1595
  147.0000   133.7711     8.3782     8.1925
  147.1000   133.7697     8.3786     8.2164
  147.2000   133.7687     8.3791     8.2165
  147.3000   133.7675     8.3796     8.2166
  147.4000   133.7663     8.3800     8.2167
  147.5000   133.7651     8.4388     8.2168
