~VERSION INFORMATION
 VERS.                2.0:   CWLS LOG ASCII STANDARD - VERSION 2.0
 WRAP.                 NO:   ONE LINE PER DEPTH STEP
~WELL INFORMATION
#MNEM.UNIT      DATA TYPE    INFORMATION
#----------   ------------   ------------------------------
 STRT.F           29.0000:   START DEPTH
 STOP.F          435.0000:   STOP DEPTH
 STEP.F            0.5000:   STEP LENGTH
 NULL.          -999.2500:   NO VALUE
 COMP. FENIX & SCISSON INC:   COMPANY
 WELL.    525 X 10 #52-10:   WELL
 FLD .             TEAPOT:   FIELD
 LOC .      S10 T38N R78W:   LOCATION
 CNTY.            NATRONA:   COUNTY
 STAT.            WYOMING:   STATE
 CTRY. UNITED STATES OF AMERICA:   COUNTRY
 SRVC.       Schlumberger:   SERVICE COMPANY
 DATE.        18-NOV-1978:   LOGDATE
 API .       490251077700:   API NUMBER
~CURVE INFORMATION
#MNEM.UNIT       API CODE    CURVE DESCRIPTION
#----------   ------------   ------------------------------
 DEPT.F                  :   
 NEUT.NAPI   35 330 01 00:   NEUTRON
 SPR .MV     07 010 01 00:   SPONTANEOUS POTENTIAL
 SFL .OHMM   07 220 01 00:   SHALLOW FOCUSED LOG RESISTIVITY
 ILD .OHMM   07 120 46 00:   INDUCTION LOG DEEP RESISTIVITY
 ILM .OHMM   07 120 44 00:   INDUCTION LOG MEDIUM
 CORR.G/C3   45 356 01 00:   DENSITY CORRECTION
 RHOB.G/C3   45 350 01 00:   BULK DENSITY
 DPHI.DEC    45 890 12 00:   DENSITY POROSITY SANDSTONE
 CALD.IN     45 280 60 00:   CALIPER
 GRD .GAPI   45 310 01 00:   GAMMA RAY FROM DENSITY LOG
~PARAMETER INFORMATION
#MNEM.UNIT          VALUE    DESCRIPTION
#----------   ------------   ------------------------------
 PD  .                 GL:   PERMANENT DATUM
 EPD .F              5176:   ELEVATION PERMANENT DATUM
 LMF .                 KB:   LOG MEASURED FROM
 DAPD.F                 4:   FEET ABOVE PERMANENT DATUM
 DMF .                 KB:   DRILLING MEASURED FROM
 EKB .F              5180:   KELLING BUSHING
 EGL .F              5176:   GROUND LEVEL
 DATE.           11-18-78:   RUN DATE
 RUN .                  1:   RUN NUMBER
 DD  .F               433:   DEPTH DRILLER
 DL  .F               435:   DEPTH LOGGER
 BLI .F               429:   BOTTOM LOG INTERVAL
 TLI .F                48:   TOP LOG INTERVAL
 CS  .IN            8.625:   CASING SIZE
 CBD .F                40:   CASING BOTTOM DRILLER
 CBL .F                48:   CASING BOTTOM LOGGER
 BS  .IN            7.875:   BIT SIZE
 BSD .F               433:   BIT SIZE AT DEPTH
 DFT .            KCL MUD:   DRILLING FLUID TYPE
 DFD .                8.5:   DRILLING FLUID DENSITY
 DFV .                 30:   DRILLING FLUID VISCOSITY
 DFPH.                9.6:   DRILLING FLUID PH
 DFL .                 16:   DRILLING FLUID LOSS
 MSS .             MUDPIT:   MUD SAMPLE SOURCE
 RMS .OHMM            .45:   RESISTIVITY MUD SAMPLE
 MST .F                50:   MUD SAMPLE TEMPERATURE
 RMF .OHMM            .37:   RESISTIVITY MUD FILTRATE SAMPLE
 MFST.F                50:   MUD FILTRATE SAMPLE TEMPERATURE
 RMC .OHMM            .43:   RESISTIVITY MUD CAKE
 MCST.F                50:   MUD CAKE SAMPLE TEMPERATURE
 MFSS.                  M:   MUD FILTRATE SAMPLE SOURCE
 MCSS.                  C:   MUD CAKE SAMPLE SOURCE
 RMB .OHMM            .42:   RESISTIVITY MUD AT BHT
 BHT .F                63:   BOTTOM HOLE TEMPERATURE
 TCS .HRS            2400:   TIME CURCULATED STOPPED
 TLAB.HRS            1300:   TIME LOGGER AT BOTTOM
 MRT .F                63:   MAXIMUM RECORDED TEMPERATURE
 LUN .               7663:   LOGGING UNIT NUMBER
 LUL .                GLT:   LOGGING UNIT LOCATION
 ENGI.        SATTERFIELD:   RECORDING ENGINEER
 WITN.              AMEND:   WITNESSED BY
 CLNT.            A2DTECH:   CLIENT CODE
 ORIG.     1", 2.5" PRINT:   ORIGIN OF DATA
 UWI .       490251077700:   UNIQUE WELL ID
 DICO. A2D Technologies, Inc.:   DIGITIZING COMPANY
~OTHER INFORMATION
~A   DEPT     NEUT        SPR        SFL        ILD        ILM       CORR       RHOB       DPHI       CALD         GRD  
# ...
   96.0000   288.3284   -69.5175    11.7598    10.3392    10.6015     0.0075     2.4504     0.1378     8.3374   103.1460
   96.5000   287.6030   -69.2600    11.4956    10.3587    10.6002     0.0181     2.4527     0.1353     8.3374   103.5234
   97.0000   289.3340   -68.9994    11.2068    10.3850    10.6009     0.0144     2.4458     0.1417     8.3374   103.9718
   97.5000   290.7168   -68.7409    11.2852    10.4144    10.6052     0.0109     2.4394     0.1477     8.3374   102.5285
   98.0000   292.2288   -68.4667    11.4366    10.2181    10.5355     0.0065     2.4314     0.1512     8.3374   102.7516
   98.5000   293.6699   -68.1821    11.6336     9.9122    10.2975     0.0047     2.4296     0.1531     8.3374   103.2458
   99.0000   296.6668   -67.3694    11.4977     9.6248    10.0646     0.0100     2.4271     0.1516     8.3374   104.4790
   99.5000   308.2493   -66.5741    11.2892     9.3456     9.8370     0.0125     2.4326     0.1479     8.3374   107.2121
  100.0000   266.3784   -65.7501    10.8416     9.0747     9.6050     0.0075     2.4349     0.1449     8.3374   108.0438
  100.5000   268.8692   -64.9445    10.2652     8.8120     9.3420     0.0027     2.4335     0.1497     8.3374   109.2809
  101.0000   268.6408   -64.1294     9.7194     8.5572     9.0862    -0.0012     2.4324     0.1537     8.3375   110.3526
  101.5000   268.8504   -63.3176     9.2026     8.3098     8.8374    -0.0035     2.4206     0.1571     8.3373   110.5221
  102.0000   269.0823   -62.5139     8.8017     8.0198     8.6396    -0.0013     2.4220     0.1538     8.3376   109.0104
  102.5000   269.3143   -61.6756     8.8017     8.0701     8.7030     0.0035     2.4290     0.1479     8.3374   107.3821
  103.0000   269.5462   -61.2505     9.4217     8.2070     8.7569     0.0081     2.4396     0.1441     8.3369   105.7346
  103.5000   269.7780   -61.1660    10.4053     8.3462     8.8111     0.0125     2.4515     0.1328     8.3395   104.2767
  104.0000   270.0099   -61.0521    10.3369     8.4879     8.8657     0.0172     2.4608     0.1357     8.3115   105.1774
  104.5000   270.2421   -60.9325    10.2179     8.6375     8.9206     0.0185     2.4559     0.1370     8.2580   109.2045
  105.0000   270.4780   -60.8387    10.0254     8.6491     8.9669     0.0175     2.4534     0.1346     8.2036   110.8091
  105.5000   270.5833   -60.7398    10.0420     8.6696     8.9669     0.0163     2.4609     0.1335     8.1725   111.0356
  106.0000   270.6593   -60.6343    10.0886     8.6910     8.9671     0.0154     2.4630     0.1353     8.1758   111.2148
  106.5000   270.7344   -60.5145    10.1355     8.7111     8.9676     0.0160     2.4605     0.1317     8.1995   111.7797
  107.0000   270.8099   -60.0292    10.2136     8.7313     8.9650     0.0281     2.4792     0.1255     8.2338   113.1211
  107.5000   270.8854   -59.4720    10.1934     8.7515     8.9685     0.0351     2.4958     0.1198     8.2681   114.8551
  108.0000   270.9609   -58.9067    10.1346     8.7718     8.9646     0.0171     2.4750     0.1295     8.2958   114.6191
  108.5000   271.0365   -58.4044    10.0761     8.7922     9.1274     0.0100     2.4678     0.1287     8.2957   113.2344
  109.0000   271.1120   -58.0317    10.0254     8.8017     9.2689     0.0076     2.4691     0.1332     8.2986   111.4095
  109.5000   271.1875   -57.6559    10.1164     8.9008     9.4125     0.0054     2.4604     0.1368     8.2950   110.2777
  110.0000   271.2631   -57.2842    10.4014     8.9910     9.5581     0.0050     2.4534     0.1368     8.2901   109.2736
  110.5000   271.3380   -56.9110    10.6945     9.0807     9.7068     0.0064     2.4534     0.1363     8.1793   109.2529
  111.0000   271.4139   -56.5378    10.9958     9.1712     9.8407     0.0049     2.4535     0.1369     8.1107   109.6771
  111.5000   271.4965   -56.1652    11.2088     9.3059     9.8407     0.0016     2.4511     0.1404     8.1239   110.8701
  112.0000   271.8375   -55.7922    11.1714     9.2977     9.7994     0.0001     2.4453     0.1425     8.2249   112.3885
  112.5000   272.5026   -55.4191    11.0977     9.2770     9.7542     0.0036     2.4398     0.1461     8.3322   113.9549
  113.0000   273.1673   -55.0466    11.0246     9.2563     9.7091     0.0112     2.4343     0.1505     8.3122   114.8855
  113.5000   273.4860   -54.6732    10.8616     9.2356     9.6642     0.0281     2.4295     0.1514     8.2555   113.4127
  114.0000   273.4924   -54.2989    10.6642     9.2150     9.6196     0.0453     2.4268     0.1533     8.1057   111.2432
  114.5000   273.4910   -53.9309    10.4664     9.1946     9.5758     0.0441     2.4204     0.1555     7.9345   109.1119
  115.0000   273.3823   -53.5470    10.2722     9.1742     9.5322     0.0396     2.4287     0.1555     7.8073   108.2981
  115.5000   273.0452   -53.2251    10.2095     9.1541     9.4830     0.0582     2.4451     0.1454     7.8449   109.3042
  116.0000   272.7226   -52.9070    10.3334     9.1356     9.4827     0.0593     2.4591     0.1364     7.9715   109.8402
  116.5000   272.8773   -52.5998    10.6021     9.1355     9.4821     0.0413     2.4568     0.1347     8.0160   109.7792
  117.0000   273.9590   -52.4362    10.8783     9.1352     9.4816     0.0233     2.4528     0.1387     8.0035   109.7142
  117.5000   275.0169   -52.5401    11.2088     9.1353     9.4817     0.0132     2.4509     0.1398     7.9877   108.0384
  118.0000   274.5220   -52.6129    11.0979     9.1352     9.4815     0.0086     2.4489     0.1391     7.9777   107.6066
  118.5000   272.0192   -52.6913    10.9701     9.1352     9.4814     0.0045     2.4455     0.1428     8.0435   108.3325
  119.0000   269.5089   -52.7732    10.7996     9.1353     9.4813     0.0020     2.4339     0.1488     8.0865   108.8854
  119.5000   268.5586   -52.8509    10.8459     9.1354     9.4813     0.0061     2.4404     0.1496     8.1355   107.9003
  120.0000   268.5378   -52.9309    10.9179     9.1351     9.4813     0.0159     2.4471     0.1430     8.1811   106.8728
  120.5000   268.5854   -53.0102    11.0023     9.1356     9.4806     0.0292     2.4523     0.1374     8.2131   106.9925
  121.0000   269.5054   -53.0896    10.9081     9.1354     9.4812     0.0430     2.4590     0.1338     8.2204   109.1055
  121.5000   269.3843   -53.1687    10.7965     9.1337     9.4821     0.0557     2.4711     0.1275     8.1647   110.5740
  122.0000   269.0227   -53.2483    10.6860     9.1387     9.4447     0.0613     2.4660     0.1231     8.0797   110.5441
  122.5000   268.6628   -53.3279    10.4053     9.0927     9.3572     0.0534     2.4556     0.1306     8.0070   109.4985
  123.0000   268.5476   -53.4055    10.4726     9.0169     9.2703     0.0450     2.4510     0.1401     7.9310   109.0839
  123.5000   268.5366   -53.4887    10.7585     8.9423     9.1844     0.0364     2.4465     0.1409     7.9771   109.4533
  124.0000   268.2857   -53.5633    11.2088     8.8697     9.0997     0.0280     2.4396     0.1451     8.0645   109.7549
  124.5000   267.7357   -53.6316    11.0138     8.7973     9.0161     0.0193     2.4367     0.1490     8.1483   109.0255
  125.0000   269.6309   -53.4979    10.6996     8.7247     8.9334     0.0124     2.4319     0.1509     8.2304   109.0615
  125.5000   273.6714   -53.3583    10.3944     8.6540     8.8521     0.0105     2.4433     0.1483     8.2956   109.7732
  126.0000   298.4027   -53.2102    10.0979     8.4375     8.6999     0.0124     2.4468     0.1434     8.2952   110.5133
  126.5000   255.0735   -53.0751     9.8099     8.1900     8.4445     0.0112     2.4513     0.1385     8.2947   109.9652
  127.0000   359.2029   -52.9124     9.5300     7.9498     8.1966     0.0069     2.4511     0.1343     8.2922   109.8974
  127.5000   261.4655   -52.8085     9.3067     7.7166     7.9558     0.0030     2.4490     0.1405     8.2906   111.8193
  128.0000   306.0682   -52.4674     8.7635     7.4903     7.7217     0.0009     2.4373     0.1488     8.2887   113.8211
  128.5000   284.5344   -52.0882     8.3283     7.3081     7.4940     0.0004     2.4241     0.1555     8.2868   115.4289
  129.0000   285.3781   -51.6989     7.9147     7.3081     7.4417     0.0006     2.4112     0.1611     8.2850   114.6399
