~VERSION INFORMATION
 VERS.                2.0:   CWLS LOG ASCII STANDARD - VERSION 2.0
 WRAP.                 NO:   ONE LINE PER DEPTH STEP
~WELL INFORMATION
#MNEM.UNIT      DATA TYPE    INFORMATION
#----------   ------------   ------------------------------
 STRT.F          442.0000:   START DEPTH
 STOP.F         2636.0000:   STOP DEPTH
 STEP.F            0.5000:   STEP LENGTH
 NULL.          -999.2500:   NO VALUE
 COMP. FENIX & SCISSON INC:   COMPANY
 WELL.     25 SHX 2 #25-2:   WELL
 FLD .             TEAPOT:   FIELD
 LOC .       S2 T38N R78W:   LOCATION
 CNTY.            NATRONA:   COUNTY
 STAT.            WYOMING:   STATE
 CTRY. UNITED STATES OF AMERICA:   COUNTRY
 SRVC.              Welex:   SERVICE COMPANY
 DATE.        07-JUN-1980:   LOGDATE
 API .       490251080200:   API NUMBER
~CURVE INFORMATION
#MNEM.UNIT       API CODE    CURVE DESCRIPTION
#----------   ------------   ------------------------------
 DEPT.F                  :   
 CALD.IN     45 280 60 00:   CALIPER
 GRD .GAPI   45 310 01 00:   GAMMA RAY FROM DENSITY LOG
 DPHI.DEC    45 890 12 00:   DENSITY POROSITY SANDSTONE
 CORR.G/C3   45 356 01 00:   DENSITY CORRECTION
 RHOB.G/C3   45 350 01 00:   BULK DENSITY
~PARAMETER INFORMATION
#MNEM.UNIT          VALUE    DESCRIPTION
#----------   ------------   ------------------------------
 PD  .                 GL:   PERMANENT DATUM
 EPD .F              5120:   ELEVATION PERMANENT DATUM
 LMF .                 KB:   LOG MEASURED FROM
 DAPD.F                10:   FEET ABOVE PERMANENT DATUM
 DMF .                 KB:   DRILLING MEASURED FROM
 EKB .F              5130:   KELLING BUSHING
 EGL .F              5120:   GROUND LEVEL
 DATE.             6-7-80:   RUN DATE
 RUN .                  1:   RUN NUMBER
 DD  .F              2652:   DEPTH DRILLER
 DL  .F              2638:   DEPTH LOGGER
 BLI .F              2636:   BOTTOM LOG INTERVAL
 TLI .F              1224:   TOP LOG INTERVAL
 BS  .IN             6.75:   BIT SIZE
 BSD .F              2652:   BIT SIZE AT DEPTH
 DFT .        AIR DRILLED:   DRILLING FLUID TYPE
 TCS .HRS               2:   TIME CURCULATED STOPPED
 MRT .F               125:   MAXIMUM RECORDED TEMPERATURE
 ENGI.               REIN:   RECORDING ENGINEER
 WITN.           DINSMORE:   WITNESSED BY
 CLNT.            A2DTECH:   CLIENT CODE
 ORIG.           5" PRINT:   ORIGIN OF DATA
 UWI .       490251080200:   UNIQUE WELL ID
 DICO. A2D Technologies, Inc.:   DIGITIZING COMPANY
~OTHER INFORMATION
~A   DEPT     CALD         GRD      DPHI       CORR       RHOB   
# ...
 2333.0000     8.8320    95.1920     0.1387     0.0610     2.3985
 2333.5000     8.8337    94.4801     0.1380     0.0527     2.3921
 2334.0000     8.8354    94.1476     0.1371     0.0458     2.3916
 2334.5000     8.8371    94.1296     0.1367     0.0511     2.4029
 2335.0000     8.8389    94.2720     0.1332     0.0662     2.4123
 2335.5000     8.8406    94.4327     0.1323     0.0693     2.4037
 2336.0000     8.8423    93.6516     0.1270     0.1000     2.4424
 2336.5000     8.8441    92.7591     0.1270     0.0914     2.4314
 2337.0000     8.8458    92.8145     0.1296     0.0834     2.4191
 2337.5000     8.8471    93.0112     0.1321     0.0776     2.4091
 2338.0000     8.8429    92.6509     0.1347     0.0718     2.4052
 2338.5000     8.8387    92.0850     0.1386     0.0658     2.3965
 2339.0000     8.8346    91.4986     0.1416     0.0684     2.4029
 2339.5000     8.8305    91.0495     0.1393     0.0799     2.4138
 2340.0000     8.8264    90.5997     0.1413     0.0723     2.4159
 2340.5000     8.8223    90.3318     0.1439     0.0607     2.3982
 2341.0000     8.8182    90.4624     0.1437     0.0545     2.4032
 2341.5000     8.8141    90.6802     0.1465     0.0604     2.4000
 2342.0000     8.8099    90.9261     0.1442     0.0725     2.3969
 2342.5000     8.8093    91.0843     0.1397     0.0904     2.4091
 2343.0000     8.8110    91.0803     0.1319     0.1074     2.4288
 2343.5000     8.8128    91.0926     0.1315     0.0927     2.4051
 2344.0000     8.8146    91.4091     0.1506     0.0749     2.3852
 2344.5000     8.8164    91.7494     0.1458     0.0784     2.3909
 2345.0000     8.8182    91.4983     0.1453     0.0840     2.3963
 2345.5000     8.8200    90.9043     0.1519     0.0759     2.3854
 2346.0000     8.8218    90.6926     0.1652     0.0557     2.3609
 2346.5000     8.8236    90.6894     0.1668     0.0459     2.3496
 2347.0000     8.8253    90.6945     0.1646     0.0538     2.3583
 2347.5000     8.8271    90.6555     0.1614     0.0612     2.3678
 2348.0000     8.8289    89.8830     0.1577     0.0665     2.3772
 2348.5000     8.8307    89.1102     0.1547     0.0601     2.3782
 2349.0000     8.8325    88.3435     0.1562     0.0443     2.3750
 2349.5000     8.8343    87.5614     0.1582     0.0402     2.3717
 2350.0000     8.8361    87.6129     0.1540     0.0464     2.3772
 2350.5000     8.8379    87.9843     0.1480     0.0548     2.3866
 2351.0000     8.8397    88.4347     0.1447     0.0633     2.3935
 2351.5000     8.8415    89.2882     0.1478     0.0723     2.3873
 2352.0000     8.8433    89.9097     0.1523     0.0754     2.3813
 2352.5000     8.8450    89.7472     0.1546     0.0785     2.3804
 2353.0000     8.8468    89.2568     0.1545     0.0669     2.3721
 2353.5000     8.8486    89.0435     0.1514     0.0694     2.3693
 2354.0000     8.8504    89.5017     0.1578     0.0661     2.3809
 2354.5000     8.8522    90.4285     0.1502     0.0644     2.3765
 2355.0000     8.8540    91.4088     0.1455     0.0707     2.3930
 2355.5000     8.8558    92.2277     0.1491     0.0772     2.3826
 2356.0000     8.8576    92.6688     0.1515     0.0648     2.3755
 2356.5000     8.8594    93.0318     0.1486     0.0702     2.3897
 2357.0000     8.8611    93.0670     0.1427     0.0768     2.4009
 2357.5000     8.8629    93.6916     0.1408     0.0710     2.3960
 2358.0000     8.8647    94.3084     0.1396     0.0559     2.3876
 2358.5000     8.8666    94.9258     0.1377     0.0532     2.3935
 2359.0000     8.8651    95.5468     0.1330     0.0713     2.4265
 2359.5000     8.8628    95.8949     0.1303     0.0740     2.4307
 2360.0000     8.8604    95.8616     0.1354     0.0533     2.4187
 2360.5000     8.8580    95.4673     0.1383     0.0428     2.4112
 2361.0000     8.8557    95.0783     0.1347     0.0362     2.4180
 2361.5000     8.8533    94.6887     0.1383     0.0364     2.4120
 2362.0000     8.8510    94.2994     0.1334     0.0460     2.4255
 2362.5000     8.8486    93.9091     0.1265     0.0555     2.4470
 2363.0000     8.8462    93.5158     0.1223     0.0639     2.4493
 2363.5000     8.8439    93.3344     0.1255     0.0596     2.4402
 2364.0000     8.8415    93.3943     0.1262     0.0572     2.4406
 2364.5000     8.8392    93.7553     0.1230     0.0764     2.4480
 2365.0000     8.8368    93.9161     0.1199     0.0904     2.4558
 2365.5000     8.8345    93.2450     0.1290     0.0823     2.4388
 2366.0000     8.8321    92.5929     0.1373     0.0613     2.4192
 2366.5000     8.8298    91.9426     0.1387     0.0590     2.4044
 2367.0000     8.8274    91.2925     0.1330     0.0715     2.4256
 2367.5000     8.8250    90.6419     0.1317     0.0767     2.4302
 2368.0000     8.8227    89.9926     0.1358     0.0630     2.4182
 2368.5000     8.8203    89.3325     0.1255     0.0801     2.4421
 2369.0000     8.8180    89.2943     0.1257     0.0847     2.4374
 2369.5000     8.8156    89.5599     0.1307     0.0804     2.4294
 2370.0000     8.8132    89.8761     0.1366     0.0684     2.4151
 2370.5000     8.8109    90.2551     0.1425     0.0504     2.4000
 2371.0000     8.8085    90.0827     0.1499     0.0395     2.3876
 2371.5000     8.8082    89.7454     0.1447     0.0491     2.4044
 2372.0000     8.8082    89.0609     0.1354     0.0583     2.4274
 2372.5000     8.8082    88.3948     0.1307     0.0612     2.4311
 2373.0000     8.8082    88.6050     0.1339     0.0520     2.4200
 2373.5000     8.8082    88.9744     0.1332     0.0559     2.4247
 2374.0000     8.8082    90.2382     0.1294     0.0677     2.4343
 2374.5000     8.8082    91.4714     0.1267     0.0639     2.4403
 2375.0000     8.8082    92.7054     0.1277     0.0680     2.4353
 2375.5000     8.8082    93.9723     0.1302     0.0698     2.4317
 2376.0000     8.8082    94.4289     0.1350     0.0548     2.4187
 2376.5000     8.8082    94.2133     0.1427     0.0395     2.4002
 2377.0000     8.8082    93.4076     0.1503     0.0320     2.3883
 2377.5000     8.8082    92.2297     0.1456     0.0411     2.3873
 2378.0000     8.8082    90.1813     0.1439     0.0366     2.4003
 2378.5000     8.8082    88.8531     0.1518     0.0262     2.3833
 2379.0000     8.8082    87.5248     0.1467     0.0330     2.3968
 2379.5000     8.8084    86.1889     0.1438     0.0371     2.4009
 2380.0000     8.8090    84.8515     0.1427     0.0463     2.3914
 2380.5000     8.8095    83.5113     0.1327     0.0579     2.4218
 2381.0000     8.8101    82.1746     0.1381     0.0596     2.4123
 2381.5000     8.8106    80.9843     0.1432     0.0495     2.3980
 2382.0000     8.8112    80.8559     0.1475     0.0404     2.3882
 2382.5000     8.8118    81.2200     0.1471     0.0444     2.3978
 2383.0000     8.8123    81.6319     0.1407     0.0502     2.4053
 2383.5000     8.8129    82.2998     0.1430     0.0515     2.3994
 2384.0000     8.8135    82.9911     0.1456     0.0406     2.3918
 2384.5000     8.8140    83.6801     0.1381     0.0528     2.4134
 2385.0000     8.8146    84.4019     0.1275     0.0712     2.4387
 2385.5000     8.8151    85.8382     0.1256     0.0739     2.4347
 2386.0000     8.8157    87.3216     0.1299     0.0582     2.4461
 2386.5000     8.8163    88.7938     0.1385     0.0404     2.4054
 2387.0000     8.8168    90.9649     0.1457     0.0380     2.3957
 2387.5000     8.8174    93.3077     0.1409     0.0479     2.4023
 2388.0000     8.8180    95.0509     0.1406     0.0578     2.4075
 2388.5000     8.8185    96.4295     0.1436     0.0617     2.3984
 2389.0000     8.8191    95.8787     0.1409     0.0669     2.3935
 2389.5000     8.8196    94.9898     0.1348     0.0819     2.4197
 2390.0000     8.8202    94.3188     0.1287     0.0974     2.4385
 2390.5000     8.8208    93.7289     0.1307     0.0936     2.4354
 2391.0000     8.8213    93.2323     0.1307     0.0884     2.4302
 2391.5000     8.8219    92.7339     0.1321     0.0849     2.4267
 2392.0000     8.8224    92.6578     0.1355     0.0814     2.4191
 2392.5000     8.8230    92.6645     0.1390     0.0770     2.4095
 2393.0000     8.8236    92.3616     0.1381     0.0726     2.4119
 2393.5000     8.8241    92.0122     0.1391     0.0683     2.4113
