~VERSION INFORMATION
 VERS.                2.0:   CWLS LOG ASCII STANDARD - VERSION 2.0
 WRAP.                 NO:   ONE LINE PER DEPTH STEP
~WELL INFORMATION
#MNEM.UNIT      DATA TYPE    INFORMATION
#----------   ------------   ------------------------------
 STRT.F           30.0000:   START DEPTH
 STOP.F          510.0000:   STOP DEPTH
 STEP.F            0.5000:   STEP LENGTH
 NULL.          -999.2500:   NO VALUE
 COMP. FENIX & SCISSON INC:   COMPANY
 WELL.    66-SX 3FP #54-3:   WELL
 FLD .             TEAPOT:   FIELD
 LOC .       S3 T38N R78W:   LOCATION
 CNTY.            NATRONA:   COUNTY
 STAT.            WYOMING:   STATE
 CTRY. UNITED STATES OF AMERICA:   COUNTRY
 SRVC.              Welex:   SERVICE COMPANY
 DATE.        25-JUN-1980:   LOGDATE
 API .       490251081400:   API NUMBER
~CURVE INFORMATION
#MNEM.UNIT       API CODE    CURVE DESCRIPTION
#----------   ------------   ------------------------------
 DEPT.F                  :   
 SGRD.OHMM   07 220 05 00:   SHALLOW GUARD RESISTIVITY
 ILD .OHMM   07 120 46 00:   INDUCTION LOG DEEP RESISTIVITY
 ILM .OHMM   07 120 44 00:   INDUCTION LOG MEDIUM
 CALD.IN     45 280 60 00:   CALIPER
 GRD .GAPI   45 310 01 00:   GAMMA RAY FROM DENSITY LOG
 CORR.G/C3   45 356 01 00:   DENSITY CORRECTION
 NPHI.DEC    42 890 03 00:   NEUTRON POROSITY SANDSTONE
 DPHI.DEC    45 890 12 00:   DENSITY POROSITY SANDSTONE
 SPR .MV     07 010 01 00:   SPONTANEOUS POTENTIAL
 RHOB.G/C3   45 350 01 00:   BULK DENSITY
~PARAMETER INFORMATION
#MNEM.UNIT          VALUE    DESCRIPTION
#----------   ------------   ------------------------------
 PD  .                 GL:   PERMANENT DATUM
 EPD .F              5158:   ELEVATION PERMANENT DATUM
 LMF .                 KB:   LOG MEASURED FROM
 DAPD.F                 5:   FEET ABOVE PERMANENT DATUM
 DMF .                 KB:   DRILLING MEASURED FROM
 EKB .F              5163:   KELLING BUSHING
 EGL .F              5158:   GROUND LEVEL
 DATE.            6-25-80:   RUN DATE
 RUN .                  1:   RUN NUMBER
 DD  .F               516:   DEPTH DRILLER
 DL  .F               512:   DEPTH LOGGER
 BLI .F               510:   BOTTOM LOG INTERVAL
 TLI .F                30:   TOP LOG INTERVAL
 BS  .IN            9.875:   BIT SIZE
 BSD .F               516:   BIT SIZE AT DEPTH
 DFT .            KCL MUD:   DRILLING FLUID TYPE
 DFD .                9.2:   DRILLING FLUID DENSITY
 DFV .                 52:   DRILLING FLUID VISCOSITY
 DFPH.                 12:   DRILLING FLUID PH
 DFL .                  6:   DRILLING FLUID LOSS
 MSS .           FLOWLINE:   MUD SAMPLE SOURCE
 RMB .OHMM            .35:   RESISTIVITY MUD AT BHT
 BHT .F                75:   BOTTOM HOLE TEMPERATURE
 TCS .HRS               1:   TIME CURCULATED STOPPED
 MRT .F                75:   MAXIMUM RECORDED TEMPERATURE
 LUN .               1892:   LOGGING UNIT NUMBER
 LUL .             CASPER:   LOGGING UNIT LOCATION
 ENGI.            TOTHILL:   RECORDING ENGINEER
 WITN.              AMEND:   WITNESSED BY
 CLNT.            A2DTECH:   CLIENT CODE
 ORIG.           5" PRINT:   ORIGIN OF DATA
 UWI .       490251081400:   UNIQUE WELL ID
 DICO. A2D Technologies, Inc.:   DIGITIZING COMPANY
~OTHER INFORMATION
~A   DEPT       SGRD        ILD        ILM     CALD        GRD       CORR       NPHI       DPHI        SPR       RHOB   
# ...
  164.0000     8.4286     5.6624     5.9850    10.1399    94.9212     0.0630     0.2687     0.1284   -57.3947     2.4768
  164.5000     8.4006     5.6510     5.9899    10.1395    95.5002     0.0571     0.2696     0.1386   -56.8975     2.4720
  165.0000     8.3441     5.6510     5.9947    10.1391    96.4131     0.0498     0.2734     0.1325   -56.6799     2.4670
  165.5000     8.2695     5.6510     5.9996    10.1386    96.6998     0.0425     0.2748     0.1274   -56.4920     2.4664
  166.0000     8.1957     5.6510     6.0044    10.1382    94.7461     0.0532     0.2718     0.1245   -56.2876     2.4773
  166.5000     8.1225     5.6510     6.0093    10.1378    94.0261     0.0620     0.2755     0.1246   -55.9702     2.4762
  167.0000     8.0499     5.6511     6.0141    10.1374    95.1753     0.0562     0.2792     0.1270   -55.6385     2.4701
  167.5000     7.9780     5.6505     6.0191    10.1370    96.3398     0.0505     0.2819     0.1269   -55.3234     2.4659
  168.0000     7.9068     5.6518     6.0242    10.1365    97.1193     0.0591     0.2844     0.1251   -55.5970     2.4742
  168.5000     7.8159     5.5759     6.0264    10.1361    97.5037     0.0706     0.2856     0.1202   -55.9054     2.4809
  169.0000     7.7013     5.5049     5.9651    10.1357    97.4689     0.0703     0.2838     0.1226   -56.2118     2.4821
  169.5000     7.5885     5.4348     5.9228    10.1353    98.1569     0.0666     0.2822     0.1259   -56.5170     2.4739
  170.0000     7.4772     5.3656     5.8355    10.1349    98.8794     0.0546     0.2841     0.1295   -56.8197     2.4648
  170.5000     7.3685     5.2972     5.7420    10.1344    99.6089     0.0425     0.2873     0.1386   -57.1297     2.4554
  171.0000     7.2427     5.2298     5.6501    10.1340   100.3365     0.0386     0.2898     0.1316   -57.2537     2.4536
  171.5000     7.1009     5.1632     5.5595    10.1336   100.3461     0.0493     0.2923     0.1243   -56.9169     2.4675
  172.0000     6.9618     5.0974     5.5295    10.1332    98.9884     0.0598     0.2942     0.1198   -56.9455     2.4785
  172.5000     6.7170     5.0325     5.5083    10.1328    97.2588     0.0703     0.2919     0.1154   -57.6272     2.4879
  173.0000     6.4388     4.9684     5.4164    10.1323    95.5455     0.0785     0.2894     0.1154   -57.8572     2.4971
  173.5000     6.1722     4.8843     5.2523    10.1319    94.3981     0.0746     0.2870     0.1195   -57.8528     2.4944
  174.0000     5.9165     4.7509     5.1076    10.1315    94.4103     0.0575     0.2846     0.1317   -58.3203     2.4731
  174.5000     5.6715     4.6212     5.0096    10.1311    95.1419     0.0406     0.2830     0.1442   -59.0929     2.4534
  175.0000     5.5993     4.4950     4.9215    10.1307    96.5333     0.0333     0.2855     0.1470   -59.3130     2.4411
  175.5000     5.6280     4.4034     4.8781    10.1302    98.8826     0.0283     0.2879     0.1486   -59.4205     2.4335
  176.0000     5.9119     4.3850     5.0761    10.1298   101.1205     0.0347     0.2902     0.1465   -59.1951     2.4307
  176.5000     6.2101     4.3687     5.1842    10.1294   102.2141     0.0442     0.2870     0.1420   -58.9102     2.4427
  177.0000     6.4922     4.4592     5.2749    10.1290   100.4428     0.0456     0.2850     0.1390   -58.1795     2.4513
  177.5000     6.5419     4.5423     5.3685    10.1286   101.7668     0.0404     0.2846     0.1370   -57.3628     2.4571
  178.0000     6.5930     4.6269     5.4637    10.1281   102.2944     0.0351     0.2858     0.1421   -56.7380     2.4538
  178.5000     6.6438     4.7131     5.5491    10.1277   101.1389     0.0300     0.2879     0.1446   -56.4132     2.4438
  179.0000     6.6950     4.8009     5.5571    10.1273   100.0095     0.0263     0.2900     0.1474   -56.0879     2.4350
  179.5000     6.7467     4.8904     5.5651    10.1269    98.8681     0.0262     0.2922     0.1470   -55.9778     2.4396
  180.0000     6.7988     4.9687     5.5732    10.1265    97.7193     0.0339     0.2953     0.1410   -56.1903     2.4541
  180.5000     6.8540     5.0146     5.5812    10.1261    97.3397     0.0441     0.2986     0.1351   -56.3983     2.4617
  181.0000     6.7658     5.0658     5.5892    10.1257    96.9930     0.0408     0.2996     0.1302   -56.6074     2.4553
  181.5000     6.6725     5.0747     5.5998    10.1249    96.6404     0.0386     0.3005     0.1251   -56.8163     2.4652
  182.0000     6.5805     5.0838     5.5604    10.1099    96.4179     0.0518     0.3038     0.1196   -57.0261     2.4754
  182.5000     6.4865     5.0928     5.4909    10.0793    97.2601     0.0661     0.3052     0.1182   -57.2396     2.4855
  183.0000     6.3327     5.1019     5.4222    10.0487    98.1194     0.0665     0.3043     0.1230   -57.1424     2.4906
  183.5000     6.1763     5.1076     5.3549    10.0179    97.9080     0.0581     0.3033     0.1278   -56.9934     2.4743
  184.0000     6.0239     5.1076     5.2982     9.9910    97.4422     0.0545     0.3022     0.1283   -56.9606     2.4673
  184.5000     5.8752     5.0072     5.2029    10.0051    97.1125     0.0615     0.3009     0.1258   -57.3964     2.4734
  185.0000     5.7085     4.8369     5.1052    10.0089    97.1146     0.0627     0.3000     0.1285   -57.8199     2.4708
  185.5000     5.4510     4.6723     5.0098     9.9760    96.4769     0.0549     0.2990     0.1373   -58.2435     2.4582
  186.0000     5.2052     4.5134     4.9161    10.0017    95.8024     0.0474     0.2949     0.1461   -58.6379     2.4456
  186.5000     4.9704     4.3599     4.7861    10.0267    96.5743     0.0422     0.2924     0.1526   -58.6370     2.4327
  187.0000     4.7459     4.2115     4.6340    10.0518    97.3591     0.0479     0.2918     0.1534   -58.4464     2.4276
  187.5000     4.5317     4.0674     4.5742    10.0772    98.1359     0.0550     0.2906     0.1506   -58.4490     2.4252
  188.0000     4.4144     3.9124     4.5742    10.0744    98.9157     0.0625     0.2890     0.1478   -58.4440     2.4334
  188.5000     4.3687     3.8412     4.6520    10.0554    99.6946     0.0627     0.2894     0.1528   -58.3146     2.4378
  189.0000     4.9532     3.8412     4.8493    10.0360   100.2614     0.0574     0.2901     0.1538   -57.7302     2.4271
  189.5000     5.5993     3.8893     5.0111    10.0167    99.2387     0.0523     0.2908     0.1409   -57.1301     2.4278
  190.0000     5.9950     3.9374     5.1149     9.9972    98.2307     0.0609     0.2898     0.1288   -56.6816     2.4536
  190.5000     6.1035     3.9850     5.2209     9.9948    97.4896     0.0680     0.2860     0.1190   -56.7441     2.4735
  191.0000     6.2140     4.1288     5.3291    10.0013    98.0126     0.0632     0.2830     0.1191   -56.7967     2.4818
  191.5000     6.3270     4.2742     5.4395    10.0082    98.5212     0.0573     0.2893     0.1193   -56.8479     2.4882
  192.0000     6.4653     4.4393     5.5483    10.0119    99.0031     0.0489     0.2950     0.1190   -56.8381     2.4862
  192.5000     6.6229     4.6062     5.6097    10.0148    99.0138     0.0420     0.2938     0.1176   -56.7553     2.4847
  193.0000     6.7837     4.7794     5.6697    10.0178    99.3502     0.0502     0.2914     0.1170   -56.6791     2.4877
  193.5000     6.9484     4.9041     5.7141    10.0207    99.4144     0.0517     0.2890     0.1218   -56.6863     2.4869
  194.0000     7.1172     4.9629     5.7582    10.0236    99.7847     0.0335     0.2896     0.1320   -56.4702     2.4715
  194.5000     7.2900     5.0223     5.8026    10.0266   100.7652     0.0152     0.2910     0.1414   -56.4820     2.4562
  195.0000     7.4671     5.0825     5.8474    10.0354   101.7650    -0.0014     0.2910     0.1429   -56.4745     2.4411
  195.5000     7.6484     5.1434     5.8926    10.0664   102.7685    -0.0003     0.2888     0.1444   -56.7924     2.4371
  196.0000     7.8341     5.2052     5.9381    10.0966   103.7691     0.0113     0.2865     0.1413   -57.1445     2.4436
  196.5000     8.0244     5.2604     5.9839    10.1268   104.7792     0.0228     0.2842     0.1316   -57.4628     2.4554
  197.0000     8.2518     5.2982     6.0267    10.1699   105.1700     0.0343     0.2828     0.1226   -57.4666     2.4672
