~VERSION INFORMATION
 VERS.                2.0:   CWLS LOG ASCII STANDARD - VERSION 2.0
 WRAP.                 NO:   ONE LINE PER DEPTH STEP
~WELL INFORMATION
#MNEM.UNIT      DATA TYPE    INFORMATION
#----------   ------------   ------------------------------
 STRT.F           12.0000:   START DEPTH
 STOP.F          793.0000:   STOP DEPTH
 STEP.F            0.5000:   STEP LENGTH
 NULL.          -999.2500:   NO VALUE
 COMP.   FLUOR DANIEL INC:   COMPANY
 WELL.   35-1-X-10 #35-10:   WELL
 FLD .            WILDCAT:   FIELD
 LOC .      S10 T38N R78W:   LOCATION
 CNTY.            NATRONA:   COUNTY
 STAT.            WYOMING:   STATE
 CTRY. UNITED STATES OF AMERICA:   COUNTRY
 SRVC.      Western Atlas:   SERVICE COMPANY
 DATE.        20-AUG-1996:   LOGDATE
 API .       490252282200:   API NUMBER
~CURVE INFORMATION
#MNEM.UNIT       API CODE    CURVE DESCRIPTION
#----------   ------------   ------------------------------
 DEPT.F                  :   
 RFOC.OHMM   07 220 04 00:   RESISTIVITY FOCUSED LOG
 RILD.OHMM   07 120 46 00:   INDUCTION LOG DEEP RESISTIVITY
 RILM.OHMM   07 120 44 00:   INDUCTION LOG MEDIUM RESISTIVITY
 SPR .MV     07 010 01 00:   SPONTANEOUS POTENTIAL
 CALD.IN     45 280 60 00:   CALIPER FROM DENSITY LOG
 GRD .GAPI   45 310 01 00:   GAMMA RAY FROM DENSITY LOG
 ZCOR.G/C3   45 356 01 00:   DENSITY CORRECTION
 ZDEN.G/C3   45 350 01 00:   BULK DENSITY
 PORZ.DEC    45 890 12 00:   DENSITY POROSITY SANDSTONE
 CNC .DEC    42 890 03 00:   NEUTRON POROSITY SANDSTONE
~PARAMETER INFORMATION
#MNEM.UNIT          VALUE    DESCRIPTION
#----------   ------------   ------------------------------
 PD  .                 GL:   PERMANENT DATUM
 EPD .F              5228:   ELEVATION PERMANENT DATUM
 LMF .                 KB:   LOG MEASURED FROM
 DAPD.F                10:   FEET ABOVE PERMANENT DATUM
 DMF .                 KB:   DRILLING MEASURED FROM
 EKB .F              5238:   KELLING BUSHING
 EGL .F              5228:   GROUND LEVEL
 DATE.        20-AUG-1996:   RUN DATE
 RUN .                  1:   RUN NUMBER
 DD  .F               794:   DEPTH DRILLER
 DL  .F               794:   DEPTH LOGGER
 BLI .F               793:   BOTTOM LOG INTERVAL
 TLI .F                12:   TOP LOG INTERVAL
 CS  .IN           13.375:   CASING SIZE
 CBD .F                58:   CASING BOTTOM DRILLER
 CBL .F                59:   CASING BOTTOM LOGGER
 BS  .IN            12.25:   BIT SIZE
 BSD .F               794:   BIT SIZE AT DEPTH
 DFT .           SPUD MUD:   DRILLING FLUID TYPE
 DFD .                9.2:   DRILLING FLUID DENSITY
 DFV .                 50:   DRILLING FLUID VISCOSITY
 DFPH.                  9:   DRILLING FLUID PH
 DFL .               13.8:   DRILLING FLUID LOSS
 MSS .              CIRC.:   MUD SAMPLE SOURCE
 RMS .OHMM           1.14:   RESISTIVITY MUD SAMPLE
 MST .F                77:   MUD SAMPLE TEMPERATURE
 RMF .OHMM           0.90:   RESISTIVITY MUD FILTRATE SAMPLE
 MFST.F                77:   MUD FILTRATE SAMPLE TEMPERATURE
 RMC .OHMM            1.4:   RESISTIVITY MUD CAKE
 MCST.F                77:   MUD CAKE SAMPLE TEMPERATURE
 MFSS.               CALC:   MUD FILTRATE SAMPLE SOURCE
 MCSS.               CALC:   MUD CAKE SAMPLE SOURCE
 RMB .OHMM            .84:   RESISTIVITY MUD AT BHT
 BHT .F               104:   BOTTOM HOLE TEMPERATURE
 TCS .HRS               3:   TIME CURCULATED STOPPED
 MRT .F               104:   MAXIMUM RECORDED TEMPERATURE
 LUN .            HL-6530:   LOGGING UNIT NUMBER
 LUL .             CASPER:   LOGGING UNIT LOCATION
 ENGI.           BROWNLOW:   RECORDING ENGINEER
 WITN.      SCHULTE/HARDY:   WITNESSED BY
 CLNT.            A2DTECH:   CLIENT CODE
 ORIG.           5" PRINT:   ORIGIN OF DATA
 UWI .       490252282200:   UNIQUE WELL ID
 DICO. A2D Technologies, Inc.:   DIGITIZING COMPANY
~OTHER INFORMATION
~A   DEPT     RFOC       RILD       RILM        SPR       CALD        GRD       ZCOR       ZDEN       PORZ        CNC   
# ...
  715.5000     9.1409    10.3384    10.3983   -28.6401    12.3263    83.1754     0.0530     2.5256     0.0777     0.3212
  716.0000     9.3306    10.4830    10.5428   -28.6415    12.3263    81.9698     0.0515     2.5241     0.0828     0.3158
  716.5000     9.5345    10.6334    10.6894   -28.6430    12.3414    79.8136     0.0545     2.5166     0.0882     0.3152
  717.0000     9.6545    10.7784    10.8474   -28.6445    12.3263    78.6530     0.0621     2.5080     0.0937     0.3134
  717.5000     9.6505    10.9292    11.0649   -28.6462    12.3112    79.2601     0.0810     2.4970     0.0952     0.3064
  718.0000     9.6473    11.1593    11.2187   -28.6477    12.3263    80.4714     0.0984     2.4925     0.0930     0.2959
  718.5000     9.6441    11.3943    11.2179   -28.6491    12.3263    80.1722     0.0758     2.4978     0.0939     0.2910
  719.0000     9.6502    11.6342    11.2172   -28.4992    12.3263    79.5708     0.0607     2.4986     0.0963     0.2922
  719.5000     9.7727    11.7969    11.2164   -28.5007    12.3414    78.9694     0.0623     2.4918     0.0978     0.2983
  720.0000     9.9063    11.7969    11.2155   -28.3509    12.3414    77.4624     0.0728     2.4903     0.0933     0.3094
  720.5000     9.9722    11.7969    11.2148   -28.2011    12.3263    75.3505     0.0683     2.4987     0.0882     0.3073
  721.0000     9.7622    11.7153    11.2140   -28.2029    12.3263    74.7491     0.0622     2.5055     0.0857     0.3073
  721.5000     9.5573    11.6342    11.2133   -28.0530    12.3263    75.3569     0.0607     2.5052     0.0920     0.3154
  722.0000     9.3561    11.4737    11.1330   -28.0545    12.3263    75.6619     0.0834     2.4934     0.0993     0.3227
  722.5000     9.2882    11.2371    10.9049   -28.0560    12.3112    75.9669     0.0971     2.4859     0.1017     0.3284
  723.0000     9.2851    11.0053    10.6796   -27.9061    12.3112    76.9044     0.1016     2.4822     0.1014     0.3284
  723.5000     9.3468    10.7038    10.4590   -27.9079    12.3112    78.9944     0.1046     2.4837     0.1002     0.3257
  724.0000     9.4090    10.4105    10.2430   -27.7581    12.3112    79.6015     0.1031     2.4905     0.0956     0.3148
  724.5000     9.4715    10.1958    10.1012   -27.7595    12.3263    79.6044     0.0941     2.4973     0.0920     0.3045
  725.0000     9.4676     9.9855     9.9612   -27.6097    12.3263    79.6072     0.0820     2.5064     0.0881     0.3094
  725.5000     9.4644     9.9164     9.8917   -27.4598    12.3263    80.2151     0.0699     2.5155     0.0820     0.3202
  726.0000     9.3957     9.9164     9.8227   -27.4617    12.3263    81.4264     0.0533     2.5248     0.0758     0.3284
  726.5000     9.3274     9.9164     9.7542   -27.3115    12.3263    83.2419     0.0412     2.5359     0.0648     0.3347
  727.0000     9.1948     9.8478     9.7535   -27.3133    12.3263    84.7554     0.0518     2.5473     0.0612     0.3416
  727.5000     9.0647     9.8421     9.6855   -27.1634    12.3263    86.0070     0.0639     2.5496     0.0651     0.3395
  728.0000     8.9365     9.5779     9.6177   -27.1649    12.3263    85.3660     0.0761     2.5269     0.0835     0.3389
  728.5000     8.8101     9.3804     9.5506   -27.1667    12.3292    84.7639     0.0899     2.5013     0.0992     0.3419
  729.0000     8.6855     9.1870     9.3534   -27.0165    12.3294    84.7035     0.1033     2.4862     0.1031     0.3443
  729.5000     8.5620     9.0602     9.2239   -27.0183    12.3447    85.6656     0.1154     2.4809     0.1043     0.3422
  730.0000     8.4409     8.9352     9.0292   -26.8681    12.3450    87.4445     0.1230     2.4802     0.0998     0.3319
  730.5000     8.3215     8.8120     8.8466   -26.8699    12.3451    88.6618     0.1169     2.4874     0.0905     0.3268
  731.0000     8.2611     8.7510     8.7242   -26.8714    12.3302    89.5767     0.1049     2.5075     0.0771     0.3316
  731.5000     8.1442     8.6302     8.5440   -26.7215    12.3304    90.5245     0.0958     2.5309     0.0641     0.3494
  732.0000     8.0844     8.4523     8.4257   -26.7233    12.3306    91.1055     0.0898     2.5483     0.0578     0.3631
  732.5000     8.0818     8.3357     8.1946   -26.7248    12.3308    89.9023     0.0898     2.5536     0.0581     0.3696
  733.0000     8.0231     8.2207     8.0811   -26.7262    12.3158    87.1863     0.0852     2.5536     0.0587     0.3669
  733.5000     8.0204     8.1638     8.0247   -26.7277    12.3311    86.8908     0.0762     2.5529     0.0590     0.3579
  734.0000     7.9621     8.1072     8.0242   -26.7295    12.3162    87.8889     0.0702     2.5506     0.0611     0.3582
  734.5000     7.9589     8.0511     8.0236   -26.7309    12.3164    88.7749     0.0611     2.5439     0.0692     0.3633
  735.0000     7.9562     8.0511     8.0231   -26.7324    12.3166    89.9402     0.0551     2.5316     0.0769     0.3699
  735.5000     7.9536     8.0511     8.0226   -26.7338    12.3168    90.5525     0.0521     2.5182     0.0831     0.3726
  736.0000     7.8958     8.0511     8.0219   -26.8865    12.3170    89.9243     0.0597     2.5099     0.0837     0.3723
  736.5000     7.8932     8.0511     8.0214   -27.0393    12.3172    88.4487     0.0657     2.5137     0.0824     0.3708
  737.0000     7.8353     8.0511     8.0209   -27.0411    12.3173    89.0627     0.0657     2.5168     0.0806     0.3681
  737.5000     7.8327     8.0511     8.0203   -27.0425    12.3175    89.6750     0.0625     2.5198     0.0788     0.3605
  738.0000     7.7219     8.0511     8.0198   -27.0440    12.3177    90.6304     0.0507     2.5221     0.0779     0.3550
  738.5000     7.6127     7.9954     7.9637   -27.0454    12.3179    91.8090     0.0416     2.5237     0.0770     0.3521
  739.0000     7.5574     7.8851     7.8535   -27.0469    12.3181    92.4212     0.0356     2.5252     0.0764     0.3536
  739.5000     7.5543     7.8305     7.7987   -27.0487    12.3183    91.2180     0.0311     2.5260     0.0758     0.3581
  740.0000     7.5518     7.8305     7.7982   -26.8989    12.3185    85.7806     0.0296     2.5260     0.0770     0.3627
  740.5000     7.5492     7.8305     7.7976   -26.9003    12.3186    86.3929     0.0296     2.5230     0.0788     0.3647
  741.0000     7.6001     7.8305     7.8513   -26.9018    12.3189    89.1231     0.0296     2.5177     0.0806     0.3608
  741.5000     7.7033     7.8851     7.8508   -26.7519    12.3191    91.8534     0.0326     2.5147     0.0818     0.3566
  742.0000     7.8087     7.8851     7.9050   -26.7534    12.3192    92.4674     0.0357     2.5124     0.0827     0.3526
  742.5000     7.9700     7.9401     8.0148   -26.7552    12.3194    91.2642     0.0372     2.5133     0.0829     0.3487
  743.0000     8.1354     8.0511     8.1265   -26.7566    12.3196    88.8507     0.0372     2.5155     0.0823     0.3451
  743.5000     8.3042     8.1638     8.2963   -26.7581    12.3198    89.1604     0.0357     2.5201     0.0805     0.3417
  744.0000     8.4766     8.2780     8.3536   -26.7595    12.3200    90.0770     0.0342     2.5254     0.0781     0.3332
  744.5000     8.6517     8.3938     8.4112   -26.7641    12.3202    89.7815     0.0312     2.5330     0.0733     0.3260
  745.0000     8.7100     8.3938     8.3524   -26.9141    12.3204    87.9732     0.0358     2.5368     0.0702     0.3248
  745.5000     8.8900     8.3357     8.2368   -27.0668    12.3205    85.2547     0.0358     2.5353     0.0687     0.3239
  746.0000     8.9498     8.2780     8.2362   -27.2195    12.3207    83.1481     0.0388     2.5338     0.0708     0.3227
  746.5000     9.0086     8.3357     8.3507   -27.2210    12.3209    83.4577     0.0403     2.5331     0.0717     0.3182
  747.0000     9.0054     8.5112     8.5256   -27.3737    12.3211    83.4648     0.0358     2.5323     0.0717     0.3082
  747.5000     9.0018     8.7611     8.7043   -27.3903    12.3364    83.1569     0.0313     2.5346     0.0711     0.3055
  748.0000     8.9988     9.1870     8.8867   -27.5282    12.3366    82.5713     0.0328     2.5384     0.0696     0.3058
  748.5000     8.9335     9.3804     9.0790   -27.5297    12.3368    82.5802     0.0374     2.5415     0.0671     0.3079
