~VERSION INFORMATION
 VERS.                2.0:   CWLS LOG ASCII STANDARD - VERSION 2.0
 WRAP.                 NO:   ONE LINE PER DEPTH STEP
~WELL INFORMATION
#MNEM.UNIT      DATA TYPE    INFORMATION
#----------   ------------   ------------------------------
 STRT.F            6.0000:   START DEPTH
 STOP.F          528.0000:   STOP DEPTH
 STEP.F            0.5000:   STEP LENGTH
 NULL.          -999.2500:   NO VALUE
 COMP.       F D SERV INC:   COMPANY
 WELL.  82-3 SX-10 #82-10:   WELL
 FLD .             TEAPOT:   FIELD
 LOC .      S10 T38N R78W:   LOCATION
 CNTY.            NATRONA:   COUNTY
 STAT.            WYOMING:   STATE
 CTRY. UNITED STATES OF AMERICA:   COUNTRY
 SRVC.     Atlas Wireline:   SERVICE COMPANY
 DATE.        08-DEC-1992:   LOGDATE
 API .       490252257800:   API NUMBER
~CURVE INFORMATION
#MNEM.UNIT       API CODE    CURVE DESCRIPTION
#----------   ------------   ------------------------------
 DEPT.F                  :   
 GRR .GAPI   07 310 01 00:   GAMMA RAY
 RILD.OHMM   07 120 46 00:   INDUCTION LOG DEEP RESISTIVITY
 RILM.OHMM   07 120 44 00:   INDUCTION LOG MEDIUM RESISTIVITY
~PARAMETER INFORMATION
#MNEM.UNIT          VALUE    DESCRIPTION
#----------   ------------   ------------------------------
 PD  .                 GL:   PERMANENT DATUM
 EPD .F              5168:   ELEVATION PERMANENT DATUM
 LMF .                 KB:   LOG MEASURED FROM
 DAPD.F                10:   FEET ABOVE PERMANENT DATUM
 DMF .                 KB:   DRILLING MEASURED FROM
 EKB .F              5178:   KELLING BUSHING
 EDF .F              5177:   DRILLING FLOOR
 EGL .F              5168:   GROUND LEVEL
 DATE.        08-DEC-1992:   RUN DATE
 RUN .                  1:   RUN NUMBER
 DD  .F               530:   DEPTH DRILLER
 DL  .F               530:   DEPTH LOGGER
 BLI .F               522:   BOTTOM LOG INTERVAL
 CS  .IN            8.625:   CASING SIZE
 CBD .F                97:   CASING BOTTOM DRILLER
 CBL .F                98:   CASING BOTTOM LOGGER
 BS  .IN            7.875:   BIT SIZE
 BSD .F               530:   BIT SIZE AT DEPTH
 DFT .           AIR FOAM:   DRILLING FLUID TYPE
 MRT .F                71:   MAXIMUM RECORDED TEMPERATURE
 LUN .            HL 6321:   LOGGING UNIT NUMBER
 LUL .        RK. SPRINGS:   LOGGING UNIT LOCATION
 ENGI.        J. THOMPSON:   RECORDING ENGINEER
 WITN.          G. STRONG:   WITNESSED BY
 CLNT.            A2DTECH:   CLIENT CODE
 ORIG.           5" PRINT:   ORIGIN OF DATA
 UWI .       490252257800:   UNIQUE WELL ID
 DICO. A2D Technologies, Inc.:   DIGITIZING COMPANY
~OTHER INFORMATION
~A    DEPT     GRR       RILD       RILM   
# ...
  370.0000   154.9775    13.4142    13.5305
  370.5000   156.4884    13.2346    13.2585
  371.0000   156.7949    13.1470    13.0818
  371.5000   152.5900    13.0626    12.9087
  372.0000   148.3852    12.9774    12.8237
  372.5000   146.5864    12.8928    12.6541
  373.0000   152.0070    12.7214    12.5720
  373.5000   156.8248    12.6384    12.4057
  374.0000   159.8380    12.4693    12.3240
  374.5000   160.4452    12.3023    12.2440
  375.0000   162.8583    12.2221    12.0820
  375.5000   166.4731    12.0597    11.9210
  376.0000   167.0788    11.9810    11.9269
  376.5000   161.6724    11.9869    11.8495
  377.0000   159.5728    12.0751    11.9363
  377.5000   163.1890    12.2486    12.0265
  378.0000   165.2999    12.2592    12.1969
  378.5000   163.5011    12.3447    12.2863
  379.0000   159.8978    12.4355    12.4620
  379.5000   162.0102    12.5270    12.6402
  380.0000   165.9257    12.6191    12.7329
  380.5000   167.1344    12.8017    12.7391
  381.0000   164.1326    12.8067    12.7441
  381.5000   159.8856    12.7220    12.5743
  382.0000   155.1228    12.5529    12.4926
  382.5000   153.6247    12.4710    12.3179
  383.0000   151.5252    12.2202    12.0783
  383.5000   151.5309    11.8906    11.8354
  384.0000   157.5530    11.6501    11.5187
  384.5000   161.7693    11.3360    11.3651
  385.0000   164.4817    11.1080    11.1366
  385.5000   164.5303    11.0345    10.9882
  386.0000   158.0328    10.9625    10.8418
  386.5000   150.9664    10.8921    10.7714
  387.0000   150.3692    10.8975    10.7025
  387.5000   160.0004    10.8254    10.7078
  388.0000   167.8256    10.9061    10.7120
  388.5000   168.4328    11.2173    10.8653
  389.0000   164.8309    11.5385    11.1739
  389.5000   160.0246    12.0335    11.6511
  390.0000   155.8197    12.5497    12.8399
  390.5000   147.0798    14.0281    15.5844
  391.0000   135.3814    17.3281    20.2677
  391.5000   128.7706    19.4513    23.9298
  392.0000   120.3552    22.8242    27.8977
  392.5000   121.2632    25.3366    32.0082
  393.0000   129.9921    28.7708    33.3751
  393.5000   133.6068    31.6605    33.1553
  394.0000   135.1163    31.4540    32.0460
  394.5000   139.0318    31.0330    30.5336
  395.0000   142.6767    30.1957    29.1192
  395.5000   143.8566    27.9915    27.9458
  396.0000   142.9601    27.2337    28.1533
  396.5000   138.4545    27.0561    28.7539
  397.0000   135.4527    26.6963    29.1842
  397.5000   136.0613    26.3391    28.9787
  398.0000   136.3663    25.9865    28.7878
  398.5000   136.0712    25.2879    28.0175
  399.0000   137.8829    25.1227    26.8911
  399.5000   140.6946    24.7867    25.7879
  400.0000   145.4145    24.6251    25.1169
  400.5000   148.1270    23.1472    24.4660
  401.0000   150.5387    22.8351    23.7713
  401.5000   151.4466    22.6863    23.4611
  402.0000   151.1516    22.5385    23.4688
  402.5000   151.1587    22.7066    23.8014
  403.0000   150.8622    22.8995    23.6436
  403.5000   150.5684    23.0443    23.9790
  404.0000   149.3713    23.0535    24.1530
  404.5000   145.4686    23.0626    24.4953
  405.0000   139.9701    23.0718    24.6715
  405.5000   132.5811    23.0812    24.5065
  406.0000   132.2607    23.0924    24.0121
  406.5000   138.8380    23.1016    23.8531
  407.0000   147.3459    23.1107    23.8610
  407.5000   147.9539    23.1199    24.0326
  408.0000   144.6564    22.9692    24.0389
  408.5000   142.8605    22.8218    23.7139
  409.0000   142.5684    22.5164    23.0771
  409.5000   144.3837    22.3674    22.2999
  410.0000   147.7005    22.2235    21.6982
  410.5000   151.0174    21.7748    21.2590
  411.0000   151.6254    21.1896    20.9730
  411.5000   150.7338    20.7615    20.5498
  412.0000   151.0436    20.4816    20.1338
  412.5000   151.6556    20.0698    19.7263
  413.0000   151.6642    19.7976    19.4596
  413.5000   152.8758    19.4012    19.1990
  414.0000   156.4935    19.0092    18.8117
  414.5000   156.4541    18.6270    18.6859
  415.0000   149.2948    18.5038    18.3089
  415.5000   145.0929    18.1317    18.1865
  416.0000   146.9061    17.8891    17.9429
  416.5000   155.3357    17.7725    17.5610
  417.0000   161.0626    17.4152    16.9888
  417.5000   157.7611    17.1804    16.7592
  418.0000   150.2509    17.0701    16.6493
  418.5000   151.7633    16.9589    16.5391
  419.0000   154.7795    17.0854    16.6744
  419.5000   154.8199    17.0922    16.8953
  420.0000   150.5862    17.0989    16.8997
  420.5000   154.8075    17.1057    16.9042
  421.0000   159.0266    17.2462    17.0258
  421.5000   161.4391    17.4810    17.2672
  422.0000   154.8333    17.4879    17.3924
  422.5000   148.3859    17.6166    17.5175
  423.0000   146.1288    17.7463    17.7658
  423.5000   147.0418    17.7642    17.8936
  424.0000   147.6519    18.1356    18.0224
  424.5000   148.5628    18.2690    18.2789
  425.0000   149.4737    18.7904    18.7957
  425.5000   148.8829    19.3266    19.1941
  426.0000   146.7863    20.0241    19.6010
  426.5000   143.1859    20.7331    20.1553
  427.0000   140.4856    21.0311    20.5837
  427.5000   147.7144    21.3333    20.7318
  428.0000   151.4046    21.1922    20.8809
  428.5000   154.0496    20.9078    20.5998
  429.0000   154.9605    20.4881    20.1729
  429.5000   156.7736    19.7997    19.3704
  430.0000   159.4890    18.7385    18.5892
  430.5000   162.2205    18.3482    17.8396
  431.0000   164.3204    16.9004    17.1202
  431.5000   164.6298    16.3309    16.4234
  432.0000   159.8264    15.8920    15.6597
  432.5000   152.6170    15.4633    15.1323
  433.0000   151.7193    15.0462    14.6227
  433.5000   151.1326    14.6403    14.2281
  434.0000   151.7427    14.1328    13.8405
  434.5000   156.2626    13.6715    13.3789
  435.0000   159.8803    13.3953    13.1980
  435.5000   162.5957    13.2161    13.0213
  436.0000   161.6382    13.0391    12.9342
  436.5000   156.9008    12.7758    12.6733
  437.0000   155.7042    12.6048    12.5036
  437.5000   158.7225    12.4361    12.3345
  438.0000   159.0757    12.2708    12.2529
  438.5000   159.0405    12.1066    12.0057
  439.0000   159.6528    12.0212    11.8441
  439.5000   160.8644    11.7859    11.6848
  440.0000   164.7828    11.7091    11.6074
  440.5000   169.9042    11.7137    11.5306
  441.0000   173.5219    11.5570    11.3762
  441.5000   169.6812    11.4816    11.3009
  442.0000   162.4134    11.4068    11.2261
  442.5000   160.9161    11.3325    11.1518
  443.0000   163.0322    11.1808    11.0780
  443.5000   161.5370    11.1079    11.0817
  444.0000   162.4762    11.0366    11.0083
  444.5000   165.7670    11.1190    10.9362
  445.0000   167.2794    11.1234    10.9390
  445.5000   166.6864    11.1278    10.9419
  446.0000   165.7925    11.1322    10.9448
  446.5000   165.8015    11.1366    10.9477
  447.0000   166.1130    11.1422    10.9391
  447.5000   167.3246    11.1466    10.9542
  448.0000   169.1377    11.0728    10.8817
  448.5000   172.1539    11.0007    10.8096
  449.0000   175.1700    10.9300    10.8125
  449.5000   176.6827    10.9346    10.8053
  450.0000   174.8886    10.8642    10.7221
  450.5000   165.5740    10.7569    10.5293
  451.0000   155.0563    10.5751    10.5362
  451.5000   156.5686    10.3677    10.4678
  452.0000   160.8845    10.3022    10.4012
  452.5000   168.0166    10.1663    10.1936
  453.0000   173.1380    10.1033     9.9910
  453.5000   176.4549    10.1096     9.9275
  454.0000   177.0650    10.0457     9.9340
  454.5000   172.2457     9.9822     9.8695
  455.0000   169.2627     9.9896     9.7406
  455.5000   170.1758     9.9250     9.6133
  456.0000   171.3874     9.8619     9.5509
  456.5000   172.8998     9.5995     9.4249
  457.0000   174.1114     9.4075     9.1742
  457.5000   175.0626     9.1569     8.9290
  458.0000   172.3263     9.0361     8.7505
  458.5000   161.5084     8.9163     8.5768
  459.0000   163.3215     8.6794     8.4043
  459.5000   168.7436     8.3886     8.1807
  460.0000   173.5642     7.9406     7.8422
  460.5000   178.1763     7.3108     6.9878
