~VERSION INFORMATION
 VERS.                2.0:   CWLS LOG ASCII STANDARD - VERSION 2.0
 WRAP.                 NO:   ONE LINE PER DEPTH STEP
~WELL INFORMATION
#MNEM.UNIT      DATA TYPE    INFORMATION
#----------   ------------   ------------------------------
 STRT.F           11.0000:   START DEPTH
 STOP.F          804.0000:   STOP DEPTH
 STEP.F            0.1000:   STEP LENGTH
 NULL.          -999.2500:   NO VALUE
 COMP. BROWN JOHN E&C INC:   COMPANY
 WELL. 72-1 STX-34 #72-34:   WELL
 FLD .             TEAPOT:   FIELD
 LOC .      S34 T39N R78W:   LOCATION
 CNTY.            NATRONA:   COUNTY
 STAT.            WYOMING:   STATE
 CTRY. UNITED STATES OF AMERICA:   COUNTRY
 SRVC.     Atlas Wireline:   SERVICE COMPANY
 DATE.        31-JAN-1992:   LOGDATE
 API .       490252250200:   API NUMBER
~CURVE INFORMATION
#MNEM.UNIT       API CODE    CURVE DESCRIPTION
#----------   ------------   ------------------------------
 DEPT.F                  :   
 GRR .GAPI   07 310 01 00:   GAMMA RAY
 RILD.OHMM   07 120 46 00:   INDUCTION LOG DEEP RESISTIVITY
 RILM.OHMM   07 120 44 00:   INDUCTION LOG MEDIUM RESISTIVITY
~PARAMETER INFORMATION
#MNEM.UNIT          VALUE    DESCRIPTION
#----------   ------------   ------------------------------
 PD  .                 GL:   PERMANENT DATUM
 EPD .F              5069:   ELEVATION PERMANENT DATUM
 LMF .                 KB:   LOG MEASURED FROM
 DAPD.F                10:   FEET ABOVE PERMANENT DATUM
 DMF .                 KB:   DRILLING MEASURED FROM
 EKB .F              5079:   KELLING BUSHING
 EDF .F              5078:   DRILLING FLOOR
 EGL .F              5069:   GROUND LEVEL
 DATE.        31-JAN-1992:   RUN DATE
 RUN .                  1:   RUN NUMBER
 DD  .F               814:   DEPTH DRILLER
 DL  .F               813:   DEPTH LOGGER
 BLI .F               804:   BOTTOM LOG INTERVAL
 CS  .IN            9.625:   CASING SIZE
 CBD .F               100:   CASING BOTTOM DRILLER
 CBL .F               104:   CASING BOTTOM LOGGER
 BS  .IN             8.75:   BIT SIZE
 BSD .F               814:   BIT SIZE AT DEPTH
 DFT .                AIR:   DRILLING FLUID TYPE
 MRT .F                90:   MAXIMUM RECORDED TEMPERATURE
 LUN .           HL- 6274:   LOGGING UNIT NUMBER
 LUL .             CASPER:   LOGGING UNIT LOCATION
 ENGI.             RAUTIO:   RECORDING ENGINEER
 WITN.        GARY STRONG:   WITNESSED BY
 CLNT.            A2DTECH:   CLIENT CODE
 ORIG.           5" PRINT:   ORIGIN OF DATA
 UWI .       490252250200:   UNIQUE WELL ID
 DICO. A2D Technologies, Inc.:   DIGITIZING COMPANY
~OTHER INFORMATION
~A   DEPT       GRR      RILD       RILM   
# ...
  429.6000   131.5898     7.9855     7.8761
  429.7000   131.7985     7.9402     7.8312
  429.8000   131.7991     7.9401     7.8308
  429.9000   132.5060     7.9042     7.8304
  430.0000   133.0710     7.8846     7.8046
  430.1000   133.6967     7.8687     7.7596
  430.2000   134.5914     7.8294     7.7149
  430.3000   135.8152     7.8293     7.6664
  430.4000   136.9465     7.7483     7.6660
  430.5000   137.3766     7.6900     7.6656
  430.6000   137.7136     7.6664     7.6448
  430.7000   138.0699     7.6663     7.6114
  430.8000   138.5682     7.6651     7.6099
  430.9000   139.0675     7.6127     7.5576
  431.0000   140.0605     7.6126     7.5225
  431.1000   141.0557     7.5870     7.4792
  431.2000   142.0513     7.5435     7.4517
  431.3000   142.8738     7.5003     7.4451
  431.4000   143.3717     7.4541     7.3990
  431.5000   143.9123     7.4540     7.3211
  431.6000   144.3679     7.4539     7.2665
  431.7000   144.8660     7.4333     7.2446
  431.8000   145.1244     7.4018     7.2334
  431.9000   145.1909     7.4016     7.1917
  432.0000   145.4281     7.4015     7.1429
  432.1000   145.4288     7.3667     7.1092
  432.2000   145.4294     7.3246     7.0925
  432.3000   145.2769     7.2826     7.0768
  432.4000   144.8304     7.2475     7.0424
  432.5000   144.1304     7.2473     7.0420
  432.6000   143.6164     7.2472     7.0416
  432.7000   142.6555     7.2471     7.0412
  432.8000   141.8479     7.2265     7.0408
  432.9000   140.9702     7.1965     7.0404
  433.0000   139.9761     7.1964     7.0401
  433.1000   138.9813     7.1962     7.0396
  433.2000   137.8712     7.1961     7.0393
  433.3000   136.7733     7.1960     7.0388
  433.4000   135.8620     7.1960     7.0384
  433.5000   135.0047     7.1959     7.0380
  433.6000   134.0107     7.1957     7.0377
  433.7000   133.0161     7.1956     7.0373
  433.8000   131.8234     7.1955     7.0369
  433.9000   131.2263     7.1955     7.0365
  434.0000   130.3359     7.1954     7.0361
  434.1000   129.5245     7.1952     7.0387
  434.2000   129.1025     7.1951     7.0845
  434.3000   129.1032     7.1950     7.0842
  434.4000   129.3362     7.2211     7.1095
  434.5000   129.4070     7.2453     7.1498
  434.6000   129.7816     7.2452     7.1826
  434.7000   130.4576     7.2451     7.1821
  434.8000   130.9723     7.2450     7.1817
  434.9000   131.8300     7.2449     7.2122
  435.0000   132.4658     7.2449     7.2312
  435.1000   133.0549     7.2576     7.2308
  435.2000   133.6571     7.2955     7.2305
  435.3000   134.3534     7.2953     7.2300
  435.4000   134.8587     7.3316     7.2656
  435.5000   135.3495     7.3463     7.2798
  435.6000   135.4650     7.3642     7.2972
  435.7000   135.4656     7.3977     7.3300
  435.8000   135.3826     7.3976     7.3296
  435.9000   135.1346     7.3975     7.3706
  436.0000   134.8624     7.4300     7.3801
  436.1000   134.4140     7.4492     7.3797
  436.2000   133.9170     7.4630     7.3930
  436.3000   133.4201     7.5058     7.4305
  436.4000   132.9864     7.5538     7.4300
  436.5000   132.7294     7.5537     7.4296
  436.6000   132.1429     7.5823     7.4292
  436.7000   132.1434     7.6065     7.4288
  436.8000   131.9939     7.6064     7.4378
  436.9000   131.8421     7.6063     7.4800
  437.0000   131.8850     7.6062     7.5225
  437.1000   132.1459     7.6402     7.5653
  437.2000   132.3837     7.6594     7.5839
  437.3000   132.6330     7.6592     7.5835
  437.4000   132.8823     7.6591     7.5882
  437.5000   133.2073     7.6590     7.6356
  437.6000   133.7056     7.6589     7.6352
  437.7000   134.2675     7.6588     7.6348
  437.8000   134.4847     7.6789     7.6544
  437.9000   135.0594     7.7124     7.6978
  438.0000   135.4796     7.7122     7.7408
  438.1000   135.6451     7.7121     7.7404
  438.2000   136.3898     7.7120     7.7753
  438.3000   136.6390     7.7119     7.7937
  438.4000   136.8883     7.7275     7.8091
  438.5000   137.2798     7.7658     7.8475
  438.6000   137.6012     7.7657     7.8469
  438.7000   137.6018     7.8064     7.8465
  438.8000   137.6025     7.8200     7.8461
  438.9000   137.6030     7.8199     7.8457
  439.0000   137.6036     7.8311     7.8452
  439.1000   137.2394     7.8745     7.8448
  439.2000   136.6295     7.8744     7.8443
  439.3000   136.3533     7.8743     7.8439
  439.4000   135.4881     7.8742     7.8435
  439.5000   135.2798     7.8741     7.8430
  439.6000   134.7219     7.8740     7.8494
  439.7000   134.1785     7.8739     7.8970
  439.8000   133.8359     7.8737     7.8966
  439.9000   133.0705     7.8736     7.9283
  440.0000   132.1026     7.8736     7.9511
  440.1000   131.2968     7.8735     7.9628
  440.2000   130.6856     7.8733     8.0058
  440.3000   130.1887     7.8732     8.0053
  440.4000   129.7187     7.8731     8.0049
  440.5000   129.4433     7.8730     8.0045
  440.6000   129.4439     7.8729     8.0040
  440.7000   129.2769     7.8803     8.0036
  440.8000   129.1425     7.9279     8.0031
  440.9000   129.0832     7.9278     8.0027
  441.0000   128.8351     7.9607     7.9692
  441.1000   128.5393     7.9832     7.9234
  441.2000   128.3389     7.9831     7.8905
  441.3000   128.2378     7.9830     7.8901
  441.4000   128.2384     7.9829     7.8895
  441.5000   128.1997     7.9828     7.8513
  441.6000   127.9371     7.9826     7.8338
  441.7000   128.1718     7.9826     7.8334
  441.8000   128.2408     7.9825     7.8330
  441.9000   128.3680     7.9823     7.8325
  442.0000   128.6172     7.9385     7.8321
  442.1000   128.8665     7.9265     7.8317
  442.2000   129.1511     7.9264     7.8081
  442.3000   129.3652     7.9263     7.7764
  442.4000   129.4548     7.9262     7.7759
  442.5000   129.4553     7.9260     7.7754
  442.6000   129.4559     7.8871     7.7750
  442.7000   129.4566     7.8705     7.7746
  442.8000   129.4572     7.8705     7.7742
  442.9000   129.4578     7.8704     7.7737
  443.0000   129.4584     7.8702     7.7733
  443.1000   129.4590     7.8701     7.7729
  443.2000   129.4912     7.8700     7.7724
  443.3000   129.7628     7.8699     7.7483
  443.4000   130.2159     7.8698     7.7175
  443.5000   130.7140     7.8697     7.7171
  443.6000   131.3306     7.8696     7.7166
  443.7000   131.9479     7.8695     7.6778
  443.8000   132.2083     7.8693     7.6621
  443.9000   132.7922     7.8693     7.6617
  444.0000   132.9985     7.8692     7.6521
  444.1000   133.0959     7.8690     7.6076
  444.2000   133.0965     7.8689     7.6072
  444.3000   133.0971     7.8688     7.6068
  444.4000   133.0977     7.8440     7.6064
  444.5000   132.8592     7.8138     7.6059
  444.6000   132.7963     7.8137     7.6055
  444.7000   132.7970     7.8135     7.6050
  444.8000   132.8750     7.8134     7.6046
  444.9000   133.1008     7.8133     7.6042
  445.0000   133.1014     7.8132     7.6038
  445.1000   133.3204     7.8131     7.6034
  445.2000   133.7343     7.8130     7.6029
  445.3000   134.1216     7.8129     7.6025
  445.4000   134.4848     7.8128     7.5680
  445.5000   135.2342     7.8127     7.5488
  445.6000   136.2293     7.8126     7.5484
  445.7000   137.2251     7.8125     7.5479
  445.8000   138.2210     7.8123     7.5475
  445.9000   139.1264     7.8122     7.5471
  446.0000   139.8365     7.8121     7.5467
  446.1000   140.3698     7.8120     7.5463
  446.2000   140.3703     7.8119     7.5564
  446.3000   140.3710     7.8118     7.5983
  446.4000   140.0013     7.8117     7.5978
  446.5000   139.3948     7.8116     7.5974
  446.6000   139.1153     7.8115     7.5970
  446.7000   138.2555     7.8114     7.5966
  446.8000   138.0454     7.8113     7.5961
  446.9000   137.3269     7.8111     7.5957
  447.0000   136.4355     7.8110     7.5953
  447.1000   135.7392     7.8109     7.5949
  447.2000   135.2327     7.8108     7.6153
  447.3000   134.5016     7.8107     7.6472
  447.4000   133.5665     7.8106     7.6484
  447.5000   132.7082     7.8105     7.6998
  447.6000   132.1271     7.8104     7.6995
  447.7000   131.8790     7.8103     7.7254
