~VERSION INFORMATION
 VERS.                2.0:   CWLS LOG ASCII STANDARD - VERSION 2.0
 WRAP.                 NO:   ONE LINE PER DEPTH STEP
~WELL INFORMATION
#MNEM.UNIT      DATA TYPE    INFORMATION
#----------   ------------   ------------------------------
 STRT.F            0.0000:   START DEPTH
 STOP.F          625.0000:   STOP DEPTH
 STEP.F            0.5000:   STEP LENGTH
 NULL.          -999.2500:   NO VALUE
 COMP.       F D SERV INC:   COMPANY
 WELL.    75-3 SX-3 #72-3:   WELL
 FLD .             TEAPOT:   FIELD
 LOC .       S3 T38N R78W:   LOCATION
 CNTY.            NATRONA:   COUNTY
 STAT.            WYOMING:   STATE
 CTRY. UNITED STATES OF AMERICA:   COUNTRY
 SRVC.     Atlas Wireline:   SERVICE COMPANY
 DATE.        05-MAY-1992:   LOGDATE
 API .       490252251800:   API NUMBER
~CURVE INFORMATION
#MNEM.UNIT       API CODE    CURVE DESCRIPTION
#----------   ------------   ------------------------------
 DEPT.F                  :   
 CALD.IN     45 280 60 00:   CALIPER FROM DENSITY
 CORR.G/C3   45 356 01 00:   DENSITY CORRECTION
 DEN .G/C3   45 350 01 00:   COMPENSATED BULK DENSTIY
 GRD .GAPI   45 310 01 00:   GAMMA RAY FROM DENSITY LOG
 RILD.OHMM   07 120 46 00:   INDUCTION LOG DEEP RESISTIVITY
 RILM.OHMM   07 120 44 00:   INDUCTION LOG MEDIUM RESISTIVITY
 PORD.DEC    45 890 12 00:   POROSITY DENSITY SANDSTONE
~PARAMETER INFORMATION
#MNEM.UNIT          VALUE    DESCRIPTION
#----------   ------------   ------------------------------
 PD  .                 GL:   PERMANENT DATUM
 EPD .F              5148:   ELEVATION PERMANENT DATUM
 LMF .                 KB:   LOG MEASURED FROM
 DAPD.F                 5:   FEET ABOVE PERMANENT DATUM
 DMF .                 KB:   DRILLING MEASURED FROM
 EKB .F              5153:   KELLING BUSHING
 EDF .F              5152:   DRILLING FLOOR
 EGL .F              5148:   GROUND LEVEL
 DATE.        05-MAY-1992:   RUN DATE
 RUN .                  1:   RUN NUMBER
 DD  .F               630:   DEPTH DRILLER
 DL  .F               633:   DEPTH LOGGER
 BLI .F               625:   BOTTOM LOG INTERVAL
 CS  .IN            8.625:   CASING SIZE
 CBD .F                44:   CASING BOTTOM DRILLER
 CBL .F                49:   CASING BOTTOM LOGGER
 BS  .IN            7.875:   BIT SIZE
 BSD .F               630:   BIT SIZE AT DEPTH
 DFT .        AIR DRILLED:   DRILLING FLUID TYPE
 MRT .F                88:   MAXIMUM RECORDED TEMPERATURE
 LUN .           HL- 6274:   LOGGING UNIT NUMBER
 LUL .             CASPER:   LOGGING UNIT LOCATION
 ENGI.       P. RASHUSSEN:   RECORDING ENGINEER
 WITN.          G. STRONG:   WITNESSED BY
 CLNT.            A2DTECH:   CLIENT CODE
 ORIG.           5" PRINT:   ORIGIN OF DATA
 UWI .       490252251800:   UNIQUE WELL ID
 DICO. A2D Technologies, Inc.:   DIGITIZING COMPANY
~OTHER INFORMATION
~A    DEPT    CALD       CORR        DEN         GRD      RILD       RILM       PORD   
# ...
  455.0000     8.1559    -0.0011     2.3801   136.5414    17.7594    18.2270     0.1626
  455.5000     8.1406    -0.0011     2.3831   133.5338    17.3849    17.8458     0.1599
  456.0000     8.1403     0.0019     2.3922   135.9398    17.2579    17.4725     0.1563
  456.5000     8.1400     0.0019     2.4027   137.7444    17.1318    17.2268     0.1514
  457.0000     8.1397    -0.0012     2.4087   139.5489    16.8882    17.1035     0.1484
  457.5000     8.1394    -0.0012     2.4118   141.6740    16.6480    16.9810     0.1469
  458.0000     8.1391     0.0018     2.4057   143.8075    16.4113    16.8595     0.1478
  458.5000     8.1388    -0.0013     2.4042   144.3609    16.4055    16.8560     0.1490
  459.0000     8.1535    -0.0013     2.4059   144.3609    16.2856    16.8525     0.1494
  459.5000     8.1532    -0.0043     2.4118   144.6617    16.2799    16.8490     0.1482
  460.0000     8.1529    -0.0044     2.4118   145.8647    16.3886    16.9635     0.1466
  460.5000     8.1376    -0.0014     2.4100   147.0677    16.7286    16.9600     0.1468
  461.0000     8.1373    -0.0014     2.3997   148.5714    16.9582    17.1947     0.1502
  461.5000     8.1370    -0.0014     2.3846   150.6767    17.1924    17.3116     0.1558
  462.0000     8.1367     0.0015     2.3771   151.2782    17.1850    17.4292     0.1651
  462.5000     8.1364     0.0015     2.3816   143.4586    17.1790    17.4247     0.1648
  463.0000     8.1512     0.0075     2.3922   136.2406    17.0535    17.0602     0.1624
  463.5000     8.1659     0.0075     2.3982   131.7293    16.9289    16.9381     0.1567
  464.0000     8.1806     0.0076     2.4042   130.5263    16.8052    16.8168     0.1527
  464.5000     8.1802     0.0044     2.4027   131.1278    16.6824    16.5803     0.1512
  465.0000     8.1799     0.0014     2.4042   132.3308    16.5605    16.4616     0.1503
  465.5000     8.1796    -0.0017     2.4072   132.6316    16.2113    16.3438     0.1482
  466.0000     8.1643     0.0013     2.4118   131.4286    15.7590    16.4557     0.1455
  466.5000     8.1490     0.0013     2.4193   132.0301    15.4268    16.4514     0.1419
  467.0000     8.1337     0.0073     2.4329   133.8346    15.7481    16.5632     0.1359
  467.5000     8.1334     0.0103     2.4510   136.2406    15.9643    16.9101     0.1289
  468.0000     8.0882     0.0163     2.4721   136.5414    16.1835    17.2642     0.1144
  468.5000     8.0575     0.0223     2.4947   132.2768    16.6364    17.7492     0.0984
  469.0000     8.0426     0.0222     2.5234   129.5598    17.1020    18.3755     0.0887
  469.5000     8.0587     0.0222     2.5475   128.7218    17.8340    19.4264     0.0700
  470.0000     8.0720     0.0222     2.5656   127.8195    18.3356    19.8332     0.0552
  470.5000     8.0867     0.0161     2.5837   124.8120    18.7233    19.8291     0.0453
  471.0000     8.1313     0.0070     2.5988   123.6090    19.1191    19.5367     0.0359
  471.5000     8.1910    -0.0021     2.6048   123.3083    19.3609    19.1015     0.0347
  472.0000     8.2057    -0.0141     2.5861   127.8195    18.6880    18.2242     0.0380
  472.5000     8.2204    -0.0202     2.5560   131.1278    18.0401    17.2312     0.0577
  473.0000     8.2200    -0.0112     2.5055   133.2331    15.6816    16.2924     0.0868
  473.5000     8.2048    -0.0022     2.4495   133.5338    15.1379    15.4046     0.1105
  474.0000     8.2195     0.0099     2.4389   130.5263    14.4102    14.9775     0.1237
  474.5000     8.2192     0.0129     2.4359   130.8271    14.0082    14.5623     0.1297
  475.0000     8.2339     0.0068     2.4344   133.5338    13.7128    14.1585     0.1317
  475.5000     8.2036    -0.0023     2.4329   136.5414    13.6126    13.9595     0.1314
  476.0000     8.2033    -0.0084     2.4329   137.1429    13.6079    13.8595     0.1308
  476.5000     8.1880    -0.0054     2.4359   131.7293    13.6032    13.7603     0.1293
  477.0000     8.1877    -0.0144     2.4389   128.7218    13.5038    13.7575     0.1284
  477.5000     8.2024    -0.0175     2.4421   126.6165    13.5938    13.6590     0.1272
  478.0000     8.2321    -0.0145     2.4467   128.7218    13.5891    13.5612     0.1254
  478.5000     8.2318    -0.0055     2.4540   129.3233    13.6809    13.5584     0.1224
  479.0000     8.2165     0.0005     2.4600   129.3233    13.8674    13.4613     0.1194
  479.5000     8.1862     0.0035     2.4630   129.0226    13.5750    13.2720     0.1167
  480.0000     8.1859     0.0035     2.4676   130.2256    13.3387    13.0854     0.1140
  480.5000     8.1856     0.0004     2.4721   131.8914    13.1917    13.0827     0.1106
  481.0000     8.1853     0.0004     2.4751   135.0376    12.9136    12.9890     0.1079
  481.5000     8.1850     0.0004     2.4751   138.3459    12.8191    12.8960     0.1055
  482.0000     8.1997     0.0064     2.4706   140.4511    12.7254    12.7141     0.1073
  482.5000     8.1994     0.0063     2.4646   136.2406    12.7209    12.6231     0.1134
  483.0000     8.2141     0.0063     2.4585   132.6316    12.7156    12.6205     0.1194
  483.5000     8.2288     0.0063     2.4570   132.9323    12.6227    12.6178     0.1170
  484.0000     8.2309     0.0062     2.4646   135.9398    12.5305    12.5275     0.1140
  484.5000     8.2432     0.0092     2.4751   140.1504    12.5262    12.4378     0.1031
  485.0000     8.2729     0.0092     2.4872   141.6541    12.4346    12.3488     0.0992
  485.5000     8.2725     0.0092     2.4947   142.5564    12.3438    12.2604     0.0944
  486.0000     8.2572     0.0060     2.4992   143.4586    12.2536    12.0880     0.0917
  486.5000     8.2569    -0.0064     2.4994   145.8647    12.3363    12.0855     0.0935
  487.0000     8.2566    -0.0151     2.4917   144.6617    12.3310    12.1682     0.0966
  487.5000     8.2413    -0.0151     2.4857   142.8571    12.4142    12.2509     0.1011
  488.0000     8.2410    -0.0091     2.4796   141.3534    12.4089    12.3341     0.1072
  488.5000     8.2407    -0.0001     2.4705   139.2481    12.4926    12.3309     0.1096
  489.0000     8.2404     0.0090     2.4645   139.5489    12.7518    12.4148     0.1129
  489.5000     8.2252     0.0059     2.4600   139.5550    12.8379    12.5866     0.1144
  490.0000     8.2249    -0.0002     2.4615   138.8674    13.0141    12.6721     0.1141
  490.5000     8.2246    -0.0062     2.4630   133.7664    13.1917    12.8133     0.1132
  491.0000     8.2243    -0.0123     2.4646   130.5263    13.3727    12.9022     0.1120
  491.5000     8.2090    -0.0123     2.4615   133.5338    13.2749    12.9013     0.1135
  492.0000     8.1937    -0.0063     2.4540   138.3459    12.9950    12.8107     0.1183
  492.5000     8.1785    -0.0003     2.4510   137.1429    12.7210    12.7207     0.1195
  493.0000     8.1808     0.0057     2.4630   135.3383    12.6279    12.5436     0.1147
  493.5000     8.1778     0.0087     2.4766   135.6391    12.4484    12.2829     0.1060
  494.0000     8.1775     0.0087     2.4842   138.3459    12.3573    12.1118     0.1023
  494.5000     8.1772     0.0056     2.4872   142.2556    12.1655    11.8601     0.1008
  495.0000     8.1769     0.0056     2.4902   143.7594    11.9239    11.6950     0.1002
  495.5000     8.1916     0.0055     2.4917   144.6617    11.6725    11.6128     0.0987
  496.0000     8.1913    -0.0005     2.4977   144.6617    11.4264    11.4511     0.0948
  496.5000     8.1910    -0.0005     2.5038   145.8647    11.3429    11.2917     0.0903
  497.0000     8.1907     0.0024     2.5068   147.3684    11.3390    11.1287     0.0882
  497.5000     8.2054     0.0054     2.5068   148.2707    11.3351    10.9793     0.0888
  498.0000     8.2201     0.0054     2.5053   144.9624    11.3311    10.9022     0.0894
  498.5000     8.2197     0.0054     2.5023   140.1504    11.3272    10.9013     0.0894
  499.0000     8.2344     0.0053     2.5008   139.7936    11.3233    10.9771     0.0900
  499.5000     8.2341     0.0053     2.4992   140.1927    11.3194    11.3658     0.0903
  500.0000     8.2325    -0.0010     2.4977   139.8496    11.4322    11.9339     0.0918
