~VERSION INFORMATION
 VERS.                2.0:   CWLS LOG ASCII STANDARD - VERSION 2.0
 WRAP.                 NO:   ONE LINE PER DEPTH STEP
~WELL INFORMATION
#MNEM.UNIT      DATA TYPE    INFORMATION
#----------   ------------   ------------------------------
 STRT.F           12.0000:   START DEPTH
 STOP.F          754.0000:   STOP DEPTH
 STEP.F            0.5000:   STEP LENGTH
 NULL.          -999.2500:   NO VALUE
 COMP. FENIX & SCISSON INC:   COMPANY
 WELL.    62 SX 34 #62-34:   WELL
 FLD .             TEAPOT:   FIELD
 LOC .      S34 T39N R78W:   LOCATION
 CNTY.            NATRONA:   COUNTY
 STAT.            WYOMING:   STATE
 CTRY. UNITED STATES OF AMERICA:   COUNTRY
 SRVC.            Unknown:   SERVICE COMPANY
 DATE.        20-AUG-1978:   LOGDATE
 API .       490251070200:   API NUMBER
~CURVE INFORMATION
#MNEM.UNIT       API CODE    CURVE DESCRIPTION
#----------   ------------   ------------------------------
 DEPT.F                  :   
 SPR .MV     05 010 01 00:   SPONTANEOUS POTENTIAL FROM RES.
 SN  .OHMM   05 040 16 00:   SHORT NORMAL 16"
 ILD .OHMM   05 120 46 00:   INDUCTION LOG DEEP
 GRD .GAPI   45 310 01 00:   GAMMA RAY FROM DENSITY LOG
 CALD.IN     45 280 60 00:   CALIPER
 RHOB.G/C3   45 350 01 00:   BULK DENSITY
 DPHI.DEC    45 890 12 00:   DENSITY POROSITY SANDSTONE
 CORR.G/C3   45 356 01 00:   DENSITY CORRECTION
~PARAMETER INFORMATION
#MNEM.UNIT          VALUE    DESCRIPTION
#----------   ------------   ------------------------------
 PD  .                 GL:   PERMANENT DATUM
 EPD .F              5039:   ELEVATION PERMANENT DATUM
 LMF .                 KB:   LOG MEASURED FROM
 DAPD.F                 4:   FEET ABOVE PERMANENT DATUM
 DMF .                 KB:   DRILLING MEASURED FROM
 EKB .F              5043:   KELLING BUSHING
 EGL .F              5039:   GROUND LEVEL
 DATE.            8-20-78:   RUN DATE
 RUN .                  1:   RUN NUMBER
 DD  .F               750:   DEPTH DRILLER
 DL  .F               755:   DEPTH LOGGER
 BLI .F               749:   BOTTOM LOG INTERVAL
 TLI .F                30:   TOP LOG INTERVAL
 CS  .IN            8.625:   CASING SIZE
 CBD .F                30:   CASING BOTTOM DRILLER
 CBL .F                34:   CASING BOTTOM LOGGER
 BS  .IN            7.875:   BIT SIZE
 BSD .F               750:   BIT SIZE AT DEPTH
 DFT .            KCL MUD:   DRILLING FLUID TYPE
 DFD .                8.6:   DRILLING FLUID DENSITY
 DFV .                 30:   DRILLING FLUID VISCOSITY
 DFPH.                9.5:   DRILLING FLUID PH
 DFL .               10.4:   DRILLING FLUID LOSS
 MSS .          FLOW LINE:   MUD SAMPLE SOURCE
 RMS .OHMM            .28:   RESISTIVITY MUD SAMPLE
 MST .F                76:   MUD SAMPLE TEMPERATURE
 RMF .OHMM            .24:   RESISTIVITY MUD FILTRATE SAMPLE
 MFST.F                80:   MUD FILTRATE SAMPLE TEMPERATURE
 RMC .OHMM            .34:   RESISTIVITY MUD CAKE
 MCST.F                82:   MUD CAKE SAMPLE TEMPERATURE
 MFSS.               MEAS:   MUD FILTRATE SAMPLE SOURCE
 MCSS.               MEAS:   MUD CAKE SAMPLE SOURCE
 BHT .F                72:   BOTTOM HOLE TEMPERATURE
 TCS .HRS               3:   TIME CURCULATED STOPPED
 MRT .F                72:   MAXIMUM RECORDED TEMPERATURE
 LUN .               2958:   LOGGING UNIT NUMBER
 LUL .               CASP:   LOGGING UNIT LOCATION
 ENGI.           REYNOLDS:   RECORDING ENGINEER
 WITN.              AMEND:   WITNESSED BY
 CLNT.            A2DTECH:   CLIENT CODE
 ORIG.           5" PRINT:   ORIGIN OF DATA
 UWI .       490251070200:   UNIQUE WELL ID
 DICO. A2D Technologies, Inc.:   DIGITIZING COMPANY
~OTHER INFORMATION
~A   DEPT      SPR         SN        ILD         GRD      CALD       RHOB       DPHI       CORR   
# ...
   52.5000   -70.4024     4.1536     4.5493    86.2114     8.1644     2.3877     0.1823     0.0244
   53.0000   -70.6351     4.1136     4.5250    86.0074     8.1345     2.3808     0.1815     0.0316
   53.5000   -70.8672     4.0739     4.5048    85.7534     8.0831     2.3825     0.1726     0.0451
   54.0000   -71.0993     4.0339     4.4935    85.4717     8.0281     2.3916     0.1660     0.0583
   54.5000   -71.3374     3.9207     4.4820    86.5544     7.9261     2.4007     0.1666     0.0696
   55.0000   -71.3528     3.8085     4.4704    87.6413     7.8254     2.4022     0.1670     0.0683
   55.5000   -71.3150     3.6995     4.4636    86.4533     7.7251     2.4019     0.1762     0.0653
   56.0000   -71.2758     3.5937     4.1863    84.8985     7.6296     2.3845     0.1923     0.0514
   56.5000   -71.2371     3.4913     3.9287    83.1058     7.5897     2.3466     0.2083     0.0375
   57.0000   -71.1985     3.3908     3.6870    81.2509     7.5363     2.3090     0.2244     0.0241
   57.5000   -71.1599     3.1910     3.4601    80.6264     7.5434     2.2714     0.2721     0.0224
   58.0000   -71.1213     2.9508     3.2472    80.6002     7.5517     2.2340     0.2834     0.0250
   58.5000   -71.0829     2.7287     3.0609    81.5770     7.5770     2.2099     0.2861     0.0273
   59.0000   -71.0442     2.5233     3.0051    83.7169     7.6391     2.2106     0.2614     0.0234
   59.5000   -71.0037     2.4771     3.0675    85.4611     7.7007     2.2633     0.2310     0.0192
   60.0000   -70.8761     2.5000     3.0892    84.9927     7.7622     2.3053     0.2006     0.0151
   60.5000   -70.6360     2.6386     3.0609    84.5200     7.8239     2.3478     0.1895     0.0110
   61.0000   -70.3973     2.8022     3.1273    84.0476     7.8854     2.3629     0.1898     0.0105
   61.5000   -70.1592     3.0826     3.2748    84.0301     7.9447     2.3631     0.1901     0.0121
   62.0000   -69.9855     3.3929     3.6045    84.1427     7.9822     2.3631     0.1894     0.0137
   62.5000   -69.9887     3.6122     3.9671    85.2272     8.0207     2.3657     0.1857     0.0153
   63.0000   -69.9888     3.5866     4.3209    86.2970     8.0594     2.3735     0.1819     0.0169
   63.5000   -69.9889     3.5645     4.4313    87.2598     8.0983     2.3811     0.1782     0.0185
   64.0000   -69.9889     3.5464     4.4636    87.1125     8.1369     2.3886     0.1747     0.0201
   64.5000   -69.9889     3.5602     4.3082    86.8865     8.1379     2.3879     0.1799     0.0217
   65.0000   -69.9889     3.5721     4.1841    87.1065     8.1228     2.3810     0.1848     0.0231
   65.5000   -69.9889     3.5792     4.1842    87.8987     8.0842     2.3741     0.1887     0.0290
   66.0000   -69.9890     3.5782     4.2128    87.1019     8.0046     2.3672     0.1899     0.0362
   66.5000   -69.9891     3.5805     4.2246    84.5196     7.9362     2.3673     0.1887     0.0470
   67.0000   -69.9905     3.4269     4.1662    81.9349     7.9376     2.3716     0.1859     0.0576
   67.5000   -69.9233     3.3239     4.0768    80.6278     7.9382     2.3759     0.1827     0.0681
   68.0000   -69.8387     3.2241     3.9888    80.7302     7.8962     2.3802     0.1799     0.0774
   68.5000   -69.7537     3.1273     3.8542    82.9581     7.8239     2.3830     0.1799     0.0745
   69.0000   -69.6689     3.0334     3.6917    86.0382     7.7510     2.3682     0.1985     0.0595
   69.5000   -69.5841     2.9503     3.3925    86.6251     7.6798     2.3200     0.2242     0.0404
   70.0000   -69.4993     2.7196     3.0466    86.0706     7.6774     2.2725     0.2498     0.0280
   70.5000   -69.4145     2.5237     2.7359    83.8878     7.6968     2.2245     0.2755     0.0279
   71.0000   -69.3297     2.3420     2.5432    81.7063     7.7171     2.2018     0.2930     0.0379
   71.5000   -69.2449     2.0990     2.5965    80.8433     7.7372     2.2134     0.2681     0.0535
   72.0000   -69.1601     2.1065     2.6663    81.3071     7.7573     2.2851     0.2233     0.0694
   72.5000   -69.0752     2.1360     2.7449    82.6018     7.7773     2.3557     0.1771     0.0613
   73.0000   -68.9904     2.2585     2.8542    83.8850     7.7977     2.3844     0.1761     0.0436
   73.5000   -68.9057     2.3880     2.9682    85.2062     7.8247     2.3691     0.1932     0.0259
   74.0000   -68.8191     2.5596     3.0877    84.3480     7.8521     2.3619     0.1888     0.0110
   74.5000   -68.8314     2.9222     3.4376    82.5366     7.8795     2.3792     0.1787     0.0110
   75.0000   -68.8831     3.3328     3.8949    82.5000     7.9070     2.3894     0.1765     0.0106
   75.5000   -68.9366     3.5645     4.4129    86.2818     7.9181     2.3898     0.1751     0.0102
   76.0000   -68.9906     3.6797     4.6382    88.3944     7.9322     2.3909     0.1731     0.0098
   76.5000   -68.9805     3.8193     4.6502    84.9771     7.9466     2.3948     0.1715     0.0095
   77.0000   -68.9656     3.8243     4.6623    82.1727     7.9563     2.3972     0.1717     0.0099
   77.5000   -68.9509     3.8300     4.6743    82.6345     7.9826     2.3880     0.1746     0.0103
   78.0000   -68.9364     3.8358     4.6864    83.0897     8.0774     2.3737     0.1838     0.0107
   78.5000   -68.9219     3.8415     4.6985    84.2415     8.1068     2.3593     0.1943     0.0110
   79.0000   -68.9073     3.8473     4.7106    86.1450     8.0505     2.3448     0.2047     0.0120
   79.5000   -68.8928     3.8525     4.7169    85.6422     7.9954     2.3304     0.2152     0.0252
   80.0000   -68.8782     3.5936     4.1405    85.5220     7.9398     2.3160     0.2256     0.0384
   80.5000   -68.8637     3.3712     3.7925    88.2154     7.8842     2.3015     0.2361     0.0516
   81.0000   -68.8491     3.1625     3.4498    90.9862     7.8287     2.2881     0.2377     0.0648
   81.5000   -68.8346     2.9668     3.3602    93.7242     7.7731     2.2858     0.2375     0.0778
   82.0000   -68.8204     2.7833     3.2654    95.7258     7.7176     2.2886     0.2223     0.0782
   82.5000   -68.8055     2.5707     3.1985    94.7904     7.6619     2.3158     0.2082     0.0668
   83.0000   -68.7662     2.6269     3.1800    95.4417     7.6059     2.3422     0.1942     0.0516
   83.5000   -68.6236     2.7000     3.1756    97.7779     7.5900     2.3615     0.1899     0.0363
   84.0000   -68.4840     2.7543     3.2211    99.4460     7.5787     2.3593     0.2022     0.0210
   84.5000   -68.3446     2.9172     3.2645    93.0869     7.5765     2.3319     0.2104     0.0139
   85.0000   -68.2052     3.1219     3.4535    85.6365     7.5982     2.3309     0.2111     0.0143
   85.5000   -68.0655     3.3208     3.7387    82.5724     7.6235     2.3407     0.2011     0.0147
   86.0000   -67.9257     3.4461     4.0467    82.2458     7.6641     2.3538     0.1902     0.0153
   86.5000   -67.8011     3.5765     4.3042    82.0358     7.7022     2.3670     0.1787     0.0158
   87.0000   -67.8260     3.7119     4.2923    82.0141     7.7484     2.3802     0.1778     0.0163
   87.5000   -67.8528     3.8172     4.2505    83.6409     7.7940     2.3859     0.1787     0.0168
   88.0000   -67.8791     3.8174     4.2091    88.3109     7.8396     2.3820     0.1803     0.0173
   88.5000   -67.9051     3.8178     4.1681    90.6846     7.8850     2.3777     0.1819     0.0178
   89.0000   -67.9312     3.8182     4.1468    88.5044     7.9304     2.3733     0.1860     0.0183
   89.5000   -67.9572     3.7456     4.1851    87.1484     7.9758     2.3689     0.1895     0.0188
   90.0000   -67.9833     3.6660     4.1852    90.3831     8.0213     2.3668     0.1889     0.0193
   90.5000   -68.0094     3.5736     4.1853    94.8066     8.0664     2.3658     0.1883     0.0198
   91.0000   -68.0354     3.4473     4.1857    96.4727     8.1111     2.3647     0.1876     0.0203
   91.5000   -68.0615     3.3263     4.1096    94.7835     8.1281     2.3611     0.1925     0.0208
   92.0000   -68.0876     3.2095     3.9009    92.3189     8.1145     2.3528     0.2050     0.0212
   92.5000   -68.1136     3.0968     3.6638    89.8268     8.1013     2.3330     0.2176     0.0255
