~VERSION INFORMATION
 VERS.                2.0:   CWLS LOG ASCII STANDARD - VERSION 2.0
 WRAP.                 NO:   ONE LINE PER DEPTH STEP
~WELL INFORMATION
#MNEM.UNIT      DATA TYPE    INFORMATION
#----------   ------------   ------------------------------
 STRT.F           25.0000:   START DEPTH
 STOP.F          681.0000:   STOP DEPTH
 STEP.F            0.5000:   STEP LENGTH
 NULL.          -999.2500:   NO VALUE
 COMP. FENIX & SCISSON INC:   COMPANY
 WELL.    56-SX-34 #56-34:   WELL
 FLD .             TEAPOT:   FIELD
 LOC .      S34 T39N R78W:   LOCATION
 CNTY.            NATRONA:   COUNTY
 STAT.            WYOMING:   STATE
 CTRY. UNITED STATES OF AMERICA:   COUNTRY
 SRVC.            Unknown:   SERVICE COMPANY
 DATE.        28-JAN-1979:   LOGDATE
 API .       490251077200:   API NUMBER
~CURVE INFORMATION
#MNEM.UNIT       API CODE    CURVE DESCRIPTION
#----------   ------------   ------------------------------
 DEPT.F                  :   
 SPR .MV     05 010 01 00:   SPONTANEOUS POTENTIAL FROM RES.
 DRHO.G/C3   45 356 01 00:   DENSITY CORRECTION
 RHOB.G/C3   45 350 01 00:   BULK DENSITY
 DPHI.DEC    45 890 12 00:   DENSITY POROSITY SANDSTONE
 CALD.IN     45 280 60 00:   CALIPER
 GRD .GAPI   45 310 01 00:   GAMMA RAY FROM DENSITY LOG
 SN  .OHMM   05 040 16 00:   SHORT NORMAL 16'
 ILD .OHMM   05 120 46 00:   INDUCTION LOG DEEP RESISTIVITY
~PARAMETER INFORMATION
#MNEM.UNIT          VALUE    DESCRIPTION
#----------   ------------   ------------------------------
 PD  .                 GL:   PERMANENT DATUM
 EPD .F              5088:   ELEVATION PERMANENT DATUM
 LMF .                 KB:   LOG MEASURED FROM
 DAPD.F                 4:   FEET ABOVE PERMANENT DATUM
 DMF .                 KB:   DRILLING MEASURED FROM
 EKB .F              5092:   KELLING BUSHING
 EGL .F              5088:   GROUND LEVEL
 DATE.            1-28-79:   RUN DATE
 RUN .                  1:   RUN NUMBER
 DD  .F               680:   DEPTH DRILLER
 DL  .F               681:   DEPTH LOGGER
 BLI .F               679:   BOTTOM LOG INTERVAL
 TLI .F                40:   TOP LOG INTERVAL
 CS  .IN            8.625:   CASING SIZE
 CBD .F                40:   CASING BOTTOM DRILLER
 CBL .F                40:   CASING BOTTOM LOGGER
 BS  .IN            7.875:   BIT SIZE
 BSD .F               680:   BIT SIZE AT DEPTH
 DFT .                KCL:   DRILLING FLUID TYPE
 DFD .                8.9:   DRILLING FLUID DENSITY
 DFV .                 43:   DRILLING FLUID VISCOSITY
 DFPH.                8.5:   DRILLING FLUID PH
 DFL .                9.8:   DRILLING FLUID LOSS
 MSS .           FLOWLINE:   MUD SAMPLE SOURCE
 RMS .OHMM            1.5:   RESISTIVITY MUD SAMPLE
 MST .F                66:   MUD SAMPLE TEMPERATURE
 RMF .OHMM            1.3:   RESISTIVITY MUD FILTRATE SAMPLE
 MFST.F                76:   MUD FILTRATE SAMPLE TEMPERATURE
 RMC .OHMM            1.3:   RESISTIVITY MUD CAKE
 MCST.F                78:   MUD CAKE SAMPLE TEMPERATURE
 MFSS.           MEASURED:   MUD FILTRATE SAMPLE SOURCE
 MCSS.           MEASURED:   MUD CAKE SAMPLE SOURCE
 RMB .OHMM            1.3:   RESISTIVITY MUD AT BHT
 BHT .F                76:   BOTTOM HOLE TEMPERATURE
 TCS .HRS               3:   TIME CURCULATED STOPPED
 MRT .F                76:   MAXIMUM RECORDED TEMPERATURE
 LUN .               3006:   LOGGING UNIT NUMBER
 LUL .             CASPER:   LOGGING UNIT LOCATION
 ENGI.            ROLLINS:   RECORDING ENGINEER
 WITN.              AMEND:   WITNESSED BY
 CLNT.            A2DTECH:   CLIENT CODE
 ORIG.       2", 5" PRINT:   ORIGIN OF DATA
 UWI .       490251077200:   UNIQUE WELL ID
 DICO. A2D Technologies, Inc.:   DIGITIZING COMPANY
~OTHER INFORMATION
~A   DEPT      SPR       DRHO       RHOB       DPHI       CALD         GRD        SN        ILD   
# ...
  511.0000   -49.8260     0.0576     2.2803     0.2230     8.0292    59.4939    25.4388    27.0117
  511.5000   -49.8025     0.0583     2.2928     0.2156     8.0411    60.4072    24.5368    26.7572
  512.0000   -49.8135     0.0591     2.2968     0.2071     8.0530    64.1734    23.7633    26.0563
  512.5000   -49.9025     0.0598     2.3225     0.1963     8.0650    67.8982    23.1945    25.3738
  513.0000   -49.9923     0.0609     2.3428     0.1863     8.0769    70.1835    22.6394    24.7090
  513.5000   -50.0818     0.0606     2.3493     0.1851     8.0888    68.1571    22.0980    24.1060
  514.0000   -50.1712     0.0579     2.3537     0.1842     8.1008    67.8815    21.5685    23.5239
  514.5000   -50.2607     0.0590     2.3536     0.1848     8.1127    68.8510    21.0513    22.9558
  515.0000   -50.3502     0.0600     2.3536     0.1843     8.1247    68.4406    20.4882    22.4030
  515.5000   -50.4397     0.0501     2.3537     0.1823     8.1365    66.2678    19.9022    21.8385
  516.0000   -50.5291     0.0397     2.3641     0.1758     8.1485    65.4024    19.3330    21.4538
  516.5000   -50.6187     0.0402     2.3800     0.1681     8.1438    66.6609    18.7783    21.0579
  517.0000   -50.7084     0.0409     2.3842     0.1672     8.1324    70.8729    18.2395    20.6698
  517.5000   -50.7906     0.0415     2.3878     0.1663     8.1296    75.6134    17.7161    20.2892
  518.0000   -50.7925     0.0427     2.3908     0.1653     8.1265    77.7405    17.3311    19.9159
  518.5000   -50.7921     0.0443     2.3911     0.1651     8.1235    76.4349    17.3964    19.5491
  519.0000   -50.7921     0.0457     2.3914     0.1654     8.1205    75.1096    17.4541    19.1848
  519.5000   -50.7921     0.0433     2.3914     0.1657     8.1174    73.7734    17.5112    19.1848
  520.0000   -50.7921     0.0368     2.3909     0.1662     8.1144    73.7353    17.5679    19.2147
  520.5000   -50.7921     0.0295     2.3847     0.1732     8.1114    73.9947    17.6246    19.2538
  521.0000   -50.7921     0.0267     2.3738     0.1805     8.1084    74.2623    17.6528    19.2934
  521.5000   -50.7921     0.0253     2.3639     0.1814     8.1053    74.5229    17.5824    19.3327
  522.0000   -50.7921     0.0241     2.3625     0.1818     8.1023    74.4576    17.5283    19.3988
  522.5000   -50.7921     0.0255     2.3621     0.1821     8.0993    72.2875    17.4745    19.5455
  523.0000   -50.7921     0.0336     2.3617     0.1823     8.0963    70.8149    17.4208    19.6933
  523.5000   -50.7921     0.0413     2.3616     0.1825     8.0940    70.9852    17.3673    19.8422
  524.0000   -50.7921     0.0401     2.3616     0.1826     8.0941    71.3021    17.3139    19.9921
  524.5000   -50.7921     0.0384     2.3616     0.1826     8.0942    67.5251    17.2607    20.1432
  525.0000   -50.7921     0.0376     2.3618     0.1818     8.1103    63.9581    17.2077    20.2797
  525.5000   -50.7921     0.0400     2.3625     0.1809     8.1515    64.0913    17.1607    20.2797
  526.0000   -50.7921     0.0449     2.3632     0.1807     8.1936    65.3524    17.1285    20.2338
  526.5000   -50.7921     0.0452     2.3633     0.1810     8.1735    66.1376    17.0962    20.1653
  527.0000   -50.7921     0.0430     2.3625     0.1812     8.1737    65.7861    17.0639    20.0971
  527.5000   -50.7921     0.0430     2.3618     0.1814     8.1733    67.9853    17.0322    20.0292
  528.0000   -50.7921     0.0466     2.3650     0.1790     8.1734    71.3768    16.9663    19.9615
  528.5000   -50.7921     0.0496     2.3699     0.1754     8.1824    70.3636    16.8417    19.8940
  529.0000   -50.7921     0.0480     2.3740     0.1714     8.2025    68.2328    16.7180    19.8268
  529.5000   -50.7921     0.0462     2.3777     0.1717     8.2225    68.0614    16.5952    19.7598
  530.0000   -50.7921     0.0462     2.3783     0.1720     8.2425    70.9477    16.4734    19.6949
  530.5000   -50.7921     0.0474     2.3756     0.1714     8.2625    69.8624    16.3525    19.5841
  531.0000   -50.7921     0.0487     2.3797     0.1689     8.2825    68.7939    16.2324    19.4739
  531.5000   -50.7921     0.0499     2.3861     0.1662     8.2896    69.6630    16.1133    19.3644
  532.0000   -50.7921     0.0511     2.3923     0.1678     8.2853    71.1304    15.9950    19.2555
  532.5000   -50.7921     0.0523     2.3876     0.1739     8.2810    70.2452    15.8776    19.1472
  533.0000   -50.7921     0.0536     2.3700     0.1798     8.2766    71.1292    15.7693    19.0394
  533.5000   -50.7921     0.0548     2.3597     0.1806     8.2722    72.3010    15.6790    18.9324
  534.0000   -50.7921     0.0555     2.3643     0.1766     8.2678    68.9922    15.5892    18.8259
  534.5000   -50.7921     0.0517     2.3697     0.1761     8.2634    65.7178    15.4999    18.7200
  535.0000   -50.7921     0.0479     2.3717     0.1760     8.2590    66.4277    15.4112    18.6147
  535.5000   -50.7921     0.0457     2.3720     0.1755     8.2546    68.6125    15.3229    18.5100
  536.0000   -50.7921     0.0461     2.3722     0.1750     8.2531    72.4693    15.2352    18.4058
  536.5000   -50.7921     0.0466     2.3725     0.1746     8.2550    72.2889    15.1479    18.3023
  537.0000   -50.7923     0.0471     2.3727     0.1747     8.2570    70.2605    15.0611    18.1994
  537.5000   -50.7919     0.0476     2.3729     0.1748     8.2589    68.4359    14.9749    18.0970
  538.0000   -50.7889     0.0476     2.3732     0.1749     8.2608    69.1931    14.8891    17.9948
  538.5000   -50.7911     0.0476     2.3734     0.1750     8.2628    75.6411    14.8084    17.8932
  539.0000   -50.5079     0.0476     2.3738     0.1742     8.2647    73.5863    14.8084    17.8172
  539.5000   -50.2152     0.0476     2.3782     0.1707     8.2667    70.1174    14.8084    17.8493
  540.0000   -49.9132     0.0476     2.3827     0.1694     8.2687    71.2287    14.8084    17.8767
  540.5000   -49.6091     0.0480     2.3849     0.1714     8.2708    71.2157    14.8084    17.9037
  541.0000   -49.4025     0.0487     2.3739     0.1789     8.2710    68.4132    14.8084    17.9306
  541.5000   -49.4062     0.0493     2.3598     0.1859     8.2421    65.7242    14.8084    17.9576
  542.0000   -49.4062     0.0500     2.3517     0.1859     8.2144    64.3736    14.8085    17.9823
  542.5000   -49.4059     0.0506     2.3539     0.1816     8.1924    66.3409    14.8081    17.8003
  543.0000   -49.4059     0.0513     2.3675     0.1751     8.1917    68.8936    14.8084    17.6344
  543.5000   -49.4059     0.0516     2.3808     0.1685     8.1903    71.4915    14.7147    17.4700
  544.0000   -49.4059     0.0487     2.3920     0.1646     8.1889    74.0950    14.4950    17.3071
  544.5000   -49.4059     0.0457     2.3917     0.1648     8.1876    73.7271    14.2706    17.1458
  545.0000   -49.4059     0.0461     2.3917     0.1650     8.1862    72.7509    14.2706    16.9859
  545.5000   -49.4059     0.0470     2.3917     0.1648     8.1848    76.1499    14.2706    16.8276
  546.0000   -49.4059     0.0479     2.3917     0.1645     8.1835    78.4430    14.2706    16.6707
  546.5000   -49.4059     0.0488     2.3917     0.1643     8.1821    75.4605    14.2706    16.5153
  547.0000   -49.4061     0.0496     2.3917     0.1635     8.1807    73.8229    14.2707    16.3613
  547.5000   -49.4029     0.0490     2.3916     0.1613     8.1794    74.7664    14.2706    16.2212
  548.0000   -49.3994     0.0484     2.4001     0.1584     8.1780    76.0151    14.2703    16.1245
  548.5000   -49.3958     0.0478     2.4076     0.1579     8.1767    74.9321    14.2423    16.0283
  549.0000   -49.3922     0.0495     2.4071     0.1580     8.1753    74.1276    14.1663    15.9328
  549.5000   -49.3886     0.0527     2.4055     0.1579     8.1740    78.4620    14.0912    15.8378
  550.0000   -49.3851     0.0560     2.4056     0.1552     8.1732    82.6090    14.0165    15.7433
  550.5000   -49.3815     0.0563     2.4131     0.1499     8.1669    80.9687    13.9422    15.6495
  551.0000   -49.3779     0.0534     2.4207     0.1445     8.1597    79.4421    13.8683    15.5562
