~VERSION INFORMATION
 VERS.                2.0:   CWLS LOG ASCII STANDARD - VERSION 2.0
 WRAP.                 NO:   ONE LINE PER DEPTH STEP
~WELL INFORMATION
#MNEM.UNIT      DATA TYPE    INFORMATION
#----------   ------------   ------------------------------
 STRT.F           30.0000:   START DEPTH
 STOP.F          509.0000:   STOP DEPTH
 STEP.F            0.5000:   STEP LENGTH
 NULL.          -999.2500:   NO VALUE
 COMP. FENIX & SCISSON INC:   COMPANY
 WELL.   NPR 3 #45 SX 3-3:   WELL
 FLD .             TEAPOT:   FIELD
 LOC .       S3 T38N R78W:   LOCATION
 CNTY.            NATRONA:   COUNTY
 STAT.            WYOMING:   STATE
 CTRY. UNITED STATES OF AMERICA:   COUNTRY
 SRVC.            Unknown:   SERVICE COMPANY
 DATE.        05-OCT-1978:   LOGDATE
 API .       490251071700:   API NUMBER
~CURVE INFORMATION
#MNEM.UNIT       API CODE    CURVE DESCRIPTION
#----------   ------------   ------------------------------
 DEPT.F                  :   
 SPR .MV     05 010 01 00:   SPONTANEOUS POTENTIAL FROM RES.
 SN  .OHMM   05 040 16 00:   SHORT NORMAL 16"
 ILD .OHMM   05 120 46 00:   INDUCTION LOG DEEP
 GRD .GAPI   45 310 01 00:   GAMMA RAY FROM DENSITY LOG
 CALD.IN     45 280 60 00:   CALIPER
 RHOB.G/C3   45 350 01 00:   BULK DENSITY
 DPHI.DEC    45 890 12 00:   DENSITY POROSITY SANDSTONE
 CORR.G/C3   45 356 01 00:   DENSITY CORRECTION
~PARAMETER INFORMATION
#MNEM.UNIT          VALUE    DESCRIPTION
#----------   ------------   ------------------------------
 PD  .                 GL:   PERMANENT DATUM
 EPD .F              5188:   ELEVATION PERMANENT DATUM
 LMF .                 KB:   LOG MEASURED FROM
 DAPD.F                 4:   FEET ABOVE PERMANENT DATUM
 DMF .                 KB:   DRILLING MEASURED FROM
 EKB .F              5192:   KELLING BUSHING
 EGL .F              5188:   GROUND LEVEL
 DATE.            10-5-78:   RUN DATE
 RUN .                  1:   RUN NUMBER
 DD  .F               510:   DEPTH DRILLER
 DL  .F               509:   DEPTH LOGGER
 BLI .F               503:   BOTTOM LOG INTERVAL
 TLI .F                48:   TOP LOG INTERVAL
 CS  .IN            8.625:   CASING SIZE
 CBL .F                46:   CASING BOTTOM LOGGER
 BS  .IN            7.875:   BIT SIZE
 BSD .F               510:   BIT SIZE AT DEPTH
 DFT .                KCL:   DRILLING FLUID TYPE
 DFD .                8.7:   DRILLING FLUID DENSITY
 DFV .                 37:   DRILLING FLUID VISCOSITY
 DFPH.                  9:   DRILLING FLUID PH
 DFL .               10.4:   DRILLING FLUID LOSS
 MSS .            MUD PIT:   MUD SAMPLE SOURCE
 RMS .OHMM            .28:   RESISTIVITY MUD SAMPLE
 MST .F                58:   MUD SAMPLE TEMPERATURE
 RMF .OHMM            .32:   RESISTIVITY MUD FILTRATE SAMPLE
 MFST.F                54:   MUD FILTRATE SAMPLE TEMPERATURE
 RMC .OHMM            .24:   RESISTIVITY MUD CAKE
 MCST.F                56:   MUD CAKE SAMPLE TEMPERATURE
 MFSS.               MEAS:   MUD FILTRATE SAMPLE SOURCE
 MCSS.               MEAS:   MUD CAKE SAMPLE SOURCE
 BHT .F                64:   BOTTOM HOLE TEMPERATURE
 TCS .HRS               2:   TIME CURCULATED STOPPED
 MRT .F                64:   MAXIMUM RECORDED TEMPERATURE
 LUN .               2958:   LOGGING UNIT NUMBER
 LUL .               CASP:   LOGGING UNIT LOCATION
 ENGI.             MILLER:   RECORDING ENGINEER
 WITN.           DINSMORE:   WITNESSED BY
 CLNT.            A2DTECH:   CLIENT CODE
 ORIG.       2", 5" PRINT:   ORIGIN OF DATA
 UWI .       490251071700:   UNIQUE WELL ID
 DICO. A2D Technologies, Inc.:   DIGITIZING COMPANY
~OTHER INFORMATION
~A   DEPT      SPR         SN        ILD         GRD      CALD       RHOB       DPHI       CORR   
# ...
   70.5000   -71.8426     8.0188     7.5638   104.5218     7.2161     2.4878     0.1181     0.0700
   71.0000   -71.8573     8.0234     7.3564   104.6035     7.1807     2.4887     0.1184     0.0785
   71.5000   -71.8719     8.0281     7.2429   104.7350     7.1356     2.4893     0.1187     0.0941
   72.0000   -71.8868     8.0329     7.2429   106.3470     7.0814     2.4900     0.1180     0.1099
   72.5000   -71.9016     8.0378     7.2429   108.5507     7.0706     2.4910     0.1172     0.1145
   73.0000   -71.9136     8.0426     7.2429   109.2114     7.0607     2.4920     0.1148     0.1025
   73.5000   -71.7622     8.0475     7.2429   108.9481     7.0503     2.4871     0.1196     0.0748
   74.0000   -71.3217     8.0523     7.2429   108.6345     7.0445     2.4649     0.1335     0.0463
   74.5000   -70.6171     8.0571     7.2428   107.5249     7.0986     2.4428     0.1471     0.0288
   75.0000   -69.8978     8.0620     7.2429   106.2950     7.1509     2.4385     0.1479     0.0192
   75.5000   -69.1724     8.0668     7.2416   105.7881     7.2040     2.4396     0.1486     0.0190
   76.0000   -68.0729     8.0717     7.2888   105.6934     7.2982     2.4462     0.1432     0.0186
   76.5000   -66.3683     8.0765     7.3794   105.6081     7.3915     2.4540     0.1377     0.0182
   77.0000   -64.6700     8.0813     7.4712   105.5268     7.4850     2.4625     0.1346     0.0178
   77.5000   -63.0176     8.0863     7.7509   105.4208     7.5335     2.4710     0.1298     0.0176
   78.0000   -62.2188     8.1620     7.9696   104.8426     7.5566     2.4795     0.1232     0.0210
   78.5000   -61.4490     8.2635     8.1093   102.1147     7.5786     2.4880     0.1185     0.0245
   79.0000   -60.3293     8.3662     8.3137   101.7320     7.5605     2.4952     0.1152     0.0287
   79.5000   -58.8587     8.4095     8.2797   101.5395     7.5375     2.4927     0.1156     0.0380
   80.0000   -58.1688     8.4344     8.2203   101.3982     7.4645     2.4797     0.1283     0.0670
   80.5000   -57.4662     8.4594     8.1613   101.2634     7.3918     2.4668     0.1400     0.1101
   81.0000   -56.7624     8.4844     8.1026   101.4347     7.2888     2.4605     0.1288     0.2045
   81.5000   -56.0551     8.5095     8.0445   101.6287     7.1624     2.5131     0.1057     0.3069
   82.0000   -55.2841     8.5347     7.9867   101.6019     7.0959     2.5659     0.0816     0.3452
   82.5000   -54.4140     8.5600     7.9293   101.5392     7.0570     2.5952     0.0549     0.3171
   83.0000   -53.5437     8.5853     7.8721   101.4796     7.0180     2.5571     0.0769     0.2210
   83.5000   -52.6200     8.6108     7.7956   101.1746     6.9849     2.4970     0.1082     0.1072
   84.0000   -51.4274     8.6250     7.8443   100.8307     7.0469     2.4602     0.1422     0.0423
   84.5000   -50.2918     8.5240     7.9212   100.7499     7.1278     2.4312     0.1567     0.0197
   85.0000   -49.5227     8.4546     7.9988   100.6371     7.3117     2.4314     0.1520     0.0191
   85.5000   -48.7781     8.3858     8.0875   101.9362     7.3536     2.4476     0.1428     0.0186
   86.0000   -48.0362     8.3175     8.0625   103.5605     7.3281     2.4611     0.1329     0.0182
   86.5000   -47.2945     8.2498     8.0338   103.8134     7.4656     2.4747     0.1236     0.0178
   87.0000   -46.2852     8.1826     8.0053   103.9994     7.5985     2.4843     0.1214     0.0195
   87.5000   -45.2878     8.1462     7.9769   105.8063     7.6695     2.4857     0.1195     0.0315
   88.0000   -44.2910     8.1231     7.9482   108.6539     7.6915     2.4853     0.1191     0.0441
   88.5000   -43.4651     8.1001     7.9136   109.2409     7.7153     2.4849     0.1188     0.0524
   89.0000   -42.8426     8.0771     7.8763   109.2259     7.6873     2.4844     0.1216     0.0607
   89.5000   -42.7530     8.0543     7.8391   109.2295     7.6468     2.4841     0.1213     0.0691
   90.0000   -42.5691     8.0315     7.8022   108.8327     7.5886     2.4913     0.1108     0.0695
   90.5000   -42.1603     8.0087     7.7654   108.2337     7.5287     2.4992     0.1072     0.0695
   91.0000   -41.7090     7.9860     7.7287   107.1028     7.4517     2.5070     0.1068     0.0696
   91.5000   -40.3666     7.9634     7.6923   105.7397     7.2937     2.5102     0.1014     0.0624
   92.0000   -39.9215     7.9402     7.6560   104.0451     7.1613     2.5112     0.1031     0.0544
   92.5000   -39.3116     8.0603     7.6198   103.4331     7.0879     2.5015     0.1072     0.0490
   93.0000   -38.3976     8.1858     7.5836   103.2375     7.0141     2.4901     0.1138     0.0482
   93.5000   -38.2704     8.3132     7.5690   103.3647     7.0107     2.4855     0.1197     0.0468
   94.0000   -38.0912     8.4679     7.5544   103.9441     7.0216     2.4809     0.1244     0.0392
   94.5000   -37.6513     8.4382     7.5399   105.0169     7.0328     2.4633     0.1345     0.0221
   95.0000   -37.2233     8.3904     7.5254   105.5050     7.0487     2.4445     0.1460     0.0164
   95.5000   -36.8932     8.4401     7.5142   105.8559     7.0871     2.4256     0.1570     0.0104
   96.0000   -36.6637     8.5746     7.6869   106.0863     7.1217     2.4102     0.1676     0.0068
   96.5000   -36.4347     8.8265     7.8306   106.1905     7.1310     2.3986     0.1751     0.0055
   97.0000   -36.2054     8.8796     7.9771   106.2950     7.1377     2.3969     0.1692     0.0055
   97.5000   -35.9760     8.8954     8.1263   106.3995     7.2259     2.4174     0.1593     0.0048
   98.0000   -35.7470     8.9113     8.3140   106.5042     7.3303     2.4409     0.1443     0.0018
   98.5000   -35.5155     8.9273     8.6080   106.6144     7.4356     2.4643     0.1311    -0.0013
   99.0000   -35.2962     8.9432     8.7047   106.5210     7.4929     2.4688     0.1309     0.0023
   99.5000   -34.6123     8.9592     8.6635   106.3736     7.5181     2.4724     0.1260     0.0099
  100.0000   -33.7621     8.9752     8.6357   106.2248     7.4800     2.4767     0.1252     0.0292
  100.5000   -32.8792     8.9912     8.6081   106.0761     7.4311     2.4720     0.1297     0.0502
  101.0000   -32.5576     9.0073     8.5806   105.9320     7.4252     2.4634     0.1347     0.0748
  101.5000   -32.2449     9.0233     8.5531   105.9696     7.4325     2.4546     0.1391     0.1101
  102.0000   -31.5912     9.0372     8.5154   106.3391     7.4302     2.4562     0.1387     0.1616
  102.5000   -30.9012     9.0488     8.4745   106.7085     7.7488     2.4748     0.1351     0.2128
  103.0000   -30.3802     9.0605     8.4337   106.7727     7.1242     2.4928     0.1162     0.2639
  103.5000   -30.1901     9.0723     8.3932   106.6869     6.9073     2.5360     0.0977     0.2896
  104.0000   -29.9939     9.0840     8.3528   106.5994     6.9461     2.5844     0.0772     0.2361
  104.5000   -29.7989     9.0957     8.3137   106.5127     6.8048     2.5581     0.0892     0.1641
  105.0000   -29.6040     9.1072     8.3579   106.2702     6.7186     2.5079     0.1121     0.0910
  105.5000   -29.4105     9.1381     8.4013   105.0649     6.7421     2.4602     0.1425     0.0263
  106.0000   -29.2127     9.1911     8.4449   103.0851     6.5659     2.4197     0.1600     0.0123
  106.5000   -28.8776     9.2449     8.5032   101.1253     6.9050     2.4162     0.1635     0.0087
  107.0000   -28.0030     9.2990     8.5778    99.1663     7.0802     2.4316     0.1518     0.0119
  107.5000   -27.1466     9.3533     8.6531    97.1437     7.1431     2.4467     0.1436     0.0157
  108.0000   -26.7262     9.4080     8.8645    95.5373     7.2026     2.4615     0.1354     0.0161
  108.5000   -26.2786     9.4754     9.3841    95.4702     7.2772     2.4697     0.1303     0.0166
  109.0000   -25.8085     9.6238     9.9342    95.4473     7.4389     2.4731     0.1279     0.0170
  109.5000   -25.5143     9.7744    10.5164    94.4565     7.5461     2.4757     0.1258     0.0173
  110.0000   -25.2622     9.9275    10.9311    93.4176     7.4672     2.4756     0.1242     0.0211
  110.5000   -25.0128    10.0829    11.3039    92.9155     7.4535     2.4677     0.1306     0.0318
