~VERSION INFORMATION
 VERS.                2.0:   CWLS LOG ASCII STANDARD - VERSION 2.0
 WRAP.                 NO:   ONE LINE PER DEPTH STEP
~WELL INFORMATION
#MNEM.UNIT      DATA TYPE    INFORMATION
#----------   ------------   ------------------------------
 STRT.F           24.0000:   START DEPTH
 STOP.F          472.0000:   STOP DEPTH
 STEP.F            0.5000:   STEP LENGTH
 NULL.          -999.2500:   NO VALUE
 COMP. FENIX & SCISSON INC:   COMPANY
 WELL. 55-66 SX-3-FP #55-3:   WELL
 FLD .             WLDCAT:   FIELD
 LOC .       S3 T38N R78W:   LOCATION
 CNTY.            NATRONA:   COUNTY
 STAT.            WYOMING:   STATE
 CTRY. UNITED STATES OF AMERICA:   COUNTRY
 SRVC.              Welex:   SERVICE COMPANY
 DATE.        11-JUN-1980:   LOGDATE
 API .       490251082200:   API NUMBER
~CURVE INFORMATION
#MNEM.UNIT       API CODE    CURVE DESCRIPTION
#----------   ------------   ------------------------------
 DEPT.F                  :   
 SPR .MV     07 010 01 00:   SPONTANEOUS POTENTIAL
 GURD.OHMM   07 220 05 00:   GUARD RESISTIVITY
 ILD .OHMM   07 120 46 00:   INDUCTION LOG DEEP RESISTIVITY
 ILM .OHMM   07 120 44 00:   INDUCTION LOG MEDIUM
 DPHI.DEC    45 890 12 00:   DENSITY POROSITY SANDSTONE
 NPHI.DEC    42 890 03 00:   NEUTRON POROSITY SANDSTONE
 CORR.G/C3   45 356 01 00:   DENSITY CORRECTION
 RHOB.G/C3   45 350 01 00:   BULK DENSITY
 CALD.IN     45 280 60 00:   CALIPER
 GRD .GAPI   45 310 01 00:   GAMMA RAY FROM DENSITY LOG
~PARAMETER INFORMATION
#MNEM.UNIT          VALUE    DESCRIPTION
#----------   ------------   ------------------------------
 PD  .                 GL:   PERMANENT DATUM
 EPD .F              5169:   ELEVATION PERMANENT DATUM
 LMF .                 KB:   LOG MEASURED FROM
 DAPD.F                 5:   FEET ABOVE PERMANENT DATUM
 DMF .                 KB:   DRILLING MEASURED FROM
 EKB .F              5174:   KELLING BUSHING
 EGL .F              5169:   GROUND LEVEL
 DATE.            6-11-80:   RUN DATE
 RUN .                  1:   RUN NUMBER
 DD  .F               472:   DEPTH DRILLER
 DL  .F               472:   DEPTH LOGGER
 BLI .F               470:   BOTTOM LOG INTERVAL
 TLI .F                30:   TOP LOG INTERVAL
 BS  .IN            9.875:   BIT SIZE
 BSD .F               472:   BIT SIZE AT DEPTH
 DFT .                KCL:   DRILLING FLUID TYPE
 DFD .                9.5:   DRILLING FLUID DENSITY
 DFV .                 47:   DRILLING FLUID VISCOSITY
 DFPH.                 12:   DRILLING FLUID PH
 DFL .                7.2:   DRILLING FLUID LOSS
 MSS .           MUD TANK:   MUD SAMPLE SOURCE
 RMS .OHMM            .26:   RESISTIVITY MUD SAMPLE
 MST .F                75:   MUD SAMPLE TEMPERATURE
 RMF .OHMM            .21:   RESISTIVITY MUD FILTRATE SAMPLE
 MFST.F                75:   MUD FILTRATE SAMPLE TEMPERATURE
 RMC .OHMM            .31:   RESISTIVITY MUD CAKE
 MCST.F                75:   MUD CAKE SAMPLE TEMPERATURE
 MFSS.           MEASURED:   MUD FILTRATE SAMPLE SOURCE
 MCSS.           MEASURED:   MUD CAKE SAMPLE SOURCE
 RMB .OHMM            .26:   RESISTIVITY MUD AT BHT
 BHT .F                75:   BOTTOM HOLE TEMPERATURE
 TCS .HRS             1.5:   TIME CURCULATED STOPPED
 MRT .F                75:   MAXIMUM RECORDED TEMPERATURE
 LUN .               9685:   LOGGING UNIT NUMBER
 LUL .             CASPER:   LOGGING UNIT LOCATION
 ENGI.               REIN:   RECORDING ENGINEER
 WITN.          DINSMOORE:   WITNESSED BY
 CLNT.            A2DTECH:   CLIENT CODE
 ORIG.           5" PRINT:   ORIGIN OF DATA
 UWI .       490251082200:   UNIQUE WELL ID
 DICO. A2D Technologies, Inc.:   DIGITIZING COMPANY
~OTHER INFORMATION
~A   DEPT      SPR       GURD        ILD        ILM         DPHI       NPHI     CORR       RHOB        CALD       GRD   
   24.0000  -999.2500  -999.2500  -999.2500  -999.2500     0.0781     0.3392  -999.2500  -999.2500    10.1137   107.2147
   24.5000  -999.2500  -999.2500  -999.2500  -999.2500     0.0781     0.3392  -999.2500  -999.2500    10.1137   107.9914
   25.0000  -999.2500  -999.2500  -999.2500  -999.2500     0.0781     0.3384  -999.2500  -999.2500    10.1137   108.3752
   25.5000  -999.2500  -999.2500  -999.2500  -999.2500     0.0781     0.3372  -999.2500  -999.2500    10.1137   107.6908
   26.0000  -999.2500  -999.2500  -999.2500  -999.2500     0.0781     0.3321  -999.2500  -999.2500    10.1137   105.8511
   26.5000  -999.2500  -999.2500  -999.2500  -999.2500     0.0781     0.3337  -999.2500  -999.2500    10.1137   104.0239
   27.0000  -999.2500  -999.2500  -999.2500  -999.2500     0.0781     0.3353  -999.2500  -999.2500    10.1137   102.2505
   27.5000  -999.2500  -999.2500  -999.2500  -999.2500     0.0781     0.3293  -999.2500  -999.2500    10.1137   100.2200
   28.0000  -999.2500  -999.2500  -999.2500  -999.2500     0.0765     0.3164     0.1381     2.5120    10.1137    98.2470
   28.5000  -999.2500  -999.2500  -999.2500  -999.2500     0.0762     0.3137     0.1422     2.5238    10.1137    97.0909
   29.0000  -999.2500  -999.2500  -999.2500  -999.2500     0.0761     0.3113     0.1476     2.5344    10.1137    97.5103
   29.5000  -999.2500  -999.2500  -999.2500  -999.2500     0.0765     0.3088     0.1417     2.5302    10.1137    97.9018
   30.0000   -60.8566  1753.6667     4.2048     5.1715     0.0806     0.3089     0.1297     2.5075    10.1137    98.3046
   30.5000   -60.8566  1567.2413     4.3890     5.1391     0.0858     0.3127     0.1110     2.5048    10.1137    98.7441
   31.0000   -60.4583  1567.2413     4.5048     5.1034     0.0895     0.3164     0.1239     2.5121    10.1137    99.7232
   31.5000   -60.3019  1652.7339     4.5361     5.1103     0.0955     0.3149     0.1136     2.4950    10.1137   100.6633
   32.0000   -60.4225  1784.1237     4.5466     5.0307     0.0996     0.3100     0.1056     2.4752    10.1137   101.5917
   32.5000   -60.2631  1674.7708     4.5743     5.0680     0.1007     0.3051     0.0930     2.4756    10.1137   102.1286
   33.0000   -60.3300  1588.2098     4.6021     5.1371     0.0996     0.3020     0.1043     2.4829    10.1137   102.6487
   33.5000   -60.3790  1547.7360     4.6309     5.2072     0.1006     0.3010     0.1042     2.4850    10.1137   103.1749
   34.0000   -60.4293  1529.4894     4.7332     5.2783     0.1023     0.3010     0.0884     2.4706    10.1137   104.0971
   34.5000   -60.4798  1517.6903     4.8385     5.3503     0.0974     0.3014     0.0810     2.4712    10.1137   106.0138
   35.0000   -60.5304  1505.9823     4.9462     5.4435     0.0970     0.3027     0.0981     2.4789    10.1137   106.9566
   35.5000   -60.5809  1494.3646     5.0562     5.5777     0.0966     0.3040     0.1137     2.4859    10.1137   105.2209
   36.0000   -60.6315  1482.8365     5.1688     5.7151     0.0924     0.3044     0.1142     2.4919    10.1137   103.3628
   36.5000   -60.6820  1471.3973     5.2838     5.8557     0.0915     0.3041     0.1111     2.4971    10.1137   102.1531
   37.0000   -60.7335  1460.0464     5.4014     5.9880     0.1014     0.3038     0.1071     2.4869    10.1137   103.0544
   37.5000   -60.7813  1447.3396     5.5156     6.1059     0.0989     0.3059     0.1026     2.4749    10.1137   103.9227
   38.0000   -60.7949  1419.2904     5.5492     6.2266     0.0938     0.3088     0.1162     2.4745    10.1137   104.3817
   38.5000   -61.1011  1384.2202     5.5890     6.3496     0.0900     0.3116     0.1251     2.4889    10.1137   104.7355
   39.0000   -61.1616  1352.6948     5.6180     6.4494     0.0975     0.3096     0.1079     2.4859    10.1137   105.0761
   39.5000   -61.0669  1256.7006     5.6914     6.3545     0.0959     0.3077     0.1011     2.4842    10.1137   104.8996
   40.0000   -60.9564  1094.6915     5.7759     6.3318     0.0914     0.3062     0.0844     2.4907    10.1137   104.0231
   40.5000   -60.8479   900.4161     5.8616     6.4495     0.0872     0.3055     0.1051     2.5005    10.1137   103.1526
   41.0000   -60.7395   246.8996     5.9486     6.5683     0.0846     0.3048     0.1227     2.5098    10.1137   102.2809
   41.5000   -60.6312    43.8731     6.0369     6.6894     0.0899     0.3022     0.1297     2.5094    10.1137   101.3732
   42.0000   -60.5229    18.9816     6.1265     6.8126     0.0978     0.2982     0.1192     2.4980    10.1137   101.3945
   42.5000   -60.4146    17.0770     6.2174     6.9381     0.0986     0.2959     0.1051     2.4866    10.1137   102.4017
   43.0000   -60.3063    16.0400     6.3097     7.0710     0.0905     0.2966     0.1238     2.4855    10.1137   103.6406
   43.5000   -60.1978    15.0477     6.3318     7.0710     0.0841     0.2990     0.1428     2.5057    10.1137   104.8185
   44.0000   -60.0852    14.4889     6.3008     7.0612     0.0793     0.3045     0.1523     2.5138    10.1137   104.5583
   44.5000   -60.0681    13.9747     6.2689     7.0528     0.0801     0.3100     0.1271     2.5138    10.1137   103.8841
   45.0000   -60.0787    13.4786     6.2372     7.0444     0.0873     0.3136     0.1193     2.5098    10.1137   103.3417
   45.5000   -60.0901    13.0000     6.2057     7.0360     0.1038     0.3108     0.1143     2.4923    10.1137   103.9825
   46.0000   -60.1013    12.5390     6.1743     7.0276     0.1101     0.3072     0.0841     2.4716    10.1137   105.5597
   46.5000   -60.1125    12.1262     6.1431     7.0194     0.1100     0.3070     0.0816     2.4589    10.1137   107.1397
   47.0000   -60.1236    11.7742     6.1120     7.0105     0.1081     0.3108     0.0925     2.4576    10.1137   107.1927
   47.5000   -60.1348    11.5152     6.0811     7.0065     0.1071     0.3077     0.1019     2.4577    10.1137   105.5185
   48.0000   -60.1460    11.7584     6.0503     7.0788     0.1071     0.3006     0.0944     2.4577    10.1137   104.6276
   48.5000   -60.1571    11.8374     6.0198     7.1298     0.1073     0.3015     0.0715     2.4584    10.1137   106.1620
   49.0000   -60.1683    11.2099     5.9917     7.1810     0.1044     0.3070     0.0797     2.4616    10.1137   108.0043
   49.5000   -60.1795    10.9974     6.0068     7.2325     0.1029     0.3104     0.0894     2.4656    10.1137   107.9583
   50.0000   -60.1906    11.0990     6.0289     7.2689     0.1113     0.3072     0.0920     2.4658    10.1137   107.6524
   50.5000   -60.2018    10.8277     6.0510     7.2081     0.1160     0.3022     0.0628     2.4540    10.1137   108.6141
   51.0000   -60.2129    10.5029     6.0733     7.1533     0.1131     0.3029     0.0585     2.4515    10.1137   110.0391
   51.5000   -60.2241    10.5940     6.0956     7.0989     0.1093     0.3059     0.0672     2.4563    10.1137   109.8029
   52.0000   -60.2353    10.7272     6.1180     7.0448     0.1054     0.3084     0.0771     2.4628    10.1137   108.9282
   52.5000   -60.2465    10.8967     6.1405     6.9912     0.1052     0.3104     0.0865     2.4696    10.1137   108.9569
   53.0000   -60.2576    10.8096     6.1631     6.9421     0.1076     0.3142     0.0882     2.4662    10.1137   110.7276
   53.5000   -60.2590    10.6825     6.1858     6.9649     0.1098     0.3169     0.0779     2.4559    10.1137   112.6055
   54.0000   -60.2590    10.5569     6.2085     6.9867     0.1087     0.3154     0.0570     2.4479    10.1137   112.3670
   54.5000   -60.2589    10.4328     6.2313     7.0084     0.0949     0.3173     0.0725     2.4912    10.1137   111.2175
   55.0000   -60.2635    10.3102     6.2543     7.0300     0.0847     0.3199     0.0904     2.5095    10.1137   110.4908
   55.5000   -60.2702    10.1890     6.2772     7.0518     0.0786     0.3183     0.1074     2.5257    10.1137   110.0847
   56.0000   -60.2771    10.1234     6.3003     7.0736     0.0746     0.3167     0.0944     2.5280    10.1137   109.5807
   56.5000   -60.2839    10.2474     6.3235     7.0955     0.0821     0.3176     0.0977     2.5091    10.1137   108.3493
   57.0000   -60.2906    10.3475     6.3467     7.1175     0.0993     0.3187     0.0806     2.4795    10.1137   107.0962
