~VERSION INFORMATION
 VERS.                2.0:   CWLS LOG ASCII STANDARD - VERSION 2.0
 WRAP.                 NO:   ONE LINE PER DEPTH STEP
~WELL INFORMATION
#MNEM.UNIT      DATA TYPE    INFORMATION
#----------   ------------   ------------------------------
 STRT.F           20.0000:   START DEPTH
 STOP.F          710.0000:   STOP DEPTH
 STEP.F            0.5000:   STEP LENGTH
 NULL.          -999.2500:   NO VALUE
 COMP. FENIX & SCISSON INC:   COMPANY
 WELL.     NPR-3 #42SX-34:   WELL
 FLD .             TEAPOT:   FIELD
 LOC .      S34 T39N R78W:   LOCATION
 CNTY.            NATRONA:   COUNTY
 STAT.            WYOMING:   STATE
 CTRY. UNITED STATES OF AMERICA:   COUNTRY
 SRVC.           BIRDWELL:   SERVICE COMPANY
 DATE.        30-AUG-1978:   LOGDATE
 API .       490251070800:   API NUMBER
~CURVE INFORMATION
#MNEM.UNIT       API CODE    CURVE DESCRIPTION
#----------   ------------   ------------------------------
 DEPT.F                  :   
 SPR .MV     05 010 01 00:   SPONTANEOUS POTENTIAL
 SN  .OHMM   05 040 16 00:   SHORT NORMAL 16'
 ILD .OHMM   05 120 46 00:   INDUCTION LOG DEEP RESISTIVITY
 GRD .GAPI   45 310 01 00:   GAMMA RAY FROM DENSITY LOG
 CALD.IN     45 280 60 00:   CALIPER
 RHOB.G/C3   45 350 01 00:   BULK DENSITY
 DPHI.DEC    45 890 12 00:   DENSITY POROSITY SANDSTONE
 CORR.G/C3   45 356 01 00:   DENSITY CORRECTION
~PARAMETER INFORMATION
#MNEM.UNIT          VALUE    DESCRIPTION
#----------   ------------   ------------------------------
 PD  .                 GL:   PERMANENT DATUM
 EPD .F              5079:   ELEVATION PERMANENT DATUM
 LMF .                 KB:   LOG MEASURED FROM
 DAPD.F                 4:   FEET ABOVE PERMANENT DATUM
 DMF .                 KB:   DRILLING MEASURED FROM
 EKB .F              5083:   KELLING BUSHING
 EGL .F              5079:   GROUND LEVEL
 DATE.            8-30-78:   RUN DATE
 RUN .                  1:   RUN NUMBER
 DD  .F               705:   DEPTH DRILLER
 DL  .F               708:   DEPTH LOGGER
 BLI .F               702:   BOTTOM LOG INTERVAL
 TLI .F                50:   TOP LOG INTERVAL
 CS  .IN            8.625:   CASING SIZE
 CBD .F                40:   CASING BOTTOM DRILLER
 CBL .F                40:   CASING BOTTOM LOGGER
 BS  .IN            7.875:   BIT SIZE
 BSD .F               705:   BIT SIZE AT DEPTH
 DFT .                KCL:   DRILLING FLUID TYPE
 DFD .                8.6:   DRILLING FLUID DENSITY
 DFV .                 34:   DRILLING FLUID VISCOSITY
 DFPH.                  9:   DRILLING FLUID PH
 DFL .                7.4:   DRILLING FLUID LOSS
 MSS .           FLOWLINE:   MUD SAMPLE SOURCE
 RMS .OHMM             .3:   RESISTIVITY MUD SAMPLE
 MST .F                80:   MUD SAMPLE TEMPERATURE
 RMF .OHMM             .4:   RESISTIVITY MUD FILTRATE SAMPLE
 MFST.F                80:   MUD FILTRATE SAMPLE TEMPERATURE
 RMC .OHMM             .5:   RESISTIVITY MUD CAKE
 MCST.F                82:   MUD CAKE SAMPLE TEMPERATURE
 MFSS.               MEAS:   MUD FILTRATE SAMPLE SOURCE
 MCSS.               MEAS:   MUD CAKE SAMPLE SOURCE
 RMB .OHMM            .32:   RESISTIVITY MUD AT BHT
 BHT .F                73:   BOTTOM HOLE TEMPERATURE
 TCS .HRS               3:   TIME CURCULATED STOPPED
 MRT .F                73:   MAXIMUM RECORDED TEMPERATURE
 LUN .               3006:   LOGGING UNIT NUMBER
 LUL .               CASP:   LOGGING UNIT LOCATION
 ENGI.            POINTER:   RECORDING ENGINEER
 WITN.              AMEND:   WITNESSED BY
 CLNT.            A2DTECH:   CLIENT CODE
 ORIG.           5" PRINT:   ORIGIN OF DATA
 UWI .       490251070800:   UNIQUE WELL ID
 DICO. A2D Technologies, Inc.:   DIGITIZING COMPANY
~OTHER INFORMATION
~A   DEPT      SPR         SN        ILD         GRD      CALD       RHOB       DPHI       CORR   
# ...
  465.5000   -46.5856    10.4002     9.3077    96.9345     8.6164     2.5290     0.0828     0.2324
  466.0000   -46.3958    10.3999     9.0945   100.3516     8.6384     2.5406     0.0724     0.2235
  466.5000   -46.2097    10.3999     8.8638   102.1417     8.6603     2.5582     0.0716     0.1916
  467.0000   -46.0100    10.3999     8.6390   100.5252     8.6823     2.5612     0.0778     0.1612
  467.5000   -45.8190    10.3999     8.4199    96.6866     8.7042     2.5608     0.0910     0.1309
  468.0000   -45.6178    10.3999     8.2064    93.9036     8.7244     2.5355     0.1041     0.1061
  468.5000   -45.3950     9.9987     7.9982    94.1885     8.7433     2.5087     0.1173     0.0998
  469.0000   -44.7294     9.5708     7.7954    94.7583     8.7624     2.4855     0.1304     0.0946
  469.5000   -43.9662     9.1613     7.5977    91.7615     8.7826     2.4728     0.1435     0.0908
  470.0000   -43.2000     8.5796     7.4050    93.1342     8.7902     2.4513     0.1572     0.1020
  470.5000   -42.4357     8.6215     7.1950    94.8344     8.7851     2.4297     0.1644     0.1082
  471.0000   -41.6704     9.1241     7.3288    97.1006     8.7811     2.4107     0.1538     0.1020
  471.5000   -41.0001     9.6559     7.9598    95.9676     8.7772     2.4585     0.1291     0.0958
  472.0000   -40.6872    10.2188     8.5759    92.6755     8.7730     2.4975     0.1076     0.0901
  472.5000   -40.4036    10.8145     9.2396    89.6493     8.7690     2.5075     0.1011     0.0888
  473.0000   -40.1261    11.4448     9.9547    86.6486     8.7649     2.5171     0.0984     0.0878
  473.5000   -39.8466    12.0512    10.7252    86.6349     8.7608     2.5217     0.0977     0.0867
  474.0000   -39.5682    12.3063    11.6153    84.7488     8.7568     2.5283     0.0972     0.0856
  474.5000   -39.2876    12.5059    11.6153    83.0618     8.7527     2.5186     0.1001     0.0846
  475.0000   -39.0069    12.8122    11.7444    81.5767     8.7487     2.5078     0.1034     0.0836
  475.5000   -38.7370    13.0826    11.9137    82.4679     8.7446     2.5052     0.1066     0.0824
  476.0000   -38.4402    13.3588    12.0854    84.6986     8.7406     2.5032     0.1098     0.0829
  476.5000   -38.1661    13.6408    12.2752    89.8619     8.7365     2.5011     0.1164     0.0853
  477.0000   -37.4749    13.9286    12.9365    95.3547     8.7324     2.4982     0.1243     0.0878
  477.5000   -36.8555    14.2281    13.7032   102.8491     8.7284     2.4863     0.1322     0.0901
  478.0000   -36.2058    15.1538    14.5154   100.6610     8.7242     2.4690     0.1402     0.0960
  478.5000   -35.5654    16.1642    15.3758    85.4734     8.7204     2.4511     0.1481     0.1017
  479.0000   -34.9262    17.2420    16.2871    72.0444     8.7165     2.4331     0.1564     0.1076
  479.5000   -34.2841    18.3916    17.2525    58.3678     8.7108     2.4154     0.1734     0.1133
  480.0000   -33.6456    19.6180    18.2750    44.5118     8.7242     2.3899     0.1913     0.1194
  480.5000   -32.9994    20.9260    19.3582    37.8487     8.7495     2.3524     0.2092     0.1249
  481.0000   -32.3627    22.1101    20.5056    39.8338     8.7732     2.3217     0.2303     0.1296
  481.5000   -31.8102    23.0526    21.7209    36.8604     8.7915     2.3057     0.2277     0.1278
  482.0000   -31.7313    24.0353    23.0083    35.1938     8.7953     2.3076     0.2223     0.1152
  482.5000   -31.6577    24.7542    23.8248    39.8643     8.7991     2.3362     0.2172     0.0928
  483.0000   -31.5988    24.8618    24.3166    39.4340     8.8025     2.3262     0.2332     0.0818
  483.5000   -31.5353    24.9698    24.8497    39.0849     8.8060     2.3040     0.2232     0.0788
  484.0000   -31.4706    25.0784    25.3945    39.0007     8.8095     2.3238     0.2121     0.0600
  484.5000   -31.4079    25.1874    25.9512    39.6252     8.8130     2.2984     0.2316     0.0621
  485.0000   -31.3443    25.2968    26.6091    40.3159     8.8164     2.3073     0.2132     0.0549
  485.5000   -31.2806    25.4068    26.7838    40.9045     8.8198     2.3261     0.2186     0.0400
  486.0000   -31.2166    25.5172    27.1546    41.1111     8.8235     2.3183     0.2332     0.0352
  486.5000   -31.1526    25.6282    27.6205    38.1728     8.8269     2.3093     0.2220     0.0402
  487.0000   -31.0886    25.7395    27.5457    35.9522     8.8298     2.3153     0.2237     0.0444
  487.5000   -31.0246    25.8514    27.4304    35.9580     8.8395     2.3114     0.2265     0.0431
  488.0000   -30.9606    25.9638    27.3140    37.6279     8.8626     2.3054     0.2293     0.0362
  488.5000   -30.8966    26.0767    27.1973    39.4391     8.8850     2.3159     0.2320     0.0294
  489.0000   -30.8326    26.1373    27.0810    42.4114     8.9078     2.2987     0.2347     0.0228
  489.5000   -30.7686    26.2067    26.9630    47.2677     8.9300     2.2979     0.2296     0.0180
  490.0000   -30.7046    26.2763    26.8463    51.8795     8.9509     2.2989     0.2247     0.0180
  490.5000   -30.6406    26.3460    26.7301    50.7483     8.9516     2.3033     0.2197     0.0180
  491.0000   -30.5765    26.4159    26.6091    48.5988     8.9522     2.3164     0.2148     0.0180
  491.5000   -30.5124    26.4860    26.6091    46.2407     8.9518     2.3336     0.2086     0.0179
  492.0000   -30.4484    26.5563    27.3697    46.8734     8.9519     2.3246     0.2161     0.0180
  492.5000   -30.3844    26.6091    28.1210    48.7605     8.9519     2.3129     0.2277     0.0180
  493.0000   -30.3196    26.5047    28.6438    52.5205     8.9518     2.3099     0.2393     0.0177
  493.5000   -30.2560    26.3834    28.8799    52.6498     8.9518     2.2841     0.2500     0.0208
  494.0000   -30.2005    26.2641    29.2517    51.7354     8.9518     2.2673     0.2549     0.0262
  494.5000   -30.2002    26.1449    29.6276    50.2568     8.9518     2.2613     0.2612     0.0345
  495.0000   -30.1971    26.0258    30.0052    48.8422     8.9518     2.2573     0.2596     0.0494
  495.5000   -30.1968    25.9072    30.3834    44.7473     8.9489     2.2540     0.2578     0.0644
  496.0000   -30.2353    25.7896    30.7968    41.9432     8.9448     2.2607     0.2521     0.0728
  496.5000   -30.3598    25.6731    31.3608    40.4655     8.9408     2.2864     0.2356     0.0768
  497.0000   -30.4992    25.2233    32.0498    41.0495     8.9367     2.3042     0.2275     0.0809
  497.5000   -30.6250    24.6747    31.9396    42.9295     8.9327     2.3086     0.2200     0.0851
  498.0000   -30.9786    24.1379    31.3627    44.7256     8.9286     2.3225     0.2091     0.0852
  498.5000   -31.2784    23.6129    29.3518    46.7500     8.9246     2.3478     0.1929     0.0841
  499.0000   -31.6172    23.0993    28.2087    51.9974     8.9205     2.3713     0.1768     0.0830
  499.5000   -31.8336    22.5968    27.1098    58.4308     8.9165     2.3961     0.1700     0.0819
  500.0000   -31.8550    22.1053    26.0526    60.2149     8.9124     2.4040     0.1666     0.0808
  500.5000   -31.9004    21.6245    25.0346    61.8563     8.9084     2.4109     0.1633     0.0797
  501.0000   -31.9463    21.1529    24.0473    63.4380     8.9043     2.4115     0.1596     0.0786
  501.5000   -31.9864    20.6925    23.1023    63.1566     8.9003     2.4137     0.1668     0.0775
  502.0000   -32.0297    20.5588    22.1325    62.7938     8.8962     2.4037     0.1748     0.0764
  502.5000   -32.0725    20.5588    22.1325    62.3154     8.8922     2.3881     0.1807     0.0753
  503.0000   -32.1148    20.5591    22.0881    61.8877     8.8882     2.3811     0.1867     0.0742
  503.5000   -32.1577    20.5597    21.9718    61.4766     8.8841     2.3741     0.1931     0.0732
  504.0000   -32.2006    20.5607    21.8561    61.0173     8.8802     2.3668     0.1878     0.0721
  504.5000   -32.2434    20.5620    21.7285    60.5809     8.8760     2.3728     0.1805     0.0710
  505.0000   -32.2863    20.5603    22.0232    60.2707     8.8714     2.3841     0.1826     0.0699
  505.5000   -32.3291    20.5603    22.6199    58.4728     8.8573     2.3800     0.1862     0.0688
