~VERSION INFORMATION
 VERS.                2.0:   CWLS LOG ASCII STANDARD - VERSION 2.0
 WRAP.                 NO:   ONE LINE PER DEPTH STEP
~WELL INFORMATION
#MNEM.UNIT      DATA TYPE    INFORMATION
#----------   ------------   ------------------------------
 STRT.F            3.0000:   START DEPTH
 STOP.F         3449.0000:   STOP DEPTH
 STEP.F            0.5000:   STEP LENGTH
 NULL.          -999.2500:   NO VALUE
 COMP. LAWRENCE/ALLISON INC:   COMPANY
 WELL.       NPR 3 #24-10:   WELL
 FLD .             TEAPOT:   FIELD
 LOC .      S10 T38N R78W:   LOCATION
 CNTY.            NATRONA:   COUNTY
 STAT.            WYOMING:   STATE
 CTRY. UNITED STATES OF AMERICA:   COUNTRY
 SRVC.      Dresser Atlas:   SERVICE COMPANY
 DATE.        28-JUL-1985:   LOGDATE
 API .       490251104400:   API NUMBER
~CURVE INFORMATION
#MNEM.UNIT       API CODE    CURVE DESCRIPTION
#----------   ------------   ------------------------------
 DEPT.F                  :   
 PORD.DEC    45 890 12 00:   POROSITY DENSITY SANDSTONE
 CNC .DEC    42 890 03 00:   NEUTRON POROSITY SANDSTONE
 CORR.G/C3   45 356 01 00:   DENSITY CORRECTION
 DEN .G/C3   45 350 01 00:   COMPENSATED BULK DENSTIY
 AC  .US/F   60 520 00 00:   ACCOUSTIC
 CALR.IN     07 280 01 00:   CALIPER FROM RESISTIVITY
 GRR .GAPI   07 310 01 00:   GAMMA RAY
 RFOC.OHMM   07 220 04 00:   RESISTIVITY FOCUSED LOG
 RILD.OHMM   07 120 46 00:   INDUCTION LOG DEEP RESISTIVITY
 RILM.OHMM   07 120 44 00:   INDUCTION LOG MEDIUM RESISTIVITY
 SPR .MV     07 010 01 00:   SPONTANEOUS POTENTIAL
~PARAMETER INFORMATION
#MNEM.UNIT          VALUE    DESCRIPTION
#----------   ------------   ------------------------------
 PD  .                 GL:   PERMANENT DATUM
 EPD .F              5242:   ELEVATION PERMANENT DATUM
 LMF .                 KB:   LOG MEASURED FROM
 DAPD.F                13:   FEET ABOVE PERMANENT DATUM
 DMF .                 KB:   DRILLING MEASURED FROM
 EKB .F              5255:   KELLING BUSHING
 EGL .F              5242:   GROUND LEVEL
 DATE.        28-JUL-1985:   RUN DATE
 RUN .                  1:   RUN NUMBER
 DD  .F              3451:   DEPTH DRILLER
 DL  .F              3451:   DEPTH LOGGER
 BLI .F              3449:   BOTTOM LOG INTERVAL
 CS  .IN            8.625:   CASING SIZE
 CBD .F               688:   CASING BOTTOM DRILLER
 CBL .F               686:   CASING BOTTOM LOGGER
 BS  .IN            7.875:   BIT SIZE
 BSD .F              3451:   BIT SIZE AT DEPTH
 DFT .            KCL GEL:   DRILLING FLUID TYPE
 DFD .                8.9:   DRILLING FLUID DENSITY
 DFV .                 40:   DRILLING FLUID VISCOSITY
 DFPH.                8.0:   DRILLING FLUID PH
 DFL .                 10:   DRILLING FLUID LOSS
 MSS .           FLOWLINE:   MUD SAMPLE SOURCE
 RMS .OHMM           0.87:   RESISTIVITY MUD SAMPLE
 MST .F                92:   MUD SAMPLE TEMPERATURE
 RMF .OHMM             65:   RESISTIVITY MUD FILTRATE SAMPLE
 MFST.F                92:   MUD FILTRATE SAMPLE TEMPERATURE
 RMC .OHMM           1.09:   RESISTIVITY MUD CAKE
 MCST.F                92:   MUD CAKE SAMPLE TEMPERATURE
 MFSS.               CALC:   MUD FILTRATE SAMPLE SOURCE
 MCSS.               CALC:   MUD CAKE SAMPLE SOURCE
 RMB .OHMM            .66:   RESISTIVITY MUD AT BHT
 BHT .F               121:   BOTTOM HOLE TEMPERATURE
 TCS .HRS               4:   TIME CURCULATED STOPPED
 MRT .F               121:   MAXIMUM RECORDED TEMPERATURE
 LUN .               6264:   LOGGING UNIT NUMBER
 LUL .               GLTE:   LOGGING UNIT LOCATION
 ENGI.           FAHLSING:   RECORDING ENGINEER
 WITN.             STRONG:   WITNESSED BY
 CLNT.            A2DTECH:   CLIENT CODE
 ORIG.        2" 5" PRINT:   ORIGIN OF DATA
 UWI .       490251104400:   UNIQUE WELL ID
 DICO. A2D Technologies, Inc.:   DIGITIZING COMPANY
 R1  . POROSITY WITH SANDSTONE:   REMARKS 1
~OTHER INFORMATION
~A    DEPT    PORD        CNC       CORR        DEN         AC       CALR         GRR      RFOC       RILD       RILM        SPR   
# ...
 2870.0000     0.0692     0.1714     0.0765     2.5312    71.0759     8.3318    72.0362    22.5969    16.5338    16.2329   -31.7771
 2870.5000     0.0810     0.1997     0.0766     2.5265    69.5308     8.3618    82.5575    22.5008    15.5308    15.1420   -32.8313
 2871.0000     0.0870     0.2102     0.0662     2.5106    69.6531     8.3919    90.9783    19.5358    14.7927    14.3224   -34.0361
 2871.5000     0.0885     0.2126     0.0603     2.5016    71.0498     8.4068    93.5361    16.2280    14.1879    13.4532   -34.9398
 2872.0000     0.0858     0.2099     0.0589     2.4988    73.0831     8.4217    91.9552    13.8218    13.6078    12.9032   -35.5422
 2872.5000     0.0831     0.2069     0.0607     2.5083    74.8115     8.4215    92.6362    13.1182    12.9611    12.4621   -35.9940
 2873.0000     0.0783     0.2039     0.0654     2.5177    75.3359     8.4214    93.9959    13.0239    12.2597    12.2047   -36.2952
 2873.5000     0.0735     0.2004     0.0743     2.5230    75.3337     8.4062    95.3556    12.9303    11.5159    11.8698   -36.5964
 2874.0000     0.0726     0.1928     0.0849     2.5283    75.3314     8.4060    94.6791    12.9268    10.8173    11.6247   -36.7568
 2874.5000     0.0747     0.1970     0.0865     2.5298    75.4050     8.4059    95.5863    12.8339    10.5202    11.3846   -37.0482
 2875.0000     0.0741     0.2063     0.0836     2.5275    75.3269     8.4057    98.3035    12.7417    10.3743    11.1495   -37.1988
 2875.5000     0.0729     0.2141     0.1108     2.5291    75.2495     8.3905   101.0206    12.6501    10.2305    10.8416   -37.3494
 2876.0000     0.0759     0.2153     0.1139     2.5298    75.2472     8.3753   103.0590    12.3006    10.1590    10.6195   -37.6506
 2876.5000     0.0829     0.2156     0.0779     2.5163    75.2450     8.3449   104.1925    11.6335    10.0182    10.4670   -37.9518
 2877.0000     0.0907     0.2153     0.0449     2.4974    75.3185     8.3297   105.0997    11.1563     9.8109    10.3281   -38.2530
 2877.5000     0.0901     0.2120     0.0495     2.4944    75.3930     8.2843   103.9707    10.9996     9.5414    10.1854   -38.7048
 2878.0000     0.0859     0.2078     0.0752     2.5050    75.6068     8.2540   101.7105    10.9213     9.4083    10.1036   -39.1566
 2878.5000     0.0762     0.2045     0.0919     2.5201    75.6128     8.2388   100.1290    11.0708     9.2116     9.8931   -39.6084
 2879.0000     0.0723     0.2033     0.0965     2.5269    75.4595     8.2229    99.0000    11.2996     9.0238     9.8372   -39.6084
 2879.5000     0.0714     0.2027     0.0981     2.5299    75.3067     8.2083    99.0023    11.4543     9.0232     9.8372   -39.6084
 2880.0000     0.0763     0.2018     0.0922     2.5269    75.3803     8.2232    99.0045    11.1378     9.2125     9.9234   -39.4578
 2880.5000     0.0769     0.1944     0.0697     2.5239    75.6032     8.2382    97.1620    10.6071     9.4166    10.1867   -39.3072
 2881.0000     0.0703     0.1803     0.0608     2.5232    75.6768     8.2531    93.2617    10.0319     9.7507    10.4728   -39.1566
 2881.5000     0.0654     0.1576     0.0624     2.5338    75.4482     8.2529    87.4272     9.6203    10.2931    11.0722   -39.1566
 2882.0000     0.0590     0.1378     0.0685     2.5474    74.0163     8.2528    80.2357     9.5518    10.8052    11.8698   -39.0060
 2882.5000     0.0517     0.1363     0.0731     2.5595    71.9072     8.2526    75.0344    10.9693    11.2643    12.9032   -39.1566
 2883.0000     0.0443     0.1372     0.0777     2.5716    70.0991     8.2374    73.2266    13.2247    11.8247    13.6416   -39.3072
 2883.5000     0.0266     0.1396     0.0839     2.5897    67.9900     8.2222    72.5496    15.2939    12.4130    14.0266   -39.4602
 2884.0000     0.0230     0.1417     0.0915     2.6063    65.9562     8.2220    72.7786    16.7323    12.7618    14.1245   -39.7590
 2884.5000     0.0245     0.1435     0.0916     2.6139    65.2767     8.2219    74.8171    17.9290    12.8501    14.1245   -39.7590
 2885.0000     0.0339     0.1492     0.0745     2.5995    65.5755     8.2217    78.6654    16.4927    12.7600    13.7369   -39.7590
 2885.5000     0.0393     0.1586     0.0614     2.5889    66.6266     8.2216    83.4188    14.5531    12.5831    12.9933   -39.7590
 2886.0000     0.0366     0.1664     0.0648     2.5845    68.0540     8.2214    90.2084    13.7638    12.2375    12.3757   -39.6084
 2886.5000     0.0303     0.1772     0.0860     2.5922    68.8795     8.2213    96.3192    14.0493    11.2581    11.5441   -39.7590
 2887.0000     0.0276     0.1929     0.1132     2.5990    69.7352     8.2362   101.9775    14.1457    10.3570    10.2565   -39.9096
 2887.5000     0.0312     0.2136     0.1224     2.6027    70.8064     8.2360   107.8621    12.3936     9.4621     8.9867   -40.0602
 2888.0000     0.0408     0.2277     0.0924     2.5928    72.6300     8.2359   115.5567    10.9319     8.4077     8.3230   -40.3614
 2888.5000     0.0514     0.2284     0.0789     2.5747    74.9649     8.2508   123.9299    10.2602     7.8430     8.0401   -40.3614
 2889.0000     0.0574     0.2281     0.0745     2.5627    76.4676     8.2658   132.9820     9.4986     7.4703     7.8740   -40.3614
 2889.5000     0.0565     0.2275     0.0806     2.5544    77.9702     8.2656   139.9978     8.6664     7.1648     7.7057   -40.3614
 2890.0000     0.0572     0.2254     0.0898     2.5514    79.7739     8.2805   143.6199     7.9736     6.8719     7.4998   -40.3614
 2890.5000     0.0598     0.2178     0.0929     2.5507    80.1484     8.2804   134.0037     7.4492     6.7766     7.4478   -40.3614
 2891.0000     0.0526     0.2037     0.0824     2.5499    79.5436     8.2652   124.8671     7.6320     6.7292     7.4998   -40.3614
 2891.5000     0.0388     0.1685     0.0780     2.5597    78.7137     8.2499   114.1577     7.9336     6.7757     7.6579   -40.3614
 2892.0000     0.0279     0.1514     0.0902     2.5816    76.8303     8.2347    98.8330     7.9309     6.9179     7.9843   -40.3614
 2892.5000     0.0249     0.1430     0.0451     2.5983    72.7649     8.2194    82.3194     8.3231     7.2118     8.5002   -40.3614
 2893.0000     0.0315     0.1397     0.0061     2.6073    68.8499     8.2193    75.5343    10.2454     7.7839     9.0494   -40.3614
 2893.5000     0.0466     0.1412    -0.0014     2.5915    64.4835     8.2191    74.1785    14.9993     8.3432     9.5673   -40.2108
 2894.0000     0.0653     0.1634    -0.0013     2.5666    63.2021     8.2190    85.7198    17.2263     8.7583    10.0447   -40.2007
 2894.5000     0.0707     0.1794    -0.0012     2.5463    65.2314     8.2188    93.8668    14.9910     9.2586    10.4002   -40.0602
 2895.0000     0.0728     0.1866     0.0020     2.5319    67.9380     8.2187    97.9415    11.6755     9.5204    10.5459   -39.9096
 2895.5000     0.0710     0.1903     0.0096     2.5297    69.3957     8.2035    97.7169    11.4320     9.7223    10.6195   -39.9096
 2896.0000     0.0620     0.1927     0.0384     2.5350    70.9435     8.2033    98.3984    11.1161     9.8533    10.6195   -39.9096
 2896.5000     0.0516     0.1962     0.0552     2.5539    71.9947     8.1730    99.7581    10.8090     9.8526    10.6195   -39.9096
 2897.0000     0.0407     0.1989     0.0674     2.5720    72.5192     8.1427   101.1178    10.5835     9.8519    10.6937   -39.9096
 2897.5000     0.0322     0.1974     0.0818     2.5871    72.7426     8.1124   102.2513    10.4348     9.8512    10.8435   -39.6084
 2898.0000     0.0286     0.1842     0.1060     2.5977    72.8908     8.0820   102.7054    10.5046     9.9614    10.9954   -39.4578
 2898.5000     0.0268     0.1767     0.1217     2.6015    72.8134     8.0819    98.8621    10.7971     9.9600    11.2273   -39.3072
 2899.0000     0.0259     0.1761     0.1248     2.6022    72.5101     8.0817    95.0182    11.0978     9.9587    11.3057   -39.0060
 2899.5000     0.0256     0.1800     0.1174     2.6053    71.8307     8.0816    93.2104    11.9742     9.9573    10.9954   -38.7048
 2900.0000     0.0283     0.1890     0.1095     2.6045    70.7750     8.0805    99.7738    13.3758     9.8870    10.6282   -38.5406
