~VERSION INFORMATION
 VERS.                2.0:   CWLS LOG ASCII STANDARD - VERSION 2.0
 WRAP.                 NO:   ONE LINE PER DEPTH STEP
~WELL INFORMATION
#MNEM.UNIT      DATA TYPE    INFORMATION
#----------   ------------   ------------------------------
 STRT.F           20.0000:   START DEPTH
 STOP.F         2420.0000:   STOP DEPTH
 STEP.F            0.5000:   STEP LENGTH
 NULL.          -999.2500:   NO VALUE
 COMP. FENIX & SCISSON INC:   COMPANY
 WELL.    SHX 15 #71-1-15:   WELL
 FLD .             TEAPOT:   FIELD
 LOC .      S15 T38N R78W:   LOCATION
 CNTY.            NATRONA:   COUNTY
 STAT.            WYOMING:   STATE
 CTRY. UNITED STATES OF AMERICA:   COUNTRY
 SRVC.           BIRDWELL:   SERVICE COMPANY
 DATE.        03-SEP-1978:   LOGDATE
 API .       490251081800:   API NUMBER
~CURVE INFORMATION
#MNEM.UNIT       API CODE    CURVE DESCRIPTION
#----------   ------------   ------------------------------
 DEPT.F                  :   
 CALD.IN     45 280 60 00:   CALIPER
 GRD .GAPI   45 310 01 00:   GAMMA RAY FROM DENSITY LOG
 RHOB.G/C3   45 350 01 00:   BULK DENSITY
 DPHI.DEC    45 890 12 00:   DENSITY POROSITY SANDSTONE
 CORR.G/C3   45 356 01 00:   DENSITY CORRECTION
 NPHI.DEC    42 890 03 00:   NEUTRON POROSITY
~PARAMETER INFORMATION
#MNEM.UNIT          VALUE    DESCRIPTION
#----------   ------------   ------------------------------
 PD  .                 GL:   PERMANENT DATUM
 EPD .F              5249:   ELEVATION PERMANENT DATUM
 LMF .                 KB:   LOG MEASURED FROM
 DAPD.F                10:   FEET ABOVE PERMANENT DATUM
 DMF .                 KB:   DRILLING MEASURED FROM
 EKB .F              5259:   KELLING BUSHING
 EGL .F              5249:   GROUND LEVEL
 DATE.             9-3-78:   RUN DATE
 RUN .                  1:   RUN NUMBER
 DD  .F              2450:   DEPTH DRILLER
 DL  .F              2422:   DEPTH LOGGER
 BLI .F              2420:   BOTTOM LOG INTERVAL
 TLI .F                50:   TOP LOG INTERVAL
 CS  .IN            9.625:   CASING SIZE
 CBD .F               650:   CASING BOTTOM DRILLER
 CBL .F               676:   CASING BOTTOM LOGGER
 BS  .IN             8.75:   BIT SIZE
 BSD .F              2450:   BIT SIZE AT DEPTH
 DFT .           AIR MIST:   DRILLING FLUID TYPE
 LUN .               2958:   LOGGING UNIT NUMBER
 LUL .               CASP:   LOGGING UNIT LOCATION
 ENGI.             MILLER:   RECORDING ENGINEER
 WITN.           MCGINLEY:   WITNESSED BY
 CLNT.            A2DTECH:   CLIENT CODE
 ORIG.         2.5" PRINT:   ORIGIN OF DATA
 UWI .       490251081800:   UNIQUE WELL ID
 DICO. A2D Technologies, Inc.:   DIGITIZING COMPANY
~OTHER INFORMATION
~A   DEPT     CALD        GRD       RHOB       DPHI       CORR         NPHI 
# ...
 1788.0000    11.7801   131.4972     2.5005     0.0799     0.0917  -999.2500
 1788.5000    11.7797   130.6965     2.4958     0.0861     0.0613  -999.2500
 1789.0000    11.7765   129.7217     2.4937     0.0923     0.0429  -999.2500
 1789.5000    11.7735   128.7362     2.4938     0.1004     0.0426  -999.2500
 1790.0000    11.7704   128.3521     2.4962     0.0979     0.0413  -999.2500
 1790.5000    11.7673   128.8754     2.4946     0.0942     0.0424  -999.2500
 1791.0000    11.7642   131.1275     2.4924     0.0900     0.0421  -999.2500
 1791.5000    11.7610   134.4269     2.4899     0.0924     0.0569  -999.2500
 1792.0000    11.7579   133.4938     2.4873     0.0977     0.0745  -999.2500
 1792.5000    11.7548   130.7253     2.4870     0.1013     0.0872  -999.2500
 1793.0000    11.7516   128.7577     2.4938     0.1014     0.1105  -999.2500
 1793.5000    11.7486   131.9947     2.5246     0.0780     0.1493  -999.2500
 1794.0000    11.7454   137.2631     2.5818     0.0464     0.1652  -999.2500
 1794.5000    11.7419   135.6646     2.5720     0.0464     0.1282  -999.2500
 1795.0000    11.7444   132.3394     2.5053     0.0566     0.0867  -999.2500
 1795.5000    11.7604   129.0806     2.5008     0.0717     0.0242  -999.2500
 1796.0000    11.7779   127.7996     2.5014     0.0930     0.0119  -999.2500
 1796.5000    11.7859   127.6462     2.5117     0.0920     0.0047  -999.2500
 1797.0000    11.8023   127.8716     2.5079     0.0908     0.0065  -999.2500
 1797.5000    11.8170   127.9859     2.5063     0.0919     0.0068  -999.2500
 1798.0000    11.8323   128.0841     2.5035     0.0856     0.0211  -999.2500
 1798.5000    11.8484   127.7855     2.5234     0.0701     0.0366  -999.2500
 1799.0000    11.8603   129.8703     2.5334     0.0732     0.0400  -999.2500
 1799.5000    11.8864   131.4111     2.5266     0.0782     0.0351  -999.2500
 1800.0000    11.9201   132.8037     2.5187     0.0844     0.0303  -999.2500
 1800.5000    11.9536   135.5578     2.5113     0.0896     0.0302  -999.2500
 1801.0000    11.9867   139.5908     2.5070     0.0948     0.0298  -999.2500
 1801.5000    12.0201   141.6636     2.5009     0.0980     0.0301  -999.2500
 1802.0000    12.0534   137.4998     2.4943     0.1006     0.0304  -999.2500
 1802.5000    12.0868   134.0619     2.4863     0.1021     0.0355  -999.2500
 1803.0000    12.1201   136.0303     2.4957     0.0989     0.0397  -999.2500
 1803.5000    12.1534   138.1678     2.5000     0.0938     0.0442  -999.2500
 1804.0000    12.1867   140.4346     2.5025     0.0877     0.0478  -999.2500
 1804.5000    12.2199   141.4286     2.5114     0.0776     0.0504  -999.2500
 1805.0000    12.2499   140.7489     2.5226     0.0725     0.0538  -999.2500
 1805.5000    12.2804   137.3630     2.5312     0.0739     0.0519  -999.2500
 1806.0000    12.3097   133.6019     2.5233     0.0750     0.0495  -999.2500
 1806.5000    12.3384   131.4405     2.5301     0.0766     0.0418  -999.2500
 1807.0000    12.3397   131.8120     2.5256     0.0789     0.0356  -999.2500
 1807.5000    12.3407   131.8923     2.5217     0.0813     0.0282  -999.2500
 1808.0000    12.3393   132.2776     2.5248     0.0806     0.0283  -999.2500
 1808.5000    12.3406   136.5892     2.5264     0.0794     0.0335  -999.2500
 1809.0000    12.3425   140.2087     2.5259     0.0789     0.0380  -999.2500
 1809.5000    12.3749   140.2151     2.5272     0.0813     0.0425  -999.2500
 1810.0000    12.4040   138.5949     2.5206     0.0833     0.0477  -999.2500
 1810.5000    12.4217   136.8484     2.5149     0.0869     0.0490  -999.2500
 1811.0000    12.4196   136.2956     2.5097     0.0928     0.0451  -999.2500
 1811.5000    12.4200   135.7140     2.5020     0.0988     0.0426  -999.2500
 1812.0000    12.4204   136.2140     2.4928     0.1036     0.0389  -999.2500
 1812.5000    12.4200   137.5213     2.4690     0.1146     0.0410  -999.2500
 1813.0000    12.4204   136.7798     2.4456     0.1238     0.0454  -999.2500
 1813.5000    12.4202   136.2057     2.4336     0.1329     0.0523  -999.2500
 1814.0000    12.4197   135.9480     2.4246     0.1402     0.0587  -999.2500
 1814.5000    12.4213   140.4986     2.3903     0.1485     0.0785  -999.2500
 1815.0000    12.4186   141.9505     2.3596     0.1553     0.1091  -999.2500
 1815.5000    12.4116   136.9276     2.3354     0.1649     0.1346  -999.2500
 1816.0000    12.2057   131.5898     2.3496     0.1602     0.1678  -999.2500
 1816.5000    12.0908   124.8739     2.4886     0.1118     0.2530  -999.2500
 1817.0000    12.0778   122.9856     2.5128     0.0857     0.0470  -999.2500
 1817.5000    12.0534   126.0846     2.5184     0.0825     0.0619  -999.2500
 1818.0000    12.0284   128.9686     2.5177     0.0811     0.0454  -999.2500
 1818.5000    12.0063   132.6764     2.5226     0.0806     0.0512  -999.2500
 1819.0000    11.9820   137.5800     2.5252     0.0803     0.0442  -999.2500
 1819.5000    11.9584   140.3859     2.5224     0.0799     0.0436  -999.2500
 1820.0000    11.9403   139.1855     2.5161     0.0796     0.0418  -999.2500
 1820.5000    11.9402   134.9005     2.5091     0.0815     0.0393  -999.2500
 1821.0000    11.9398   131.8622     2.5114     0.0831     0.0376  -999.2500
 1821.5000    11.9400   129.9804     2.5203     0.0846     0.0357  -999.2500
 1822.0000    11.9400   131.0602     2.5169     0.0887     0.0320  -999.2500
 1822.5000    11.9399   133.0669     2.5133     0.0943     0.0258  -999.2500
 1823.0000    11.9400   132.0178     2.5138     0.0988     0.0210  -999.2500
 1823.5000    11.9399   130.6562     2.5145     0.1012     0.0178  -999.2500
 1824.0000    11.9399   128.9435     2.5156     0.1020     0.0254  -999.2500
 1824.5000    11.9402   127.2923     2.5162     0.0821     0.0212  -999.2500
 1825.0000    11.9396   128.2779     2.5165     0.0817     0.0152  -999.2500
 1825.5000    11.9403   129.8732     2.5112     0.0813     0.0093  -999.2500
 1826.0000    11.9421   132.2191     2.5068     0.0797     0.0026  -999.2500
 1826.5000    11.9710   131.5960     2.5022     0.0788     0.0008  -999.2500
 1827.0000    11.9943   130.7943     2.4971     0.0804    -0.0006  -999.2500
 1827.5000    12.0190   133.8192     2.4930     0.0815    -0.0012  -999.2500
 1828.0000    12.0234   139.2329     2.4905     0.0821     0.0140  -999.2500
 1828.5000    12.0274   144.3712     2.5195     0.0886     0.0223  -999.2500
 1829.0000    12.0307   143.2235     2.5148     0.0913     0.0169  -999.2500
 1829.5000    12.0343   138.8348     2.5014     0.0905     0.0120  -999.2500
 1830.0000    12.0379   134.2322     2.4978     0.0892     0.0071  -999.2500
 1830.5000    12.0414   132.0112     2.5008     0.0923     0.0022  -999.2500
 1831.0000    12.0450   130.2776     2.4951     0.0949     0.0021  -999.2500
 1831.5000    12.0485   132.0901     2.4898     0.0975     0.0019  -999.2500
 1832.0000    12.0521   133.4838     2.4852     0.0996     0.0019  -999.2500
 1832.5000    12.0557   133.6598     2.4922     0.0900     0.0028  -999.2500
 1833.0000    12.0599   135.4126     2.5020     0.0869     0.0068  -999.2500
 1833.5000    12.0748   136.3319     2.5041     0.0878     0.0121  -999.2500
 1834.0000    12.0937   137.1217     2.4931     0.0885     0.0169  -999.2500
 1834.5000    12.1127   137.1476     2.4979     0.0892     0.0218  -999.2500
 1835.0000    12.1312   140.2700     2.5011     0.0900     0.0219  -999.2500
 1835.5000    12.1498   145.6213     2.4991     0.0907     0.0222  -999.2500
 1836.0000    12.1704   147.9935     2.4963     0.0916     0.0219  -999.2500
 1836.5000    12.1748   145.8061     2.4974     0.0912     0.0214  -999.2500
 1837.0000    12.1562   143.0459     2.5063     0.0906     0.0156  -999.2500
 1837.5000    12.1400   141.0391     2.5012     0.0900     0.0123  -999.2500
 1838.0000    12.1237   140.4259     2.4941     0.0964     0.0084  -999.2500
 1838.5000    12.1057   141.0813     2.4867     0.0982     0.0050  -999.2500
 1839.0000    12.1046   140.3402     2.4812     0.1004     0.0019  -999.2500
 1839.5000    12.1154   138.7588     2.4805     0.1026     0.0042  -999.2500
