~VERSION INFORMATION
 VERS.                2.0:   CWLS LOG ASCII STANDARD - VERSION 2.0
 WRAP.                 NO:   ONE LINE PER DEPTH STEP
~WELL INFORMATION
#MNEM.UNIT      DATA TYPE    INFORMATION
#----------   ------------   ------------------------------
 STRT.F          276.0000:   START DEPTH
 STOP.F         2768.0000:   STOP DEPTH
 STEP.F            0.5000:   STEP LENGTH
 NULL.          -999.2500:   NO VALUE
 COMP.       TESORD PETRO:   COMPANY
 WELL. AX-20 NPR #3 #83-20:   WELL
 FLD .            WILDCAT:   FIELD
 LOC .      S20 T39N R78W:   LOCATION
 CNTY.            NATRONA:   COUNTY
 STAT.            WYOMING:   STATE
 CTRY. UNITED STATES OF AMERICA:   COUNTRY
 SRVC.       Schlumberger:   SERVICE COMPANY
 DATE.        20-JUL-1971:   LOGDATE
 API .       490251022000:   API NUMBER
~CURVE INFORMATION
#MNEM.UNIT       API CODE    CURVE DESCRIPTION
#----------   ------------   ------------------------------
 DEPT.F                  :   
 SPR .MV     05 010 01 00:   SPONTANEOUS POTENTIAL FROM RES.
 ASN .OHMM   05 041 16 00:   AMPLIFIED SHORT NORMAL 16"
 ILD .OHMM   05 120 46 00:   INDUCTION LOG DEEP
 CALD.IN     45 280 60 00:   CALIPER FROM DENSITY
 CORR.G/C3   45 356 01 00:   DENSITY CORRECTION
 DPHI.DEC    45 890 12 00:   DENSITY POROSITY SANDSTONE
 GRD .GAPI   45 310 01 00:   GAMMA RAY FROM DENSITY LOG
 RHOB.G/C3   45 350 01 00:   BULK DENSITY
 CILD.MMHO   05 110 46 00:   CONDUCTIVITY INDUCTION LOG DEEP
~PARAMETER INFORMATION
#MNEM.UNIT          VALUE    DESCRIPTION
#----------   ------------   ------------------------------
 PD  .                 GL:   PERMANENT DATUM
 EPD .F              4994:   ELEVATION PERMANENT DATUM
 LMF .                 KB:   LOG MEASURED FROM
 DAPD.F                11:   FEET ABOVE PERMANENT DATUM
 DMF .                 KB:   DRILLING MEASURED FROM
 EKB .F              5005:   KELLING BUSHING
 EGL .F              4994:   GROUND LEVEL
 DATE.        20-JUL-1971:   RUN DATE
 RUN .                  1:   RUN NUMBER
 DD  .F              2770:   DEPTH DRILLER
 DL  .F              2769:   DEPTH LOGGER
 BLI .F              2768:   BOTTOM LOG INTERVAL
 TLI .F               276:   TOP LOG INTERVAL
 CS  .IN            10.75:   CASING SIZE
 CBD .F               274:   CASING BOTTOM DRILLER
 CBL .F               276:   CASING BOTTOM LOGGER
 BS  .IN                9:   BIT SIZE
 BSD .F              2770:   BIT SIZE AT DEPTH
 DFT .      FRESH GEL MUD:   DRILLING FLUID TYPE
 DFD .                 10:   DRILLING FLUID DENSITY
 DFV .                 82:   DRILLING FLUID VISCOSITY
 DFPH.                  8:   DRILLING FLUID PH
 DFL .                4.8:   DRILLING FLUID LOSS
 MSS .           FLOWLINE:   MUD SAMPLE SOURCE
 RMS .OHMM            1.8:   RESISTIVITY MUD SAMPLE
 MST .F                73:   MUD SAMPLE TEMPERATURE
 RMF .OHMM            1.4:   RESISTIVITY MUD FILTRATE SAMPLE
 MFST.F                73:   MUD FILTRATE SAMPLE TEMPERATURE
 MFSS.               MEAS:   MUD FILTRATE SAMPLE SOURCE
 RMB .OHMM           1.15:   RESISTIVITY MUD AT BHT
 BHT .F               116:   BOTTOM HOLE TEMPERATURE
 TCS .HRS               2:   TIME CURCULATED STOPPED
 MRT .F               116:   MAXIMUM RECORDED TEMPERATURE
 LUN .               7037:   LOGGING UNIT NUMBER
 LUL .               CSPR:   LOGGING UNIT LOCATION
 ENGI.             JENSEN:   RECORDING ENGINEER
 WITN.                MAY:   WITNESSED BY
 CLNT.            A2DTECH:   CLIENT CODE
 ORIG.     1", 2.5" PRINT:   ORIGIN OF DATA
 UWI .       490251022000:   UNIQUE WELL ID
 DICO. A2D Technologies, Inc.:   DIGITIZING COMPANY
~OTHER INFORMATION
~A   DEPT      SPR          ASN        ILD     CALD       CORR       DPHI        GRD       RHOB       CILD   
# ...
 2539.0000   -23.8660     7.7082     5.8106     8.9378     0.0818     0.0620   122.7976     2.5380  -999.2500
 2539.5000   -23.5746     7.2767     5.6581     8.8172     0.0778     0.0664   125.2198     2.5223  -999.2500
 2540.0000   -23.5823     7.2358     5.6544     8.7045     0.0730     0.0735   125.8227     2.5377  -999.2500
 2540.5000   -23.5898     7.3356     5.5019     8.8181     0.0667     0.0740   122.6092     2.5587  -999.2500
 2541.0000   -23.5972     7.6555     5.4982     8.9674     0.0606     0.0539   111.0528     2.5671  -999.2500
 2541.5000   -23.9031     7.9527     5.3457     9.0303     0.0681     0.0469   104.8471     2.5640  -999.2500
 2542.0000   -23.9105     7.9280     5.3420     8.9900     0.0811     0.0434   110.1045     2.5793  -999.2500
 2542.5000   -23.6194     7.7328     5.3383     8.9590     0.0864     0.0429   116.7714     2.5794  -999.2500
 2543.0000   -23.6269     7.2601     5.3346     8.9379     0.0821     0.0527   122.1117     2.5532  -999.2500
 2543.5000   -23.6343     6.8266     5.3309     8.9370     0.0640     0.0678   125.8091     2.5400  -999.2500
 2544.0000   -23.6418     6.5862     5.3272     8.9469     0.0572     0.0699   132.1490     2.5392  -999.2500
 2544.5000   -23.9478     6.4001     5.1746     8.9761     0.0590     0.0661   133.7649     2.5481  -999.2500
 2545.0000   -23.9702     6.2920     5.1709     8.9942     0.0752     0.0585   134.8881     2.5563  -999.2500
 2545.5000   -24.2797     6.2188     5.0184     9.0049     0.0740     0.0540   136.2276     2.5624  -999.2500
 2546.0000   -24.5672     6.0854     5.0147     9.0221     0.0571     0.0507   133.1786     2.5630  -999.2500
 2546.5000   -24.5746     6.0042     5.0110     9.0510     0.0371     0.0641   125.7419     2.5438  -999.2500
 2547.0000   -24.2832     6.0036     4.8585     9.0928     0.0267     0.0834   123.1116     2.5093  -999.2500
 2547.5000   -23.9280     6.0465     4.8548     9.1222     0.0159     0.0847   124.4588     2.5011  -999.2500
 2548.0000   -23.0684     6.1059     4.8511     9.1379     0.0054     0.0856   127.4306     2.5308  -999.2500
 2548.5000   -22.8129     6.2092     4.6986     9.1509     0.0337     0.0828   123.8374     2.5472  -999.2500
 2549.0000   -22.8637     6.2987     4.8437     9.1802     0.0402     0.0700   122.7687     2.5516  -999.2500
 2549.5000   -23.1269     6.4034     4.8400     9.1949     0.0232     0.0595   127.3973     2.5441  -999.2500
 2550.0000   -23.4328     6.5075     4.9851     9.1940     0.0112     0.0649   124.6996     2.5217  -999.2500
 2550.5000   -23.7388     6.5969     5.1302     9.1931     0.0111     0.0824   123.3453     2.4977  -999.2500
 2551.0000   -23.8032     6.6709     5.2753     9.1922     0.0096     0.0937   125.5730     2.4872  -999.2500
 2551.5000   -24.0522     6.7303     5.2716     9.1455    -0.0009     0.0985   124.6663     2.4797  -999.2500
 2552.0000   -24.0597     6.7280     5.4226     9.1144    -0.0039     0.1059   120.1776     2.4722  -999.2500
 2552.5000   -24.0672     6.6052     5.5618     9.1000    -0.0010     0.1060   123.3008     2.4812  -999.2500
 2553.0000   -24.0040     6.4248     5.5669     9.1290     0.0064     0.1053   127.3196     2.4844  -999.2500
 2553.5000   -23.4109     6.2908     5.7033     9.1281     0.0154     0.1026   127.6006     2.4826  -999.2500
 2554.0000   -22.8178     6.2171     5.6994     9.1272     0.0243     0.0999   124.1631     2.4915  -999.2500
 2554.5000   -22.2247     6.1267     5.6957     9.1561     0.0332     0.0943   124.1520     2.5139  -999.2500
 2555.0000   -22.0139     6.0537     5.5431     9.1849     0.0316     0.0811   123.6931     2.5094  -999.2500
 2555.5000   -22.0224     6.0409     5.5230     9.2140     0.0301     0.0833   124.5775     2.4959  -999.2500
 2556.0000   -22.1213     6.1121     5.2381     9.2130     0.0301     0.0951   128.5963     2.5108  -999.2500
 2556.5000   -22.4310     6.2011     5.2344     9.2121     0.0300     0.0894   132.1673     2.5214  -999.2500
 2557.0000   -22.7403     6.2005     5.0818     9.2112     0.0300     0.0825   129.0218     2.5205  -999.2500
 2557.5000   -22.9478     6.2297     5.0781     9.2103     0.0389     0.0795   128.1152     2.5155  -999.2500
 2558.0000   -22.8497     6.2888     5.0744     9.2094     0.0612     0.0761   128.5522     2.5451  -999.2500
 2558.5000   -22.6628     6.4077     5.0707     9.2085     0.0477     0.0660   127.1975     2.5540  -999.2500
 2559.0000   -22.7839     6.4966     5.0670     9.2076     0.0581     0.0591   126.7386     2.5495  -999.2500
 2559.5000   -22.9776     6.5063     5.0632     9.2067     0.0521     0.0594   128.5186     2.5331  -999.2500
 2560.0000   -23.2836     6.4059     5.0595     9.1760     0.0207     0.0769   130.7463     2.5181  -999.2500
 2560.5000   -23.2910     6.3754     5.0558     9.1154     0.0147     0.0841   132.0784     2.4986  -999.2500
 2561.0000   -23.2985     6.3748     5.0521     9.0548     0.0146     0.0865   130.2162     2.5120  -999.2500
 2561.5000   -23.0075     6.3742     5.1976     9.1136     0.0161     0.0871   127.1309     2.5285  -999.2500
 2562.0000   -22.5832     6.4035     5.1934     9.1724     0.0161     0.0865   130.2833     2.5374  -999.2500
 2562.5000   -22.5623     6.4327     5.1897     9.2313     0.0160     0.0859   131.1385     2.5000  -999.2500
 2563.0000   -22.8718     6.4919     5.3353     9.2304     0.0160     0.0841   126.9188     2.5104  -999.2500
 2563.5000   -23.1810     6.5211     5.3713     9.2295     0.0222     0.0812   125.2954     2.5239  -999.2500
 2564.0000   -23.6418     6.5205     5.4767     9.1987     0.0399     0.0746   129.0443     2.5298  -999.2500
 2564.5000   -23.9478     6.5199     5.4725     9.1083     0.0282     0.0741   131.2274     2.4909  -999.2500
 2565.0000   -23.9552     6.4895     5.4241     9.1074     0.0037     0.1081   129.2915     2.4700  -999.2500
 2565.5000   -24.1034     6.4292     5.2816     9.0767     0.0040     0.1022   125.6157     2.4714  -999.2500
 2566.0000   -23.9701     6.3987     5.1637     9.1057     0.0084     0.0938   126.4922     2.5043  -999.2500
 2566.5000   -23.5143     6.3384     5.1600     9.1346     0.0112     0.0872   130.9886     2.5311  -999.2500
 2567.0000   -23.2200     6.2483     5.0075     9.1636     0.0095     0.0908   134.4850     2.5147  -999.2500
 2567.5000   -23.0970     6.1880     5.0037     9.1925     0.0064     0.0986   133.9366     2.4877  -999.2500
 2568.0000   -22.8060     6.0979     5.0000     9.1916     0.0102     0.1004   134.5076     2.4787  -999.2500
 2568.5000   -22.8149     6.0077     4.8475     9.2206     0.0246     0.0957   137.2054     2.5071  -999.2500
 2569.0000   -23.1208     5.8877     4.8438     9.2197     0.0401     0.0729   141.5154     2.5370  -999.2500
 2569.5000   -23.1283     5.8274     4.7821     9.2188     0.0323     0.0686   146.3471     2.5355  -999.2500
 2570.0000   -23.1357     5.7671     4.6875     9.1880     0.0115     0.0729   145.2976     2.4981  -999.2500
 2570.5000   -23.1431     5.7367     4.5350     9.1872     0.0049     0.0939   139.7115     2.4891  -999.2500
 2571.0000   -23.1505     5.6764     4.5312     9.1863     0.0122     0.0897   135.0972     2.4968  -999.2500
 2571.5000   -23.4565     5.6459     4.5275     9.1854     0.0201     0.0814   133.4515     2.5146  -999.2500
 2572.0000   -23.7624     5.6155     4.5238     9.1841     0.0212     0.0796   134.7761     2.5204  -999.2500
 2572.5000   -24.3668     5.5850     4.4531     9.1537     0.0192     0.0862   137.8172     2.5137  -999.2500
 2573.0000   -24.0757     5.5546     4.3676     9.1529     0.0162     0.0922   136.5893     2.4953  -999.2500
 2573.5000   -23.7846     5.5838     4.3639     9.1520     0.0142     0.0952   133.8245     2.4814  -999.2500
 2574.0000   -23.4936     5.6131     4.3601     9.1511     0.0086     0.0958   133.0898     2.4929  -999.2500
 2574.5000   -23.5010     5.6722     4.3564     9.1502     0.0040     0.0946   134.4369     2.5157  -999.2500
 2575.0000   -23.5084     5.7910     4.3527     9.1493     0.0025     0.0940   134.8876     2.5042  -999.2500
