~VERSION INFORMATION
 VERS.                2.0:   CWLS LOG ASCII STANDARD - VERSION 2.0
 WRAP.                 NO:   ONE LINE PER DEPTH STEP
~WELL INFORMATION
#MNEM.UNIT      DATA TYPE    INFORMATION
#----------   ------------   ------------------------------
 STRT.F           16.5000:   START DEPTH
 STOP.F          640.0000:   STOP DEPTH
 STEP.F            0.5000:   STEP LENGTH
 NULL.          -999.2500:   NO VALUE
 COMP. FENIX & SCISSON INC:   COMPANY
 WELL.     11 SX 14 #3-14:   WELL
 FLD .             TEAPOT:   FIELD
 LOC .      S14 T38N R78W:   LOCATION
 CNTY.            NATRONA:   COUNTY
 STAT.            WYOMING:   STATE
 CTRY. UNITED STATES OF AMERICA:   COUNTRY
 SRVC.            Unknown:   SERVICE COMPANY
 DATE.        18-DEC-1978:   LOGDATE
 API .       490251075700:   API NUMBER
~CURVE INFORMATION
#MNEM.UNIT       API CODE    CURVE DESCRIPTION
#----------   ------------   ------------------------------
 DEPT.F                  :   
 SPR .MV     05 010 01 00:   SPONTANEOUS POTENTIAL FROM RES.
 SN  .OHMM   05 040 16 00:   SHORT NORMAL 16"
 IL  .OHMM   05 120 00 00:   INDUCTION LOG
 GRD .GAPI   45 310 01 00:   GAMMA RAY FROM DENSITY LOG
 CALD.IN     45 280 60 00:   CALIPER
 RHOB.G/C3   45 350 01 00:   BULK DENSITY
 DPHI.DEC    45 890 12 00:   DENSITY POROSITY SANDSTONE
 CORR.G/C3   45 356 01 00:   DENSITY CORRECTION
~PARAMETER INFORMATION
#MNEM.UNIT          VALUE    DESCRIPTION
#----------   ------------   ------------------------------
 PD  .                 GL:   PERMANENT DATUM
 EPD .F              5217:   ELEVATION PERMANENT DATUM
 LMF .                 KB:   LOG MEASURED FROM
 DAPD.F                 4:   FEET ABOVE PERMANENT DATUM
 DMF .                 KB:   DRILLING MEASURED FROM
 EKB .F              5221:   KELLING BUSHING
 EGL .F              5217:   GROUND LEVEL
 DATE.           12-18-78:   RUN DATE
 RUN .                  1:   RUN NUMBER
 DD  .F               653:   DEPTH DRILLER
 DL  .F               640:   DEPTH LOGGER
 BLI .F               634:   BOTTOM LOG INTERVAL
 TLI .F                32:   TOP LOG INTERVAL
 CS  .IN            8.625:   CASING SIZE
 CBD .F                40:   CASING BOTTOM DRILLER
 CBL .F                30:   CASING BOTTOM LOGGER
 BS  .IN            7.875:   BIT SIZE
 BSD .F               653:   BIT SIZE AT DEPTH
 DFT .                KCL:   DRILLING FLUID TYPE
 DFD .                8.3:   DRILLING FLUID DENSITY
 DFV .                 36:   DRILLING FLUID VISCOSITY
 DFPH.               12.5:   DRILLING FLUID PH
 DFL .               12.3:   DRILLING FLUID LOSS
 MSS .           FLOWLINE:   MUD SAMPLE SOURCE
 MST .F                56:   MUD SAMPLE TEMPERATURE
 RMF .OHMM            .44:   RESISTIVITY MUD FILTRATE SAMPLE
 MFST.F                58:   MUD FILTRATE SAMPLE TEMPERATURE
 RMC .OHMM            .58:   RESISTIVITY MUD CAKE
 MCST.F                66:   MUD CAKE SAMPLE TEMPERATURE
 MFSS.           MEASURED:   MUD FILTRATE SAMPLE SOURCE
 MCSS.           MEASURED:   MUD CAKE SAMPLE SOURCE
 BHT .F                58:   BOTTOM HOLE TEMPERATURE
 TCS .HRS               4:   TIME CURCULATED STOPPED
 MRT .F                58:   MAXIMUM RECORDED TEMPERATURE
 LUL .             CASPER:   LOGGING UNIT LOCATION
 ENGI.         B. ROLLINS:   RECORDING ENGINEER
 WITN.              AMEND:   WITNESSED BY
 CLNT.            A2DTECH:   CLIENT CODE
 ORIG.           5" PRINT:   ORIGIN OF DATA
 UWI .       490251075700:   UNIQUE WELL ID
 DICO. A2D Technologies, Inc.:   DIGITIZING COMPANY
~OTHER INFORMATION
~A   DEPT      SPR         SN         IL         GRD      CALD       RHOB       DPHI       CORR   
# ...
  381.0000   -38.0630     2.7840     3.1430   100.1990     7.8540     2.2910     0.2660     0.0370
  381.5000   -38.0830     2.8300     3.3740   100.1520     7.8510     2.2560     0.2790     0.0450
  382.0000   -38.0890     2.8770     3.7180    99.7220     7.8480     2.2280     0.2650     0.0530
  382.5000   -37.8540     2.9240     4.1720    98.3830     7.8460     2.2310     0.2460     0.0620
  383.0000   -37.6180     3.5100     4.7110    96.0110     7.8430     2.2720     0.2170     0.0690
  383.5000   -37.3830     4.3550     5.1460    95.4280     7.8100     2.3170     0.1910     0.0750
  384.0000   -37.1480     5.2000     5.4190    96.9190     7.7580     2.3640     0.1700     0.1160
  384.5000   -36.9140     6.0450     5.6930    98.9830     7.7680     2.4100     0.1490     0.1320
  385.0000   -36.6800     6.4030     5.9770   100.9230     7.8010     2.4580     0.1270     0.1330
  385.5000   -36.4470     6.6770     6.0160   101.6380     7.7890     2.5050     0.1140     0.1240
  386.0000   -36.3760     6.6530     6.0570   102.1080     7.7760     2.5210     0.1120     0.0880
  386.5000   -36.5800     6.6130     6.0890   102.6290     7.7650     2.5040     0.1160     0.0540
  387.0000   -36.7820     6.5720     5.8880   104.8920     7.8690     2.4990     0.1210     0.0420
  387.5000   -36.6900     6.5320     5.7220   106.9250     7.9890     2.4900     0.1270     0.0390
  388.0000   -36.2140     6.4940     5.5560   108.0290     8.1120     2.4770     0.1290     0.0380
  388.5000   -35.7410     6.2580     5.4670   108.2410     8.1480     2.4720     0.1280     0.0400
  389.0000   -35.5020     6.0370     5.4170   107.9190     8.0550     2.4710     0.1330     0.0410
  389.5000   -35.5030     5.8160     5.3660   105.9530     7.8480     2.4680     0.1450     0.0430
  390.0000   -35.5030     5.5940     5.3160   103.2240     7.6360     2.4500     0.1560     0.0470
  390.5000   -35.5080     5.4510     5.2540   104.7230     7.6970     2.4310     0.1660     0.0530
  391.0000   -35.6700     5.5970     5.4200   107.6060     7.7590     2.4090     0.1650     0.0580
  391.5000   -36.6660     5.7230     5.6390   110.2170     7.8190     2.4140     0.1550     0.0600
  392.0000   -38.2220     5.8490     5.8580   109.5560     7.8120     2.4270     0.1420     0.0610
  392.5000   -38.3430     6.0780     6.0770   104.2510     7.8010     2.4450     0.1380     0.0580
  393.0000   -38.1760     6.4480     6.2950   100.4890     7.7900     2.4580     0.1340     0.0540
  393.5000   -38.0000     6.8170     6.5140    99.0480     7.7800     2.4640     0.1260     0.0510
  394.0000   -37.8250     7.1870     6.7330   104.9860     7.7690     2.4750     0.1250     0.0470
  394.5000   -37.6470     7.5560     6.9520   111.4460     7.7760     2.4870     0.1140     0.0450
  395.0000   -37.4710     7.9070     7.1880   113.0040     7.8100     2.4940     0.1080     0.0450
  395.5000   -37.2940     8.1240     7.2180   112.9560     7.7590     2.5010     0.1010     0.0460
  396.0000   -37.1160     8.3410     7.2510   112.9130     7.6600     2.5090     0.1050     0.0420
  396.5000   -36.9370     8.5640     7.2840   112.7040     7.6660     2.5110     0.1120     0.0370
  397.0000   -36.9080     8.5400     7.3170   108.2040     7.7720     2.5050     0.1090     0.0330
  397.5000   -36.9150     8.5100     7.3510   104.9040     7.9560     2.5050     0.1040     0.0320
  398.0000   -36.9230     8.4790     7.3890   104.5220     7.9280     2.5110     0.1150     0.0300
  398.5000   -36.9300     8.4490     7.3280   104.4400     7.7870     2.4990     0.1210     0.0290
  399.0000   -36.9390     8.4180     7.2540   104.3740     7.7510     2.4850     0.1220     0.0290
  399.5000   -36.9470     8.3880     7.1810   104.3230     7.8120     2.4820     0.1230     0.0290
  400.0000   -36.9550     8.3570     7.1070   104.7450     7.9110     2.4810     0.1230     0.0280
  400.5000   -36.9630     8.3070     7.0020   105.2250     7.9970     2.4810     0.1250     0.0280
  401.0000   -36.9710     8.1050     6.8260   105.7060     7.7890     2.4780     0.1270     0.0280
  401.5000   -36.9790     7.9030     6.6510   106.1890     7.5250     2.4750     0.1280     0.0290
  402.0000   -36.9870     7.7010     6.4750   106.6760     7.7590     2.4740     0.1270     0.0310
  402.5000   -36.9950     7.4980     6.2990   106.7000     7.8110     2.4740     0.1280     0.0330
  403.0000   -37.0030     7.2960     6.0890   106.7000     7.4190     2.4740     0.1290     0.0340
  403.5000   -37.0110     7.0940     6.1090   106.7770     7.3920     2.4720     0.1330     0.0350
  404.0000   -37.0190     6.8920     6.1340   106.8290     7.3790     2.4680     0.1410     0.0360
  404.5000   -37.0270     6.7360     6.1600   104.2630     7.3660     2.4530     0.1700     0.0380
  405.0000   -37.0350     6.7240     6.1850   102.0590     7.3530     2.4190     0.1730     0.0440
  405.5000   -37.0430     6.7130     6.2110   105.8820     7.3390     2.3950     0.1710     0.0610
  406.0000   -37.0510     6.7020     6.2360   108.0930     7.3260     2.4040     0.1670     0.0770
  406.5000   -37.0600     6.6910     6.2590   110.5000     7.3120     2.4120     0.1640     0.0740
  407.0000   -37.0680     6.6770     6.5560   113.7680     7.3190     2.4080     0.1600     0.0910
  407.5000   -37.0750     6.9570     6.8240   114.7540     7.3380     2.4190     0.1490     0.1080
  408.0000   -37.0840     7.3420     7.0930   114.8450     7.3560     2.4410     0.1300     0.1200
  408.5000   -37.0930     7.7270     7.3610   114.8720     7.4150     2.4640     0.1210     0.1190
  409.0000   -37.0700     8.1120     7.6290   114.3560     7.5300     2.4780     0.1250     0.1170
  409.5000   -36.1890     8.4970     7.8310   111.6200     7.6480     2.4780     0.1280     0.1160
  410.0000   -35.2660     8.7230     7.9550   109.8270     7.6970     2.4720     0.1200     0.1280
  410.5000   -34.3400     8.7230     7.9100   110.3270     7.6170     2.4860     0.1040     0.1400
  411.0000   -33.3820     8.7230     7.8740   111.8940     7.5350     2.5010     0.1000     0.1470
  411.5000   -33.0970     8.7230     7.8370   113.1330     7.5080     2.5150     0.1080     0.1400
  412.0000   -33.0600     8.7230     7.8010   113.2300     7.5790     2.5070     0.1180     0.1260
  412.5000   -33.0310     8.7230     7.7640   114.4230     7.6620     2.4900     0.1240     0.1120
  413.0000   -33.0050     8.7230     7.7270   114.9430     7.7140     2.4820     0.1210     0.1130
  413.5000   -32.9790     8.7230     7.6910   114.6300     7.7370     2.4830     0.1160     0.1150
  414.0000   -32.9530     8.7230     7.6610   112.8310     7.7610     2.4930     0.1070     0.1160
  414.5000   -32.9270     8.7230     7.6450   109.9710     7.7520     2.5030     0.1050     0.1170
  415.0000   -32.8960     8.7220     7.6280   108.3540     7.7400     2.5120     0.1040     0.1150
  415.5000   -32.7460     8.7230     7.6110   110.2740     7.7280     2.5130     0.1040     0.1130
  416.0000   -32.5900     8.5740     7.5950   111.6190     7.7170     2.5130     0.1030     0.1090
  416.5000   -32.3680     8.4490     7.5780   112.6310     7.7050     2.5140     0.1020     0.1020
  417.0000   -31.9730     8.3300     7.5610   113.6200     7.6940     2.5150     0.1020     0.0930
  417.5000   -31.5870     8.3300     7.5450   113.7470     7.6820     2.5160     0.1030     0.0800
  418.0000   -31.2730     8.3300     7.5280   113.8200     7.6710     2.5150     0.1050     0.0680
  418.5000   -31.1930     8.3300     7.5120   114.5710     7.6670     2.5110     0.1100     0.0550
  419.0000   -31.1100     8.3300     7.4950   115.4230     7.6750     2.5040     0.1120     0.0420
  419.5000   -31.0260     8.3300     7.4780   115.5310     7.7230     2.5000     0.1120     0.0370
  420.0000   -30.9310     8.3300     7.4620   115.6060     7.9160     2.4970     0.1140     0.0370
  420.5000   -31.0630     8.3300     7.3470   116.1420     7.7240     2.4970     0.1140     0.0360
  421.0000   -30.8610     8.3300     7.1990   117.3370     7.6530     2.4970     0.1150     0.0350
