~VERSION INFORMATION
 VERS.                2.0:   CWLS LOG ASCII STANDARD - VERSION 2.0
 WRAP.                 NO:   ONE LINE PER DEPTH STEP
~WELL INFORMATION
#MNEM.UNIT      DATA TYPE    INFORMATION
#----------   ------------   ------------------------------
 STRT.F            2.0000:   START DEPTH
 STOP.F          602.0000:   STOP DEPTH
 STEP.F            0.1000:   STEP LENGTH
 NULL.          -999.2500:   NO VALUE
 COMP.       F D SERV INC:   COMPANY
 WELL.    63-1 SX-3 #63-3:   WELL
 FLD .             TEAPOT:   FIELD
 LOC .       S3 T38N R78W:   LOCATION
 CNTY.            NATRONA:   COUNTY
 STAT.            WYOMING:   STATE
 CTRY. UNITED STATES OF AMERICA:   COUNTRY
 SRVC.     Atlas Wireline:   SERVICE COMPANY
 DATE.        20-APR-1992:   LOGDATE
 API .       490252251300:   API NUMBER
~CURVE INFORMATION
#MNEM.UNIT       API CODE    CURVE DESCRIPTION
#----------   ------------   ------------------------------
 DEPT.F                  :   
 GRR .GAPI   07 310 01 00:   GAMMA RAY
 RILD.OHMM   07 120 46 00:   INDUCTION LOG DEEP RESISTIVITY
 RILM.OHMM   07 120 44 00:   INDUCTION LOG MEDIUM RESISTIVITY
~PARAMETER INFORMATION
#MNEM.UNIT          VALUE    DESCRIPTION
#----------   ------------   ------------------------------
 PD  .                 GL:   PERMANENT DATUM
 EPD .F              5176:   ELEVATION PERMANENT DATUM
 LMF .                 KB:   LOG MEASURED FROM
 DAPD.F                 5:   FEET ABOVE PERMANENT DATUM
 DMF .                 KB:   DRILLING MEASURED FROM
 EKB .F              5181:   KELLING BUSHING
 EDF .F              5180:   DRILLING FLOOR
 EGL .F              5176:   GROUND LEVEL
 DATE.        20-APR-1992:   RUN DATE
 RUN .                  1:   RUN NUMBER
 DD  .F               608:   DEPTH DRILLER
 DL  .F               608:   DEPTH LOGGER
 BLI .F               602:   BOTTOM LOG INTERVAL
 CS  .IN            8.625:   CASING SIZE
 CBD .F                48:   CASING BOTTOM DRILLER
 CBL .F                50:   CASING BOTTOM LOGGER
 BS  .IN            7.875:   BIT SIZE
 BSD .F               608:   BIT SIZE AT DEPTH
 DFT .                AIR:   DRILLING FLUID TYPE
 TCS .HRS               2:   TIME CURCULATED STOPPED
 MRT .F                85:   MAXIMUM RECORDED TEMPERATURE
 LUN .           HL- 6274:   LOGGING UNIT NUMBER
 LUL .             CASPER:   LOGGING UNIT LOCATION
 ENGI.             RAUTIO:   RECORDING ENGINEER
 WITN.        GARY STRONG:   WITNESSED BY
 CLNT.            A2DTECH:   CLIENT CODE
 ORIG.           5" PRINT:   ORIGIN OF DATA
 UWI .       490252251300:   UNIQUE WELL ID
 DICO. A2D Technologies, Inc.:   DIGITIZING COMPANY
~OTHER INFORMATION
~A    DEPT      GRR      RILD       RILM   
# ...
  511.6000   103.9594    10.9231    10.8891
  511.7000   103.9632    10.8639    10.8891
  511.8000   104.1310    10.8641    10.8891
  511.9000   104.5970    10.8642    10.8891
  512.0000   105.2869    10.8270    10.8891
  512.1000   105.7901    10.7888    10.8891
  512.2000   106.0366    10.7889    10.8891
  512.3000   106.1001    10.7891    10.8891
  512.4000   105.9733    10.7893    10.8891
  512.5000   105.7317    10.7894    10.8891
  512.6000   105.4898    10.7895    10.8398
  512.7000   105.2127    10.7896    10.7781
  512.8000   105.0063    10.7898    10.7380
  512.9000   104.7647    10.7900    10.7380
  513.0000   104.6214    10.7901    10.7380
  513.1000   104.6256    10.7903    10.7380
  513.2000   104.6301    10.7905    10.7380
  513.3000   104.6341    10.7906    10.7380
  513.4000   104.6383    10.7908    10.7380
  513.5000   104.6425    10.7909    10.7375
  513.6000   104.7127    10.7910    10.6764
  513.7000   104.9630    10.7912    10.6632
  513.8000   105.2593    10.7913    10.6292
  513.9000   105.2628    10.7915    10.5890
  514.0000   105.7010    10.7917    10.5890
  514.1000   106.3543    10.7918    10.5890
  514.2000   106.8505    10.7919    10.5890
  514.3000   107.3916    10.7921    10.5890
  514.4000   107.6192    10.7922    10.5622
  514.5000   107.8693    10.7924    10.5020
  514.6000   108.1193    10.7926    10.4420
  514.7000   108.3131    10.7927    10.4420
  514.8000   108.3181    10.7630    10.4420
  514.9000   108.5684    10.7017    10.4420
  515.0000   108.8186    10.6432    10.4420
  515.1000   108.7980    10.6434    10.4359
  515.2000   108.5564    10.6435    10.3693
  515.3000   108.3146    10.6075    10.3174
  515.4000   108.0416    10.5472    10.2971
  515.5000   107.8311    10.4961    10.2971
  515.6000   107.7478    10.4963    10.2971
  515.7000   107.7521    10.4965    10.2971
  515.8000   107.7093    10.4966    10.2971
  515.9000   107.4590    10.4967    10.2971
  516.0000   107.4630    10.4812    10.2656
  516.1000   107.6489    10.4239    10.2071
  516.2000   107.7732    10.4240    10.1542
  516.3000   107.9880    10.3756    10.1542
  516.4000   108.7292    10.3517    10.1542
  516.5000   109.5965    10.3518    10.0799
  516.6000   110.0095    10.3431    10.0132
  516.7000   110.5057    10.2800     9.9908
  516.8000   111.0952    10.2801     9.8743
  516.9000   111.8371    10.2390     9.8195
  517.0000   112.6338    10.2087     9.7636
  517.1000   113.0934    10.1938     9.7372
  517.2000   113.5897    10.1358     9.7204
  517.3000   114.0858    10.0674     9.6650
  517.4000   114.4603    10.0675     9.6021
  517.5000   114.4646    10.0676     9.6021
  517.6000   114.4687    10.0678     9.6021
  517.7000   114.4730    10.0596     9.5797
  517.8000   114.3377     9.9979     9.5251
  517.9000   114.0959     9.9981     9.4688
  518.0000   113.8819     9.9582     9.4688
  518.1000   113.8870     9.9287     9.4688
  518.2000   113.4539     9.9143     9.4688
  518.3000   113.2917     9.8578     9.4688
  518.4000   113.0819     9.7912     9.4614
  518.5000   112.6455     9.7460     9.3374
  518.6000   112.3995     9.6906     9.3374
  518.7000   111.9205     9.6556     9.3044
  518.8000   111.6187     9.6400     9.2514
  518.9000   110.9866     9.5217     9.1987
  519.0000   110.3047     9.5219     9.1437
  519.1000   110.3089     9.4841     9.0942
  519.2000   110.3138     9.4301     9.0800
  519.3000   110.3173     9.3900     9.0281
  519.4000   110.3215     9.3868     8.9540
  519.5000   110.4232     9.2599     8.9540
  519.6000   110.6735     9.1750     8.9540
  519.7000   110.9378     9.1315     8.8693
  519.8000   112.5678     9.0940     8.8297
  519.9000   114.2925     8.9977     8.7910
  520.0000   115.4146     8.9423     8.6911
  520.1000   115.7810     8.8956     8.5863
  520.2000   115.8038     8.8100     8.5404
  520.3000   116.3936     8.7333     8.4918
  520.4000   116.5965     8.6836     8.4198
  520.5000   116.8466     8.6313     8.3241
  520.6000   117.0968     8.4564     8.2295
  520.7000   117.3147     8.4177     8.1195
  520.8000   117.3193     8.3144     8.0437
  520.9000   117.3231     8.2065     7.9524
  521.0000   117.4944     8.1534     7.8290
  521.1000   117.6332     8.0530     7.6517
  521.2000   117.6374     7.8867     7.4664
  521.3000   117.6416     7.7694     7.3489
  521.4000   117.6458     7.6403     7.2241
  521.5000   117.6501     7.4469     7.0631
  521.6000   117.7888     7.1947     6.8837
  521.7000   118.0388     6.9052     6.7653
  521.8000   118.2661     6.7801     6.5839
  521.9000   118.2709     6.6486     6.4636
  522.0000   118.4879     6.5355     6.3597
  522.1000   118.7379     6.4194     6.2874
  522.2000   119.0899     6.2616     6.2062
  522.3000   119.5863     6.1645     6.0543
  522.4000   120.1015     6.0126     5.9913
  522.5000   120.3419     5.8585     5.8770
  522.6000   120.7728     5.7258     5.7291
  522.7000   121.2689     5.5960     5.5676
  522.8000   121.7649     5.4447     5.4117
  522.9000   122.2613     5.3952     5.3199
  523.0000   122.8424     5.3515     5.1826
  523.1000   123.0496     5.3211     5.0044
  523.2000   123.4478     5.2908     4.8268
  523.3000   124.1284     5.2580     4.6974
  523.4000   125.1169     5.2581     4.6100
  523.5000   126.1813     5.2582     4.6339
  523.6000   127.5467     5.2582     4.6787
  523.7000   129.0262     5.2583     4.7077
  523.8000   130.5060     5.2584     4.7204
  523.9000   132.0463     5.2585     4.7745
  524.0000   133.7631     5.2585     4.8295
  524.1000   134.9980     5.2759     4.8849
  524.2000   136.2315     5.3063     4.9734
  524.3000   137.1885     5.3368     5.0782
  524.4000   137.8478     5.3703     5.1694
  524.5000   138.2891     5.3984     5.3015
  524.6000   137.9926     5.4294     5.4114
  524.7000   137.7791     5.4752     5.5365
  524.8000   137.3756     5.5306     5.6497
  524.9000   136.6759     5.5630     5.7699
  525.0000   135.5964     5.6271     5.9702
  525.1000   134.0918     5.7182     6.0736
  525.2000   132.8938     5.7980     6.1787
  525.3000   131.4830     5.8529     6.2655
  525.4000   129.8825     5.8866     6.3495
  525.5000   127.7990     5.9236     6.4591
  525.6000   124.8854     5.9855     6.5839
  525.7000   122.0513     6.0545     6.7185
  525.8000   120.5993     6.1080     6.8739
  525.9000   119.1865     6.1516     6.9973
  526.0000   117.7683     6.2229     7.0776
  526.1000   116.2135     6.3310     7.1598
  526.2000   115.4356     6.4115     7.2412
  526.3000   114.5152     6.5719     7.3893
  526.4000   113.5359     6.8012     7.5364
  526.5000   112.5564     7.0380     7.6665
  526.6000   111.6404     7.3075     7.7945
  526.7000   110.9235     7.4609     7.8957
  526.8000   110.6349     7.6038     8.0147
  526.9000   110.6383     7.7355     8.1533
  527.0000   110.3571     7.8694     8.2739
  527.1000   110.0434     8.0049     8.3689
  527.2000   109.9852     8.0972     8.4671
  527.3000   109.4490     8.2280     8.5623
  527.4000   111.2247     8.3706     8.6608
  527.5000   113.5288     8.5155     8.7336
  527.6000   115.1116     8.6566     8.7836
  527.7000   115.4986     8.7661     8.8381
  527.8000   115.5029     8.8573     8.9540
  527.9000   115.5071     8.9593     8.9540
  528.0000   115.5114     9.0625     8.9866
  528.1000   115.5156     9.1422     9.0168
  528.2000   115.5197     9.1429     9.0266
  528.3000   115.4801     9.1956     9.0800
  528.4000   114.9255     9.2484     9.0800
  528.5000   114.9291     9.3016     9.1187
  528.6000   115.2460     9.3552     9.1709
  528.7000   115.5408     9.4023     9.2078
  528.8000   115.6352     9.4025     9.2116
  528.9000   116.1528     9.4511     9.2724
  529.0000   117.0981     9.4687     9.3175
  529.1000   118.0856     9.4935     9.3374
  529.2000   118.8261     9.5354     9.3374
  529.3000   119.3225     9.5361     9.3374
  529.4000   119.8187     9.5910     9.3374
  529.5000   120.4019     9.6461     9.3374
  529.6000   120.8106     9.6703     9.3374
  529.7000   121.3068     9.6894     9.3374
