~VERSION INFORMATION
 VERS.                2.0:   CWLS LOG ASCII STANDARD - VERSION 2.0
 WRAP.                 NO:   ONE LINE PER DEPTH STEP
~WELL INFORMATION
#MNEM.UNIT      DATA TYPE    INFORMATION
#----------   ------------   ------------------------------
 STRT.F           33.5000:   START DEPTH
 STOP.F          692.0000:   STOP DEPTH
 STEP.F            0.5000:   STEP LENGTH
 NULL.          -999.2500:   NO VALUE
 COMP. FENIX & SCISSON INC:   COMPANY
 WELL.       NPR-3 #65-34:   WELL
 FLD .  TEAPOT DOME NPR-3:   FIELD
 LOC .      S34 T39N R78W:   LOCATION
 CNTY.            NATRONA:   COUNTY
 STAT.            WYOMING:   STATE
 CTRY. UNITED STATES OF AMERICA:   COUNTRY
 SRVC.           BIRDWELL:   SERVICE COMPANY
 DATE.        14-AUG-1978:   LOGDATE
 API .       490251070400:   API NUMBER
~CURVE INFORMATION
#MNEM.UNIT       API CODE    CURVE DESCRIPTION
#----------   ------------   ------------------------------
 DEPT.F                  :   
 CALD.IN     45 280 60 00:   CALIPER
 GRD .GAPI   45 310 01 00:   GAMMA RAY FROM DENSITY LOG
 RHOB.G/C3   45 350 01 00:   BULK DENSITY
 CORR.G/C3   45 356 01 00:   DENSITY CORRECTION
 DPHI.DEC    45 890 12 00:   DENSITY POROSITY SANDSTONE
 SPR .MV     05 010 01 00:   SPONTANEOUS POTENTIAL
 SN  .OHMM   05 040 16 00:   SHORT NORMAL 16'
 ILD .OHMM   05 120 46 00:   INDUCTION LOG DEEP RESISTIVITY
~PARAMETER INFORMATION
#MNEM.UNIT          VALUE    DESCRIPTION
#----------   ------------   ------------------------------
 PD  .                 GL:   PERMANENT DATUM
 EPD .F              5083:   ELEVATION PERMANENT DATUM
 LMF .                 KB:   LOG MEASURED FROM
 DAPD.F                 4:   FEET ABOVE PERMANENT DATUM
 DMF .                 KB:   DRILLING MEASURED FROM
 EKB .F              5087:   KELLING BUSHING
 EGL .F              5083:   GROUND LEVEL
 DATE.            8-14-78:   RUN DATE
 RUN .                  1:   RUN NUMBER
 DD  .F               675:   DEPTH DRILLER
 DL  .F               682:   DEPTH LOGGER
 BLI .F               676:   BOTTOM LOG INTERVAL
 TLI .F                50:   TOP LOG INTERVAL
 CS  .IN            8.625:   CASING SIZE
 CBD .F                40:   CASING BOTTOM DRILLER
 BS  .IN            7.875:   BIT SIZE
 BSD .F               675:   BIT SIZE AT DEPTH
 DFT .                KCL:   DRILLING FLUID TYPE
 DFD .                8.7:   DRILLING FLUID DENSITY
 DFV .                 31:   DRILLING FLUID VISCOSITY
 DFPH.                  9:   DRILLING FLUID PH
 TCS .HRS               2:   TIME CURCULATED STOPPED
 LUN .               3006:   LOGGING UNIT NUMBER
 LUL .               CASP:   LOGGING UNIT LOCATION
 ENGI.             MILLER:   RECORDING ENGINEER
 WITN.           MCGINLEY:   WITNESSED BY
 CLNT.            A2DTECH:   CLIENT CODE
 ORIG.           5" PRINT:   ORIGIN OF DATA
 UWI .       490251070400:   UNIQUE WELL ID
 DICO. A2D Technologies, Inc.:   DIGITIZING COMPANY
~OTHER INFORMATION
~A   DEPT     CALD         GRD      RHOB       CORR       DPHI        SPR         SN        ILD   
# ...
  398.0000     8.0358    88.5412     2.4481     0.0566     0.1393   -17.9828     5.5522     6.0487
  398.5000     8.0208    85.5630     2.4478     0.0561     0.1397   -17.8297     5.5669     6.0799
  399.0000     8.0058    84.5079     2.4457     0.0550     0.1417   -17.8012     5.5816     6.1112
  399.5000     7.9907    85.4353     2.4428     0.0531     0.1424   -17.7711     5.5964     6.1427
  400.0000     7.9757    87.5866     2.4399     0.0511     0.1464   -17.7414     5.6112     6.1744
  400.5000     7.9607    86.3775     2.4316     0.0492     0.1504   -17.7116     5.6261     6.2127
  401.0000     7.9457    84.3757     2.4298     0.0476     0.1462   -17.6818     5.6410     6.2927
  401.5000     7.9307    83.0985     2.4356     0.0469     0.1445   -17.6518     5.6556     6.3739
  402.0000     7.9172    83.2926     2.4376     0.0461     0.1436   -17.6413     5.7966     6.4561
  402.5000     7.8620    83.9451     2.4385     0.0454     0.1444   -17.6411     5.9337     6.5393
  403.0000     7.8027    84.0388     2.4355     0.0446     0.1466   -17.6411     6.0416     6.6236
  403.5000     7.7434    82.9711     2.4325     0.0439     0.1473   -17.6411     6.0961     6.7090
  404.0000     7.6841    81.9996     2.4309     0.0431     0.1473   -17.6411     6.1094     6.7955
  404.5000     7.6269    81.6478     2.4300     0.0424     0.1497   -17.6411     6.1228     6.8831
  405.0000     7.6134    81.3332     2.4259     0.0416     0.1529   -17.6411     6.1362     6.9274
  405.5000     7.6130    83.9713     2.4229     0.0409     0.1530   -17.6411     6.1758     6.9835
  406.0000     7.6115    80.6712     2.4242     0.0401     0.1523   -17.6411     6.2654     7.0447
  406.5000     7.6097    77.2374     2.4236     0.0406     0.1530   -17.6411     6.3564     7.1065
  407.0000     7.6079    77.3572     2.4218     0.0415     0.1543   -17.6411     6.4486     7.1689
  407.5000     7.6062    77.4670     2.4199     0.0424     0.1556   -17.6411     6.5422     7.2813
  408.0000     7.6044    76.6648     2.4196     0.0433     0.1563   -17.6411     6.6372     7.4170
  408.5000     7.6026    76.6996     2.4197     0.0443     0.1557   -17.6411     6.7145     7.5277
  409.0000     7.6008    76.7089     2.4275     0.0481     0.1488   -17.6411     6.7793     7.5538
  409.5000     7.5991    76.1520     2.4362     0.0518     0.1433   -17.6411     6.8447     7.5809
  410.0000     7.5973    75.5915     2.4395     0.0556     0.1457   -17.6411     6.9114     7.6079
  410.5000     7.5953    75.4294     2.4399     0.0593     0.1445   -17.6411     6.9278     7.6351
  411.0000     7.5941    75.5332     2.4432     0.0633     0.1333   -17.6411     6.8568     7.6668
  411.5000     7.6076    76.1617     2.4513     0.0672     0.1361   -17.6411     6.7971     7.6378
  412.0000     7.6550    77.3196     2.4499     0.0696     0.1361   -17.6411     6.7380     7.5917
  412.5000     7.7114    76.7178     2.4486     0.0686     0.1383   -17.6411     6.6766     7.5463
  413.0000     7.7379    76.1605     2.4490     0.0692     0.1405   -17.6411     6.6425     7.4514
  413.5000     7.7527    76.1694     2.4564     0.0763     0.1305   -17.6411     6.6074     7.3207
  414.0000     7.7584    76.2403     2.4582     0.0832     0.1333   -17.6411     6.5723     7.1923
  414.5000     7.8048    76.7946     2.4574     0.0917     0.1294   -17.6411     6.5323     7.0563
  415.0000     7.8615    77.3526     2.4662     0.1038     0.1296   -17.6411     6.4753     7.0240
  415.5000     7.8989    77.9178     2.4662     0.1157     0.1301   -17.6411     6.3659     6.9815
  416.0000     7.9120    77.6202     2.4778     0.1278     0.1235   -17.6411     6.3151     6.9387
  416.5000     7.9432    77.1692     2.4806     0.1324     0.1210   -17.6411     6.2648     6.8961
  417.0000     8.0001    75.8931     2.4797     0.1336     0.1158   -17.6411     6.2145     6.8538
  417.5000     8.0583    74.6139     2.4852     0.1307     0.1236   -17.6411     6.1698     6.8117
  418.0000     8.1159    73.5916     2.4743     0.1264     0.1297   -17.6411     6.1261     6.7696
  418.5000     8.1535    77.9046     2.4675     0.1289     0.1253   -17.6411     6.0830     6.7175
  419.0000     8.1540    78.6977     2.4753     0.1329     0.1126   -17.6411     6.0402     6.6294
  419.5000     8.1351    73.9462     2.4865     0.1347     0.1167   -17.6411     5.9977     6.5432
  420.0000     8.1151    70.4090     2.4801     0.1304     0.1190   -17.6409     5.9555     6.4581
  420.5000     8.0945    77.0095     2.4766     0.1262     0.1190   -17.6408     5.9180     6.3740
  421.0000     8.0717    79.7865     2.4767     0.1221     0.1234   -17.6596     5.8973     6.2905
  421.5000     8.0682    81.9173     2.4729     0.1180     0.1230   -17.7775     5.8766     6.2024
  422.0000     8.3672    79.4817     2.4757     0.1138     0.1182   -17.8942     5.8559     6.1921
  422.5000     8.2092    76.3008     2.4743     0.1056     0.1240   -18.0104     5.8354     6.1796
  423.0000     8.0053    75.3393     2.4669     0.0935     0.1298   -18.1251     5.8149     6.1667
  423.5000     8.0126    75.2095     2.4593     0.0834     0.1345   -18.2532     5.7945     6.1539
  424.0000     8.0458    75.4247     2.4672     0.0773     0.1172   -18.7212     5.7742     6.1410
  424.5000     8.0798    76.8413     2.4521     0.0711     0.1446   -19.2097     5.7320     6.1282
  425.0000     8.1136    77.3761     2.4453     0.0673     0.1371   -19.6972     5.6488     6.1153
  425.5000     8.1474    76.9587     2.4461     0.0662     0.1391   -20.1832     5.5669     6.1027
  426.0000     8.1810    76.1830     2.4450     0.0650     0.1417   -20.6732     5.4857     6.0900
  426.5000     8.1755    75.1376     2.4402     0.0638     0.1445   -20.8718     5.4013     5.9957
  427.0000     8.1296    74.2059     2.4347     0.0613     0.1487   -20.8946     5.3581     5.8929
  427.5000     8.0843    74.5826     2.4254     0.0586     0.1528   -20.9131     5.3131     5.7919
  428.0000     8.0490    75.4285     2.4200     0.0593     0.1545   -20.9318     5.2536     5.6926
  428.5000     8.0354    75.9314     2.4162     0.0611     0.1625   -20.9509     5.2670     5.6037
  429.0000     8.0211    75.5782     2.4124     0.0631     0.1625   -20.9699     5.2873     5.6108
  429.5000     8.0022    77.9360     2.4111     0.0650     0.1621   -20.9890     5.3076     5.6208
  430.0000     7.9772    79.5857     2.4110     0.0670     0.1617   -21.0081     5.3280     5.6308
  430.5000     7.9523    76.3829     2.4193     0.0689     0.1507   -21.0270     5.3485     5.6407
  431.0000     7.9275    73.9660     2.4312     0.0670     0.1419   -21.0450     5.3692     5.6506
  431.5000     7.9187    73.4332     2.4432     0.0615     0.1361   -21.0522     5.3898     5.6773
  432.0000     7.9416    74.9576     2.4492     0.0560     0.1383   -21.5484     5.4106     5.7425
  432.5000     7.9636    77.7266     2.4539     0.0505     0.1362   -22.1311     5.4314     5.8085
  433.0000     7.9859    80.9295     2.4585     0.0450     0.1293   -22.7154     5.4509     5.8753
  433.5000     7.9793    82.7280     2.4627     0.0393     0.1317   -23.2974     5.3312     5.9225
  434.0000     7.9563    82.3505     2.4609     0.0375     0.1291   -23.8849     5.2205     5.7309
  434.5000     7.9330    81.6777     2.4639     0.0368     0.1265   -24.0880     5.1127     5.5635
  435.0000     7.9137    81.9613     2.4653     0.0362     0.1281   -24.0863     5.0068     5.4011
  435.5000     7.9171    84.4128     2.4591     0.0304     0.1364   -24.0803     4.8677     5.2433
  436.0000     7.9200    88.5829     2.4495     0.0220     0.1534   -24.0746     4.7143     5.0902
  436.5000     7.9228    96.6260     2.4208     0.0188     0.1651   -24.0694     4.5657     4.9416
  437.0000     7.9256    96.9098     2.3982     0.0284     0.1714   -24.0641     4.4218     4.7972
  437.5000     7.9285    98.0895     2.3919     0.0372     0.1741   -24.0588     4.3612     4.6571
  438.0000     7.9314   100.9331     2.3915     0.0431     0.1692   -24.0536     4.3489     4.5330
