~VERSION INFORMATION
 VERS.                2.0:   CWLS LOG ASCII STANDARD - VERSION 2.0
 WRAP.                 NO:   ONE LINE PER DEPTH STEP
~WELL INFORMATION
#MNEM.UNIT      DATA TYPE    INFORMATION
#----------   ------------   ------------------------------
 STRT.F           20.0000:   START DEPTH
 STOP.F          468.0000:   STOP DEPTH
 STEP.F            0.1000:   STEP LENGTH
 NULL.          -999.2500:   NO VALUE
 COMP. LAWRENCE/ALLISON INC:   COMPANY
 WELL.    63-51 SX #10-10:   WELL
 FLD .             TEAPOT:   FIELD
 LOC .      S10 T38N R78W:   LOCATION
 CNTY.            NATRONA:   COUNTY
 STAT.            WYOMING:   STATE
 CTRY. UNITED STATES OF AMERICA:   COUNTRY
 SRVC.           Gearhart:   SERVICE COMPANY
 DATE.        01-OCT-1988:   LOGDATE
 API .       490251125100:   API NUMBER
~CURVE INFORMATION
#MNEM.UNIT       API CODE    CURVE DESCRIPTION
#----------   ------------   ------------------------------
 DEPT.F                  :   
 GRR .GAPI   07 310 01 00:   GAMMA RAY
 RILD.OHMM   07 120 46 00:   INDUCTION LOG DEEP RESISTIVITY
 RILM.OHMM   07 120 44 00:   INDUCTION LOG MEDIUM RESISTIVITY
~PARAMETER INFORMATION
#MNEM.UNIT          VALUE    DESCRIPTION
#----------   ------------   ------------------------------
 PD  .                 GL:   PERMANENT DATUM
 EPD .F              5157:   ELEVATION PERMANENT DATUM
 LMF .                 KB:   LOG MEASURED FROM
 DAPD.F                 5:   FEET ABOVE PERMANENT DATUM
 DMF .                 KB:   DRILLING MEASURED FROM
 EKB .F              5162:   KELLING BUSHING
 EGL .F              5157:   GROUND LEVEL
 DATE.        01-OCT-1988:   RUN DATE
 RUN .                  1:   RUN NUMBER
 DD  .F               475:   DEPTH DRILLER
 DL  .F               476:   DEPTH LOGGER
 BLI .F               468:   BOTTOM LOG INTERVAL
 TLI .F                20:   TOP LOG INTERVAL
 CS  .IN            9.625:   CASING SIZE
 CBD .F                45:   CASING BOTTOM DRILLER
 CBL .F                46:   CASING BOTTOM LOGGER
 BS  .IN             7.87:   BIT SIZE
 BSD .F               475:   BIT SIZE AT DEPTH
 TLAB.HRS            1630:   TIME LOGGER AT BOTTOM
 MRT .F                75:   MAXIMUM RECORDED TEMPERATURE
 LUN .               7597:   LOGGING UNIT NUMBER
 LUL .           GILLETTE:   LOGGING UNIT LOCATION
 ENGI.              BENCK:   RECORDING ENGINEER
 WITN.             STRONG:   WITNESSED BY
 CLNT.            A2DTECH:   CLIENT CODE
 ORIG.           5" PRINT:   ORIGIN OF DATA
 UWI .       490251125100:   UNIQUE WELL ID
 DICO. A2D Technologies, Inc.:   DIGITIZING COMPANY
~OTHER INFORMATION
~A   DEPT       GRR      RILD       RILM   
# ...
  129.2000   109.1314     5.9939     5.1723
  129.3000   110.1132     6.0276     5.2695
  129.4000   111.0581     6.0668     5.3667
  129.5000   111.8659     6.1422     5.4639
  129.6000   112.7542     6.1735     5.5382
  129.7000   113.2530     6.2083     5.6008
  129.8000   113.7016     6.2579     5.6641
  129.9000   114.3583     6.3229     5.7336
  130.0000   114.6262     6.3615     5.7931
  130.1000   115.0775     6.3944     5.8586
  130.2000   115.2415     6.4549     5.9108
  130.3000   115.1404     6.5281     5.9440
  130.4000   114.8548     6.6021     5.9800
  130.5000   114.3330     6.6822     6.0426
  130.6000   114.3352     6.7172     6.0876
  130.7000   114.3377     6.7814     6.1367
  130.8000   114.3401     6.8413     6.1998
  130.9000   114.3426     6.8872     6.2369
  131.0000   114.3452     6.9698     6.2696
  131.1000   114.3475     7.0444     6.3294
  131.2000   115.1156     7.1243     6.3851
  131.3000   116.1922     7.2051     6.4142
  131.4000   116.4397     7.2783     6.4139
  131.5000   116.6871     7.3212     6.4822
  131.6000   116.8024     7.4005     6.5299
  131.7000   116.8764     7.4545     6.5666
  131.8000   117.1237     7.4965     6.5962
  131.9000   117.3710     7.5388     6.5959
  132.0000   117.4229     7.5826     6.6311
  132.1000   117.4253     7.6239     6.6684
  132.2000   117.4278     7.6669     6.7058
  132.3000   117.4302     7.6894     6.7435
  132.4000   117.4331     7.6990     6.7830
  132.5000   117.6336     7.7432     6.7828
  132.6000   117.7429     7.7860     6.7825
  132.7000   117.8230     7.7975     6.7999
  132.8000   118.0703     7.8186     6.8381
  132.9000   118.3614     7.8627     6.8778
  133.0000   118.5649     7.9073     6.8776
  133.1000   118.9532     7.9069     6.9052
  133.2000   119.3649     7.9400     6.9440
  133.3000   119.6122     7.9622     6.9743
  133.4000   119.9002     7.9733     6.9740
  133.5000   120.3115     8.0180     7.0121
  133.6000   120.6597     8.0176     7.0516
  133.7000   120.9070     8.0517     7.0721
  133.8000   121.1543     8.0971     7.0810
  133.9000   121.4391     8.1306     7.1215
  134.0000   121.2336     8.1302     7.1608
  134.1000   121.1383     8.1299     7.1713
  134.2000   121.0541     8.1651     7.1709
  134.3000   120.8376     8.1868     7.1803
  134.4000   120.8406     8.1992     7.2210
  134.5000   120.6321     8.2441     7.2612
  134.6000   120.5398     8.2437     7.3021
  134.7000   120.4524     8.2433     7.3226
  134.8000   120.2100     8.2680     7.3325
  134.9000   119.9368     8.3146     7.3738
  135.0000   119.7252     8.3595     7.3735
  135.1000   119.6361     8.3592     7.3732
  135.2000   119.5457     8.3588     7.3938
  135.3000   119.3353     8.3584     7.4246
  135.4000   119.3383     8.3724     7.4243
  135.5000   119.1237     8.4169     7.4664
  135.6000   118.8812     8.4165     7.4763
  135.7000   118.6387     8.4547     7.4759
  135.8000   118.3963     8.4754     7.4867
  135.9000   118.1291     8.4751     7.5281
  136.0000   118.1313     8.4780     7.5278
  136.1000   117.9743     8.5343     7.5602
  136.2000   117.7319     8.5340     7.5804
  136.3000   117.5276     8.5337     7.5801
  136.4000   117.8359     8.5491     7.5798
  136.5000   118.2838     8.5934     7.5795
  136.6000   118.9383     8.5930     7.5792
  136.7000   119.7773     8.5927     7.6015
  136.8000   120.7179     8.5923     7.6321
  136.9000   121.5123     8.5919     7.6318
  137.0000   121.9666     8.5916     7.6315
  137.1000   122.6242     8.5911     7.6311
  137.2000   123.2562     8.5908     7.6540
  137.3000   123.7484     8.6197     7.6844
  137.4000   124.2725     8.6510     7.6841
  137.5000   124.7327     8.6506     7.6838
  137.6000   125.2249     8.6502     7.6834
  137.7000   125.5011     8.6499     7.6831
  137.8000   125.5512     8.6495     7.6957
  137.9000   125.8114     8.6492     7.7368
  138.0000   125.5816     8.6488     7.7365
  138.1000   125.3392     8.6483     7.7361
  138.2000   124.8744     8.6480     7.7600
  138.3000   124.1929     8.6476     7.7902
  138.4000   123.6862     8.6473     7.7899
  138.5000   123.2185     8.6469     7.7895
  138.6000   122.7311     8.6465     7.7892
  138.7000   122.2438     8.6462     7.7889
  138.8000   121.8638     8.6770     7.7886
  138.9000   121.8663     8.7067     7.7882
  139.0000   121.6304     8.7063     7.7878
  139.1000   121.3880     8.7059     7.8236
  139.2000   121.2629     8.7056     7.8423
  139.3000   121.2085     8.7052     7.8420
  139.4000   120.9625     8.7048     7.8449
  139.5000   120.9649     8.7045     7.8967
  139.6000   120.9673     8.7041     7.8964
  139.7000   120.8496     8.7037     7.8961
  139.8000   120.6669     8.7034     7.9105
  139.9000   120.6693     8.7030     7.9513
  140.0000   120.6718     8.7026     7.9509
  140.1000   120.4903     8.7022     7.9506
  140.2000   120.3713     8.7019     7.9767
  140.3000   120.3108     8.7015     8.0062
  140.4000   120.0684     8.7012     8.0058
  140.5000   119.8260     8.7008     8.0054
  140.6000   119.5835     8.7004     8.0051
  140.7000   119.4675     8.7000     8.0048
  140.8000   119.4041     8.6997     8.0202
  140.9000   119.1617     8.7210     8.0607
  141.0000   118.9190     8.7606     8.0603
  141.1000   118.8666     8.7602     8.0600
  141.2000   118.8690     8.7598     8.0597
  141.3000   119.0096     8.7594     8.0594
  141.4000   119.4846     8.7591     8.0590
  141.5000   119.4870     8.7587     8.0586
  141.6000   119.8754     8.7583     8.0583
  141.7000   120.3675     8.7580     8.0580
  141.8000   120.7877     8.7576     8.0577
  141.9000   121.0350     8.7572     8.0573
  142.0000   121.3318     8.7568     8.0569
  142.1000   121.7260     8.7565     8.0566
  142.2000   122.0825     8.7561     8.0563
  142.3000   122.4050     8.7557     8.0560
  142.4000   122.8824     8.7553     8.0556
  142.5000   123.1760     8.7550     8.0552
  142.6000   123.5762     8.7546     8.0549
  142.7000   123.9298     8.7543     8.0546
  142.8000   124.1771     8.7539     8.0542
  142.9000   124.4243     8.7535     8.0539
  143.0000   124.7149     8.7531     8.0535
  143.1000   124.9189     8.7528     8.0532
  143.2000   125.1664     8.7524     8.0529
  143.3000   125.4138     8.7520     8.0350
  143.4000   125.6403     8.7269     7.9957
  143.5000   125.6431     8.6897     7.9953
  143.6000   125.8503     8.6894     7.9950
  143.7000   125.9530     8.6890     7.9946
  143.8000   125.9554     8.6887     7.9943
  143.9000   125.9104     8.6883     7.9940
  144.0000   125.3500     8.6749     7.9936
  144.1000   124.7272     8.6264     7.9933
  144.2000   123.9948     8.6261     7.9929
  144.3000   123.2626     8.5882     7.9926
  144.4000   122.5305     8.5647     7.9852
  144.5000   121.6980     8.5643     7.9358
  144.6000   121.0662     8.5624     7.9355
  144.7000   120.4849     8.5138     7.9057
  144.8000   119.9976     8.4653     7.8791
  144.9000   119.5402     8.4428     7.8787
  145.0000   119.2675     8.4286     7.8784
  145.1000   119.0554     8.3807     7.8375
  145.2000   118.9667     8.3331     7.8224
  145.3000   118.9691     8.3231     7.8221
  145.4000   118.9716     8.2969     7.8141
  145.5000   118.9743     8.2498     7.7665
  145.6000   118.9765     8.2054     7.7662
  145.7000   118.9789     8.2050     7.7659
  145.8000   118.9814     8.1673     7.7468
  145.9000   118.9838     8.1208     7.7028
  146.0000   118.9865     8.0890     7.6562
  146.1000   119.2091     8.0855     7.6559
  146.2000   119.4564     8.0314     7.6260
  146.3000   119.6043     7.9939     7.5827
  146.4000   119.6067     7.9484     7.5477
  146.5000   119.6094     7.9032     7.5474
  146.6000   119.6116     7.8619     7.5072
  146.7000   119.4510     7.8615     7.4646
  146.8000   119.2085     7.8242     7.4409
  146.9000   118.9661     7.7797     7.4323
  147.0000   118.7055     7.7355     7.3880
  147.1000   118.4813     7.6914     7.3482
  147.2000   118.2388     7.6410     7.3065
  147.3000   117.9963     7.6407     7.2651
