~VERSION INFORMATION
 VERS.                2.0:   CWLS LOG ASCII STANDARD - VERSION 2.0
 WRAP.                 NO:   ONE LINE PER DEPTH STEP
~WELL INFORMATION
#MNEM.UNIT      DATA TYPE    INFORMATION
#----------   ------------   ------------------------------
 STRT.F            8.0000:   START DEPTH
 STOP.F          598.0000:   STOP DEPTH
 STEP.F            0.5000:   STEP LENGTH
 NULL.          -999.2500:   NO VALUE
 COMP. FENIX & SCISSON INC:   COMPANY
 WELL.    16-SX-11 #16-11:   WELL
 FLD .             TEAPOT:   FIELD
 LOC .      S11 T38N R78W:   LOCATION
 CNTY.            NATRONA:   COUNTY
 STAT.            WYOMING:   STATE
 CTRY. UNITED STATES OF AMERICA:   COUNTRY
 SRVC.            Unknown:   SERVICE COMPANY
 DATE.        13-DEC-1978:   LOGDATE
 API .       490251078400:   API NUMBER
~CURVE INFORMATION
#MNEM.UNIT       API CODE    CURVE DESCRIPTION
#----------   ------------   ------------------------------
 DEPT.F                  :   
 RHOB.G/C3   45 350 01 00:   BULK DENSITY
 CORR.G/C3   45 356 01 00:   DENSITY CORRECTION
 SN  .OHMM   05 040 16 00:   SHORT NORMAL 16"
 ILD .OHMM   05 120 46 00:   INDUCTION LOG DEEP
 SPR .MV     05 010 01 00:   SPONTANEOUS POTENTIAL FROM RES.
 DPHI.DEC    45 890 12 00:   DENSITY POROSITY SANDSTONE
 CALD.IN     45 280 60 00:   CALIPER
 GRD .GAPI   45 310 01 00:   GAMMA RAY FROM DENSITY LOG
~PARAMETER INFORMATION
#MNEM.UNIT          VALUE    DESCRIPTION
#----------   ------------   ------------------------------
 PD  .                 GL:   PERMANENT DATUM
 EPD .F              5209:   ELEVATION PERMANENT DATUM
 LMF .                 KB:   LOG MEASURED FROM
 DAPD.F                 4:   FEET ABOVE PERMANENT DATUM
 DMF .                 KB:   DRILLING MEASURED FROM
 EKB .F              5213:   KELLING BUSHING
 EGL .F              5209:   GROUND LEVEL
 DATE.           12-13-78:   RUN DATE
 RUN .                  1:   RUN NUMBER
 DD  .F               590:   DEPTH DRILLER
 DL  .F               598:   DEPTH LOGGER
 BLI .F               591:   BOTTOM LOG INTERVAL
 TLI .F                40:   TOP LOG INTERVAL
 CS  .IN            8.625:   CASING SIZE
 CBD .F                40:   CASING BOTTOM DRILLER
 CBL .F                25:   CASING BOTTOM LOGGER
 BS  .IN            7.875:   BIT SIZE
 BSD .F               590:   BIT SIZE AT DEPTH
 DFT .                KCL:   DRILLING FLUID TYPE
 DFD .                8.8:   DRILLING FLUID DENSITY
 DFV .                 37:   DRILLING FLUID VISCOSITY
 DFPH.                8.9:   DRILLING FLUID PH
 MSS .           FLOWLINE:   MUD SAMPLE SOURCE
 RMS .OHMM             .3:   RESISTIVITY MUD SAMPLE
 MST .F                56:   MUD SAMPLE TEMPERATURE
 RMF .OHMM            .26:   RESISTIVITY MUD FILTRATE SAMPLE
 MFST.F                66:   MUD FILTRATE SAMPLE TEMPERATURE
 RMC .OHMM            .24:   RESISTIVITY MUD CAKE
 MCST.F                66:   MUD CAKE SAMPLE TEMPERATURE
 MFSS.           MEASURED:   MUD FILTRATE SAMPLE SOURCE
 MCSS.           MEASURED:   MUD CAKE SAMPLE SOURCE
 RMB .OHMM            .29:   RESISTIVITY MUD AT BHT
 BHT .F                58:   BOTTOM HOLE TEMPERATURE
 TCS .HRS               3:   TIME CURCULATED STOPPED
 MRT .F                58:   MAXIMUM RECORDED TEMPERATURE
 LUN .               2958:   LOGGING UNIT NUMBER
 LUL .             CASPER:   LOGGING UNIT LOCATION
 ENGI.            ROLLINS:   RECORDING ENGINEER
 WITN.         RICHARDSON:   WITNESSED BY
 CLNT.            A2DTECH:   CLIENT CODE
 ORIG.       2", 5" PRINT:   ORIGIN OF DATA
 UWI .       490251078400:   UNIQUE WELL ID
 DICO. A2D Technologies, Inc.:   DIGITIZING COMPANY
~OTHER INFORMATION
~A    DEPT    RHOB       CORR         SN        ILD        SPR       DPHI       CALD         GRD  
# ...
  251.0000     2.4483     0.0051     9.3152     9.7882     0.9095     0.1485     7.7895    96.4980
  251.5000     2.4472     0.0047     9.3069     9.7720     0.9657     0.1491     7.7933    96.4172
  252.0000     2.4462     0.0042     9.2986     9.6776     1.0221     0.1463     7.7971    96.4145
  252.5000     2.4453     0.0038     9.2903     9.5071     1.0782     0.1469     7.8009    96.1802
  253.0000     2.4459     0.0035     9.2820     9.3275     1.1343     0.1477     7.8047    94.3444
  253.5000     2.4450     0.0032     9.2736     9.1514     1.1906     0.1479     7.8085    92.4954
  254.0000     2.4411     0.0029     9.2653     8.9785     1.2474     0.1490     7.8122    90.5937
  254.5000     2.4373     0.0026     9.2570     8.9004     1.3014     0.1540     7.8160    90.2156
  255.0000     2.4334     0.0022     9.2487     8.8925     1.2257     0.1572     7.8198    91.8260
  255.5000     2.4305     0.0019     9.2408     8.8847     1.1409     0.1603     7.8235    94.9093
  256.0000     2.4327     0.0016     9.2271     8.8769     1.0563     0.1623     7.8227    98.2535
  256.5000     2.4348     0.0013     9.2053     8.8691     0.9723     0.1597     7.8216    99.1880
  257.0000     2.4351     0.0010     9.1833     8.8613     0.9018     0.1593     7.8205   101.8734
  257.5000     2.4350     0.0006     9.1614     8.8535     0.9037     0.1595     7.8195   102.0719
  258.0000     2.4348     0.0003     9.1395     8.8457     0.9045     0.1597     7.8184    96.4186
  258.5000     2.4346     0.0001     9.1175     8.8383     0.8967     0.1599     7.8173    95.5517
  259.0000     2.4345     0.0017     9.0959     8.8316     0.7747     0.1603     7.8163    94.5751
  259.5000     2.4343     0.0034     9.0742     8.8228     0.4482     0.1601     7.8152    93.0176
  260.0000     2.4342     0.0050     8.9325     8.6233     0.0087     0.1585     7.8141    91.6844
  260.5000     2.4392     0.0067     8.7728     8.4378    -0.5571     0.1553     7.8131    94.2725
  261.0000     2.4471     0.0077     8.6160     8.2562    -1.1008     0.1501     7.8120    94.0511
  261.5000     2.4491     0.0057     8.4618     8.0784    -1.6415     0.1459     7.8109    93.6251
  262.0000     2.4441     0.0038     8.3109     7.9046    -2.1823     0.1468     7.8099    96.1274
  262.5000     2.4390     0.0020     8.1165     7.7515    -2.7278     0.1497     7.8088    97.6209
  263.0000     2.4339     0.0022     8.1192     7.7515    -2.8438     0.1536     7.8078    98.3765
  263.5000     2.4289     0.0023     8.1185     7.7515    -2.7127     0.1576     7.8067    99.6252
  264.0000     2.4238     0.0025     8.1181     7.7514    -2.6975     0.1615     7.8056   100.8506
  264.5000     2.4221     0.0026     8.1180     7.7515    -2.6853     0.1654     7.8046   101.7485
  265.0000     2.4270     0.0028     8.1447     7.7498    -2.6731     0.1650     7.8063   101.6886
  265.5000     2.4339     0.0030     8.2236     7.8062    -2.6608     0.1640     7.8175    98.8141
  266.0000     2.4401     0.0031     8.3033     7.9079    -2.6485     0.1570     7.8282    95.3636
  266.5000     2.4380     0.0033     8.3838     8.0110    -2.6362     0.1544     7.8390    91.5696
  267.0000     2.4358     0.0034     8.4650     8.1179    -2.6239     0.1570     7.8497    90.7864
  267.5000     2.4370     0.0036     8.5470     8.1832    -2.6115     0.1591     7.8611    93.2726
  268.0000     2.4406     0.0038     8.6298     8.2500    -2.5992     0.1568     7.8563    95.0219
  268.5000     2.4417     0.0039     8.7135     8.3175    -2.5869     0.1517     7.8460    96.6823
  269.0000     2.4406     0.0042     8.7979     8.3856    -2.5746     0.1522     7.8436    96.8417
  269.5000     2.4396     0.0046     8.8832     8.4543    -2.5623     0.1531     7.8436    97.0327
  270.0000     2.4385     0.0050     8.9692     8.5235    -2.5500     0.1557     7.8469    97.8500
  270.5000     2.4397     0.0054     9.0710     8.5933    -2.5375     0.1559     7.8570    98.6869
  271.0000     2.4434     0.0058     9.0571     8.6612    -2.5252     0.1549     7.8665    98.9909
  271.5000     2.4447     0.0079     9.0405     8.6422    -2.5133     0.1543     7.8748    98.6520
  272.0000     2.4473     0.0133     9.0238     8.6239    -2.5569     0.1524     7.8832    99.1539
  272.5000     2.4532     0.0186     9.0071     8.6056    -2.6910     0.1483     7.8915   101.1947
  273.0000     2.4592     0.0238     8.9905     8.5874    -2.8239     0.1455     7.8999   100.3089
  273.5000     2.4620     0.0233     8.9740     8.5663    -2.9568     0.1427     7.9083    99.1422
  274.0000     2.4625     0.0224     8.9574     8.5437    -3.0897     0.1398     7.9166    98.6350
  274.5000     2.4581     0.0192     8.9409     8.5212    -3.2227     0.1387     7.9216   101.4637
  275.0000     2.4526     0.0145     8.9244     8.4987    -3.3559     0.1423     7.9108   104.3732
  275.5000     2.4476     0.0098     8.9079     8.4763    -3.4909     0.1459     7.9002   107.1798
  276.0000     2.4448     0.0059     8.8915     8.4540    -3.5141     0.1495     7.8898   107.4942
  276.5000     2.4456     0.0058     8.8751     8.4318    -3.5144     0.1523     7.8899   105.4217
  277.0000     2.4489     0.0057     8.8587     8.4095    -3.5141     0.1503     7.9059   103.1017
  277.5000     2.4522     0.0055     8.8424     8.3874    -3.5140     0.1476     7.9217   103.6573
  278.0000     2.4533     0.0053     8.8261     8.3653    -3.5134     0.1478     7.9377   105.2111
  278.5000     2.4533     0.0052     8.8098     8.3416    -3.5144     0.1468     7.9429   105.1959
  279.0000     2.4533     0.0050     8.7936     8.3089    -3.5686     0.1449     7.9426   104.5084
  279.5000     2.4513     0.0048     8.7773     8.2763    -3.8311     0.1444     7.9421   102.0337
  280.0000     2.4467     0.0047     8.7612     8.2438    -4.0695     0.1469     7.9417   101.9572
  280.5000     2.4450     0.0045     8.7452     8.2114    -4.3310     0.1507     7.9413   105.1310
  281.0000     2.4462     0.0044     8.7075     8.1792    -4.3171     0.1507     7.9409   105.7333
  281.5000     2.4451     0.0042     8.6644     8.1471    -4.3197     0.1518     7.9405   102.3111
  282.0000     2.4439     0.0040     8.6215     8.1152    -4.2598     0.1529     7.9401    98.6335
  282.5000     2.4463     0.0046     8.5789     8.0834    -4.3779     0.1526     7.9396    99.7958
  283.0000     2.4525     0.0052     8.5365     8.0516    -4.6573     0.1493     7.9392   101.5330
  283.5000     2.4561     0.0059     8.4943     8.0201    -4.9200     0.1460     7.9388   103.3357
  284.0000     2.4570     0.0065     8.4522     7.9886    -5.3296     0.1430     7.9384   104.0748
  284.5000     2.4563     0.0072     8.4104     7.9573    -5.3232     0.1423     7.9380   104.2308
  285.0000     2.4556     0.0078     8.3688     7.9260    -5.3214     0.1434     7.9376   104.2242
  285.5000     2.4565     0.0085     8.2501     7.8949    -5.3213     0.1440     7.9372   103.7703
  286.0000     2.4588     0.0091     8.1765     7.8645    -5.3212     0.1418     7.9367   102.2852
  286.5000     2.4601     0.0098     8.1036     7.8321    -5.3208     0.1397     7.9363   101.7064
  287.0000     2.4582     0.0104     8.0313     7.7118    -5.3209     0.1391     7.9359   101.1715
  287.5000     2.4505     0.0111     7.9596     7.5504    -5.3530     0.1440     7.9355    99.8140
  288.0000     2.4452     0.0117     7.8765     7.3447    -5.5782     0.1495     7.9351    97.1206
  288.5000     2.4462     0.0124     7.6950     7.1055    -5.8049     0.1496     7.9347    94.1238
  289.0000     2.4479     0.0130     7.5178     6.8725    -6.0355     0.1476     7.9342    94.1728
  289.5000     2.4493     0.0137     7.3446     6.6475    -6.3372     0.1463     7.9338    95.7234
  290.0000     2.4477     0.0143     7.1754     6.4941    -6.3206     0.1477     7.9334    98.5872
  290.5000     2.4454     0.0150     7.0102     6.4338    -6.3025     0.1501     7.9330   102.3114
  291.0000     2.4403     0.0156     6.8081     6.3741    -6.2881     0.1525     7.9326   104.7333
