~VERSION INFORMATION
 VERS.                2.0:   CWLS LOG ASCII STANDARD - VERSION 2.0
 WRAP.                 NO:   ONE LINE PER DEPTH STEP
~WELL INFORMATION
#MNEM.UNIT      DATA TYPE    INFORMATION
#----------   ------------   ------------------------------
 STRT.F            0.0000:   START DEPTH
 STOP.F          464.0000:   STOP DEPTH
 STEP.F            0.5000:   STEP LENGTH
 NULL.          -999.2500:   NO VALUE
 COMP. BROWN JOHN E&C INC:   COMPANY
 WELL. NPR 3 SX-10 #64-3-10:   WELL
 FLD .             TEAPOT:   FIELD
 LOC .      S10 T38N R78W:   LOCATION
 CNTY.            NATRONA:   COUNTY
 STAT.            WYOMING:   STATE
 CTRY. UNITED STATES OF AMERICA:   COUNTRY
 SRVC.     Atlas Wireline:   SERVICE COMPANY
 DATE.        14-MAY-1991:   LOGDATE
 API .       490251133800:   API NUMBER
~CURVE INFORMATION
#MNEM.UNIT       API CODE    CURVE DESCRIPTION
#----------   ------------   ------------------------------
 DEPT.F                  :   
 RILD.OHMM   07 120 46 00:   INDUCTION LOG DEEP RESISTIVITY
 RILM.OHMM   07 120 44 00:   INDUCTION LOG MEDIUM RESISTIVITY
 GRR .GAPI   07 310 01 00:   GAMMA RAY
~PARAMETER INFORMATION
#MNEM.UNIT          VALUE    DESCRIPTION
#----------   ------------   ------------------------------
 PD  .                 GL:   PERMANENT DATUM
 EPD .F              5182:   ELEVATION PERMANENT DATUM
 LMF .                 KB:   LOG MEASURED FROM
 DAPD.F                 5:   FEET ABOVE PERMANENT DATUM
 DMF .                 KB:   DRILLING MEASURED FROM
 EKB .F              5187:   KELLING BUSHING
 EGL .F              5182:   GROUND LEVEL
 DATE.        01-MAY-1991:   RUN DATE
 RUN .                  1:   RUN NUMBER
 DD  .F               470:   DEPTH DRILLER
 DL  .F               470:   DEPTH LOGGER
 BLI .F               468:   BOTTOM LOG INTERVAL
 CS  .IN            8.625:   CASING SIZE
 CBD .F                45:   CASING BOTTOM DRILLER
 CBL .F                45:   CASING BOTTOM LOGGER
 BS  .IN            7.875:   BIT SIZE
 BSD .F               470:   BIT SIZE AT DEPTH
 DFT .                AIR:   DRILLING FLUID TYPE
 LUN .           HL- 6272:   LOGGING UNIT NUMBER
 LUL .             CASPER:   LOGGING UNIT LOCATION
 ENGI.             KINNET:   RECORDING ENGINEER
 WITN.             STRONG:   WITNESSED BY
 CLNT.            A2DTECH:   CLIENT CODE
 ORIG.           5" PRINT:   ORIGIN OF DATA
 UWI .       490251133800:   UNIQUE WELL ID
 DICO. A2D Technologies, Inc.:   DIGITIZING COMPANY
~OTHER INFORMATION
~A    DEPT    RILD       RILM         GRR  
# ...
  182.0000     7.0702     7.7570   132.5818
  182.5000     7.5632     8.0316   132.8826
  183.0000     7.6690     8.1445   136.2133
  183.5000     7.7225     8.1451   139.8475
  184.0000     7.7763     8.2024   140.7549
  184.5000     7.8851     8.2601   137.5704
  185.0000     7.8851     8.3764   135.5227
  185.5000     7.8305     8.3769   137.3382
  186.0000     7.7225     8.3195   142.1087
  186.5000     7.5632     8.1485   144.8338
  187.0000     7.4589     7.8709   142.3316
  187.5000     7.3560     7.4892   138.9204
  188.0000     7.1544     7.1924   137.3273
  188.5000     6.8017     6.9473   137.7796
  189.0000     6.4465     6.6642   137.3224
  189.5000     6.2265     6.3484   136.6384
  190.0000     6.0559     6.0056   133.2271
  190.5000     5.7285     5.8395   130.7249
  191.0000     5.4947     5.6035   131.1773
  191.5000     5.3814     5.5264   135.0382
  192.0000     5.3441     5.5269   142.0815
  192.5000     5.3814     5.7226   149.3520
  193.0000     5.4189     5.9252   149.5776
  193.5000     5.5716     6.1778   147.0749
  194.0000     5.6889     6.3629   142.5273
  194.5000     5.8899     6.7158   135.9342
  195.0000     6.2875     6.9536   140.9315
  195.5000     6.7209     7.1500   146.8384
  196.0000     7.0069     7.3519   158.8818
  196.5000     7.2545     7.5072   157.1371
  197.0000     7.5109     7.7225   150.6951
  197.5000     7.6159     7.9374   142.5111
  198.0000     7.7254     8.0490   138.6458
  198.5000     7.7763     8.1056   140.4614
  199.0000     7.7763     8.1062   136.5954
  199.5000     7.7763     8.1067   134.5478
  200.0000     7.8326     8.1072   137.0456
  200.5000     7.8460     7.9984   136.1364
  201.0000     7.8594     7.9423   135.2242
  201.5000     7.8728     7.9433   136.6576
  202.0000     7.8873     7.9446   138.6364
  202.5000     7.8879     7.9457   140.2273
  203.0000     7.8884     7.9468   142.7273
  203.5000     7.8889     8.0032   145.9091
  204.0000     7.8896     8.0043   147.0455
  204.5000     7.8901     8.0689   145.6333
  205.0000     7.8906     8.1187   143.1818
  205.5000     7.8911     8.1198   143.4091
  206.0000     7.8917     8.1209   146.3636
  206.5000     7.8922     8.1220   149.7727
  207.0000     7.8929     8.1230   149.7727
  207.5000     7.8934     8.1176   149.4999
  208.0000     7.8393     7.9028   145.2273
  208.5000     7.5722     7.7409   141.8182
  209.0000     7.2636     7.3235   137.2727
  209.5000     6.9577     6.8806   137.7273
  210.0000     6.5915     6.6929   140.0000
  210.5000     6.4560     6.6015   144.3303
  211.0000     6.3674     6.6949   147.0455
  211.5000     6.2798     6.7425   153.6364
  212.0000     6.2369     6.7434   154.3182
  212.5000     6.2373     6.7443   152.7273
  213.0000     6.0669     6.6521   149.7779
  213.5000     5.6210     5.7780   147.0455
  214.0000     5.2807     5.4402   144.9333
  214.5000     5.1008     5.2918   144.7727
  215.0000     5.0658     5.2193   146.1364
  215.5000     5.1038     5.2202   147.5000
  216.0000     5.1375     5.3308   149.9492
  216.5000     5.2097     5.4839   151.1364
  217.0000     5.2829     5.7160   148.4091
  217.5000     5.3945     6.0016   145.2273
  218.0000     5.5855     6.3896   144.5242
  218.5000     5.9913     6.8501   144.7727
  219.0000     6.7857     7.2425   146.1364
  219.5000     7.1739     7.5013   147.0455
  220.0000     7.2747     7.6056   144.7727
  220.5000     7.1749     7.6066   141.5909
  221.0000     6.5104     7.2466   141.1364
  221.5000     6.0730     6.5304   142.5000
  222.0000     5.7461     6.0090   144.3182
  222.5000     5.3983     5.5671   145.9091
  223.0000     5.1068     5.2312   147.7273
  223.5000     5.0018     5.2319   151.1364
  224.0000     5.0371     5.3058   151.3636
  224.5000     5.1437     5.3807   148.1818
  225.0000     5.3380     5.4947   145.2273
  225.5000     5.7091     5.6897   141.1000
  226.0000     6.1629     6.0359   143.8636
  226.5000     6.5608     6.7238   145.0000
  227.0000     6.9845     7.2084   142.0455
  227.5000     7.4874     7.5162   139.5455
  228.0000     7.8690     7.8371   138.6364
  228.5000     8.0832     8.0590   137.9273
  229.0000     8.1400     8.1728   137.0455
  229.5000     8.1406     8.2885   136.1364
  230.0000     8.1411     8.4642   136.5909
  230.5000     8.1417     8.6435   137.2727
  231.0000     8.1422     8.5846   136.5909
  231.5000     8.1429     8.6458   133.3727
  232.0000     8.2002     8.7146   134.3182
  232.5000     8.3734     8.8305   135.2273
  233.0000     8.5503     8.8933   135.4545
  233.5000     8.6105     8.8326   134.3182
  234.0000     8.6111     8.6516   132.0455
  234.5000     8.4928     8.5337   131.5909
  235.0000     8.3184     8.5348   133.8636
  235.5000     8.3189     8.5957   135.2273
  236.0000     8.4947     8.6568   136.3636
  236.5000     8.6741     8.6580   137.9545
  237.0000     8.8574     8.9031   141.5909
  237.5000     8.8581     9.1551   141.3636
  238.0000     8.8587     9.4248   139.9636
  238.5000     8.7371     9.8166   137.2727
  239.0000     8.4982     9.8863   129.3182
  239.5000     8.0394     9.4841   125.0000
  240.0000     7.1126     8.1412   126.1364
  240.5000     5.7609     6.4296   127.0455
  241.0000     5.3006     5.7142   131.5545
  241.5000     5.2277     5.7152   144.3182
  242.0000     5.7222     5.7959   160.6818
  242.5000     5.7625     6.0015   161.1364
  243.0000     5.8068     6.2578   158.6364
  243.5000     6.3519     6.8026   147.2727
  244.0000     7.1485     7.5591   136.1364
  244.5000     7.9894     8.5576   124.3182
  245.0000     9.3091     9.6986   117.6667
  245.5000    10.3320    10.4701   117.0455
  246.0000    10.5502    11.0698   121.5909
  246.5000    10.5511    11.1485   122.5000
  247.0000    10.5518    11.1500   122.5000
  247.5000    10.8498    11.1518   122.9545
  248.0000    11.1562    11.4676   125.2515
  248.5000    11.7129    11.7922   127.0455
  249.0000    12.3841    12.4677   125.4545
  249.5000    13.2748    13.0906   122.5000
  250.0000    14.1456    13.9369   114.4520
  250.5000    15.5752    17.5286   103.4091
  251.0000    17.1658    19.7269    88.5242
  251.5000    19.3173    22.3556    75.6818
  252.0000    22.0426    26.9693    67.0455
  252.5000    24.6336    30.1414    67.7273
  253.0000    27.7211    31.6453    70.2273
  253.5000    30.1307    32.7658    73.8636
  254.0000    29.9139    32.7679    76.1364
  254.5000    29.5093    32.7706    77.0455
  255.0000    29.5093    32.7728    75.4545
  255.5000    29.9221    32.7750    74.3182
  256.0000    30.9796    32.7771    76.1364
  256.5000    32.0983    33.4945    76.8182
  257.0000    32.5231    36.6354    75.4545
  257.5000    32.7497    38.1970    71.5909
  258.0000    32.5231    38.7338    68.3182
  258.5000    31.8524    37.6750    65.9091
  259.0000    31.6319    35.3948    66.1364
  259.5000    32.0744    33.7172    67.0455
  260.0000    31.8524    33.2543    70.6818
  260.5000    31.4129    33.2565    74.9060
  261.0000    30.9796    33.4905    77.9545
  261.5000    30.9796    33.7267    78.1818
  262.0000    30.9796    34.4391    77.0455
  262.5000    31.1955    34.6814    74.7727
  263.0000    31.4129    35.1689    69.7727
  263.5000    31.8732    35.1485    67.0455
  264.0000    32.2979    34.6883    66.8182
  264.5000    32.0744    34.4505    67.2727
  265.0000    31.8524    34.2148    70.5609
  265.5000    31.8524    33.9802    79.7727
  266.0000    32.2979    33.9830    82.5000
  266.5000    32.5231    34.4607    82.5000
  267.0000    32.7497    35.1886    83.1818
  267.5000    32.2979    35.6832    83.4091
  268.0000    32.2949    35.6856    82.9545
  268.5000    31.8524    34.9526    80.6818
  269.0000    31.8524    34.4721    76.8182
  269.5000    31.6319    33.9993    77.7273
  270.0000    31.4129    33.7661    80.6818
  270.5000    31.4129    33.2841    79.3182
  271.0000    30.7651    32.3927    78.6364
  271.5000    30.3407    31.9474    79.5455
  272.0000    29.7150    31.5087    83.4575
  272.5000    28.9008    31.5113    87.0455
