~VERSION INFORMATION
 VERS.                2.0:   CWLS LOG ASCII STANDARD - VERSION 2.0
 WRAP.                 NO:   ONE LINE PER DEPTH STEP
~WELL INFORMATION
#MNEM.UNIT      DATA TYPE    INFORMATION
#----------   ------------   ------------------------------
 STRT.F         1460.0000:   START DEPTH
 STOP.F         2374.5000:   STOP DEPTH
 STEP.F            0.5000:   STEP LENGTH
 NULL.          -999.2500:   NO VALUE
 COMP. BROWN JOHN E&C INC:   COMPANY
 WELL. 15-1 STX-14 #15-14:   WELL
 FLD .             TEAPOT:   FIELD
 LOC .      S14 T38N R78W:   LOCATION
 CNTY.            NATRONA:   COUNTY
 STAT.            WYOMING:   STATE
 CTRY. UNITED STATES OF AMERICA:   COUNTRY
 SRVC.            Unknown:   SERVICE COMPANY
 DATE.        20-OCT-1991:   LOGDATE
 API .       490251098600:   API NUMBER
~CURVE INFORMATION
#MNEM.UNIT       API CODE    CURVE DESCRIPTION
#----------   ------------   ------------------------------
 DEPT.F                  :   
 ROP .MIN/FT 91 810 01 00:   RATE OF DRILLING PENETRATION
 TGAS.UNITS  91 830 01 00:   TOTAL GAS FROM HOTWIRE
~PARAMETER INFORMATION
#MNEM.UNIT          VALUE    DESCRIPTION
#----------   ------------   ------------------------------
 EKB .F              5247:   KELLING BUSHING
 EGL .F              5237:   GROUND LEVEL
 DATE.           10-20-91:   RUN DATE
 DD  .F              2379:   DEPTH DRILLER
 BLI .F              2392:   BOTTOM LOG INTERVAL
 TLI .F              1460:   TOP LOG INTERVAL
 CS  .IN            8.625:   CASING SIZE
 CBD .F               815:   CASING BOTTOM DRILLER
 ENGI.               HUSK:   RECORDING ENGINEER
 WITN.              TOWER:   WITNESSED BY
 CLNT.            A2DTECH:   CLIENT CODE
 ORIG.         2.5" PRINT:   ORIGIN OF DATA
 UWI .       490251098600:   UNIQUE WELL ID
 DICO. A2D Technologies, Inc.:   DIGITIZING COMPANY
~OTHER INFORMATION
~A  DEPT       ROP       TGAS   
# ...
 1581.5000     0.4316   596.6884
 1582.0000     0.4704   596.8831
 1582.5000     0.5093   597.0779
 1583.0000     0.4702   597.2728
 1583.5000     0.4312   597.4675
 1584.0000     0.3922   597.6624
 1584.5000     0.3921   597.8572
 1585.0000     0.4309   598.0519
 1585.5000     0.4698   598.2468
 1586.0000     0.5085   598.4416
 1586.5000     0.5085   598.6364
 1587.0000     0.4695   598.8312
 1587.5000     0.3915   599.0260
 1588.0000     0.3720   599.2208
 1588.5000     0.4108   599.4156
 1589.0000     0.4691   599.6104
 1589.5000     0.5468   599.8052
 1590.0000     0.5856   600.0000
 1590.5000     0.6439   600.1948
 1591.0000     0.7410   600.3896
 1591.5000     0.8188   600.5844
 1592.0000     0.8576   600.7792
 1592.5000     0.7991   600.9740
 1593.0000     0.7406   601.1688
 1593.5000     0.7016   601.3636
 1594.0000     0.7016   601.5584
 1594.5000     0.7014   601.7532
 1595.0000     0.7013   601.9481
 1595.5000     0.7013   602.1428
 1596.0000     0.6622   602.3376
 1596.5000     0.6427   602.5325
 1597.0000     0.6231   606.7418
 1597.5000     0.6230   673.2411
 1598.0000     0.5840   739.7404
 1598.5000     0.6005   806.2396
 1599.0000     0.5618   872.7390
 1599.5000     0.7557   939.2382
 1600.0000     0.8915   974.0571
 1600.5000     0.8334  1013.2045
 1601.0000     0.7560  1013.3909
 1601.5000     0.6980  1013.6085
 1602.0000     0.6399  1013.7949
 1602.5000     0.6012  1033.4618
 1603.0000     0.5432  1053.1287
 1603.5000     0.4852  1053.3462
 1604.0000     0.4271  1053.5326
 1604.5000     0.4078  1053.7190
 1605.0000     0.3886  1053.9054
 1605.5000     0.3887  1054.1229
 1606.0000     0.3888  1054.3093
 1606.5000     0.3695  1054.4957
 1607.0000     0.4083  1054.7131
 1607.5000     0.4472  1054.8997
 1608.0000     0.4861  1016.0940
 1608.5000     0.4861   938.3583
 1609.0000     0.4863   860.6848
 1609.5000     0.4863   821.8791
 1610.0000     0.4865   783.1045
 1610.5000     0.4865   705.3998
 1611.0000     0.4866   627.6953
 1611.5000     0.4673   569.4401
 1612.0000     0.4287   550.9044
 1612.5000     0.4094   553.0576
 1613.0000     0.4095   555.2107
 1613.5000     0.4096   557.3638
 1614.0000     0.4485   559.5170
 1614.5000     0.4873   561.6701
 1615.0000     0.5649   563.8232
 1615.5000     0.5650   545.4545
 1616.0000     0.5651   525.9740
 1616.5000     0.5458   467.5325
 1617.0000     0.5265   428.5714
 1617.5000     0.5267   389.6104
 1618.0000     0.5268   370.1299
 1618.5000     0.5268   331.1688
 1619.0000     0.5270   311.6883
 1619.5000     0.5270   292.2078
 1620.0000     0.5465   272.7273
 1620.5000     0.5660   272.7273
 1621.0000     0.5661   272.7273
 1621.5000     0.6050   272.7273
 1622.0000     0.6051   292.2078
 1622.5000     0.6245   292.2078
 1623.0000     0.6246   292.2078
 1623.5000     0.6053   272.7273
 1624.0000     0.6054   272.7273
 1624.5000     0.5280   272.7273
 1625.0000     0.5087   272.7273
 1625.5000     0.4894   292.2078
 1626.0000     0.5089   292.2078
 1626.5000     0.5284   311.6883
 1627.0000     0.5479   311.6883
 1627.5000     0.5867   331.1688
 1628.0000     0.6450   350.6494
 1628.5000     0.7226   389.6104
 1629.0000     0.6839   409.0909
 1629.5000     0.6453   428.5714
 1630.0000     0.5678   467.5325
 1630.5000     0.6067   506.4935
 1631.0000     0.6068   545.4545
 1631.5000     0.5875   584.4156
 1632.0000     0.5682   584.4156
 1632.5000     0.5295   584.4156
 1633.0000     0.4909   584.4156
 1633.5000     0.4522   603.8961
 1634.0000     0.4329   603.8961
 1634.5000     0.4718   623.3766
 1635.0000     0.4913   623.3766
 1635.5000     0.5301   623.3766
 1636.0000     0.5496   623.3766
 1636.5000     0.5691   623.3766
 1637.0000     0.5498   623.3766
 1637.5000     0.5499   603.8961
 1638.0000     0.5306   603.8961
 1638.5000     0.4920   603.8961
 1639.0000     0.4533   584.4156
 1639.5000     0.4146   623.3766
 1640.0000     0.4535   662.3376
 1640.5000     0.4924   701.2987
 1641.0000     0.5312   779.2208
 1641.5000     0.5313   818.1818
 1642.0000     0.5314   857.1429
 1642.5000     0.5315   857.1429
 1643.0000     0.5704   818.1818
 1643.5000     0.5898   779.2208
 1644.0000     0.6287   740.2598
 1644.5000     0.6675   720.7792
 1645.0000     0.7258   681.8182
 1645.5000     0.7646   662.3376
 1646.0000     0.7260   623.3766
 1646.5000     0.6873   623.0768
 1647.0000     0.6486   622.2329
 1647.5000     0.5829   621.3890
 1648.0000     0.5713   620.5450
 1648.5000     0.5714   619.7011
 1649.0000     0.6103   618.8572
 1649.5000     0.6104   618.0132
 1650.0000     0.5330   617.1693
 1650.5000     0.4943   616.3254
 1651.0000     0.4169   615.4814
 1651.5000     0.3395   614.6375
 1652.0000     0.3591   613.7936
 1652.5000     0.3784   612.9496
 1653.0000     0.4173   612.1057
 1653.5000     0.4174   611.2618
 1654.0000     0.4562   610.4178
 1654.5000     0.4563   609.5739
 1655.0000     0.4952   608.7300
 1655.5000     0.5340   607.8860
 1656.0000     0.5729   607.0421
 1656.5000     0.5924   606.1982
 1657.0000     0.6118   605.3542
 1657.5000     0.6119   604.5103
 1658.0000     0.6120   603.6664
 1658.5000     0.5733   602.8224
 1659.0000     0.5153   601.9785
 1659.5000     0.5736   601.1346
 1660.0000     0.6318   600.2906
 1660.5000     0.6900   599.4467
 1661.0000     0.7095   598.6028
 1661.5000     0.7096   597.7589
 1662.0000     0.6709   596.9149
 1662.5000     0.6129   596.0710
 1663.0000     0.5742   595.2271
 1663.5000     0.5356   594.3831
 1664.0000     0.5551   593.5392
 1664.5000     0.5745   592.6953
 1665.0000     0.5746   591.8513
 1665.5000     0.5941   591.0074
 1666.0000     0.6136   590.1635
 1666.5000     0.6137   589.3195
 1667.0000     0.6525   588.4756
 1667.5000     0.6526   587.6317
 1668.0000     0.6915   586.7877
 1668.5000     0.7303   585.9438
 1669.0000     0.7692   585.0999
 1669.5000     0.8081   564.9351
 1670.0000     0.8469   506.4935
 1670.5000     0.7695   467.5325
 1671.0000     0.7114   448.0519
 1671.5000     0.6534   428.5714
 1672.0000     0.6147   409.0821
 1672.5000     0.6148   408.7304
 1673.0000     0.6149   408.3788
 1673.5000     0.6150   408.0272
 1674.0000     0.5957   407.6755
 1674.5000     0.5183   407.3239
 1675.0000     0.4796   406.9722
 1675.5000     0.4604   406.6206
 1676.0000     0.4605   406.2690
 1676.5000     0.4799   405.9173
 1677.0000     0.5382   405.5657
 1677.5000     0.5964   405.2141
 1678.0000     0.7322   404.8624
 1678.5000     0.7323   404.5107
 1679.0000     0.7324   404.1591
 1679.5000     0.7325   403.8075
 1680.0000     0.7326   403.4558
 1680.5000     0.7327   403.1042
 1681.0000     0.7328   402.7526
 1681.5000     0.7329   402.4009
 1682.0000     0.7330   402.0493
 1682.5000     0.7331   401.6976
 1683.0000     0.7290   401.3460
 1683.5000     0.6945   400.9944
 1684.0000     0.6946   400.6427
 1684.5000     0.6947   400.2911
 1685.0000     0.7335   399.9395
 1685.5000     0.7530   399.5878
 1686.0000     0.8113   399.2362
 1686.5000     0.8307   398.8845
 1687.0000     0.8502   398.5329
 1687.5000     0.8309   398.1812
 1688.0000     0.7729   397.8296
 1688.5000     0.7342   397.4780
 1689.0000     0.6955   397.1263
 1689.5000     0.6181   396.7747
 1690.0000     0.5407   396.4231
 1690.5000     0.5408   396.0714
 1691.0000     0.5797   395.7198
 1691.5000     0.5798   395.3681
 1692.0000     0.5992   395.0165
 1692.5000     0.6187   394.6649
 1693.0000     0.6576   394.3132
 1693.5000     0.6771   393.9616
 1694.0000     0.6578   393.6099
 1694.5000     0.6191   393.2583
 1695.0000     0.5998   392.9066
 1695.5000     0.5418   392.5550
 1696.0000     0.5225   392.2034
 1696.5000     0.5032   391.8517
 1697.0000     0.5027   391.5001
 1697.5000     0.5029   391.1485
 1698.0000     0.5031   390.7968
 1698.5000     0.5227   390.4452
 1699.0000     0.5423   390.0935
 1699.5000     0.5425   389.7419
 1700.0000     0.6008   389.6104
 1700.5000     0.6591   350.6494
 1701.0000     0.7175   350.6494
 1701.5000     0.6983   311.6883
 1702.0000     0.6597   292.2078
 1702.5000     0.6211   253.2467
