~VERSION INFORMATION
 VERS.                2.0:   CWLS LOG ASCII STANDARD - VERSION 2.0
 WRAP.                 NO:   ONE LINE PER DEPTH STEP
~WELL INFORMATION
#MNEM.UNIT      DATA TYPE    INFORMATION
#----------   ------------   ------------------------------
 STRT.F            5.0000:   START DEPTH
 STOP.F          640.0000:   STOP DEPTH
 STEP.F            0.5000:   STEP LENGTH
 NULL.          -999.2500:   NO VALUE
 COMP. BROWN JOHN E&C INC:   COMPANY
 WELL.     85-1 X 3 #85-3:   WELL
 FLD .             TEAPOT:   FIELD
 LOC .       S3 T38N R78W:   LOCATION
 CNTY.            NATRONA:   COUNTY
 STAT.            WYOMING:   STATE
 CTRY. UNITED STATES OF AMERICA:   COUNTRY
 SRVC.     Atlas Wireline:   SERVICE COMPANY
 DATE.        30-DEC-1991:   LOGDATE
 API .       490252249400:   API NUMBER
~CURVE INFORMATION
#MNEM.UNIT       API CODE    CURVE DESCRIPTION
#----------   ------------   ------------------------------
 DEPT.F                  :   
 GRR .GAPI   06 310 01 00:   GAMMA RAY FROM RESISTIVITY
 RFOC.OHMM   06 220 04 00:   RESISTIVITY FOCUSED LOG RES.
 RILD.OHMM   06 120 46 00:   DEEP INDUCTION RESISTIVITY
 RILM.OHMM   06 120 44 00:   INDUCTION LOG MEDIUM RESISTIVITY
 SPR .MV     06 010 01 00:   SPONTANEOUS POTENTIAL FROM RES.
 CALD.IN     45 280 60 00:   CALIPER FROM DENSITY LOG
 CORR.G/C3   45 356 01 00:   DENSITY CORRECTION
 DEN .G/C3   45 350 01 00:   COMPENSATED BULK DENSTIY
 PORD.DEC    45 890 12 00:   POROSITY DENSITY SANDSTONE
 CNC .DEC    42 890 03 00:   NEUTRON POROSITY SANDSTONE
~PARAMETER INFORMATION
#MNEM.UNIT          VALUE    DESCRIPTION
#----------   ------------   ------------------------------
 PD  .                 GL:   PERMANENT DATUM
 EPD .F              5156:   ELEVATION PERMANENT DATUM
 LMF .                 KB:   LOG MEASURED FROM
 DAPD.F                10:   FEET ABOVE PERMANENT DATUM
 DMF .                 KB:   DRILLING MEASURED FROM
 EKB .F              5166:   KELLING BUSHING
 EGL .F              5156:   GROUND LEVEL
 DATE.        30-DEC-1991:   RUN DATE
 RUN .                  1:   RUN NUMBER
 DD  .F               641:   DEPTH DRILLER
 DL  .F               642:   DEPTH LOGGER
 BLI .F               261:   BOTTOM LOG INTERVAL
 TLI .F               172:   TOP LOG INTERVAL
 CS  .IN            8.625:   CASING SIZE
 CBD .F               163:   CASING BOTTOM DRILLER
 CBL .F               172:   CASING BOTTOM LOGGER
 BS  .IN            7.875:   BIT SIZE
 BSD .F               641:   BIT SIZE AT DEPTH
 DFT .               CHEM:   DRILLING FLUID TYPE
 DFD .               17.1:   DRILLING FLUID DENSITY
 DFV .                 47:   DRILLING FLUID VISCOSITY
 DFPH.                9.0:   DRILLING FLUID PH
 DFL .                6.8:   DRILLING FLUID LOSS
 MSS .                PIT:   MUD SAMPLE SOURCE
 RMS .OHMM           1.40:   RESISTIVITY MUD SAMPLE
 MST .F               100:   MUD SAMPLE TEMPERATURE
 RMF .OHMM           1.12:   RESISTIVITY MUD FILTRATE SAMPLE
 MFST.F               100:   MUD FILTRATE SAMPLE TEMPERATURE
 RMC .OHMM           1.75:   RESISTIVITY MUD CAKE
 MCST.F               100:   MUD CAKE SAMPLE TEMPERATURE
 MFSS.               MEAS:   MUD FILTRATE SAMPLE SOURCE
 MCSS.               CALC:   MUD CAKE SAMPLE SOURCE
 RMB .OHMM           .536:   RESISTIVITY MUD AT BHT
 BHT .F               261:   BOTTOM HOLE TEMPERATURE
 TCS .HRS               4:   TIME CURCULATED STOPPED
 MRT .F               261:   MAXIMUM RECORDED TEMPERATURE
 LUN .            HL-6387:   LOGGING UNIT NUMBER
 LUL .          CASPER/WT:   LOGGING UNIT LOCATION
 ENGI.             ZIEGER:   RECORDING ENGINEER
 WITN.         LOFRENIERI:   WITNESSED BY
 CLNT.            A2DTECH:   CLIENT CODE
 ORIG.           5" PRINT:   ORIGIN OF DATA
 UWI .       490252249400:   UNIQUE WELL ID
 DICO. A2D Technologies, Inc.:   DIGITIZING COMPANY
~OTHER INFORMATION
~A    DEPT      GRR      RFOC       RILD       RILM        SPR       CALD       CORR        DEN       PORD        CNC   
# ...
  507.5000    64.6305    21.7374    17.6768    16.4131   -64.2219     8.9346    -0.0109     2.3258     0.2044     0.2528
  508.0000    66.7601    20.9980    17.5563    16.6446   -63.9213     8.9352    -0.0063     2.3273     0.2095     0.2528
  508.5000    67.0902    20.5664    17.5586    16.8795   -64.0742     8.9206    -0.0048     2.3220     0.2104     0.2522
  509.0000    63.6490    21.0064    17.5610    16.9987   -64.2267     8.9214    -0.0017     2.3167     0.2125     0.2513
  509.5000    59.2335    21.4548    17.4412    16.9999   -64.2281     8.9220     0.0013     2.3152     0.2146     0.2491
  510.0000    59.5477    20.8497    17.2018    16.7659   -64.0785     8.9076     0.0059     2.3276     0.2128     0.2476
  510.5000    63.1902    20.2990    17.0851    16.5348   -63.7782     8.8931     0.0059     2.3500     0.2068     0.2491
  511.0000    65.0172    21.1715    17.0874    16.1936   -63.9307     8.8939     0.0044     2.3576     0.1986     0.2518
  511.5000    64.4236    21.4721    17.0897    15.9704   -64.0833     8.8792    -0.0016     2.3546     0.1925     0.2533
  512.0000    62.6198    20.5975    17.0920    16.0833   -64.2358     8.8649    -0.0106     2.3433     0.1960     0.2539
  512.5000    62.6343    19.6203    16.9753    16.0846   -64.5393     8.8656    -0.0090     2.3380     0.2016     0.2533
  513.0000    63.2511    18.8203    16.7424    15.8627   -64.8429     8.8814     0.0015     2.3425     0.2022     0.2521
  513.5000    64.7755    18.8426    16.4966    15.4277   -65.3187     8.8820     0.0138     2.3456     0.1995     0.2509
  514.0000    65.3923    19.9089    16.1727    15.1094   -65.6015     8.8980     0.0182     2.3472     0.1976     0.2496
  514.5000    64.1856    20.1925    15.8404    14.9011   -65.7540     8.8987     0.0182     2.3554     0.1982     0.2482
  515.0000    65.1158    19.9159    15.6230    14.7986   -65.7554     8.8993     0.0167     2.3705     0.1907     0.2479
  515.5000    65.7325    19.3730    15.5159    14.7996   -65.7569     8.9151     0.0122     2.3842     0.1823     0.2478
  516.0000    65.4387    18.7131    15.5185    14.9044   -65.6073     8.9158     0.0047     2.3940     0.1722     0.2442
  516.5000    64.8480    17.9425    15.5206    15.1147   -65.3066     8.9164     0.0033     2.4031     0.1683     0.2394
  517.0000    65.4648    17.4598    15.5232    15.2214   -65.1570     8.9171     0.0082     2.4288     0.1574     0.2290
  517.5000    65.4765    17.3420    15.5253    15.3290   -65.0074     8.9179     0.0229     2.4692     0.1411     0.2058
  518.0000    64.2806    17.5899    15.5274    15.3300   -64.5561     8.9186     0.0260     2.5066     0.1214     0.1968
  518.5000    62.1742    18.3451    15.4209    15.2245   -63.8022     8.9192     0.0245     2.5051     0.1057     0.1952
  519.0000    61.5777    19.6738    15.3158    15.0149   -62.8973     8.9199     0.0170     2.4832     0.1086     0.2052
  519.5000    62.1974    21.0987    15.1061    14.5015   -62.1435     8.9206     0.0125     2.4447     0.1283     0.2179
  520.0000    64.0244    21.3994    14.9892    14.0056   -61.6918     8.9212     0.0155     2.4054     0.1582     0.2314
  520.5000    65.2466    20.5277    14.5926    13.7166   -61.5422     8.9219     0.0171     2.3911     0.1721     0.2460
  521.0000    64.9582    17.4897    14.3923    13.3402   -61.6951     8.9227     0.0141     2.3927     0.1727     0.2478
  521.5000    64.3618    15.7562    13.9980    13.2484   -61.9986     8.9234     0.0081     2.3949     0.1703     0.2472
  522.0000    65.2840    15.4331    13.6146    13.3422   -62.1511     8.9240     0.0051     2.3912     0.1712     0.2529
  522.5000    66.2033    15.1167    13.3343    13.2504   -62.1526     8.9247     0.0021     2.3806     0.1737     0.2526
  523.0000    66.2149    14.6985    13.2434    13.2513   -62.1541     8.9253     0.0021     2.3738     0.1809     0.2514
  523.5000    66.2269    14.3031    13.1531    13.1601   -62.3069     8.9412     0.0022     2.3700     0.1833     0.2535
  524.0000    65.9355    14.5069    12.9730    13.0696   -62.7616     8.9570     0.0022     2.3700     0.1839     0.2547
  524.5000    66.2526    14.7135    12.9747    12.8894   -63.2162     8.9578     0.0022     2.3769     0.1829     0.2541
  525.0000    66.2642    14.9232    12.8858    12.7120   -63.8219     8.9584     0.0053     2.3823     0.1787     0.2523
  525.5000    67.4861    15.0306    12.7979    12.6245   -63.9744     8.9591     0.0098     2.3860     0.1772     0.2498
  526.0000    69.9308    14.7224    12.7111    12.5377   -63.6737     8.9446     0.0159     2.3882     0.1762     0.2480
  526.5000    71.7453    14.3079    12.6133    12.3649   -63.3540     8.9453     0.0205     2.3913     0.1735     0.2471
  527.0000    69.3392    13.8333    12.3649    12.1945   -62.7707     8.9459     0.0220     2.3921     0.1711     0.2507
  527.5000    70.2585    13.4555    12.2802    11.9430   -62.3186     8.9466     0.0205     2.3936     0.1705     0.2525
  528.0000    76.0190    13.0881    12.0278    11.7784   -62.0183     8.9474     0.0145     2.3981     0.1708     0.2522
  528.5000    76.3692    12.8197    11.9454    11.6972   -61.8683     8.9481     0.0115     2.4044     0.1693     0.2504
  529.0000    73.5733    12.7332    11.8643    11.6167   -61.7190     8.9487     0.0146     2.4163     0.1653     0.2459
  529.5000    70.0053    12.7358    11.7834    11.6177   -61.4114     8.9494     0.0176     2.4307     0.1597     0.2378
  530.0000    67.2937    12.7390    11.7031    11.6184   -60.8160     8.9500     0.0176     2.4412     0.1502     0.2241
  530.5000    65.1873    12.9205    11.7050    11.5385   -60.3643     8.9507     0.0162     2.4435     0.1430     0.2205
  531.0000    63.3835    13.1046    11.6248    11.4591   -60.0636     8.9514     0.0147     2.4375     0.1423     0.2199
  531.5000    64.0002    13.4779    11.4656    11.3802   -60.0651     8.9520     0.0147     2.4247     0.1481     0.2250
  532.0000    66.4327    13.5742    11.3871    11.2234   -60.0665     8.9527     0.0178     2.4164     0.1535     0.2350
  532.5000    66.1414    13.2966    11.2311    11.1462   -60.0680     8.9534     0.0238     2.4164     0.1568     0.2441
  533.0000    65.2482    12.6553    11.0770    11.0696   -60.3716     8.9542     0.0269     2.4194     0.1568     0.2482
  533.5000    63.7470    12.0655    10.9250    10.9171   -60.6755     8.9548     0.0314     2.4262     0.1553     0.2485
  534.0000    62.2457    11.7360    10.7754    10.7666   -60.6769     8.9555     0.0315     2.4323     0.1523     0.2476
  534.5000    61.9546    11.7384    10.7015    10.6182   -60.6784     8.9561     0.0255     2.4399     0.1471     0.2461
  535.0000    62.9147    11.7408    10.5546    10.3993   -60.6799     8.9460     0.0162     2.4467     0.1423     0.2440
  535.5000    65.9143    11.6615    10.4101    10.3276   -60.6813     8.9423     0.0135     2.4505     0.1392     0.2419
  536.0000    67.7413    11.4992    10.2644    10.2567   -60.5317     8.9431     0.0135     2.4528     0.1377     0.2400
  536.5000    68.3580    11.2671    10.0559    10.0452   -60.5335     8.9437     0.0150     2.4535     0.1368     0.2394
  537.0000    68.0642    11.1905     9.8492     9.9761   -60.3836     8.9444     0.0151     2.4566     0.1356     0.2397
  537.5000    70.4992    11.1150     9.8506     9.9073   -60.2340     8.9451     0.0181     2.4596     0.1332     0.2406
  538.0000    73.2369    10.9633     9.8519     9.8391   -60.0844     8.9458     0.0211     2.4566     0.1328     0.2415
  538.5000    73.2485    10.8893     9.8532     9.7715   -59.9347     8.9464     0.0229     2.4528     0.1343     0.2421
  539.0000    72.0498    10.8920     9.8545     9.7722   -59.7855     8.9471     0.0242     2.4528     0.1352     0.2421
  539.5000    69.6408    10.8943     9.8559     9.7729   -59.4677     8.9479     0.0243     2.4552     0.1343     0.2406
  540.0000    66.9293    10.8970     9.8575     9.7737   -59.0331     8.9486     0.0228     2.4566     0.1331     0.2400
  540.5000    65.7306    10.8992     9.8589     9.8427   -58.7325     8.9492     0.0213     2.4514     0.1352     0.2406
