~VERSION INFORMATION
 VERS.                2.0:   CWLS LOG ASCII STANDARD - VERSION 2.0
 WRAP.                 NO:   ONE LINE PER DEPTH STEP
~WELL INFORMATION
#MNEM.UNIT      DATA TYPE    INFORMATION
#----------   ------------   ------------------------------
 STRT.F            4.0000:   START DEPTH
 STOP.F          468.5000:   STOP DEPTH
 STEP.F            0.1000:   STEP LENGTH
 NULL.          -999.2500:   NO VALUE
 COMP. BROWN JOHN E&C INC:   COMPANY
 WELL.  SX-10 #1-14-SX-10:   WELL
 FLD .        N.P.R. No.3:   FIELD
 LOC .      S10 T38N R78W:   LOCATION
 CNTY.            NATRONA:   COUNTY
 STAT.            WYOMING:   STATE
 CTRY. UNITED STATES OF AMERICA:   COUNTRY
 SRVC.     Atlas Wireline:   SERVICE COMPANY
 DATE.        21-SEP-1991:   LOGDATE
 API .       490251125800:   API NUMBER
~CURVE INFORMATION
#MNEM.UNIT       API CODE    CURVE DESCRIPTION
#----------   ------------   ------------------------------
 DEPT.F                  :   
 GRR .GAPI   07 310 01 00:   GAMMA RAY FROM RES. LOG.
 ILD .OHMM   07 120 46 00:   INDUCTION LOG DEEP
 RILM.OHMM   07 120 44 00:   INDUCTION LOG MEDIUM RESISTIVITY
~PARAMETER INFORMATION
#MNEM.UNIT          VALUE    DESCRIPTION
#----------   ------------   ------------------------------
 PD  .                 GL:   PERMANENT DATUM
 EPD .F              5183:   ELEVATION PERMANENT DATUM
 LMF .                 KB:   LOG MEASURED FROM
 DAPD.F                10:   FEET ABOVE PERMANENT DATUM
 DMF .                 KB:   DRILLING MEASURED FROM
 EKB .F              5193:   KELLING BUSHING
 EGL .F              5183:   GROUND LEVEL
 DATE.            9-21-91:   RUN DATE
 RUN .                  1:   RUN NUMBER
 DD  .F               480:   DEPTH DRILLER
 DL  .F               478:   DEPTH LOGGER
 BLI .F               470:   BOTTOM LOG INTERVAL
 CS  .IN                7:   CASING SIZE
 CBD .F                90:   CASING BOTTOM DRILLER
 CBL .F                90:   CASING BOTTOM LOGGER
 BS  .IN             6.25:   BIT SIZE
 BSD .F               480:   BIT SIZE AT DEPTH
 DFT .                AIR:   DRILLING FLUID TYPE
 TCS .HRS               1:   TIME CURCULATED STOPPED
 MRT .F                80:   MAXIMUM RECORDED TEMPERATURE
 LUN .            HL-6307:   LOGGING UNIT NUMBER
 LUL .             CASPER:   LOGGING UNIT LOCATION
 ENGI.             RAUTIO:   RECORDING ENGINEER
 WITN.             STRONG:   WITNESSED BY
 CLNT.            A2DTECH:   CLIENT CODE
 ORIG.        2" 5" PRINT:   ORIGIN OF DATA
 UWI .       490251125800:   UNIQUE WELL ID
 DICO. A2D Technologies, Inc.:   DIGITIZING COMPANY
~OTHER INFORMATION
~A    DEPT       GRR      ILD       RILM   
# ...
  386.2000   119.2599    12.0015    12.5600
  386.3000   119.2220    11.9892    12.5492
  386.4000   119.1840    11.9770    12.5385
  386.5000   119.1461    11.9647    12.5278
  386.6000   119.0496    11.9525    12.5212
  386.7000   118.9530    11.9403    12.5146
  386.8000   118.8565    11.9281    12.5080
  386.9000   118.7600    11.9159    12.5014
  387.0000   118.6634    11.9037    12.4948
  387.1000   118.7500    11.8916    12.4883
  387.2000   118.8366    11.8794    12.4819
  387.3000   118.9232    11.8673    12.4754
  387.4000   119.0098    11.8551    12.4689
  387.5000   119.0964    11.8430    12.4625
  387.6000   119.1401    11.8269    12.4576
  387.7000   119.1838    11.8108    12.4528
  387.8000   119.2275    11.7947    12.4480
  387.9000   119.2712    11.7787    12.4431
  388.0000   119.3149    11.7626    12.4383
  388.1000   118.9224    11.7688    12.4526
  388.2000   118.5300    11.7750    12.4669
  388.3000   118.1375    11.7812    12.4811
  388.4000   117.7451    11.7874    12.4954
  388.5000   117.3526    11.7937    12.5097
  388.6000   117.1613    11.8035    12.5211
  388.7000   116.9700    11.8132    12.5325
  388.8000   116.7786    11.8230    12.5439
  388.9000   116.5873    11.8328    12.5553
  389.0000   116.3960    11.8426    12.5667
  389.1000   116.2503    11.8523    12.5782
  389.2000   116.1047    11.8621    12.5897
  389.3000   115.9591    11.8718    12.6011
  389.4000   115.8135    11.8815    12.6126
  389.5000   115.6679    11.8913    12.6241
  389.6000   115.5215    11.9010    12.6356
  389.7000   115.3751    11.9107    12.6471
  389.8000   115.2287    11.9204    12.6586
  389.9000   115.0823    11.9300    12.6701
  390.0000   114.9359    11.9397    12.6817
  390.1000   115.0423    11.9484    12.6932
  390.2000   115.1487    11.9572    12.7048
  390.3000   115.2551    11.9659    12.7164
  390.4000   115.3615    11.9746    12.7279
  390.5000   115.4679    11.9833    12.7395
  390.6000   115.6095    11.9691    12.7498
  390.7000   115.7511    11.9549    12.7600
  390.8000   115.8926    11.9407    12.7702
  390.9000   116.0342    11.9265    12.7805
  391.0000   116.1758    11.9123    12.7907
  391.1000   116.2794    11.8995    12.7598
  391.2000   116.3831    11.8867    12.7290
  391.3000   116.4867    11.8740    12.6981
  391.4000   116.5904    11.8612    12.6672
  391.5000   116.6941    11.8484    12.6363
  391.6000   116.6939    11.8357    12.6090
  391.7000   116.6937    11.8230    12.5818
  391.8000   116.6935    11.8103    12.5545
  391.9000   116.6933    11.7976    12.5272
  392.0000   116.6931    11.7849    12.4999
  392.1000   116.5806    11.7723    12.4789
  392.2000   116.4682    11.7596    12.4579
  392.3000   116.3558    11.7470    12.4369
  392.4000   116.2433    11.7344    12.4159
  392.5000   116.1309    11.7217    12.3949
  392.6000   115.9930    11.7092    12.3791
  392.7000   115.8551    11.6966    12.3632
  392.8000   115.7172    11.6840    12.3474
  392.9000   115.5793    11.6715    12.3315
  393.0000   115.4415    11.6589    12.3157
  393.1000   115.4511    11.6464    12.3000
  393.2000   115.4607    11.6339    12.2842
  393.3000   115.4703    11.6214    12.2685
  393.4000   115.4800    11.6089    12.2527
  393.5000   115.4896    11.5964    12.2370
  393.6000   115.7438    11.5794    12.2213
  393.7000   115.9979    11.5624    12.2057
  393.8000   116.2521    11.5454    12.1900
  393.9000   116.5062    11.5285    12.1744
  394.0000   116.7604    11.5115    12.1587
  394.1000   117.0038    11.4739    12.1412
  394.2000   117.2472    11.4363    12.1236
  394.3000   117.4906    11.3987    12.1061
  394.4000   117.7340    11.3611    12.0885
  394.5000   117.9774    11.3236    12.0709
  394.6000   117.5161    11.2866    12.0449
  394.7000   117.0548    11.2496    12.0188
  394.8000   116.5936    11.2126    11.9928
  394.9000   116.1323    11.1757    11.9667
  395.0000   115.6710    11.1387    11.9406
  395.1000   115.1492    11.1023    11.9149
  395.2000   114.6273    11.0659    11.8891
  395.3000   114.1055    11.0296    11.8633
  395.4000   113.5836    10.9932    11.8375
  395.5000   113.0618    10.9568    11.8118
  395.6000   112.9924    10.9288    11.7981
  395.7000   112.9231    10.9008    11.7845
  395.8000   112.8538    10.8727    11.7708
  395.9000   112.7845    10.8447    11.7571
  396.0000   112.7152    10.8167    11.7435
  396.1000   112.9777    10.8336    11.7374
  396.2000   113.2403    10.8506    11.7312
  396.3000   113.5029    10.8676    11.7251
  396.4000   113.7655    10.8845    11.7190
  396.5000   114.0280    10.9015    11.7129
  396.6000   114.7494    10.9155    11.7067
  396.7000   115.4708    10.9295    11.7006
  396.8000   116.1922    10.9436    11.6945
  396.9000   116.9136    10.9576    11.6884
  397.0000   117.6349    10.9716    11.6823
  397.1000   118.1863    10.9857    11.6762
  397.2000   118.7376    10.9999    11.6701
  397.3000   119.2889    11.0140    11.6640
  397.4000   119.8402    11.0281    11.6579
  397.5000   120.3915    11.0422    11.6518
  397.6000   120.2362    11.0584    11.6457
  397.7000   120.0809    11.0746    11.6397
  397.8000   119.9256    11.0908    11.6336
  397.9000   119.7703    11.1069    11.6275
  398.0000   119.6150    11.1231    11.6214
  398.1000   118.9757    11.0762    11.6154
  398.2000   118.3364    11.0293    11.6093
  398.3000   117.6972    10.9823    11.6033
  398.4000   117.0579    10.9354    11.5973
  398.5000   116.4186    10.8885    11.5912
  398.6000   116.2300    10.8352    11.5834
  398.7000   116.0415    10.7820    11.5756
  398.8000   115.8529    10.7288    11.5677
  398.9000   115.6643    10.6755    11.5599
  399.0000   115.4757    10.6223    11.5520
  399.1000   114.8851    10.5703    11.5524
  399.2000   114.2945    10.5184    11.5528
  399.3000   113.7040    10.4665    11.5532
  399.4000   113.1134    10.4145    11.5536
  399.5000   112.5228    10.3626    11.5540
  399.6000   111.5661    10.3169    11.4178
  399.7000   110.6094    10.2712    11.2816
  399.8000   109.6527    10.2255    11.1453
  399.9000   108.6960    10.1797    11.0091
  400.0000   107.7393    10.1340    10.8729
  400.1000   107.5953    10.1340    10.7864
  400.2000   107.4512    10.1340    10.6998
  400.3000   107.3072    10.1340    10.6133
  400.4000   107.1631    10.1340    10.5267
  400.5000   107.0190    10.1340    10.4402
  400.6000   108.2615    10.0792    10.3573
  400.7000   109.5039    10.0244    10.2744
  400.8000   110.7463     9.9695    10.1914
  400.9000   111.9888     9.9147    10.1085
  401.0000   113.2312     9.8598    10.0256
  401.1000   114.6326     9.7867     9.9460
  401.2000   116.0340     9.7135     9.8665
  401.3000   117.4354     9.6404     9.7870
  401.4000   118.8368     9.5672     9.7075
  401.5000   120.2382     9.4940     9.6279
  401.6000   121.6655     9.3806     9.5516
  401.7000   123.0928     9.2671     9.4753
  401.8000   124.5200     9.1537     9.3990
  401.9000   125.9473     9.0402     9.3227
  402.0000   127.3746     8.9268     9.2464
  402.1000   128.2258     8.7623     9.1732
  402.2000   129.0771     8.5979     9.1001
  402.3000   129.9283     8.4334     9.0269
  402.4000   130.7796     8.2690     8.9538
  402.5000   131.6308     8.1045     8.8806
  402.6000   131.7877     7.9542     8.7601
  402.7000   131.9445     7.8039     8.6396
  402.8000   132.1013     7.6536     8.5191
  402.9000   132.2581     7.5032     8.3986
  403.0000   132.4150     7.3529     8.2781
  403.1000   132.3935     7.2166     8.0852
  403.2000   132.3721     7.0803     7.8923
  403.3000   132.3507     6.9441     7.6994
  403.4000   132.3293     6.8078     7.5065
  403.5000   132.3078     6.6715     7.3136
  403.6000   132.3111     6.5479     7.1430
  403.7000   132.3143     6.4244     6.9723
  403.8000   132.3176     6.3008     6.8017
  403.9000   132.3208     6.1772     6.6310
  404.0000   132.3241     6.0536     6.4604
  404.1000   132.5107     5.9415     6.3102
  404.2000   132.6972     5.8293     6.1601
  404.3000   132.8838     5.7172     6.0100
