~VERSION INFORMATION
 VERS.                2.0:   CWLS LOG ASCII STANDARD - VERSION 2.0
 WRAP.                 NO:   ONE LINE PER DEPTH STEP
~WELL INFORMATION
#MNEM.UNIT      DATA TYPE    INFORMATION
#----------   ------------   ------------------------------
 STRT.F          695.0000:   START DEPTH
 STOP.F         1588.0000:   STOP DEPTH
 STEP.F            0.5000:   STEP LENGTH
 NULL.          -999.2500:   NO VALUE
 COMP. FENIX & SCISSON INC:   COMPANY
 WELL. 13 SHX 10 STX #13-10:   WELL
 FLD .             TEAPOT:   FIELD
 LOC .      S10 T38N R78W:   LOCATION
 CNTY.            NATRONA:   COUNTY
 STAT.            WYOMING:   STATE
 CTRY. UNITED STATES OF AMERICA:   COUNTRY
 SRVC.            Unknown:   SERVICE COMPANY
 DATE.        22-JUL-1979:   LOGDATE
 API .       490251078700:   API NUMBER
~CURVE INFORMATION
#MNEM.UNIT       API CODE    CURVE DESCRIPTION
#----------   ------------   ------------------------------
 DEPT.F                  :   
 CORR.G/C3   45 356 01 00:   DENSITY CORRECTION
 RHOB.G/C3   45 350 01 00:   BULK DENSITY
 CALD.IN     45 280 60 00:   CALIPER
 GRD .GAPI   45 310 01 00:   GAMMA RAY FROM DENSITY LOG
 DPHI.DEC    45 890 12 00:   DENSITY POROSITY SANDSTONE
~PARAMETER INFORMATION
#MNEM.UNIT          VALUE    DESCRIPTION
#----------   ------------   ------------------------------
 PD  .                 GL:   PERMANENT DATUM
 EPD .F              5306:   ELEVATION PERMANENT DATUM
 LMF .                 DF:   LOG MEASURED FROM
 DAPD.F                 9:   FEET ABOVE PERMANENT DATUM
 DMF .                 KB:   DRILLING MEASURED FROM
 EKB .F              5316:   KELLING BUSHING
 EDF .F              5315:   DRILLING FLOOR
 EGL .F              5306:   GROUND LEVEL
 DATE.            7-22-79:   RUN DATE
 RUN .                  1:   RUN NUMBER
 DD  .F              1595:   DEPTH DRILLER
 DL  .F              1588:   DEPTH LOGGER
 BLI .F              1588:   BOTTOM LOG INTERVAL
 TLI .F               700:   TOP LOG INTERVAL
 CS  .IN            9.625:   CASING SIZE
 CBD .F               950:   CASING BOTTOM DRILLER
 CBL .F               950:   CASING BOTTOM LOGGER
 BS  .IN             8.75:   BIT SIZE
 BSD .F              1595:   BIT SIZE AT DEPTH
 DFT .                OIL:   DRILLING FLUID TYPE
 TCS .HRS               2:   TIME CURCULATED STOPPED
 LUN .               2959:   LOGGING UNIT NUMBER
 LUL .             CASPER:   LOGGING UNIT LOCATION
 ENGI.            ROLLINS:   RECORDING ENGINEER
 WITN.           DINSMORE:   WITNESSED BY
 CLNT.            A2DTECH:   CLIENT CODE
 ORIG.     1", 2.5" PRINT:   ORIGIN OF DATA
 UWI .       490251078700:   UNIQUE WELL ID
 DICO. A2D Technologies, Inc.:   DIGITIZING COMPANY
~OTHER INFORMATION
~A   DEPT     CORR       RHOB       CALD         GRD      DPHI   
# ...
 1366.0000     0.0148     2.4948     8.7451   116.7576     0.0351
 1366.5000     0.0121     2.4924     8.7510   115.3862     0.0367
 1367.0000     0.0094     2.4868     8.7570   111.3549     0.0394
 1367.5000     0.0067     2.4810     8.7629   106.4914     0.0433
 1368.0000     0.0039     2.4757     8.7688   107.5255     0.0472
 1368.5000     0.0012     2.4701     8.7748   108.6097     0.0497
 1369.0000    -0.0009     2.4735     8.7807   107.2618     0.0470
 1369.5000     0.0006     2.4798     8.7866   108.1889     0.0420
 1370.0000     0.0019     2.4913     8.7926   112.5367     0.0363
 1370.5000     0.0033     2.5028     8.7985   116.6643     0.0301
 1371.0000     0.0047     2.5140     8.8044   118.8990     0.0239
 1371.5000     0.0060     2.5236     8.8104   115.8738     0.0181
 1372.0000     0.0072     2.5140     8.8163   112.8728     0.0235
 1372.5000     0.0071     2.5050     8.8222   109.4878     0.0287
 1373.0000     0.0064     2.5022     8.8279   107.4596     0.0300
 1373.5000     0.0133     2.5066     8.8339   107.7032     0.0265
 1374.0000     0.0163     2.5160     8.8402   110.1173     0.0229
 1374.5000     0.0135     2.5123     8.8459   113.5722     0.0259
 1375.0000     0.0120     2.5038     8.8523   117.1333     0.0278
 1375.5000     0.0267     2.5079     8.8596   119.6226     0.0243
 1376.0000     0.0485     2.5211     8.8776   119.4813     0.0185
 1376.5000     0.0771     2.5387     8.9443   115.4807     0.0100
 1377.0000     0.1015     2.5271     9.1730   111.7225     0.0265
 1377.5000     0.0526     2.4716     9.0907   107.5143     0.0617
 1378.0000     0.0143     2.4226     8.7461   107.3269     0.0791
 1378.5000    -0.0110     2.4312     8.6519   110.1234     0.0712
 1379.0000    -0.0046     2.4489     8.6556   111.9028     0.0603
 1379.5000     0.0017     2.4671     8.6545   111.8595     0.0491
 1380.0000    -0.0029     2.4732     8.6519   111.8396     0.0459
 1380.5000    -0.0086     2.4791     8.6512   108.9995     0.0426
 1381.0000    -0.0062     2.4888     8.6494   106.9529     0.0382
 1381.5000    -0.0033     2.5019     8.6481   106.2305     0.0304
 1382.0000    -0.0002     2.5096     8.6470   102.8483     0.0259
 1382.5000     0.0027     2.5141     8.6456   104.5825     0.0245
 1383.0000     0.0057     2.5136     8.6442   109.0367     0.0246
 1383.5000     0.0087     2.5123     8.6428   111.0316     0.0246
 1384.0000     0.0116     2.5082     8.6414   110.4202     0.0278
 1384.5000     0.0145     2.5025     8.6400   110.1296     0.0306
 1385.0000     0.0139     2.4970     8.6386   111.4522     0.0335
 1385.5000     0.0122     2.4915     8.6372   114.7271     0.0363
 1386.0000     0.0103     2.4859     8.6358   116.3980     0.0391
 1386.5000     0.0088     2.4802     8.6344   112.3682     0.0423
 1387.0000     0.0075     2.4804     8.6331   108.8788     0.0415
 1387.5000     0.0124     2.4901     8.6317   107.1879     0.0379
 1388.0000     0.0171     2.4994     8.6303   106.1454     0.0351
 1388.5000     0.0220     2.5092     8.6289   108.3579     0.0266
 1389.0000     0.0268     2.5188     8.6275   110.3981     0.0190
 1389.5000     0.0317     2.5275     8.6261   112.0907     0.0164
 1390.0000     0.0354     2.5300     8.6247   110.7229     0.0185
 1390.5000     0.0354     2.5178     8.6233   108.1260     0.0212
 1391.0000     0.0358     2.5131     8.6219   107.2098     0.0221
 1391.5000     0.0317     2.5139     8.6205   110.5085     0.0229
 1392.0000     0.0227     2.5096     8.6191   114.6590     0.0260
 1392.5000     0.0137     2.5016     8.6177   116.1852     0.0290
 1393.0000     0.0156     2.5008     8.6163   113.8780     0.0303
 1393.5000     0.0223     2.5061     8.6149   112.1384     0.0278
 1394.0000     0.0290     2.5108     8.6135   110.7382     0.0253
 1394.5000     0.0361     2.5155     8.6121   114.4230     0.0228
 1395.0000     0.0372     2.5180     8.6107   122.2536     0.0213
 1395.5000     0.0292     2.5047     8.6093   123.6823     0.0282
 1396.0000     0.0218     2.4939     8.6079   122.2112     0.0351
 1396.5000     0.0192     2.4881     8.6065   120.2731     0.0366
 1397.0000     0.0192     2.4946     8.6051   118.5119     0.0318
 1397.5000     0.0192     2.4997     8.6037   117.5040     0.0340
 1398.0000     0.0157     2.4929     8.6023   116.5297     0.0371
 1398.5000     0.0120     2.4854     8.6009   115.5787     0.0402
 1399.0000     0.0080     2.4802     8.5996   114.6497     0.0416
 1399.5000     0.0076     2.4880     8.5982   113.6256     0.0344
 1400.0000     0.0083     2.5001     8.5968   114.8707     0.0280
 1400.5000     0.0090     2.5060     8.5954   117.1040     0.0297
 1401.0000     0.0097     2.5028     8.5940   116.2129     0.0305
 1401.5000     0.0103     2.5038     8.5926   115.8284     0.0281
 1402.0000     0.0110     2.5082     8.5912   119.3098     0.0262
 1402.5000     0.0093     2.5057     8.5898   121.4171     0.0299
 1403.0000     0.0070     2.4999     8.5884   122.1124     0.0343
 1403.5000     0.0046     2.4935     8.5870   123.2787     0.0367
 1404.0000     0.0038     2.4955     8.5856   124.7892     0.0351
 1404.5000     0.0066     2.5025     8.5842   126.1280     0.0290
 1405.0000     0.0094     2.5092     8.5828   122.5808     0.0261
 1405.5000     0.0121     2.5127     8.5814   118.0131     0.0254
 1406.0000     0.0150     2.5089     8.5800   119.5900     0.0267
 1406.5000     0.0138     2.5039     8.5786   123.0099     0.0297
 1407.0000     0.0123     2.5000     8.5774   119.7449     0.0328
 1407.5000     0.0106     2.4963     8.5746   116.8704     0.0359
 1408.0000     0.0091     2.4914     8.5708   116.2335     0.0389
 1408.5000     0.0075     2.4839     8.5671   116.6141     0.0416
 1409.0000     0.0084     2.4862     8.5634   113.1120     0.0382
 1409.5000     0.0103     2.4927     8.5597   102.1196     0.0353
 1410.0000     0.0122     2.4995     8.5559    98.5352     0.0323
 1410.5000     0.0141     2.4988     8.5522    94.1295     0.0310
 1411.0000     0.0151     2.4961     8.5485    94.2205     0.0338
 1411.5000     0.0114     2.4909     8.5448    98.1545     0.0376
 1412.0000     0.0077     2.4860     8.5411   102.0894     0.0413
 1412.5000     0.0039     2.4803     8.5374   106.0980     0.0450
 1413.0000     0.0057     2.4772     8.5337   110.1801     0.0441
 1413.5000     0.0092     2.4813     8.5300   111.8231     0.0393
 1414.0000     0.0127     2.4884     8.5263   111.0766     0.0393
 1414.5000     0.0143     2.4838     8.5225   109.8978     0.0422
 1415.0000     0.0110     2.4804     8.5189   108.6834     0.0448
 1415.5000     0.0075     2.4776     8.5152   108.7630     0.0435
 1416.0000     0.0075     2.4801     8.5114   109.7529     0.0415
 1416.5000     0.0124     2.4860     8.5077   108.5545     0.0394
 1417.0000     0.0180     2.4926     8.5040   104.5046     0.0374
 1417.5000     0.0158     2.4890     8.5003   105.4015     0.0367
 1418.0000     0.0088     2.4794     8.4961   108.0614     0.0427
 1418.5000     0.0077     2.4711     8.4870   111.3077     0.0495
 1419.0000     0.0092     2.4643     8.4760   109.5997     0.0529
 1419.5000     0.0107     2.4709     8.4650   105.5845     0.0487
 1420.0000     0.0120     2.4770     8.4541   103.9564     0.0448
 1420.5000     0.0229     2.4836     8.4431   104.0273     0.0410
 1421.0000     0.0310     2.4901     8.4321   103.9741     0.0388
 1421.5000     0.0306     2.4911     8.4212   103.7395     0.0386
 1422.0000     0.0301     2.4899     8.4103   105.1724     0.0394
 1422.5000     0.0293     2.4887     8.3992   106.9285     0.0394
 1423.0000     0.0286     2.4879     8.3886   103.8306     0.0379
 1423.5000     0.0280     2.4881     8.3776   101.5735     0.0363
 1424.0000     0.0276     2.4934     8.3824    99.1231     0.0351
 1424.5000     0.0308     2.4990     8.3928    96.4731     0.0312
 1425.0000     0.0335     2.5050     8.4031    93.8858     0.0278
 1425.5000     0.0362     2.5103     8.4132    98.0561     0.0245
 1426.0000     0.0393     2.5121     8.4235   102.4266     0.0280
 1426.5000     0.0367     2.5042     8.4335   106.9928     0.0338
