~VERSION INFORMATION
 VERS.                2.0:   CWLS LOG ASCII STANDARD - VERSION 2.0
 WRAP.                 NO:   ONE LINE PER DEPTH STEP
~WELL INFORMATION
#MNEM.UNIT      DATA TYPE    INFORMATION
#----------   ------------   ------------------------------
 STRT.F           43.0000:   START DEPTH
 STOP.F          620.0000:   STOP DEPTH
 STEP.F            0.5000:   STEP LENGTH
 NULL.          -999.2500:   NO VALUE
 COMP. FENIX & SCISSON INC:   COMPANY
 WELL.      16 SX 2 #16-2:   WELL
 FLD .             TEAPOT:   FIELD
 LOC .       S2 T38N R78W:   LOCATION
 CNTY.            NATRONA:   COUNTY
 STAT.            WYOMING:   STATE
 CTRY. UNITED STATES OF AMERICA:   COUNTRY
 SRVC.            Unknown:   SERVICE COMPANY
 DATE.        11-OCT-1978:   LOGDATE
 API .       490251071400:   API NUMBER
~CURVE INFORMATION
#MNEM.UNIT       API CODE    CURVE DESCRIPTION
#----------   ------------   ------------------------------
 DEPT.F                  :   
 SPR .MV     05 010 01 00:   SPONTANEOUS POTENTIAL FROM RES.
 SN  .OHMM   05 040 16 00:   SHORT NORMAL 16"
 ILD .OHMM   05 120 46 00:   INDUCTION LOG DEEP
 CALD.IN     45 280 60 00:   CALIPER
 GRD .GAPI   45 310 01 00:   GAMMA RAY FROM DENSITY LOG
 DPHI.DEC    45 890 12 00:   DENSITY POROSITY SANDSTONE
 RHOB.G/C3   45 350 01 00:   BULK DENSITY
 DRHO.G/C3   45 356 01 00:   DENSITY CORRECTION
~PARAMETER INFORMATION
#MNEM.UNIT          VALUE    DESCRIPTION
#----------   ------------   ------------------------------
 PD  .                 GL:   PERMANENT DATUM
 EPD .F              5135:   ELEVATION PERMANENT DATUM
 LMF .                 KB:   LOG MEASURED FROM
 DAPD.F                 4:   FEET ABOVE PERMANENT DATUM
 DMF .                 KB:   DRILLING MEASURED FROM
 EKB .F              5139:   KELLING BUSHING
 EGL .F              5135:   GROUND LEVEL
 DATE.           10-11-78:   RUN DATE
 RUN .                  1:   RUN NUMBER
 DD  .F               620:   DEPTH DRILLER
 DL  .F               620:   DEPTH LOGGER
 BLI .F               614:   BOTTOM LOG INTERVAL
 TLI .F                40:   TOP LOG INTERVAL
 CS  .IN            8.625:   CASING SIZE
 CBD .F                40:   CASING BOTTOM DRILLER
 CBL .F                40:   CASING BOTTOM LOGGER
 BS  .IN            7.875:   BIT SIZE
 BSD .F               620:   BIT SIZE AT DEPTH
 DFT .                KCL:   DRILLING FLUID TYPE
 RMS .OHMM            .16:   RESISTIVITY MUD SAMPLE
 MST .F                66:   MUD SAMPLE TEMPERATURE
 RMF .OHMM            .16:   RESISTIVITY MUD FILTRATE SAMPLE
 MFST.F                70:   MUD FILTRATE SAMPLE TEMPERATURE
 RMC .OHMM             .2:   RESISTIVITY MUD CAKE
 MCST.F                71:   MUD CAKE SAMPLE TEMPERATURE
 TCS .HRS               1:   TIME CURCULATED STOPPED
 MRT .F                70:   MAXIMUM RECORDED TEMPERATURE
 LUN .               2958:   LOGGING UNIT NUMBER
 LUL .               CASP:   LOGGING UNIT LOCATION
 ENGI.             MILLER:   RECORDING ENGINEER
 WITN.              AMEND:   WITNESSED BY
 CLNT.            A2DTECH:   CLIENT CODE
 ORIG.           5" PRINT:   ORIGIN OF DATA
 UWI .       490251071400:   UNIQUE WELL ID
 DICO. A2D Technologies, Inc.:   DIGITIZING COMPANY
~OTHER INFORMATION
~A   DEPT      SPR         SN        ILD       CALD         GRD      DPHI       RHOB       DRHO   
# ...
  124.0000   -67.0065     8.2788    10.1179     7.8944   115.3142     0.1190     2.4930     0.0283
  124.5000   -66.9153     8.2497    10.0506     7.8966   121.8667     0.1160     2.4973     0.0373
  125.0000   -66.8235     8.2207     9.9843     7.8940   128.3580     0.1130     2.5015     0.0464
  125.5000   -66.7316     8.1918     9.9099     7.8684   134.8358     0.1101     2.5059     0.0554
  126.0000   -66.6396     8.1630     9.7794     7.8432   141.3021     0.1072     2.5078     0.0644
  126.5000   -66.5476     8.1343     9.6496     7.8183   144.9491     0.1067     2.5076     0.0723
  127.0000   -66.4556     8.1057     9.5217     7.8006   141.1456     0.1084     2.5073     0.0698
  127.5000   -66.3636     8.0772     9.3954     7.8129   122.7339     0.1102     2.5069     0.0656
  128.0000   -66.2716     8.0489     9.2717     7.8245   110.6072     0.1085     2.5113     0.0574
  128.5000   -66.1796     8.0206     9.2182     7.8361   107.6816     0.1039     2.5171     0.0493
  129.0000   -66.0877     7.9924     9.2191     7.8478   109.9913     0.0994     2.5228     0.0411
  129.5000   -65.9960     7.9643     9.2192     7.8576   115.4868     0.0948     2.5286     0.0343
  130.0000   -65.9036     7.9363     9.2192     7.8401   121.4406     0.0902     2.5345     0.0351
  130.5000   -65.7959     7.9084     9.2192     7.8223   111.1273     0.0871     2.5402     0.0357
  131.0000   -65.6222     7.8818     9.2192     7.8046    99.2473     0.0900     2.5426     0.0365
  131.5000   -65.4535     7.8462     9.2192     7.7869    96.7628     0.0993     2.5285     0.0294
  132.0000   -65.2849     7.8122     9.2192     7.7692    97.7123     0.1085     2.5147     0.0206
  132.5000   -65.1162     7.7784     9.2192     7.7515    99.9005     0.1177     2.5009     0.0117
  133.0000   -64.9475     7.7447     9.2193     7.7338   101.8211     0.1212     2.4870     0.0079
  133.5000   -64.7789     7.7112     9.2193     7.7162   101.5824     0.1235     2.4803     0.0068
  134.0000   -64.6102     7.6778     9.2139     7.6985   101.7402     0.1257     2.4774     0.0058
  134.5000   -64.4416     7.6445     9.1676     7.6808   104.2801     0.1280     2.4745     0.0048
  135.0000   -64.2729     7.6114     9.1215     7.6631   106.8425     0.1303     2.4716     0.0038
  135.5000   -64.1041     7.5785     9.0755     7.6454   109.4177     0.1326     2.4700     0.0028
  136.0000   -63.9352     7.5457     9.0299     7.6277   110.5955     0.1305     2.4704     0.0028
  136.5000   -63.7673     7.5130     8.9844     7.6101   110.6227     0.1254     2.4779     0.0033
  137.0000   -63.6515     7.4805     8.9392     7.5924   109.8025     0.1203     2.4853     0.0038
  137.5000   -63.6914     7.4481     8.8943     7.5747   108.2994     0.1189     2.4876     0.0044
  138.0000   -63.7277     7.4158     8.7780     7.5570   106.8034     0.1211     2.4845     0.0049
  138.5000   -63.7639     7.3837     8.6459     7.5393   105.8111     0.1234     2.4815     0.0054
  139.0000   -63.8000     7.3517     8.5158     7.5216   106.7614     0.1253     2.4785     0.0059
  139.5000   -63.8360     7.3214     8.3877     7.5036   110.1253     0.1268     2.4755     0.0064
  140.0000   -63.8982     7.2620     8.2614     7.4935   113.4691     0.1284     2.4725     0.0069
  140.5000   -63.9679     7.2058     8.1371     7.4853   116.8340     0.1299     2.4694     0.0074
  141.0000   -64.0378     7.1500     8.0147     7.4893   118.0537     0.1315     2.4681     0.0079
  141.5000   -64.1081     7.0946     7.8941     7.5127   117.4185     0.1320     2.4711     0.0084
  142.0000   -64.1769     7.0396     7.8818     7.6334   116.7606     0.1290     2.4765     0.0089
  142.5000   -64.2393     6.9915     8.0016     7.7743   116.0542     0.1261     2.4820     0.0094
  143.0000   -64.0082     6.9915     8.1731     7.8594   118.0322     0.1231     2.4830     0.0099
  143.5000   -63.5436     7.0312     8.3483     7.8584   120.5271     0.1221     2.4803     0.0105
  144.0000   -63.0750     7.1057     8.5272     7.8586   123.0125     0.1243     2.4775     0.0126
  144.5000   -62.8227     7.1810     8.7100     7.8586   123.7623     0.1264     2.4747     0.0175
  145.0000   -62.7608     7.2570     8.8945     7.8588   114.4948     0.1285     2.4728     0.0359
  145.5000   -62.7027     7.3339     9.0508     7.8595   108.2727     0.1260     2.4847     0.0634
  146.0000   -62.6453     7.4115     9.1346     7.8529   106.2277     0.1175     2.4989     0.0909
  146.5000   -62.5875     7.4576     9.0283     7.7230   104.6015     0.1089     2.5131     0.0990
  147.0000   -62.5296     7.4589     8.9236     7.6408   103.7090     0.0974     2.5211     0.0727
  147.5000   -62.4722     7.4598     8.8201     7.6490   102.9849     0.1024     2.5148     0.0459
  148.0000   -62.3834     7.4608     8.7178     7.6589   105.2958     0.1102     2.5056     0.0189
  148.5000   -62.2780     7.4619     8.6168     7.6685   108.2889     0.1178     2.4962     0.0106
  149.0000   -62.1720     7.4629     8.5637     7.6780   110.1444     0.1249     2.4869     0.0104
  149.5000   -62.0660     7.4639     8.6430     7.6875   111.4632     0.1235     2.4829     0.0105
  150.0000   -61.9600     7.4650     8.7448     7.6970   111.8902     0.1218     2.4864     0.0111
  150.5000   -61.8540     7.4660     8.8617     7.7065   112.2019     0.1202     2.4903     0.0136
  151.0000   -61.7482     7.4671     8.9800     7.7160   111.4082     0.1186     2.4941     0.0160
  151.5000   -61.6366     7.4681     9.0998     7.7255   110.5450     0.1170     2.4974     0.0184
  152.0000   -61.5111     7.4692     9.2211     7.7349   111.8135     0.1154     2.5002     0.0208
  152.5000   -61.3823     7.4702     9.3046     7.7444   114.6638     0.1125     2.5030     0.0232
  153.0000   -61.2534     7.4713     9.3050     7.7539   117.4894     0.1083     2.5050     0.0235
  153.5000   -61.1247     7.4723     9.2824     7.7634   120.3417     0.1062     2.5015     0.0215
  154.0000   -60.9959     7.4734     9.2581     7.7729   123.4341     0.1125     2.4941     0.0195
  154.5000   -60.8671     7.4744     9.2339     7.7824   127.7548     0.1168     2.4869     0.0221
  155.0000   -60.7383     7.4755     9.2099     7.7919   131.9407     0.1211     2.4859     0.0298
  155.5000   -60.6096     7.4765     9.1859     7.8014   133.8296     0.1225     2.4904     0.0373
  156.0000   -60.4808     7.4776     9.1620     7.8109   132.3235     0.1170     2.4966     0.0444
  156.5000   -60.3520     7.4786     9.1381     7.8203   128.5950     0.1126     2.5030     0.0471
  157.0000   -60.2232     7.4797     9.1143     7.8298   116.6266     0.1083     2.5093     0.0495
  157.5000   -60.0945     7.4807     9.0906     7.8391   105.1137     0.1051     2.5156     0.0543
  158.0000   -59.9657     7.4818     9.0669     7.8511   103.9437     0.1021     2.5202     0.0600
  158.5000   -59.8369     7.4828     9.0433     7.8629   104.6307     0.0991     2.5228     0.0658
  159.0000   -59.7081     7.4839     9.0198     7.8747   105.3153     0.0962     2.5254     0.0716
  159.5000   -59.5793     7.4849     8.9963     7.8754   107.6060     0.0971     2.5281     0.0773
  160.0000   -59.4508     7.4860     8.9730     7.8710   109.2107     0.0978     2.5332     0.0831
  160.5000   -59.3215     7.4870     8.9242     7.8665   110.0402     0.0986     2.5383     0.0837
  161.0000   -59.2563     7.4881     8.8688     7.8619   110.8223     0.0994     2.5422     0.0779
  161.5000   -59.2412     7.4891     8.8137     7.8567   110.9521     0.1002     2.5294     0.0723
  162.0000   -59.2271     7.4902     8.7589     7.8481   109.7276     0.1010     2.5163     0.0676
  162.5000   -59.2132     7.4912     8.7045     7.8398   109.3101     0.1020     2.5120     0.0634
  163.0000   -59.1991     7.4923     8.6505     7.8407   111.7029     0.1030     2.5119     0.0595
  163.5000   -59.1850     7.4933     8.5968     7.8432   111.1743     0.1040     2.5101     0.0562
  164.0000   -59.1710     7.4944     8.5433     7.8457   110.1813     0.1058     2.5060     0.0529
