~VERSION INFORMATION
 VERS.                2.0:   CWLS LOG ASCII STANDARD - VERSION 2.0
 WRAP.                 NO:   ONE LINE PER DEPTH STEP
~WELL INFORMATION
#MNEM.UNIT      DATA TYPE    INFORMATION
#----------   ------------   ------------------------------
 STRT.F           33.5000:   START DEPTH
 STOP.F          680.0000:   STOP DEPTH
 STEP.F            0.5000:   STEP LENGTH
 NULL.          -999.2500:   NO VALUE
 COMP. FENIX & SCISSON INC:   COMPANY
 WELL.       NPR 3 #66-34:   WELL
 FLD .             TEAPOT:   FIELD
 LOC .      S34 T39N R78W:   LOCATION
 CNTY.            NATRONA:   COUNTY
 STAT.            WYOMING:   STATE
 CTRY. UNITED STATES OF AMERICA:   COUNTRY
 SRVC.           BIRDWELL:   SERVICE COMPANY
 DATE.        12-AUG-1978:   LOGDATE
 API .       490251068400:   API NUMBER
~CURVE INFORMATION
#MNEM.UNIT       API CODE    CURVE DESCRIPTION
#----------   ------------   ------------------------------
 DEPT.F                  :   
 SPR .MV     05 010 01 00:   SPONTANEOUS POTENTIAL FROM RES.
 SN  .OHMM   05 040 16 00:   SHORT NORMAL 16"
 IL  .OHMM   05 120 00 00:   INDUCTION LOG
 CORR.G/C3   45 356 01 00:   DENSITY CORRECTION
 GRD .GAPI   45 310 01 00:   GAMMA RAY FROM DENSITY LOG
 RHOB.G/C3   45 350 01 00:   BULK DENSITY
 DPHI.DEC    45 890 12 00:   DENSITY POROSITY SANDSTONE
 CALD.IN     45 280 60 00:   CALIPER
~PARAMETER INFORMATION
#MNEM.UNIT          VALUE    DESCRIPTION
#----------   ------------   ------------------------------
 PD  .                 GL:   PERMANENT DATUM
 EPD .F              5078:   ELEVATION PERMANENT DATUM
 LMF .                 KB:   LOG MEASURED FROM
 DAPD.F                 4:   FEET ABOVE PERMANENT DATUM
 DMF .                 KB:   DRILLING MEASURED FROM
 EKB .F              5082:   KELLING BUSHING
 EGL .F              5078:   GROUND LEVEL
 DATE.            8-12-78:   RUN DATE
 RUN .                  1:   RUN NUMBER
 DD  .F               675:   DEPTH DRILLER
 DL  .F               686:   DEPTH LOGGER
 BLI .F               680:   BOTTOM LOG INTERVAL
 TLI .F                50:   TOP LOG INTERVAL
 CS  .IN            8.625:   CASING SIZE
 CBD .F                40:   CASING BOTTOM DRILLER
 BS  .IN            7.875:   BIT SIZE
 BSD .F               675:   BIT SIZE AT DEPTH
 DFT .                KCL:   DRILLING FLUID TYPE
 DFL .               10.4:   DRILLING FLUID LOSS
 MSS .          FLOW LINE:   MUD SAMPLE SOURCE
 RMS .OHMM            .18:   RESISTIVITY MUD SAMPLE
 MST .F                90:   MUD SAMPLE TEMPERATURE
 RMF .OHMM            .16:   RESISTIVITY MUD FILTRATE SAMPLE
 MFST.F                90:   MUD FILTRATE SAMPLE TEMPERATURE
 RMC .OHMM            .32:   RESISTIVITY MUD CAKE
 MCST.F                90:   MUD CAKE SAMPLE TEMPERATURE
 MFSS.               MEAS:   MUD FILTRATE SAMPLE SOURCE
 TCS .HRS               3:   TIME CURCULATED STOPPED
 LUN .               3006:   LOGGING UNIT NUMBER
 LUL .               CASP:   LOGGING UNIT LOCATION
 ENGI.             MILLER:   RECORDING ENGINEER
 WITN.           MCGINLEY:   WITNESSED BY
 CLNT.            A2DTECH:   CLIENT CODE
 ORIG.           5" PRINT:   ORIGIN OF DATA
 UWI .       490251068400:   UNIQUE WELL ID
 DICO. A2D Technologies, Inc.:   DIGITIZING COMPANY
~OTHER INFORMATION
~A   DEPT      SPR         SN         IL       CORR         GRD      RHOB       DPHI       CALD   
# ...
  519.5000   -31.9094    10.9549    12.1431     0.0840    60.7763     2.3879     0.1714     7.5986
  520.0000   -31.6826    11.0426    12.0695     0.0789    60.8909     2.3796     0.1888     7.6467
  520.5000   -31.3512    11.1310    12.2967     0.0501    60.4716     2.3572     0.1969     7.6272
  521.0000   -31.0267    11.2146    12.4660     0.0428    60.2214     2.3629     0.1865     7.5724
  521.5000   -30.9643    11.1201    13.0237     0.0427    60.6277     2.3670     0.1939     7.5154
  522.0000   -31.0653    11.0105    13.8027     0.0311    59.8681     2.3451     0.2077     7.4841
  522.5000   -31.1700    11.0857    14.6365     0.0223    57.2183     2.3338     0.2215     7.5041
  523.0000   -31.2804    11.1855    14.9078     0.0217    54.3109     2.2952     0.2363     7.5292
  523.5000   -31.1701    11.3181    14.9078     0.0336    51.4586     2.2942     0.2365     7.5542
  524.0000   -30.9974    11.2506    14.8879     0.0456    48.6019     2.3034     0.2295     7.5796
  524.5000   -30.8225    11.1532    14.7109     0.0576    47.9993     2.3110     0.2197     7.5760
  525.0000   -30.6486    11.0566    14.6365     0.0682    50.9630     2.3327     0.2055     7.5656
  525.5000   -30.5181    10.9605    14.6365     0.0613    54.8763     2.3335     0.2074     7.5938
  526.0000   -30.6964    10.9098    14.2388     0.0534    58.8191     2.3318     0.2092     7.6371
  526.5000   -30.8760    10.9097    14.2858     0.0463    61.0597     2.3334     0.2089     7.5964
  527.0000   -30.7719    10.9098    14.3792     0.0489    59.5106     2.3320     0.2109     7.5451
  527.5000   -30.6155    10.9100    14.4734     0.0519    57.9463     2.3307     0.2137     7.6062
  528.0000   -30.4558    10.9118    14.5687     0.0536    58.9913     2.3354     0.2082     7.6438
  528.5000   -30.3100    10.8762    14.6365     0.0487    59.0946     2.3370     0.2045     7.5131
  529.0000   -30.5583    10.8055    14.5668     0.0443    57.2399     2.3293     0.2119     7.4232
  529.5000   -31.0801    10.7352    14.3260     0.0446    57.3606     2.3240     0.2168     7.3816
  530.0000   -31.8121    10.6654    13.3523     0.0646    61.2485     2.3402     0.2011     7.3693
  530.5000   -32.2162    10.6020    13.0762     0.0864    65.5814     2.3700     0.1828     7.3869
  531.0000   -32.6256    10.5559    12.6670     0.1007    68.2228     2.4004     0.1618     7.4235
  531.5000   -32.6766    10.5016    12.1770     0.0880    69.2172     2.4062     0.1637     7.4599
  532.0000   -32.6373    10.3963    12.1830     0.0762    69.7304     2.3963     0.1666     7.4804
  532.5000   -32.5958    10.2921    12.1819     0.0775    71.9237     2.3867     0.1722     7.4680
  533.0000   -32.5568    10.1890    12.0872     0.0755    76.0335     2.3856     0.1814     7.4759
  533.5000   -32.5139    10.1371    11.9435     0.0692    77.8998     2.3666     0.1950     7.5098
  534.0000   -32.8576    10.1475    11.8015     0.0680    75.1696     2.3449     0.2062     7.5620
  534.5000   -33.3089    10.1779    11.6659     0.0727    71.4178     2.3451     0.2045     7.6141
  535.0000   -33.2955    10.2084    11.5353     0.0758    67.6461     2.3651     0.1886     7.6667
  535.5000   -33.5480    10.2393    11.4062     0.0731    64.2971     2.3944     0.1730     7.7208
  536.0000   -33.8908    10.2713    11.2064     0.0613    64.9197     2.4086     0.1658     7.7494
  536.5000   -34.1021    10.3034    10.8546     0.0599    68.2449     2.4049     0.1658     7.7779
  537.0000   -34.0987    10.3356    10.5138     0.0639    72.1249     2.4058     0.1658     7.7900
  537.5000   -34.0376    10.3679    10.1838     0.0680    75.8928     2.4117     0.1632     7.7986
  538.0000   -33.9068    10.4003     9.9527     0.0722    73.2771     2.4181     0.1567     7.8198
  538.5000   -33.7791    10.4328    10.0307     0.0686    68.4460     2.4245     0.1503     7.8525
  539.0000   -33.7557    10.4654    10.1029     0.0638    68.7652     2.4265     0.1502     7.8850
  539.5000   -33.8993    10.4981    10.1757     0.0605    71.2421     2.4242     0.1514     7.8987
  540.0000   -34.0412    10.5164    10.2306     0.0618    73.3197     2.4242     0.1519     7.8905
  540.5000   -34.1833    10.4504    10.0861     0.0600    72.2220     2.4200     0.1549     7.8829
  541.0000   -34.2929    10.3979     9.9718     0.0557    70.6261     2.4170     0.1567     7.8897
  541.5000   -34.2241    10.3250     9.8589     0.0555    70.0313     2.4163     0.1568     7.8973
  542.0000   -34.1585    10.3769     9.7715     0.0572    72.7459     2.4169     0.1569     7.9081
  542.5000   -34.1004    10.4636     9.9329     0.0578    74.9212     2.4172     0.1570     7.9267
  543.0000   -34.1001    10.5511    10.0445     0.0563    74.5878     2.4139     0.1612     7.9453
  543.5000   -34.0987    10.6392     9.9482     0.0532    74.3371     2.4019     0.1664     7.9618
  544.0000   -34.0232    10.7113     9.8617     0.0501    74.8683     2.3970     0.1714     7.9425
  544.5000   -33.8347    10.3020     9.9291     0.0470    74.4935     2.3963     0.1705     7.8751
  545.0000   -33.7775    10.1371     9.9972     0.0439    70.5383     2.3953     0.1709     7.8121
  545.5000   -34.1195    10.4453    10.0445     0.0408    66.9809     2.3932     0.1759     7.7993
  546.0000   -34.4441    10.6621     9.9854     0.0404    67.0865     2.3912     0.1761     7.8370
  546.5000   -34.7065    10.8828     9.9219     0.0439    72.0051     2.3946     0.1711     7.8766
  547.0000   -34.7003    11.0136     9.8588     0.0503    74.1596     2.3989     0.1670     7.8153
  547.5000   -34.7005    10.5712     9.7961     0.0564    72.5366     2.4025     0.1662     7.7280
  548.0000   -34.7438    10.2291     9.7338     0.0602    70.5439     2.3956     0.1767     7.6678
  548.5000   -34.8841     9.9527     9.6822     0.0595    70.8175     2.3860     0.1840     7.6779
  549.0000   -35.0225     9.9947     9.7092     0.0584    73.5080     2.3761     0.1885     7.6993
  549.5000   -35.1232    10.0380     9.7324     0.0614    73.9243     2.3733     0.1826     7.7219
  550.0000   -35.1745    10.0815     9.7556     0.0726    72.9722     2.3825     0.1796     7.6690
  550.5000   -35.2259    10.1371     9.7715     0.0848    72.0505     2.3957     0.1717     7.6061
  551.0000   -35.2781    10.0950     9.6517     0.0968    71.1221     2.4092     0.1638     7.5518
  551.5000   -35.2384    10.0164     9.5615     0.1090    71.7156     2.4147     0.1599     7.5250
  552.0000   -35.1313     9.9383     9.4722     0.1154    72.5534     2.4135     0.1607     7.5368
  552.5000   -35.0225     9.8609     9.3864     0.1192    72.4151     2.4123     0.1620     7.5347
  553.0000   -34.9108     9.7841     9.3052     0.1227    70.8888     2.4130     0.1618     7.5118
  553.5000   -35.0257     9.7079     9.2246     0.1323    69.5130     2.4208     0.1559     7.4891
  554.0000   -35.1731     9.6323     9.1448     0.1452    69.9868     2.4325     0.1500     7.4660
  554.5000   -35.2851     9.5572     9.0660     0.1527    70.4443     2.4327     0.1447     7.4836
  555.0000   -35.1344     9.4828     8.9952     0.1539    69.9365     2.4315     0.1526     7.5056
  555.5000   -34.9882     9.4191     8.9953     0.1509    70.2747     2.4371     0.1442     7.5188
  556.0000   -34.9389     9.5133     9.1384     0.1472    71.9106     2.4424     0.1410     7.4805
  556.5000   -35.1606     9.5967     9.2462     0.1422    72.9621     2.4478     0.1439     7.4466
  557.0000   -35.3766     9.6808     9.3553     0.1310    72.9617     2.4531     0.1327     7.4862
  557.5000   -35.5928     9.7657     9.5060     0.1088    71.0461     2.4515     0.1359     7.5181
  558.0000   -35.6457     9.8513     9.4393     0.0818    67.3413     2.4200     0.1593     7.3952
  558.5000   -35.5378     9.9377     9.3357     0.0618    65.8302     2.3991     0.1665     7.2721
  559.0000   -35.4296    10.0248     9.2331     0.0630    68.7901     2.3984     0.1694     7.1851
  559.5000   -35.3183    10.1371     9.1632     0.0670    71.0126     2.3974     0.1700     7.1652
