~VERSION INFORMATION
 VERS.                2.0:   CWLS LOG ASCII STANDARD - VERSION 2.0
 WRAP.                 NO:   ONE LINE PER DEPTH STEP
~WELL INFORMATION
#MNEM.UNIT      DATA TYPE    INFORMATION
#----------   ------------   ------------------------------
 STRT.F           16.5000:   START DEPTH
 STOP.F          640.0000:   STOP DEPTH
 STEP.F            0.5000:   STEP LENGTH
 NULL.          -999.2500:   NO VALUE
 COMP. FENIX & SCISSON INC:   COMPANY
 WELL.     11 SX 14 #3-14:   WELL
 FLD .             TEAPOT:   FIELD
 LOC .      S14 T38N R78W:   LOCATION
 CNTY.            NATRONA:   COUNTY
 STAT.            WYOMING:   STATE
 CTRY. UNITED STATES OF AMERICA:   COUNTRY
 SRVC.            Unknown:   SERVICE COMPANY
 DATE.        18-DEC-1978:   LOGDATE
 API .       490251075700:   API NUMBER
~CURVE INFORMATION
#MNEM.UNIT       API CODE    CURVE DESCRIPTION
#----------   ------------   ------------------------------
 DEPT.F                  :   
 SPR .MV     05 010 01 00:   SPONTANEOUS POTENTIAL FROM RES.
 SN  .OHMM   05 040 16 00:   SHORT NORMAL 16"
 IL  .OHMM   05 120 00 00:   INDUCTION LOG
 GRD .GAPI   45 310 01 00:   GAMMA RAY FROM DENSITY LOG
 CALD.IN     45 280 60 00:   CALIPER
 RHOB.G/C3   45 350 01 00:   BULK DENSITY
 DPHI.DEC    45 890 12 00:   DENSITY POROSITY SANDSTONE
 CORR.G/C3   45 356 01 00:   DENSITY CORRECTION
~PARAMETER INFORMATION
#MNEM.UNIT          VALUE    DESCRIPTION
#----------   ------------   ------------------------------
 PD  .                 GL:   PERMANENT DATUM
 EPD .F              5217:   ELEVATION PERMANENT DATUM
 LMF .                 KB:   LOG MEASURED FROM
 DAPD.F                 4:   FEET ABOVE PERMANENT DATUM
 DMF .                 KB:   DRILLING MEASURED FROM
 EKB .F              5221:   KELLING BUSHING
 EGL .F              5217:   GROUND LEVEL
 DATE.           12-18-78:   RUN DATE
 RUN .                  1:   RUN NUMBER
 DD  .F               653:   DEPTH DRILLER
 DL  .F               640:   DEPTH LOGGER
 BLI .F               634:   BOTTOM LOG INTERVAL
 TLI .F                32:   TOP LOG INTERVAL
 CS  .IN            8.625:   CASING SIZE
 CBD .F                40:   CASING BOTTOM DRILLER
 CBL .F                30:   CASING BOTTOM LOGGER
 BS  .IN            7.875:   BIT SIZE
 BSD .F               653:   BIT SIZE AT DEPTH
 DFT .                KCL:   DRILLING FLUID TYPE
 DFD .                8.3:   DRILLING FLUID DENSITY
 DFV .                 36:   DRILLING FLUID VISCOSITY
 DFPH.               12.5:   DRILLING FLUID PH
 DFL .               12.3:   DRILLING FLUID LOSS
 MSS .           FLOWLINE:   MUD SAMPLE SOURCE
 MST .F                56:   MUD SAMPLE TEMPERATURE
 RMF .OHMM            .44:   RESISTIVITY MUD FILTRATE SAMPLE
 MFST.F                58:   MUD FILTRATE SAMPLE TEMPERATURE
 RMC .OHMM            .58:   RESISTIVITY MUD CAKE
 MCST.F                66:   MUD CAKE SAMPLE TEMPERATURE
 MFSS.           MEASURED:   MUD FILTRATE SAMPLE SOURCE
 MCSS.           MEASURED:   MUD CAKE SAMPLE SOURCE
 BHT .F                58:   BOTTOM HOLE TEMPERATURE
 TCS .HRS               4:   TIME CURCULATED STOPPED
 MRT .F                58:   MAXIMUM RECORDED TEMPERATURE
 LUL .             CASPER:   LOGGING UNIT LOCATION
 ENGI.         B. ROLLINS:   RECORDING ENGINEER
 WITN.              AMEND:   WITNESSED BY
 CLNT.            A2DTECH:   CLIENT CODE
 ORIG.           5" PRINT:   ORIGIN OF DATA
 UWI .       490251075700:   UNIQUE WELL ID
 DICO. A2D Technologies, Inc.:   DIGITIZING COMPANY
~OTHER INFORMATION
~A   DEPT      SPR         SN         IL         GRD      CALD       RHOB       DPHI       CORR   
# ...
  138.0000   -46.9850     7.8160     7.4530    99.4690     8.2530     2.4420     0.1490     0.0430
  138.5000   -47.0860     7.7940     7.4200   100.2850     8.2690     2.4370     0.1480     0.0520
  139.0000   -46.9850     7.7720     7.3860   100.9560     8.2780     2.4410     0.1480     0.0610
  139.5000   -46.8540     7.7500     7.3520   100.9310     8.2870     2.4420     0.1450     0.0690
  140.0000   -46.7160     7.7380     7.3190   101.4520     8.2960     2.4460     0.1420     0.0750
  140.5000   -46.0300     7.9160     7.2850   102.2810     8.2800     2.4560     0.1290     0.0740
  141.0000   -45.2670     8.0580     7.2540   103.1100     8.2630     2.4650     0.1290     0.0730
  141.5000   -44.8910     8.2000     7.4650   103.8360     8.2460     2.4730     0.1290     0.0720
  142.0000   -45.6870     8.3420     7.6600   102.9690     8.1700     2.4730     0.1300     0.0720
  142.5000   -46.4600     8.4840     7.8540    99.3380     8.0210     2.4720     0.1280     0.0760
  143.0000   -46.2700     8.6260     8.0490    95.2470     7.9620     2.4740     0.1240     0.0840
  143.5000   -46.0140     8.7680     8.2440    92.8500     7.9600     2.4830     0.1120     0.0930
  144.0000   -45.7560     8.8160     8.4380    91.2980     7.9610     2.4940     0.1120     0.0990
  144.5000   -45.7030     8.8320     8.5000    91.0030     7.9820     2.5020     0.1130     0.0970
  145.0000   -45.7010     8.8470     8.5190    92.1770     8.0040     2.5010     0.1120     0.0820
  145.5000   -45.7000     8.8630     8.5380    94.4260     8.0250     2.4980     0.1070     0.0740
  146.0000   -45.7000     8.8790     8.5570    97.1840     8.0690     2.5080     0.1010     0.0680
  146.5000   -45.7000     8.8950     8.5760    98.7690     8.1930     2.5170     0.1100     0.0520
  147.0000   -45.7000     8.9110     8.5950   100.1940     8.2570     2.5100     0.1170     0.0340
  147.5000   -45.7000     8.9270     8.6140   101.1810     8.2310     2.4960     0.1210     0.0240
  148.0000   -45.7000     8.9420     8.6330   101.3060     8.0900     2.4900     0.1210     0.0190
  148.5000   -45.7020     8.9580     8.6530    96.8810     8.0060     2.4880     0.1180     0.0190
  149.0000   -45.7420     8.9740     8.6720    96.4460     8.1210     2.4900     0.1150     0.0190
  149.5000   -45.9150     8.9900     8.6910    96.7700     8.2150     2.4960     0.1130     0.0180
  150.0000   -46.0850     9.0060     8.7100    96.8570     8.1920     2.5010     0.1140     0.0180
  150.5000   -46.2570     9.0220     8.7230    95.2560     8.1720     2.4990     0.1130     0.0180
  151.0000   -46.3370     9.0370     8.6560    92.9690     8.1530     2.4990     0.1120     0.0170
  151.5000   -46.3920     9.0510     8.6040    92.4790     8.1470     2.4990     0.1120     0.0170
  152.0000   -46.4480     8.9620     8.5530    93.0320     8.1790     2.4990     0.1120     0.0170
  152.5000   -46.4610     8.8700     8.5010    93.6790     8.2110     2.5000     0.1130     0.0160
  153.0000   -45.4190     8.7780     8.4500    94.7140     8.1860     2.5000     0.1190     0.0160
  153.5000   -44.3330     8.6860     8.3990    95.9180     8.1320     2.4930     0.1290     0.0160
  154.0000   -43.2530     8.5640     8.3300    97.8170     8.0410     2.4810     0.1300     0.0160
  154.5000   -42.8010     8.6680     8.4290    99.6780     8.0100     2.4730     0.1240     0.0280
  155.0000   -42.6590     8.8910     8.5760   100.5190     8.0270     2.4780     0.1170     0.0400
  155.5000   -42.5870     9.1130     8.7240   100.3860     8.0450     2.4880     0.1090     0.0530
  156.0000   -42.5090     9.3050     8.8720    99.9150     8.0650     2.4990     0.1030     0.0580
  156.5000   -42.8170     9.2800     8.9680    99.4670     8.0950     2.5100     0.0980     0.0590
  157.0000   -43.2290     9.2540     8.9230    98.7350     8.0640     2.5180     0.0980     0.0580
  157.5000   -43.6440     9.2280     8.8900    97.9210     8.0330     2.5200     0.1070     0.0490
  158.0000   -43.7130     9.2020     8.8570    97.9080     8.0270     2.5130     0.1170     0.0270
  158.5000   -43.2560     9.1760     8.8240    99.0720     8.0400     2.4970     0.1250     0.0160
  159.0000   -42.8040     9.1500     8.7900   100.6510     8.0520     2.4830     0.1280     0.0090
  159.5000   -42.3580     9.1240     8.7570   102.2420     8.0790     2.4760     0.1230     0.0030
  160.0000   -42.3860     9.0980     8.7240   102.7880     8.1320     2.4760     0.1190     0.0030
  160.5000   -42.4790     9.0720     8.6910   101.5880     8.1850     2.4890     0.1120     0.0040
  161.0000   -42.5740     9.0460     8.6430    99.6990     8.2360     2.5020     0.1040     0.0040
  161.5000   -42.6680     9.0190     8.6560    98.2940     8.2380     2.5150     0.0960     0.0030
  162.0000   -42.7630     8.9930     8.6790    97.2010     8.2380     2.5310     0.0900     0.0030
  162.5000   -42.8570     8.9670     8.7030    96.1050     8.2370     2.5490     0.0820     0.0030
  163.0000   -42.9500     8.9410     8.7260    95.0090     8.2370     2.5420     0.0910     0.0030
  163.5000   -43.0430     8.9150     8.7500    93.9170     8.2180     2.5280     0.1080     0.0030
  164.0000   -42.8590     8.8890     8.7730    92.8210     8.1680     2.5090     0.1190     0.0030
  164.5000   -42.3250     8.8630     8.8040    92.6130     8.1170     2.4920     0.1190     0.0040
  165.0000   -41.7940     8.8370     8.7660    94.6500     8.0270     2.4890     0.1160     0.0070
  165.5000   -41.2610     8.8110     8.7110   101.3380     7.9350     2.4910     0.1090     0.0110
  166.0000   -40.7180     8.8040     8.6560   102.1540     7.9470     2.4970     0.1040     0.0150
  166.5000   -40.4120     8.8040     8.6010   101.6860     8.0270     2.5080     0.1040     0.0170
  167.0000   -40.1050     8.8040     8.5460   100.0980     7.9630     2.5130     0.1040     0.0160
  167.5000   -39.7980     8.8040     8.4910    97.7140     7.9780     2.5130     0.1050     0.0160
  168.0000   -39.5560     8.8040     8.4360    95.3470     8.0590     2.5130     0.1050     0.0170
  168.5000   -40.7440     8.8040     8.3810    94.9880     8.0890     2.5120     0.1060     0.0180
  169.0000   -41.9690     8.8040     8.3260    94.9430     8.1170     2.5120     0.1050     0.0200
  169.5000   -43.0770     8.8040     8.2540    95.5590     8.1270     2.5120     0.1040     0.0220
  170.0000   -43.0660     8.8040     8.3380    98.7890     8.0770     2.5140     0.1020     0.0230
  170.5000   -43.0320     8.8390     8.4610   102.2310     8.0270     2.5160     0.1030     0.0250
  171.0000   -42.9990     8.9500     8.5850   105.1440     8.0010     2.5150     0.1030     0.0220
  171.5000   -42.9680     9.0600     8.7080   107.1030     8.0350     2.5130     0.1060     0.0160
  172.0000   -42.9360     9.1710     8.8310   104.2450     8.0750     2.5100     0.1090     0.0120
  172.5000   -42.9030     9.2820     8.9540   101.8960     8.2090     2.5050     0.1060     0.0110
  173.0000   -42.8710     9.3930     9.0570   100.2050     8.3190     2.5090     0.1020     0.0110
  173.5000   -42.8380     9.4860     9.0850    98.5290     8.3170     2.5170     0.1000     0.0100
  174.0000   -42.8070     9.5200     9.1130    95.3500     8.3170     2.5280     0.0980     0.0100
  174.5000   -42.7760     9.5540     9.1410    94.1330     8.3170     2.5240     0.0980     0.0120
  175.0000   -42.7420     9.5880     9.1690    94.0630     8.3170     2.5220     0.0990     0.0160
  175.5000   -42.6870     9.6220     9.1970    94.0080     8.3170     2.5210     0.1020     0.0230
  176.0000   -43.5830     9.6560     9.2250    94.3760     8.3140     2.5160     0.1040     0.0210
  176.5000   -44.7840     9.6900     9.2530    95.3470     8.1680     2.5120     0.1050     0.0150
  177.0000   -45.3090     9.7240     9.2810    98.2060     8.0060     2.5110     0.1070     0.0110
  177.5000   -45.3400     9.7580     9.3090   100.4590     7.8640     2.5080     0.1080     0.0110
  178.0000   -45.3730     9.7920     9.3360   102.2340     7.9200     2.5050     0.1110     0.0110
