~VERSION INFORMATION
 VERS.                2.0:   CWLS LOG ASCII STANDARD - VERSION 2.0
 WRAP.                 NO:   ONE LINE PER DEPTH STEP
~WELL INFORMATION
#MNEM.UNIT      DATA TYPE    INFORMATION
#----------   ------------   ------------------------------
 STRT.F            0.0000:   START DEPTH
 STOP.F         4535.0000:   STOP DEPTH
 STEP.F            0.5000:   STEP LENGTH
 NULL.          -999.2500:   NO VALUE
 COMP. LAWRENCE - ALLISON & ASSOCIATES:   COMPANY
 WELL.    NPR ##3 56-X-15:   WELL
 FLD .   TEAPOT NAVAL RES:   FIELD
 LOC .      S15 T38N R78W:   LOCATION
 CNTY.            NATRONA:   COUNTY
 STAT.            WYOMING:   STATE
 CTRY. UNITED STATES OF AMERICA:   COUNTRY
 SRVC.      Dresser Atlas:   SERVICE COMPANY
 DATE.        03-MAY-1984:   LOGDATE
 API .       490251095900:   API NUMBER
~CURVE INFORMATION
#MNEM.UNIT       API CODE    CURVE DESCRIPTION
#----------   ------------   ------------------------------
 DEPT.F                  :   
 CORR.G/C3   45 356 01 00:   DENSITY CORRECTION
 DEN .G/C3   45 350 01 00:   COMPENSATED BULK DENSTIY
 PORD.DEC    45 890 12 00:   POROSITY DENSITY SANDSTONE
 CNC .DEC    42 890 03 00:   NEUTRON POROSITY SANDSTONE
 GRR .GAPI   07 310 01 00:   GAMMA RAY
 CALR.IN     07 280 01 00:   CALIPER FROM RESISTIVITY
 SPR .MV     07 010 01 00:   SPONTANEOUS POTENTIAL
 RILD.OHMM   07 120 46 00:   INDUCTION LOG DEEP RESISTIVITY
 RILM.OHMM   07 120 44 00:   INDUCTION LOG MEDIUM RESISTIVITY
 RFOC.OHMM   07 220 04 00:   RESISTIVITY FOCUSED LOG
 AC  .US/F   60 520 00 00:   ACCOUSTIC
~PARAMETER INFORMATION
#MNEM.UNIT          VALUE    DESCRIPTION
#----------   ------------   ------------------------------
 PD  .                 GL:   PERMANENT DATUM
 EPD .F              5326:   ELEVATION PERMANENT DATUM
 LMF .                 KB:   LOG MEASURED FROM
 DAPD.F                12:   FEET ABOVE PERMANENT DATUM
 DMF .                 KB:   DRILLING MEASURED FROM
 EKB .F              5338:   KELLING BUSHING
 EDF .F              5337:   DRILLING FLOOR
 EGL .F              5326:   GROUND LEVEL
 DATE.        03-MAY-1984:   RUN DATE
 RUN .                  1:   RUN NUMBER
 DD  .F              4547:   DEPTH DRILLER
 DL  .F              4539:   DEPTH LOGGER
 BLI .F              4536:   BOTTOM LOG INTERVAL
 CS  .IN            8.625:   CASING SIZE
 CBD .F              1027:   CASING BOTTOM DRILLER
 CBL .F              1021:   CASING BOTTOM LOGGER
 BS  .IN            7.875:   BIT SIZE
 BSD .F              4547:   BIT SIZE AT DEPTH
 DFT .            KCL GEL:   DRILLING FLUID TYPE
 DFD .                9.1:   DRILLING FLUID DENSITY
 DFV .                 44:   DRILLING FLUID VISCOSITY
 DFPH.                  8:   DRILLING FLUID PH
 DFL .               14.5:   DRILLING FLUID LOSS
 MSS .           MUD TANK:   MUD SAMPLE SOURCE
 RMS .OHMM           0.56:   RESISTIVITY MUD SAMPLE
 MST .F                73:   MUD SAMPLE TEMPERATURE
 RMF .OHMM           0.42:   RESISTIVITY MUD FILTRATE SAMPLE
 MFST.F                73:   MUD FILTRATE SAMPLE TEMPERATURE
 RMC .OHMM           0.71:   RESISTIVITY MUD CAKE
 MCST.F                73:   MUD CAKE SAMPLE TEMPERATURE
 MFSS.               MEAS:   MUD FILTRATE SAMPLE SOURCE
 MCSS.               CALC:   MUD CAKE SAMPLE SOURCE
 RMB .OHMM           0.29:   RESISTIVITY MUD AT BHT
 BHT .F               141:   BOTTOM HOLE TEMPERATURE
 TCS .HRS             3.5:   TIME CURCULATED STOPPED
 MRT .F               125:   MAXIMUM RECORDED TEMPERATURE
 LUN .               6302:   LOGGING UNIT NUMBER
 LUL .               CODY:   LOGGING UNIT LOCATION
 ENGI.              GETTY:   RECORDING ENGINEER
 WITN.           JENNINGS:   WITNESSED BY
 CLNT.            A2DTECH:   CLIENT CODE
 ORIG.           5" PRINT:   ORIGIN OF DATA
 UWI .       490251095900:   UNIQUE WELL ID
 DICO. A2D Technologies, Inc.:   DIGITIZING COMPANY
~OTHER INFORMATION
~A    DEPT    CORR        DEN       PORD        CNC        GRR       CALR        SPR       RILD       RILM       RFOC         AC   
# ...
 4270.0000     0.0563     2.5287     0.0755     0.2858   108.2129     8.1627   -31.3513     3.7375     3.7543     4.4186    90.6032
 4270.5000     0.0436     2.5248     0.0782     0.2986   112.1433     8.1783   -30.8674     3.4873     3.5708     4.0365    93.6966
 4271.0000     0.0123     2.5316     0.0726     0.3021   114.5700     8.1789   -30.1238     3.2993     3.4941     4.0095    95.2829
 4271.5000     0.0170     2.5572     0.0486     0.3021   115.4929     8.1795   -29.2111     3.0784     3.3331     4.0387    95.5127
 4272.0000     0.0361     2.5994     0.0273     0.2906   111.9045     8.1952   -28.2985     2.9125     3.1978     4.1253    95.3648
 4272.5000     0.0511     2.6084     0.0277     0.2813   110.1203     8.2110   -27.8362     2.7941     3.0894     4.1553    95.4448
 4273.0000     0.0480     2.5820     0.0447     0.2750   111.3539     8.2266   -27.3740     2.7167     2.9435     3.9782    95.6746
 4273.5000     0.0403     2.5638     0.0532     0.2762   113.2253     8.2423   -26.7616     2.6600     2.8636     3.5546    95.6783
 4274.0000     0.0357     2.5653     0.0506     0.2810   114.3931     8.2428   -26.2994     2.5900     2.8052     3.4207    95.4560
 4274.5000     0.0461     2.5758     0.0433     0.2876   112.9151     8.2434   -25.8371     2.5022     2.7481     3.5682    94.5554
 4275.0000     0.0656     2.5871     0.0394     0.2949   113.2365     8.2440   -25.2247     2.4172     2.6921     3.7740    93.4288
 4275.5000     0.0821     2.5863     0.0438     0.3099   115.6632     8.2446   -24.7625     2.3189     2.6009     3.5951    92.6789
 4276.0000     0.1076     2.5501     0.0603     0.3178   117.7891     8.2603   -24.0000     2.2402     2.4953     3.3538    92.9337
 4276.5000     0.1874     2.5048     0.0870     0.3085   119.0127     8.2759   -23.3778     2.2096     2.4601     3.1948    94.2294
 4277.0000     0.2582     2.4716     0.1187     0.3042   119.9356     8.3066   -22.7533     2.2101     2.4451     3.0861    96.0280
 4277.5000     0.3003     2.4233     0.1393     0.3058   120.5578     8.3238   -22.1599     2.2260     2.4630     3.0230    98.4220
 4278.0000     0.2700     2.4413     0.1311     0.2919   117.5709     8.3682   -21.8478     2.2576     2.4982     2.9610    99.8575
 4278.5000     0.2427     2.4601     0.1128     0.2832   112.7795     8.3387   -21.9891     2.2739     2.5693     2.9412   100.4641
 4279.0000     0.1446     2.4903     0.0988     0.2841   106.4844     8.2790   -22.2746     2.2743     2.6425     3.0255    99.7896
 4279.5000     0.0932     2.5340     0.0738     0.2919   101.0761     8.2493   -22.8635     2.2748     2.6432     3.3837    96.9298
 4280.0000     0.0780     2.5415     0.0689     0.2943   104.2791     8.2199   -23.6024     2.2911     2.6254     3.7581    92.5627
 4280.5000     0.0643     2.5407     0.0669     0.2850   110.1605     8.2053   -24.0411     2.3076     2.5901     3.7857    91.1347
 4281.0000     0.0581     2.5497     0.0600     0.2796   113.1886     8.2061   -24.4798     2.3242     2.5550     3.5520    91.5152
 4281.5000     0.0595     2.5685     0.0521     0.2817   114.7130     8.1914   -24.9184     2.3086     2.5204     3.3147    93.9304
 4282.0000     0.1016     2.5828     0.0398     0.3076   115.9367     8.1922   -25.2072     2.2615     2.4691     3.1563    96.1948
 4282.5000     0.0879     2.5926     0.0370     0.3030   115.6566     8.1928   -25.7957     2.2307     2.4356     3.0315    96.9521
 4283.0000     0.0999     2.5744     0.0413     0.3013   114.4742     8.2084   -26.0931     2.1851     2.4166     3.1620    96.5037
 4283.5000     0.1239     2.5586     0.0539     0.3020   115.0963     8.2090   -26.2226     2.1403     2.3703     3.2981    95.8292
 4284.0000     0.1283     2.5397     0.0675     0.3113   116.9215     8.2098   -26.0577     2.0966     2.3709     3.3221    95.6060
 4284.5000     0.1251     2.5411     0.0690     0.3288   117.5436     8.1951   -25.8958     2.0971     2.3716     3.2315    95.6860
 4285.0000     0.1281     2.5464     0.0627     0.3293   117.2632     8.1959   -25.5837     2.1269     2.3888     3.1216    96.8201
 4285.5000     0.1355     2.5644     0.0546     0.3156   116.6779     8.1965   -25.5719     2.1422     2.4229     3.0365    98.1803
 4286.0000     0.1490     2.6157     0.0404     0.3016   115.1449     8.1971   -25.4100     2.1576     2.4405     3.0160    98.7115
 4286.5000     0.1458     2.6435     0.0078     0.2853   110.3935     8.1976   -25.3982     2.1580     2.4581     3.0809    98.7965
 4287.0000     0.1457     2.6556    -0.0021     0.2864   102.3136     8.1982   -25.3864     2.1585     2.4418     3.2360    96.5336
 4287.5000     0.1455     2.6186     0.0087     0.2940   103.5373     8.2139   -25.3746     2.1589     2.4424     3.5442    92.7694
 4288.0000     0.1530     2.5439     0.0567     0.3000   111.9790     8.2446   -25.2127     2.1744     2.4262     3.8014    91.2631
 4288.5000     0.1770     2.5069     0.0911     0.2976   119.8192     8.2604   -25.2009     2.2074     2.4269     3.4486    91.2817
 4289.0000     0.2477     2.4857     0.1029     0.2846   126.1556     8.2759   -25.1891     2.2839     2.4445     3.1717    93.5623
 4289.5000     0.2974     2.4887     0.1002     0.2751   127.0733     8.2738   -25.1773     2.3817     2.5142     3.0416    97.3157
 4290.0000     0.2505     2.5347     0.0767     0.2663   118.9788     8.2320   -25.3157     2.4836     2.7147     3.0019    98.7423
 4290.5000     0.1901     2.5950     0.0323     0.2547   110.8792     8.1874   -25.9016     2.5720     2.9517     3.1532    97.3142
 4291.0000     0.0904     2.6153     0.0245     0.2511    99.4712     8.1427   -26.3412     2.6450     3.0997     3.3351    94.6804
 4291.5000     0.0797     2.6205     0.0203     0.2532    98.2887     8.1132   -26.9300     2.7013     3.1659     3.8895    90.5394
 4292.0000     0.0660     2.5919     0.0206     0.2638   100.7492     8.0987   -27.2215     2.7207     3.1014     4.6645    88.3578
 4292.5000     0.0372     2.5677     0.0519     0.2809   104.5047     8.0842   -27.3569     2.7403     2.9963     4.5374    87.6824
 4293.0000     0.0205     2.5616     0.0553     0.2942   109.1830     8.0850   -27.4953     2.7217     2.9149     4.2624    88.5160
 4293.5000     0.0174     2.5669     0.0523     0.2963   110.1059     8.0856   -27.6336     2.6847     2.8358     4.0321    90.6297
 4294.0000     0.0610     2.5819     0.0432     0.2972   110.1265     8.1012   -27.9339     2.6117     2.7207     3.7352    92.6681
 4294.5000     0.0684     2.5829     0.0417     0.3002   109.8413     8.1018   -28.3837     2.5230     2.6087     3.3183    94.8572
 4295.0000     0.0789     2.5796     0.0453     0.2939   110.7693     8.1024   -28.9496     2.3870     2.5014     3.0740    97.1217
 4295.5000     0.0968     2.5765     0.0469     0.2843   111.6922     8.1031   -29.0880     2.2417     2.4365     3.0964    98.5572
 4296.0000     0.1209     2.5667     0.0481     0.2831   111.7129     8.1037   -28.7730     2.1969     2.4371     3.1849    99.0885
 4296.5000     0.1449     2.5289     0.0713     0.2816   111.7335     8.1043   -28.4609     2.2128     2.4892     3.1636    99.4690
 4297.0000     0.1870     2.5085     0.0888     0.2656   111.7541     8.0897   -28.1488     2.2599     2.5600     3.1645    99.7742
 4297.5000     0.1929     2.5221     0.0810     0.2506   111.4740     8.0904   -27.8367     2.3403     2.6698     3.0983    99.7025
 4298.0000     0.1204     2.5499     0.0608     0.2458   104.8565     8.0910   -28.1252     2.4068     2.7842     2.8716    97.5962
 4298.5000    -0.0125     2.5582     0.0568     0.2464    97.1800     8.0916   -28.7140     2.4924     2.9036     3.1588    92.7770
 4299.0000    -0.0292     2.5649     0.0538     0.2518    89.2803     8.0922   -29.3029     2.5991     3.0071     4.1014    85.8479
 4299.5000    -0.0082     2.5498     0.0641     0.2698    93.2159     8.0928   -29.8917     2.7103     3.0713     5.4995    80.1244
 4300.0000     0.0113     2.4917     0.0861     0.2961    98.0651     8.0934   -30.3303     2.8169     3.1152     6.0229    79.9764
