~VERSION INFORMATION
 VERS.                2.0:   CWLS LOG ASCII STANDARD - VERSION 2.0
 WRAP.                 NO:   ONE LINE PER DEPTH STEP
~WELL INFORMATION
#MNEM.UNIT      DATA TYPE    INFORMATION
#----------   ------------   ------------------------------
 STRT.F           32.0000:   START DEPTH
 STOP.F          738.0000:   STOP DEPTH
 STEP.F            0.5000:   STEP LENGTH
 NULL.          -999.2500:   NO VALUE
 COMP. FENIX & SCISSON INC:   COMPANY
 WELL.       NPR-3 #43-34:   WELL
 FLD .             TEAPOT:   FIELD
 LOC .      S34 T39N R78W:   LOCATION
 CNTY.            NATRONA:   COUNTY
 STAT.            WYOMING:   STATE
 CTRY. UNITED STATES OF AMERICA:   COUNTRY
 SRVC.            Unknown:   SERVICE COMPANY
 DATE.        26-AUG-1978:   LOGDATE
 API .       490251069900:   API NUMBER
~CURVE INFORMATION
#MNEM.UNIT       API CODE    CURVE DESCRIPTION
#----------   ------------   ------------------------------
 DEPT.F                  :   
 GRD .GAPI   45 310 01 00:   GAMMA RAY FROM DENSITY LOG
 CALD.IN     45 280 60 00:   CALIPER
 RHOB.G/C3   45 350 01 00:   BULK DENSITY
 DPHI.DEC    45 890 12 00:   DENSITY POROSITY SANDSTONE
 CORR.G/C3   45 356 01 00:   DENSITY CORRECTION
 SPR .MV     05 010 01 00:   SPONTANEOUS POTENTIAL FROM RES.
 SN  .OHMM   05 040 16 00:   SHORT NORMAL 16"
 ILD .OHMM   05 120 46 00:   INDUCTION LOG DEEP
~PARAMETER INFORMATION
#MNEM.UNIT          VALUE    DESCRIPTION
#----------   ------------   ------------------------------
 PD  .                 GL:   PERMANENT DATUM
 EPD .F              5110:   ELEVATION PERMANENT DATUM
 LMF .                 KB:   LOG MEASURED FROM
 DAPD.F                 4:   FEET ABOVE PERMANENT DATUM
 DMF .                 KB:   DRILLING MEASURED FROM
 EKB .F              5114:   KELLING BUSHING
 EGL .F              5110:   GROUND LEVEL
 DATE.            8-26-78:   RUN DATE
 RUN .                  1:   RUN NUMBER
 DD  .F               748:   DEPTH DRILLER
 DL  .F               738:   DEPTH LOGGER
 BLI .F               732:   BOTTOM LOG INTERVAL
 TLI .F                40:   TOP LOG INTERVAL
 CS  .IN            8.625:   CASING SIZE
 CBD .F                40:   CASING BOTTOM DRILLER
 CBL .F                40:   CASING BOTTOM LOGGER
 BS  .IN            7.875:   BIT SIZE
 BSD .F               748:   BIT SIZE AT DEPTH
 DFT .                KCL:   DRILLING FLUID TYPE
 DFD .                8.7:   DRILLING FLUID DENSITY
 DFV .                 33:   DRILLING FLUID VISCOSITY
 DFPH.                  9:   DRILLING FLUID PH
 DFL .                 10:   DRILLING FLUID LOSS
 MSS .          FLOW LINE:   MUD SAMPLE SOURCE
 RMS .OHMM            .36:   RESISTIVITY MUD SAMPLE
 MST .F                80:   MUD SAMPLE TEMPERATURE
 RMF .OHMM             .3:   RESISTIVITY MUD FILTRATE SAMPLE
 MFST.F                80:   MUD FILTRATE SAMPLE TEMPERATURE
 RMC .OHMM            .48:   RESISTIVITY MUD CAKE
 MCST.F                82:   MUD CAKE SAMPLE TEMPERATURE
 MFSS.               MEAS:   MUD FILTRATE SAMPLE SOURCE
 MCSS.               MEAS:   MUD CAKE SAMPLE SOURCE
 TCS .HRS               2:   TIME CURCULATED STOPPED
 LUN .               2958:   LOGGING UNIT NUMBER
 LUL .               CASP:   LOGGING UNIT LOCATION
 ENGI.             MILLER:   RECORDING ENGINEER
 WITN.              AMEND:   WITNESSED BY
 CLNT.            A2DTECH:   CLIENT CODE
 ORIG.           5" PRINT:   ORIGIN OF DATA
 UWI .       490251069900:   UNIQUE WELL ID
 DICO. A2D Technologies, Inc.:   DIGITIZING COMPANY
~OTHER INFORMATION
~A   DEPT       GRD      CALD       RHOB       DPHI       CORR        SPR         SN        ILD   
# ...
   72.5000    89.7302     7.5105     2.3637     0.2073     0.0373   -42.0792     2.8623     1.2062
   73.0000    88.0153     7.4746     2.3392     0.2207     0.0375   -42.0792     2.8904     1.2062
   73.5000    88.4144     7.4385     2.3179     0.2283     0.0368   -42.0792     2.9095     1.2063
   74.0000    84.7303     7.4035     2.2977     0.2318     0.0358   -42.0792     2.9154     1.1996
   74.5000    85.3299     7.3686     2.2921     0.2418     0.0347   -42.0792     2.7833     1.1953
   75.0000    85.8106     7.3541     2.2831     0.2518     0.0337   -42.0792     2.6697     1.1689
   75.5000    85.4333     7.3382     2.2669     0.2618     0.0326   -42.0792     2.5607     1.1227
   76.0000    87.3268     7.3224     2.2510     0.2718     0.0314   -42.0792     2.4562     0.9552
   76.5000    92.0670     7.3066     2.2374     0.2810     0.0375   -42.0793     2.3565     0.8128
   77.0000    93.4373     7.2908     2.2137     0.2806     0.0458   -42.0794     2.2597     0.6692
   77.5000    92.5283     7.2767     2.2174     0.2623     0.0542   -42.0787     2.1925     0.6693
   78.0000    92.0550     7.2703     2.2584     0.2345     0.0541   -42.0329     2.1838     0.6692
   78.5000    92.7941     7.2617     2.3008     0.2067     0.0452   -41.8821     2.1725     0.7162
   79.0000    90.5821     7.2530     2.3438     0.1771     0.0281   -41.7332     2.2933     0.7904
   79.5000    83.2254     7.2443     2.3754     0.1820     0.0152   -41.5839     2.4070     0.8002
   80.0000    77.9343     7.2365     2.3881     0.1883     0.0153   -41.3882     2.5268     0.8488
   80.5000    81.8827     7.2382     2.3800     0.1871     0.0178   -41.1023     2.6594     0.9366
   81.0000    86.2278     7.2408     2.3730     0.1847     0.0184   -41.0955     2.9857     1.0335
   81.5000    86.5509     7.2434     2.3756     0.1823     0.0189   -41.0536     3.3464     1.3013
   82.0000    83.8781     7.2459     2.3799     0.1830     0.0195   -40.6290     3.3464     1.6489
   82.5000    83.1462     7.2484     2.3840     0.1843     0.0194   -40.1202     3.3464     1.6795
   83.0000    83.6675     7.2510     2.3807     0.1878     0.0191   -40.0949     3.3460     1.6795
   83.5000    83.8629     7.2535     2.3731     0.1925     0.0188   -40.0983     3.3490     1.6021
   84.0000    85.4366     7.2563     2.3668     0.1975     0.0186   -40.0990     3.2881     1.4391
   84.5000    87.2063     7.2680     2.3597     0.2045     0.0183   -40.0989     3.2120     1.3847
   85.0000    87.1934     7.2941     2.3506     0.2115     0.0180   -40.0994     3.1393     1.3680
   85.5000    88.5538     7.3201     2.3398     0.2144     0.0178   -40.1256     3.0674     1.3396
   86.0000    91.0432     7.3462     2.3290     0.2221     0.0175   -40.1972     2.9982     1.2984
   86.5000    93.9806     7.3722     2.3081     0.2410     0.0180   -40.2681     2.8749     1.1910
   87.0000    96.2067     7.3983     2.2835     0.2599     0.0188   -40.3392     2.7284     1.0246
   87.5000    97.2521     7.4244     2.2588     0.2779     0.0193   -40.4104     2.5887     0.8811
   88.0000    98.8419     7.4513     2.2342     0.2887     0.0224   -40.4823     2.4563     0.7581
   88.5000   100.2003     7.4569     2.2088     0.2890     0.0269   -40.4785     2.3306     0.7011
   89.0000   100.4925     7.4570     2.2010     0.2785     0.0384   -40.4369     2.2128     0.6698
   89.5000    99.7416     7.4569     2.2009     0.2528     0.0491   -40.3955     2.2128     0.6698
   90.0000    96.8016     7.4569     2.2894     0.2220     0.0470   -40.3548     2.3456     0.7014
   90.5000    93.9351     7.4569     2.3565     0.1912     0.0411   -40.3120     2.4618     0.7790
   91.0000    91.0750     7.4569     2.3807     0.1647     0.0353   -40.2370     2.5838     0.8634
   91.5000    88.7617     7.4569     2.4083     0.1639     0.0298   -39.9320     2.7117     0.9718
   92.0000    88.8465     7.4569     2.4112     0.1641     0.0273   -39.6975     3.0413     1.1161
   92.5000    89.5482     7.4569     2.4072     0.1644     0.0275   -39.6879     3.5470     1.3975
   93.0000    90.2006     7.4569     2.4080     0.1647     0.0278   -39.6163     4.0218     1.9089
   93.5000    93.5490     7.4569     2.4086     0.1650     0.0280   -39.5387     4.1692     2.3808
   94.0000    95.1281     7.4579     2.4091     0.1651     0.0282   -39.3588     4.3460     2.5634
   94.5000    92.4114     7.4630     2.4080     0.1635     0.0285   -39.1827     4.4985     2.5854
   95.0000    92.7318     7.4681     2.4068     0.1594     0.0287   -39.1251     4.6391     2.6066
   95.5000    95.8325     7.4731     2.4158     0.1543     0.0289   -39.2046     4.7840     2.6279
   96.0000    99.5028     7.4781     2.4254     0.1492     0.0291   -39.2863     4.9232     2.6594
   96.5000    99.4788     7.4832     2.4351     0.1441     0.0294   -39.0608     5.0836     2.8766
   97.0000    93.7970     7.4882     2.4449     0.1434     0.0295   -38.7054     5.2748     3.0827
   97.5000    92.0973     7.4933     2.4480     0.1436     0.0295   -38.5618     5.4731     3.3036
   98.0000    89.2098     7.4983     2.4480     0.1440     0.0295   -38.6620     5.6789     3.5404
   98.5000    86.5217     7.5034     2.4446     0.1465     0.0287   -38.7130     5.8925     3.7941
   99.0000    86.3775     7.5084     2.4409     0.1488     0.0278   -38.7260     5.9187     3.9935
   99.5000    87.1998     7.5134     2.4373     0.1488     0.0274   -38.7530     5.9221     4.0590
  100.0000    90.0738     7.5171     2.4348     0.1488     0.0297   -38.7798     5.9253     4.0528
  100.5000    87.1823     7.5190     2.4341     0.1476     0.0323   -38.8066     5.9286     4.0458
  101.0000    87.7296     7.5252     2.4352     0.1453     0.0350   -38.8335     5.9320     4.0389
  101.5000    88.7339     7.5313     2.4420     0.1419     0.0347   -38.8605     5.9353     4.0320
  102.0000    90.6893     7.5374     2.4489     0.1417     0.0326   -38.8874     5.9387     4.0253
  102.5000    93.0602     7.5436     2.4490     0.1420     0.0305   -38.9117     5.9421     4.0218
  103.0000    94.0424     7.5497     2.4472     0.1418     0.0284   -38.9049     5.9455     4.0219
  103.5000    94.4220     7.5557     2.4461     0.1408     0.0263   -38.8552     5.9489     4.0218
  104.0000    93.7012     7.5677     2.4474     0.1412     0.0242   -38.8054     5.9523     4.0218
  104.5000    91.4449     7.5811     2.4491     0.1460     0.0244   -38.7566     5.9557     4.0218
  105.0000    89.3860     7.5946     2.4479     0.1468     0.0258   -38.7086     5.9591     4.0218
  105.5000    89.2244     7.6081     2.4394     0.1444     0.0272   -38.5128     5.9624     4.0218
  106.0000    89.1873     7.6215     2.4422     0.1394     0.0287   -38.2995     5.9658     4.0590
  106.5000    88.6852     7.6352     2.4485     0.1364     0.0301   -38.1136     5.9693     4.0908
  107.0000    88.9320     7.6325     2.4548     0.1393     0.0316   -38.1083     6.0008     4.1247
  107.5000    89.3344     7.6252     2.4557     0.1431     0.0295   -38.0803     6.0845     4.1588
  108.0000    89.2614     7.6177     2.4467     0.1468     0.0246   -38.0519     6.1951     4.1932
  108.5000    88.1253     7.6102     2.4372     0.1505     0.0187   -38.0235     6.2487     4.2279
  109.0000    88.0655     7.6028     2.4302     0.1540     0.0180   -37.9951     6.3047     4.2751
  109.5000    88.8290     7.6000     2.4285     0.1540     0.0202   -37.9667     6.3613     4.4090
  110.0000    88.4249     7.6140     2.4270     0.1497     0.0223   -37.9385     6.4184     4.5240
  110.5000    88.2378     7.6274     2.4314     0.1436     0.0243   -37.9206     6.4759     4.7134
  111.0000    87.5817     7.6409     2.4427     0.1372     0.0264   -37.9208     6.5340     4.9080
  111.5000    85.3780     7.6544     2.4537     0.1386     0.0284   -37.9208     6.5464     5.1076
  112.0000    86.1235     7.6678     2.4515     0.1400     0.0304   -37.9208     6.5331     5.1107
  112.5000    86.2664     7.6775     2.4480     0.1366     0.0324   -37.9211     6.4997     5.1264
