~VERSION INFORMATION
 VERS.                2.0:   CWLS LOG ASCII STANDARD - VERSION 2.0
 WRAP.                 NO:   ONE LINE PER DEPTH STEP
~WELL INFORMATION
#MNEM.UNIT      DATA TYPE    INFORMATION
#----------   ------------   ------------------------------
 STRT.F            4.0000:   START DEPTH
 STOP.F          614.0000:   STOP DEPTH
 STEP.F            0.1000:   STEP LENGTH
 NULL.          -999.2500:   NO VALUE
 COMP.   FLUOR DANIEL INC:   COMPANY
 WELL.     63-4 X 3 #63-3:   WELL
 FLD .          N.P.R. #3:   FIELD
 LOC .       S3 T38N R78W:   LOCATION
 CNTY.            NATRONA:   COUNTY
 STAT.            WYOMING:   STATE
 CTRY. UNITED STATES OF AMERICA:   COUNTRY
 SRVC.      Western Atlas:   SERVICE COMPANY
 DATE.        01-JUN-1995:   LOGDATE
 API .       490252271300:   API NUMBER
~CURVE INFORMATION
#MNEM.UNIT       API CODE    CURVE DESCRIPTION
#----------   ------------   ------------------------------
 DEPT.F                  :   
 GRR .GAPI   07 310 01 00:   GAMMA RAY
 RILD.OHMM   07 120 46 00:   INDUCTION LOG DEEP RESISTIVITY
 RILM.OHMM   07 120 44 00:   INDUCTION LOG MEDIUM RESISTIVITY
~PARAMETER INFORMATION
#MNEM.UNIT          VALUE    DESCRIPTION
#----------   ------------   ------------------------------
 PD  .                 GL:   PERMANENT DATUM
 EPD .F              5173:   ELEVATION PERMANENT DATUM
 LMF .                 KB:   LOG MEASURED FROM
 DAPD.F                10:   FEET ABOVE PERMANENT DATUM
 DMF .                 KB:   DRILLING MEASURED FROM
 EKB .F              5183:   KELLING BUSHING
 EDF .F              5182:   DRILLING FLOOR
 EGL .F              5173:   GROUND LEVEL
 DATE.        01-JUN-1995:   RUN DATE
 RUN .                  1:   RUN NUMBER
 DD  .F               626:   DEPTH DRILLER
 DL  .F               622:   DEPTH LOGGER
 BLI .F               614:   BOTTOM LOG INTERVAL
 TLI .F                95:   TOP LOG INTERVAL
 CS  .IN            9.625:   CASING SIZE
 CBD .F                95:   CASING BOTTOM DRILLER
 CBL .F                95:   CASING BOTTOM LOGGER
 BS  .IN             8.75:   BIT SIZE
 BSD .F               626:   BIT SIZE AT DEPTH
 DFT .                AIR:   DRILLING FLUID TYPE
 MRT .F               147:   MAXIMUM RECORDED TEMPERATURE
 LUN .            HL 6530:   LOGGING UNIT NUMBER
 LUL .             CASPER:   LOGGING UNIT LOCATION
 ENGI.        VERN RAUTIO:   RECORDING ENGINEER
 WITN.        STEVE HARDY:   WITNESSED BY
 CLNT.            A2DTECH:   CLIENT CODE
 ORIG.           5" PRINT:   ORIGIN OF DATA
 UWI .       490252271300:   UNIQUE WELL ID
 DICO. A2D Technologies, Inc.:   DIGITIZING COMPANY
~OTHER INFORMATION
~A    DEPT       GRR     RILD       RILM   
# ...
  222.4000   109.0341     9.5431     9.4554
  222.5000   109.2308     9.5434     9.4561
  222.6000   109.3370     9.5437     9.4567
  222.7000   109.4496     9.5439     9.4574
  222.8000   109.6398     9.5442     9.4581
  222.9000   109.6404     9.5445     9.4055
  223.0000   109.6411     9.5447     9.3941
  223.1000   109.6416     9.5450     9.3948
  223.2000   109.4387     9.5453     9.3954
  223.3000   109.1797     9.5456     9.3961
  223.4000   108.9207     9.4948     9.3899
  223.5000   108.6616     9.4800     9.3326
  223.6000   108.4379     9.4803     9.3332
  223.7000   108.4386     9.4806     9.3338
  223.8000   108.1377     9.4675     9.3345
  223.9000   107.9272     9.4155     9.3351
  224.0000   107.4992     9.4158     9.3358
  224.1000   107.2344     9.3654     9.3364
  224.2000   107.1501     9.3512     9.3371
  224.3000   106.9338     9.3514     9.3377
  224.4000   106.9345     9.3517     9.2942
  224.5000   106.9352     9.3384     9.2746
  224.6000   106.9358     9.2875     9.2753
  224.7000   106.9363     9.2878     9.2593
  224.8000   106.9370     9.2377     9.2125
  224.9000   107.0298     9.2240     9.2132
  225.0000   107.2398     9.2243     9.1504
  225.1000   107.2404     9.2246     9.1509
  225.2000   107.2411     9.2248     9.1169
  225.3000   107.4675     9.2251     9.0891
  225.4000   107.5439     9.2253     9.0731
  225.5000   107.4027     9.2256     9.0276
  225.6000   107.1437     9.2258     9.0283
  225.7000   106.8847     9.2261     8.9668
  225.8000   106.6100     9.2264     8.9673
  225.9000   106.0387     9.2266     8.9679
  226.0000   105.8059     9.2269     8.9685
  226.1000   105.5469     9.2271     8.9691
  226.2000   105.2879     9.2274     8.9698
  226.3000   105.1361     9.1859     8.9704
  226.4000   105.0715     9.1641     8.9711
  226.5000   104.8355     9.1643     8.9716
  226.6000   104.8363     9.1646     9.0072
  226.7000   104.8368     9.1648     9.0352
  226.8000   104.8374     9.1651     9.0358
  226.9000   105.3080     9.1653     9.0364
  227.0000   106.3167     9.1237     9.0370
  227.1000   107.5429     9.1024     9.0378
  227.2000   108.5821     9.1027     9.0383
  227.3000   109.6670     9.1030     9.0036
  227.4000   109.9158     9.0974     8.9772
  227.5000   109.9698     9.0405     8.9778
  227.6000   109.9704     9.0407     8.9784
  227.7000   109.9710     9.0410     8.9791
  227.8000   109.8916     9.0412     8.9798
  227.9000   109.6705     9.0415     8.9803
  228.0000   109.6712     9.0417     8.9809
  228.1000   109.3702     9.0420     8.9816
  228.2000   109.1572     9.0423     8.9822
  228.3000   109.0697     8.9916     8.9828
  228.4000   108.9408     8.9802     8.9834
  228.5000   108.7692     8.9805     8.9841
  228.6000   108.7698     8.9807     8.9847
  228.7000   108.7773     8.9810     8.9853
  228.8000   109.3744     8.9812     8.9859
  228.9000   109.5960     8.9815     8.9865
  229.0000   110.0352     8.9817     8.9872
  229.1000   110.5550     8.9819     8.9878
  229.2000   110.8851     8.9822     8.9885
  229.3000   110.9915     8.9824     8.9439
  229.4000   111.4896     8.9827     8.9276
  229.5000   111.4903     8.9829     8.9283
  229.6000   111.4908     8.9832     8.9289
  229.7000   110.9322     8.9834     8.9197
  229.8000   109.7206     9.0265     8.8685
  229.9000   108.3682     9.0465     8.8692
  230.0000   107.4510     9.0468     8.8698
  230.1000   106.9324     9.0309     8.8704
  230.2000   106.3663     8.9847     8.8710
  230.3000   106.1309     8.9850     8.8716
  230.4000   105.8719     8.9852     8.8621
  230.5000   105.6129     8.9854     8.8116
  230.6000   105.4636     8.9857     8.8123
  230.7000   105.5320     8.9859     8.8129
  230.8000   105.7923     8.9698     8.8135
  230.9000   106.0688     8.9168     8.8141
  231.0000   106.0694     8.8628     8.8147
  231.1000   106.4726     8.8018     8.8049
  231.2000   106.9925     8.7596     8.7551
  231.3000   107.7468     8.7414     8.7558
  231.4000   108.7107     8.7167     8.7563
  231.5000   109.4901     8.6814     8.7569
  231.6000   110.2962     8.6816     8.7297
  231.7000   110.9003     8.6819     8.6786
  231.8000   111.7358     8.6221     8.6384
  231.9000   112.4415     8.5804     8.6390
  232.0000   112.9613     8.5297     8.6396
  232.1000   113.4811     8.4793     8.5954
  232.2000   114.0010     8.4292     8.5812
  232.3000   114.5237     8.3794     8.5541
  232.4000   115.1277     8.3293     8.5232
  232.5000   115.1282     8.2720     8.5130
  232.6000   115.1288     8.2317     8.4632
  232.7000   115.1294     8.2152     8.4078
  232.8000   114.9498     8.1913     8.4084
  232.9000   114.4792     8.1271     8.3733
  233.0000   114.2142     8.0466     8.3243
  233.1000   113.6236     8.0468     8.2945
  233.2000   113.1768     7.9914     8.2735
  233.3000   112.8398     7.9129     8.1816
  233.4000   112.5808     7.8505     8.1823
  233.5000   112.4193     7.8274     8.1397
  233.6000   112.4754     7.7965     8.0921
  233.7000   112.7356     7.7121     8.0447
  233.8000   113.0245     7.6665     7.9977
  233.9000   113.9492     7.6139     7.9616
  234.0000   114.7993     7.5762     7.9592
  234.1000   115.7259     7.5014     7.9078
  234.2000   116.5551     7.4351     7.8664
  234.3000   117.1379     7.3912     7.8204
  234.4000   117.8755     7.3475     7.8007
  234.5000   118.1569     7.3040     7.7828
  234.6000   118.8730     7.2542     7.7480
  234.7000   119.4560     7.2180     7.7454
  234.8000   119.9759     7.2044     7.6957
  234.9000   120.3833     7.2046     7.6962
  235.0000   120.6436     7.1899     7.6631
  235.1000   120.8754     7.1552     7.6182
  235.2000   120.8761     7.1554     7.5920
  235.3000   121.1226     7.1556     7.5816
  235.4000   121.1789     7.1558     7.5406
  235.5000   121.1795     7.1560     7.5412
  235.6000   121.0602     7.1562     7.5417
  235.7000   120.7233     7.1564     7.5090
  235.8000   120.1689     7.1566     7.4907
  235.9000   119.3720     7.1568     7.4729
  236.0000   117.5627     7.1570     7.4401
  236.1000   117.1405     7.1572     7.4370
  236.2000   116.7911     7.1871     7.3899
  236.3000   116.5321     7.2074     7.3903
  236.4000   116.2731     7.2076     7.3908
  236.5000   116.0141     7.2078     7.3657
  236.6000   115.7563     7.2080     7.3409
  236.7000   115.7570     7.2083     7.3414
  236.8000   115.7575     7.2084     7.3419
  236.9000   115.5813     7.2086     7.3424
  237.0000   115.3223     7.2319     7.3429
  237.1000   114.9705     7.2592     7.3434
  237.2000   114.4519     7.2683     7.3439
  237.3000   113.9333     7.3102     7.3444
  237.4000   113.3479     7.3104     7.3449
  237.5000   112.6697     7.3106     7.3455
  237.6000   111.8914     7.3418     7.3460
  237.7000   111.1131     7.3619     7.3465
  237.8000   110.3348     7.3788     7.3805
  237.9000   109.6728     7.4136     7.3985
  238.0000   109.3977     7.4159     7.3990
  238.1000   108.8272     7.4657     7.4114
  238.2000   108.5941     7.5052     7.4561
  238.3000   108.5267     7.5502     7.5037
  238.4000   108.3777     7.5956     7.5462
  238.5000   108.2262     7.6236     7.5568
  238.6000   108.2924     7.6238     7.5847
  238.7000   108.6233     7.6240     7.6506
  238.8000   109.7364     7.6243     7.7360
  238.9000   110.7015     7.6649     7.7711
  239.0000   111.5416     7.6778     7.7716
  239.1000   112.1639     7.6780     7.7722
  239.2000   112.6837     7.6782     7.7727
  239.3000   113.2036     7.6784     7.7733
  239.4000   113.6925     7.6786     7.7738
  239.5000   113.9638     7.6789     7.7434
  239.6000   113.9644     7.6790     7.7212
  239.7000   113.5519     7.6793     7.7218
  239.8000   113.1978     7.6538     7.7304
  239.9000   112.8163     7.6266     7.7765
  240.0000   112.2977     7.6268     7.7771
  240.1000   111.8174     7.6270     7.7775
  240.2000   111.5548     7.6272     7.7781
  240.3000   111.5555     7.6274     7.7786
  240.4000   111.5560     7.6276     7.7792
  240.5000   111.9005     7.6278     7.7797
