~VERSION INFORMATION
 VERS.                2.0:   CWLS LOG ASCII STANDARD - VERSION 2.0
 WRAP.                 NO:   ONE LINE PER DEPTH STEP
~WELL INFORMATION
#MNEM.UNIT      DATA TYPE    INFORMATION
#----------   ------------   ------------------------------
 STRT.F           20.0000:   START DEPTH
 STOP.F          508.0000:   STOP DEPTH
 STEP.F            0.5000:   STEP LENGTH
 NULL.          -999.2500:   NO VALUE
 COMP. FENIX & SCISSON INC:   COMPANY
 WELL.      NPR #3 #45-10:   WELL
 FLD .             TEAPOT:   FIELD
 LOC .      S10 T38N R78W:   LOCATION
 CNTY.            NATRONA:   COUNTY
 STAT.            WYOMING:   STATE
 CTRY. UNITED STATES OF AMERICA:   COUNTRY
 SRVC.              Welex:   SERVICE COMPANY
 DATE.        09-MAY-1980:   LOGDATE
 API .       490251081000:   API NUMBER
~CURVE INFORMATION
#MNEM.UNIT       API CODE    CURVE DESCRIPTION
#----------   ------------   ------------------------------
 DEPT.F                  :   
 SPR .MV     07 010 01 00:   SPONTANEOUS POTENTIAL
 SGRD.OHMM   07 220 05 00:   SHALLOW GUARD RESISTIVITY
 ILD .OHMM   07 120 46 00:   INDUCTION LOG DEEP RESISTIVITY
 ILM .OHMM   07 120 44 00:   INDUCTION LOG MEDIUM
 GRD .GAPI   45 310 01 00:   GAMMA RAY FROM DENSITY LOG
 CALD.IN     45 280 60 00:   CALIPER
 CORR.G/C3   45 356 01 00:   DENSITY CORRECTION
 RHOB.G/C3   45 350 01 00:   BULK DENSITY
 DPHI.DEC    45 890 12 00:   DENSITY POROSITY SANDSTONE
~PARAMETER INFORMATION
#MNEM.UNIT          VALUE    DESCRIPTION
#----------   ------------   ------------------------------
 PD  .                 GL:   PERMANENT DATUM
 EPD .F              5228:   ELEVATION PERMANENT DATUM
 LMF .                 KB:   LOG MEASURED FROM
 DAPD.F                 5:   FEET ABOVE PERMANENT DATUM
 DMF .                 KB:   DRILLING MEASURED FROM
 EKB .F              5233:   KELLING BUSHING
 EGL .F              5228:   GROUND LEVEL
 DATE.             5-9-80:   RUN DATE
 RUN .                  1:   RUN NUMBER
 DD  .F               507:   DEPTH DRILLER
 DL  .F               510:   DEPTH LOGGER
 BLI .F               508:   BOTTOM LOG INTERVAL
 TLI .F                20:   TOP LOG INTERVAL
 BS  .IN            7.875:   BIT SIZE
 BSD .F               507:   BIT SIZE AT DEPTH
 DFT .                KCL:   DRILLING FLUID TYPE
 DFD .                8.9:   DRILLING FLUID DENSITY
 DFV .                 42:   DRILLING FLUID VISCOSITY
 MSS .                PIT:   MUD SAMPLE SOURCE
 RMS .OHMM            .36:   RESISTIVITY MUD SAMPLE
 MST .F                75:   MUD SAMPLE TEMPERATURE
 RMF .OHMM            .29:   RESISTIVITY MUD FILTRATE SAMPLE
 MFST.F                75:   MUD FILTRATE SAMPLE TEMPERATURE
 RMC .OHMM            .43:   RESISTIVITY MUD CAKE
 MCST.F                75:   MUD CAKE SAMPLE TEMPERATURE
 MFSS.           MEASURED:   MUD FILTRATE SAMPLE SOURCE
 MCSS.           MEASURED:   MUD CAKE SAMPLE SOURCE
 TCS .HRS               2:   TIME CURCULATED STOPPED
 MRT .F               100:   MAXIMUM RECORDED TEMPERATURE
 LUN .               9685:   LOGGING UNIT NUMBER
 LUL .             CASPER:   LOGGING UNIT LOCATION
 ENGI.            TOTHILL:   RECORDING ENGINEER
 WITN.           DINSMORE:   WITNESSED BY
 CLNT.            A2DTECH:   CLIENT CODE
 ORIG.         2.5" PRINT:   ORIGIN OF DATA
 UWI .       490251081000:   UNIQUE WELL ID
 DICO. A2D Technologies, Inc.:   DIGITIZING COMPANY
~OTHER INFORMATION
~A   DEPT      SPR       SGRD        ILD        ILM         GRD        CALD       CORR       RHOB       DPHI 
# ...
  421.5000   -42.7152    14.4511    12.1423    10.9604    78.3436     7.8634     0.0375     2.4117     0.1611
  422.0000   -43.7270    14.4511    11.9193    11.0402    78.6488     7.8769     0.0388     2.4132     0.1586
  422.5000   -43.8923    14.4511    11.7006    11.1206    78.8751     7.8905     0.0321     2.4064     0.1587
  423.0000   -43.7597    14.4501    11.4895    11.1996    79.1014     7.9041     0.0255     2.4001     0.1627
  423.5000   -43.6251    14.4501    11.3363    11.2803    79.3444     7.9177     0.0183     2.3920     0.1674
  424.0000   -43.5032    14.3481    11.2918    11.3484    79.5817     7.9311     0.0110     2.3839     0.1720
  424.5000   -43.3737    14.2419    11.2475    11.0843    79.8157     7.9447     0.0069     2.3755     0.1797
  425.0000   -43.2489    14.1365    11.2034    10.8629    80.0313     7.9446     0.0129     2.3825     0.1789
  425.5000   -43.0255    14.0317    11.1594    10.6461    80.4030     7.9399     0.0184     2.3959     0.1717
  426.0000   -42.6290    13.9276    11.1157    10.4335    80.8517     7.9353     0.0277     2.4193     0.1658
  426.5000   -42.2455    13.8242    11.0721    10.2249    81.2913     7.9308     0.0470     2.4330     0.1604
  427.0000   -42.2079    13.7216    11.0286    10.1497    80.1755     7.9263     0.0554     2.4357     0.1435
  427.5000   -43.2181    13.6243    10.9854    10.1298    79.6857     7.9217     0.0525     2.4308     0.1435
  428.0000   -44.2648    13.5330    10.9379    10.1099    80.3334     7.9172     0.0503     2.4311     0.1482
  428.5000   -44.8657    13.4424    11.1429    10.0900    80.8742     7.9127     0.0475     2.4333     0.1434
  429.0000   -44.9049    13.3531    11.0981    10.0702    81.4499     7.9078     0.0416     2.4282     0.1462
  429.5000   -45.0069    13.2650    10.9604    10.0505    82.0601     7.9028     0.0347     2.4226     0.1514
  430.0000   -45.1004    13.1781    10.8244    10.0307    82.6348     7.8972     0.0278     2.4187     0.1540
  430.5000   -45.1590    13.0918    10.6901    10.0110    83.0420     7.8918     0.0207     2.4229     0.1513
  431.0000   -44.9217    13.0055    10.5574     9.9928    83.1653     7.8863     0.0139     2.4291     0.1475
  431.5000   -44.7023    12.6982    10.4264     9.9701    83.1789     7.8808     0.0074     2.4251     0.1493
  432.0000   -44.4443    12.6166    10.2971    10.0003    83.1565     7.8754     0.0087     2.4212     0.1509
  432.5000   -44.2365    12.5159    10.1693    10.0390    83.1714     7.8695     0.0101     2.4215     0.1523
  433.0000   -44.0320    12.4158    10.0431    10.0791    83.1886     7.8691     0.0119     2.4272     0.1493
  433.5000   -44.8960    12.3167     9.9185    10.1176    83.5060     7.8730     0.0134     2.4323     0.1466
  434.0000   -45.9271    12.2191     9.7955    10.1523    83.7806     7.8766     0.0150     2.4374     0.1438
  434.5000   -46.4995    12.1230     9.6739    10.1287    84.0646     7.8801     0.0166     2.4430     0.1410
  435.0000   -46.7619    12.0281     9.5539    10.1075    84.3634     7.8838     0.0182     2.4462     0.1385
  435.5000   -46.5504    12.0021     9.4279    10.0848    84.5224     7.8874     0.0199     2.4497     0.1365
  436.0000   -46.4110    12.0021     9.4279    10.0620    84.6939     7.8910     0.0214     2.4546     0.1344
  436.5000   -46.5867    12.0021     9.4279    10.0393    84.8564     7.8946     0.0231     2.4615     0.1322
  437.0000   -46.7688    12.0021     9.4279    10.0170    85.0175     7.8981     0.0239     2.4614     0.1266
  437.5000   -46.8076    12.0021     9.4482     9.9959    85.1877     7.9018     0.0247     2.4556     0.1300
  438.0000   -46.5841    12.0021     9.4653     9.9702    85.3549     7.9058     0.0256     2.4529     0.1346
  438.5000   -46.0807    12.0021     9.4825     9.9891    85.4878     7.9058     0.0262     2.4586     0.1329
  439.0000   -45.6368    12.0022     9.4999    10.0127    85.9217     7.8995     0.0269     2.4590     0.1274
  439.5000   -46.2566    12.0026     9.5168    10.0380    86.5820     7.8937     0.0234     2.4490     0.1313
  440.0000   -46.8300    12.0025     9.5338    10.0628    87.2055     7.8877     0.0186     2.4454     0.1394
  440.5000   -47.5482    12.0016     9.5515    10.0868    87.8293     7.8817     0.0140     2.4510     0.1346
  441.0000   -47.5814    12.0047     9.5689    10.1131    88.2179     7.8758     0.0006     2.4383     0.1410
  441.5000   -47.5995    12.0000     9.5844    10.1507    88.4977     7.8698    -0.0119     2.4223     0.1489
  442.0000   -47.6077    12.0104     9.6014    10.1205    88.7808     7.8639    -0.0126     2.4206     0.1518
  442.5000   -47.8716    11.8427     9.5478    10.0134    89.0692     7.8579    -0.0070     2.4232     0.1501
  443.0000   -47.9705    11.6763     9.4879     9.9090    89.3532     7.8520    -0.0010     2.4259     0.1506
  443.5000   -47.4925    11.5122     9.4284     9.8057    89.6361     7.8460     0.0049     2.4300     0.1443
  444.0000   -47.0538    11.3517     9.3693     9.7035    89.9255     7.8398     0.0052     2.4314     0.1464
  444.5000   -46.6045    11.5645     9.3106     9.6023    90.2045     7.8344    -0.0038     2.4250     0.1501
  445.0000   -46.3561    11.4614     9.2522     9.5021    90.4164     7.8277    -0.0130     2.4160     0.1537
  445.5000   -47.2132    11.3980     9.1942     9.4279    90.1608     7.8339    -0.0175     2.4172     0.1545
  446.0000   -48.5113    11.3349     9.1366     9.3962    89.8384     7.8425    -0.0170     2.4161     0.1547
  446.5000   -49.1499    11.2722     9.0794     9.3591    89.5427     7.8490    -0.0168     2.4229     0.1511
  447.0000   -48.7321    11.2098     9.0225     9.3224    89.2536     7.8583    -0.0121     2.4307     0.1472
  447.5000   -48.4189    11.1429     8.9660     9.2859    89.7309     7.8740    -0.0089     2.4338     0.1444
  448.0000   -48.5731    10.9373     8.9174     9.2543    90.2437     7.9118    -0.0101     2.4355     0.1451
  448.5000   -48.7138    10.7184     8.9015     9.2360    90.4349     7.9064    -0.0018     2.4373     0.1410
  449.0000   -48.7828    10.5391     8.8875     9.2200    90.4155     7.9076    -0.0071     2.4364     0.1461
  449.5000   -48.4601    10.8328     8.8734     9.2039    90.4245     7.9081    -0.0200     2.4221     0.1516
  450.0000   -48.1831    11.1429     8.8593     9.1880    90.4316     7.9074    -0.0251     2.4127     0.1547
  450.5000   -47.9275    11.1429     8.8454     9.1719    91.0347     7.9077    -0.0150     2.4241     0.1505
  451.0000   -47.6228    11.1429     8.8315     9.1559    91.8100     7.9077    -0.0072     2.4341     0.1469
  451.5000   -48.2044    11.1429     8.8177     9.1399    92.5848     7.9076     0.0011     2.4413     0.1434
  452.0000   -48.9159    11.4781     8.8039     9.1238    93.3643     7.9076     0.0072     2.4436     0.1394
  452.5000   -49.5773    11.7812     8.7901     9.1076    94.0780     7.9076     0.0075     2.4496     0.1362
  453.0000   -49.5915    11.1968     8.7763     9.0914    94.9242     7.9076     0.0134     2.4530     0.1327
  453.5000   -49.6059    10.5391     8.7625     9.0832    95.6530     7.9076     0.0197     2.4573     0.1294
  454.0000   -49.5984    10.6467     8.7305     9.0832    96.4256     7.9076     0.0205     2.4652     0.1263
  454.5000   -49.6050    10.9379     8.6622     9.0343    96.2623     7.9076     0.0112     2.4594     0.1276
  455.0000   -49.5874    10.8287     8.5944     8.9818    96.0805     7.9077     0.0022     2.4530     0.1323
  455.5000   -49.5918    10.5266     8.5271     8.9292    95.8635     7.9076    -0.0004     2.4477     0.1378
  456.0000   -48.8142    10.1549     8.4604     8.8769    95.6364     7.9075     0.0031     2.4482     0.1369
  456.5000   -48.1328    10.1959     8.3942     8.8247    95.4660     7.9049     0.0069     2.4493     0.1357
  457.0000   -47.7532    10.2648     8.3286     8.7720    95.3350     7.9023     0.0114     2.4505     0.1346
  457.5000   -47.6113    10.3452     8.2637     8.7263    96.5379     7.8997     0.0165     2.4515     0.1337
