~VERSION INFORMATION
 VERS.                2.0:   CWLS LOG ASCII STANDARD - VERSION 2.0
 WRAP.                 NO:   ONE LINE PER DEPTH STEP
~WELL INFORMATION
#MNEM.UNIT      DATA TYPE    INFORMATION
#----------   ------------   ------------------------------
 STRT.F            8.0000:   START DEPTH
 STOP.F          473.0000:   STOP DEPTH
 STEP.F            0.5000:   STEP LENGTH
 NULL.          -999.2500:   NO VALUE
 COMP.   LAWRENCE-ALLISON:   COMPANY
 WELL. NPR 3 #58-55SX3OB1:   WELL
 FLD .             TEAPOT:   FIELD
 LOC .       S3 T38N R78W:   LOCATION
 CNTY.            NATRONA:   COUNTY
 STAT.            WYOMING:   STATE
 CTRY. UNITED STATES OF AMERICA:   COUNTRY
 SRVC.      Dresser Atlas:   SERVICE COMPANY
 DATE.        17-DEC-1984:   LOGDATE
 API .       490251100600:   API NUMBER
~CURVE INFORMATION
#MNEM.UNIT       API CODE    CURVE DESCRIPTION
#----------   ------------   ------------------------------
 DEPT.F                  :   
 AC  .US/F   60 520 00 00:   ACCOUSTIC
 PORD.DEC    45 890 12 00:   POROSITY DENSITY SANDSTONE
 CNC .DEC    42 890 03 00:   NEUTRON POROSITY SANDSTONE
 CALD.IN     45 280 60 00:   CALIPER FROM DENSITY
 GRD .GAPI   45 310 01 00:   GAMMA RAY FROM DENSITY LOG
 CORR.G/C3   45 356 01 00:   DENSITY CORRECTION
 DEN .G/C3   45 350 01 00:   COMPENSATED BULK DENSTIY
~PARAMETER INFORMATION
#MNEM.UNIT          VALUE    DESCRIPTION
#----------   ------------   ------------------------------
 PD  .                 GL:   PERMANENT DATUM
 EPD .F              5194:   ELEVATION PERMANENT DATUM
 LMF .                 GL:   LOG MEASURED FROM
 DMF .                 GL:   DRILLING MEASURED FROM
 EGL .F              5194:   GROUND LEVEL
 DATE.        17-DEC-1984:   RUN DATE
 RUN .                  1:   RUN NUMBER
 DD  .F               480:   DEPTH DRILLER
 DL  .F               475:   DEPTH LOGGER
 BLI .F               473:   BOTTOM LOG INTERVAL
 TLI .F                20:   TOP LOG INTERVAL
 CS  .IN            8.625:   CASING SIZE
 CBD .F                20:   CASING BOTTOM DRILLER
 CBL .F                20:   CASING BOTTOM LOGGER
 BS  .IN             6.25:   BIT SIZE
 BSD .F               480:   BIT SIZE AT DEPTH
 DFT .          KCL WATER:   DRILLING FLUID TYPE
 MSS .           FLOWLINE:   MUD SAMPLE SOURCE
 RMS .OHMM          0.134:   RESISTIVITY MUD SAMPLE
 MST .F                72:   MUD SAMPLE TEMPERATURE
 RMF .OHMM           0.10:   RESISTIVITY MUD FILTRATE SAMPLE
 MFST.F                72:   MUD FILTRATE SAMPLE TEMPERATURE
 RMC .OHMM           0.17:   RESISTIVITY MUD CAKE
 MCST.F                72:   MUD CAKE SAMPLE TEMPERATURE
 MFSS.               CALC:   MUD FILTRATE SAMPLE SOURCE
 MCSS.               CALC:   MUD CAKE SAMPLE SOURCE
 TCS .HRS               2:   TIME CURCULATED STOPPED
 MRT .F               100:   MAXIMUM RECORDED TEMPERATURE
 LUN .               6270:   LOGGING UNIT NUMBER
 ENGI.            LEBSOCK:   RECORDING ENGINEER
 WITN.          DAN LUERS:   WITNESSED BY
 CLNT.            A2DTECH:   CLIENT CODE
 ORIG.           5" PRINT:   ORIGIN OF DATA
 UWI .       490251100600:   UNIQUE WELL ID
 DICO. A2D Technologies, Inc.:   DIGITIZING COMPANY
~OTHER INFORMATION
~A    DEPT      AC       PORD        CNC       CALD        GRD       CORR        DEN   
    8.0000  -999.2500  -999.2500  -999.2500  -999.2500  -999.2500  -999.2500  -999.2500
    8.5000  -999.2500  -999.2500  -999.2500  -999.2500    78.9627  -999.2500  -999.2500
    9.0000  -999.2500  -999.2500  -999.2500  -999.2500    78.9571  -999.2500  -999.2500
    9.5000  -999.2500  -999.2500  -999.2500  -999.2500    78.9526  -999.2500  -999.2500
   10.0000  -999.2500  -999.2500  -999.2500  -999.2500    78.9481  -999.2500  -999.2500
   10.5000  -999.2500  -999.2500  -999.2500  -999.2500    78.9436  -999.2500  -999.2500
   11.0000  -999.2500  -999.2500  -999.2500  -999.2500    78.9391  -999.2500  -999.2500
   11.5000  -999.2500  -999.2500  -999.2500  -999.2500    78.9347  -999.2500  -999.2500
   12.0000  -999.2500  -999.2500  -999.2500  -999.2500    78.9302  -999.2500  -999.2500
   12.5000  -999.2500  -999.2500  -999.2500  -999.2500    78.9257  -999.2500  -999.2500
   13.0000  -999.2500  -999.2500  -999.2500  -999.2500    78.9212  -999.2500  -999.2500
   13.5000  -999.2500  -999.2500  -999.2500  -999.2500    79.5173  -999.2500  -999.2500
   14.0000  -999.2500  -999.2500  -999.2500  -999.2500    83.1164  -999.2500  -999.2500
   14.5000  -999.2500  -999.2500     0.3308  -999.2500    85.3642  -999.2500  -999.2500
   15.0000  -999.2500  -999.2500     0.3315  -999.2500    83.8582  -999.2500  -999.2500
   15.5000  -999.2500  -999.2500     0.3267  -999.2500    81.7516  -999.2500  -999.2500
   16.0000  -999.2500  -999.2500     0.3234  -999.2500    80.0955  -999.2500  -999.2500
   16.5000  -999.2500  -999.2500     0.3309  -999.2500    79.4904  -999.2500  -999.2500
   17.0000  -999.2500  -999.2500     0.3428  -999.2500    79.4859  -999.2500  -999.2500
   17.5000  -999.2500  -999.2500     0.3437  -999.2500    79.9318  -999.2500  -999.2500
   18.0000  -999.2500  -999.2500     0.3383  -999.2500    83.0805  -999.2500  -999.2500
   18.5000   239.3273  -999.2500     0.3404  -999.2500    88.8595  -999.2500  -999.2500
   19.0000   239.6227  -999.2500     0.3409  -999.2500    95.4986  -999.2500  -999.2500
   19.5000   235.6427  -999.2500     0.3420  -999.2500   102.1378  -999.2500  -999.2500
   20.0000   226.5667  -999.2500     0.3592     6.2744   109.4886  -999.2500  -999.2500
   20.5000   216.9928     0.1868     0.3644     6.2294   113.6883     0.1002     2.3774
   21.0000   208.4372     0.1656     0.3468     6.1994   114.7349     0.0516     2.4141
   21.5000   201.2109     0.1328     0.3101     6.1844   114.5802     0.0413     2.4479
   22.0000   200.0055     0.1273     0.3049     6.1844   114.5757     0.0683     2.4682
   22.5000   199.9995     0.1307     0.3161     6.1844   113.9706     0.0712     2.4629
   23.0000   197.6471     0.1267     0.3198     6.1994   108.8611     0.0681     2.4621
   23.5000   193.0050     0.1200     0.3213     6.1994   103.0007     0.0454     2.4779
   24.0000   188.3628     0.1132     0.3186     6.2019    99.2425     0.0303     2.4892
   24.5000   190.0060     0.1108     0.3126     6.2144   101.9407     0.0377     2.4936
   25.0000   193.7547     0.1103     0.3066     6.2144   103.4377     0.0542     2.4936
   25.5000   198.5387     0.1118     0.2960     6.2144   104.6344     0.0647     2.4928
   26.0000   201.4578     0.1142     0.2937     6.2144   105.8311     0.0570     2.4890
   26.5000   200.9255     0.1139     0.3009     6.2144   106.8777     0.0449     2.4890
   27.0000   197.7711     0.1115     0.3109     6.2294   107.4738     0.0343     2.4927
   27.5000   196.5657     0.1109     0.3125     6.2193   108.2200     0.0432     2.4949
   28.0000   202.4818     0.1128     0.3098     6.2191   106.7141     0.0431     2.4918
   28.5000   212.0870     0.1152     0.3092     6.2190   103.2561     0.0310     2.4866
   29.0000   227.2834     0.1155     0.3107     6.2039   100.5489     0.0249     2.4922
   29.5000   229.9010     0.1098     0.3098     6.1738    99.7937     0.0429     2.5076
   30.0000   228.6207     0.0987     0.3002     6.1736   100.6901     0.0669     2.5196
   30.5000   228.4648     0.0960     0.2939     6.1735   104.5895     0.0758     2.5105
   31.0000   232.8066     0.1090     0.2927     6.1733   105.7873     0.0364     2.4924
   31.5000   239.3973     0.1150     0.2906     6.1882   105.0310     0.0302     2.4856
   32.0000   240.0000     0.1177     0.2849     6.1880    97.9694     0.0198     2.4908
   32.5000   240.0000     0.1042     0.2777     6.2028    93.0100     0.0092     2.5103
   33.0000   240.0000     0.0924     0.2701     6.2027    91.9556     0.0016     2.5322
   33.5000   238.9235     0.0873     0.2653     6.2175    97.9560     0.0090     2.5283
   34.0000   219.2775     0.0943     0.2635     6.2174   104.7082     0.0240     2.5042
   34.5000   195.2834     0.1145     0.2672     6.2172   105.7559     0.0239     2.4741
   35.0000   187.5557     0.1266     0.2745     6.2171   105.1497     0.0163     2.4612
   35.5000   182.2274     0.1293     0.2818     6.2169   104.8460     0.0282     2.4611
   36.0000   161.3073     0.1285     0.2891     6.2318   106.7924     0.0432     2.4619
   36.5000   134.0355     0.1276     0.3075     6.2316   108.1404     0.0461     2.4619
   37.0000   112.5697     0.1300     0.3190     6.2314   104.9816     0.0355     2.4570
   37.5000   110.5397     0.1342     0.3154     6.2313   104.2264     0.0294     2.4496
   38.0000   110.5337     0.1388     0.3009     6.2311   106.7744     0.0323     2.4407
   38.5000   110.3778     0.1430     0.2913     6.2310   107.9711     0.0427     2.4399
   39.0000   110.2219     0.1436     0.2904     6.2159   108.7174     0.0291     2.4406
   39.5000   109.9160     0.1397     0.2910     6.2157   109.3135     0.0170     2.4511
   40.0000   110.3598     0.1295     0.2938     6.2156   110.2099     0.0334     2.4616
   40.5000   112.0780     0.1253     0.2972     6.2154   110.0553     0.0501     2.4676
   41.0000   113.3463     0.1256     0.3002     6.2153   108.5493     0.0462     2.4683
   41.5000   114.4648     0.1277     0.3014     6.2151   107.4937     0.0157     2.4637
   42.0000   114.8336     0.1296     0.2972     6.2150   107.3402     0.0044     2.4630
   42.5000   114.0780     0.1302     0.3060     6.2148   108.0865     0.0104     2.4644
   43.0000   113.4723     0.1293     0.3168     6.2296   106.1289     0.0389     2.4644
   43.5000   112.7166     0.1284     0.3220     6.2295   104.4728     0.0283     2.4651
   44.0000   111.6612     0.1257     0.3079     6.2293   103.8677     0.0222     2.4756
   44.5000   110.7556     0.1152     0.3027     6.2292   106.8662     0.0266     2.4884
   45.0000   109.7751     0.1140     0.3058     6.2290   110.4653     0.0325     2.4891
   45.5000   109.4693     0.1228     0.3094     6.2289   112.2626     0.0340     2.4705
   46.0000   109.9880     0.1318     0.3055     6.2287   112.1080     0.0143     2.4609
   46.5000   110.7316     0.1309     0.2962     6.2286   108.1996    -0.0009     2.4604
   47.0000   111.1004     0.1301     0.2932     6.2434   107.2823     0.0051     2.4611
   47.5000   111.3193     0.1298     0.2944     6.2432   110.7432     0.0095     2.4610
   48.0000   111.3133     0.1280     0.2975     6.2581   115.0930     0.0199     2.4640
   48.5000   111.3073     0.1250     0.3057     6.2579   115.5871     0.0515     2.4707
   49.0000   111.3013     0.1223     0.3202     6.2578   111.0300     0.0604     2.4790
   49.5000   111.2953     0.1190     0.3232     6.2726   110.4169     0.0558     2.4842
   50.0000   111.2894     0.1174     0.3187     6.2725   112.8228     0.0452     2.4865
   50.5000   111.2192     0.1163     0.3088     6.2719   112.6692     0.0337     2.4849
   51.0000   111.1490     0.1172     0.3020     6.2713   112.3659     0.0270     2.4818
   51.5000   111.0410     0.1181     0.2967     6.2706   112.2128     0.0193     2.4811
   52.0000   110.7337     0.1184     0.2839     6.2701   111.9095     0.0148     2.4863
   52.5000   110.0516     0.1160     0.2807     6.2694   109.9546     0.0132     2.4870
   53.0000   109.5194     0.1166     0.2826     6.2538   106.6483     0.0146     2.4817
