~VERSION INFORMATION
 VERS.                2.0:   CWLS LOG ASCII STANDARD - VERSION 2.0
 WRAP.                 NO:   ONE LINE PER DEPTH STEP
~WELL INFORMATION
#MNEM.UNIT      DATA TYPE    INFORMATION
#----------   ------------   ------------------------------
 STRT.F           32.0000:   START DEPTH
 STOP.F         1006.0000:   STOP DEPTH
 STEP.F            0.5000:   STEP LENGTH
 NULL.          -999.2500:   NO VALUE
 COMP. FENIX & SCISSON INC:   COMPANY
 WELL.        NPR-3 #54-2:   WELL
 FLD .             TEAPOT:   FIELD
 LOC .       S2 T38N R78W:   LOCATION
 CNTY.            NATRONA:   COUNTY
 STAT.            WYOMING:   STATE
 CTRY. UNITED STATES OF AMERICA:   COUNTRY
 SRVC.              Welex:   SERVICE COMPANY
 DATE.        08-SEP-1977:   LOGDATE
 API .       490251041600:   API NUMBER
~CURVE INFORMATION
#MNEM.UNIT       API CODE    CURVE DESCRIPTION
#----------   ------------   ------------------------------
 DEPT.F                  :   
 CALD.IN     45 280 60 00:   CALIPER FROM DENSITY LOG
 GRD .GAPI   45 310 01 00:   GAMMA RAY FROM DENSITY LOG
 CORR.G/C3   45 356 01 00:   DENSITY CORRECTION
 DPHI.DEC    45 890 12 00:   DENSITY POROSITY SANDSTONE
 RHOB.G/C3   45 350 01 00:   BULK DENSITY
 SPR .MV     07 010 01 00:   SPONTANEOUS POTENTIAL
 ILD .OHMM   07 120 46 00:   INDUCTION LOG DEEP
 ILM .OHMM   07 120 44 00:   INDUCTION LOG MEDIUM
 SGRD.OHMM   07 221 05 00:   SHALLOW SHORT GUARD RESISTIVITY
~PARAMETER INFORMATION
#MNEM.UNIT          VALUE    DESCRIPTION
#----------   ------------   ------------------------------
 PD  .                 GL:   PERMANENT DATUM
 EPD .F              5160:   ELEVATION PERMANENT DATUM
 LMF .                 KB:   LOG MEASURED FROM
 DAPD.F                10:   FEET ABOVE PERMANENT DATUM
 DMF .                 KB:   DRILLING MEASURED FROM
 EKB .F              5170:   KELLING BUSHING
 EGL .F              5160:   GROUND LEVEL
 DATE.        08-SEP-1977:   RUN DATE
 RUN .                  1:   RUN NUMBER
 DD  .F              1000:   DEPTH DRILLER
 DL  .F              1008:   DEPTH LOGGER
 BLI .F              1006:   BOTTOM LOG INTERVAL
 TLI .F                47:   TOP LOG INTERVAL
 CS  .IN            8.625:   CASING SIZE
 BS  .IN             6.75:   BIT SIZE
 BSD .F              1000:   BIT SIZE AT DEPTH
 DFT .            KCL MUD:   DRILLING FLUID TYPE
 DFD .                9.1:   DRILLING FLUID DENSITY
 BHT .F               100:   BOTTOM HOLE TEMPERATURE
 TCS .HRS            0230:   TIME CURCULATED STOPPED
 MRT .F               100:   MAXIMUM RECORDED TEMPERATURE
 ENGI.          D. LAWSON:   RECORDING ENGINEER
 WITN.         HARRINGTON:   WITNESSED BY
 CLNT.            A2DTECH:   CLIENT CODE
 ORIG.           5" PRINT:   ORIGIN OF DATA
 UWI .       490251041600:   UNIQUE WELL ID
 DICO. A2D Technologies, Inc.:   DIGITIZING COMPANY
~OTHER INFORMATION
~A   DEPT     CALD         GRD       CORR      DPHI         RHOB      SPR        ILD        ILM       SGRD   
# ...
  871.5000     6.7833    66.3153     0.0129     0.1372     2.4369   -36.7480    11.0053    13.7457    15.7289
  872.0000     6.7848    59.4420     0.0130     0.1392     2.4258   -36.9049    10.9362    13.3796    15.7397
  872.5000     6.7862    59.0729     0.0132     0.1404     2.4215   -37.1564    10.9475    13.1137    15.8599
  873.0000     6.7877    61.0436     0.0119     0.1400     2.4231   -37.2925    10.9139    12.8530    15.8709
  873.5000     6.7892    63.1572     0.0106     0.1391     2.4322   -37.2702    10.8156    12.4244    15.8818
  874.0000     6.7907    66.6193     0.0093     0.1379     2.4391   -37.4063    10.7172    12.0935    15.8927
  874.5000     6.7922    67.9888     0.0096     0.1354     2.4415   -37.6830    10.6101    11.9354    15.9036
  875.0000     6.7937    67.1161     0.0098     0.1324     2.4437   -37.8191    10.4007    11.8613    15.8043
  875.5000     6.7952    65.1971     0.0100     0.1297     2.4462   -37.9508    10.2662    11.7876    15.5980
  876.0000     6.7967    67.4634     0.0102     0.1264     2.4463   -38.0824    10.0636    11.7080    15.5011
  876.5000     6.7833    68.5339     0.0104     0.1245     2.4472   -38.2141    10.0004    11.6415    15.2984
  877.0000     6.7848    68.7076     0.0106     0.1230     2.4488   -38.3458     9.9396    11.5692    14.6858
  877.5000     6.8012    68.2833     0.0108     0.1211     2.4505   -38.3235     9.8792    11.5791    14.6959
  878.0000     6.7878    67.1117     0.0095     0.1196     2.4528   -38.4551     9.8209    11.5051    15.0148
  878.5000     6.7893    62.2031     0.0098     0.1172     2.4560   -38.4373     9.8293    11.5150    14.9170
  879.0000     6.7908    63.4231     0.0100     0.1150     2.4583   -38.4195     9.7693    11.5229    14.5165
  879.5000     6.7922    68.6790     0.0102     0.1141     2.4615   -38.4017     9.7776    11.6915    14.4334
  880.0000     6.7937    74.2338     0.0104     0.1135     2.4631   -38.5333     9.7857    11.7807    14.6451
  880.5000     6.7803    76.3446     0.0106     0.1137     2.4617   -39.1134     9.7938    11.8707    14.7571
  881.0000     6.7668    74.4317     0.0108     0.1134     2.4618   -39.5440     9.7343    11.7949    14.8699
  881.5000     6.7683    72.9611     0.0110     0.1127     2.4642   -39.6802     9.7423    11.7216    14.8822
  882.0000     6.7698    71.7894     0.0112     0.1112     2.4673   -40.1063     9.6831    11.5684    14.7897
  882.5000     6.7564    70.3811     0.0115     0.1103     2.4697   -40.2424     9.6912    11.4172    14.7998
  883.0000     6.7579    68.7803     0.0101     0.1111     2.4706   -40.3741     9.6993    11.4270    14.7053
  883.5000     6.7594    67.1649     0.0104     0.1123     2.4625   -40.2023     9.7748    11.8374    14.7179
  884.0000     6.7609    64.6658     0.0091     0.1146     2.4566   -39.8856     9.7829    12.2625    14.6239
  884.5000     6.7625    61.8848     0.0093     0.1188     2.4552   -39.7183     9.7910    12.7911    14.5354
  885.0000     6.7639    61.4649     0.0080     0.1217     2.4479   -39.5510     9.8008    13.1591    14.4426
  885.5000     6.7654    62.2366     0.0082     0.1240     2.4300   -39.5332     9.8088    13.4444    14.5554
  886.0000     6.7669    63.3072     0.0084     0.1296     2.4114   -39.3659     9.8169    13.4645    15.3951
  886.5000     6.7534    64.0787     0.0086     0.1344     2.4146   -39.1986     9.7553    12.6499    16.8570
  887.0000     6.7549    64.8503     0.0088     0.1325     2.4282   -39.1807     9.7653    12.2281    17.1009
  887.5000     6.7564    65.7713     0.0090     0.1274     2.4425   -39.1629     9.7734    12.2365    15.0055
  888.0000     6.7429    66.2439     0.0092     0.1227     2.4494   -39.2946     9.7120    12.1604    14.4046
  888.5000     6.7445    65.3712     0.0094     0.1202     2.4503   -39.4262     9.5864    12.1688    14.3126
  889.0000     6.7309    65.0904     0.0097     0.1199     2.4504   -39.7074     9.4625    12.0097    14.4245
  889.5000     6.7175    69.4555     0.0099     0.1195     2.4520   -39.9885     9.4069    11.9351    14.4344
  890.0000     6.7040    72.4692     0.0101     0.1189     2.4551   -40.1202     9.4147    11.8609    14.4443
  890.5000     6.7056    75.6324     0.0103     0.1180     2.4598   -40.2518     9.3575    11.7059    14.4542
  891.0000     6.6918    71.0228     0.0105     0.1167     2.4621   -40.2332     9.3652    11.5529    14.4642
  891.5000     6.6783    72.5417     0.0107     0.1158     2.4630   -40.3657     9.3729    11.4019    14.4741
  892.0000     6.6802    74.9575     0.0109     0.1161     2.4617   -40.3434     9.3140    11.2529    14.4841
  892.5000     6.6817    74.2343     0.0096     0.1172     2.4528   -40.1761     9.2574    11.1830    14.3940
  893.0000     6.6832    71.7174     0.0098     0.1207     2.4424   -40.1583     9.2670    11.1135    14.3045
  893.5000     6.6847    65.9120     0.0101     0.1258     2.4366   -39.9910     9.2088    11.0444    14.3143
  894.0000     6.6709    65.9871     0.0118     0.1293     2.4337   -39.9732     9.2183    11.0539    14.3242
  894.5000     6.6727    68.6035     0.0135     0.1335     2.4346   -39.8059     9.2259    11.0615    14.3343
  895.0000     6.6294    71.2852     0.0167     0.1322     2.4369   -39.6386     9.2335    11.1459    14.4436
  895.5000     6.5711    75.4787     0.0199     0.1289     2.4386   -39.4713     9.2411    11.3090    14.5541
  896.0000     6.5427    77.3871     0.0216     0.1360     2.4395   -39.1545     9.3130    11.4744    14.5642
  896.5000     6.4994    73.5248     0.0249     0.1390     2.4388   -38.9872     9.3207    11.6423    14.5868
  897.0000     6.4710    70.5595     0.0251     0.1371     2.4367   -38.6704     9.4583    11.7312    14.7014
  897.5000     6.4575    71.0321     0.0268     0.1347     2.4286   -38.2042     9.5981    11.9028    14.9008
  898.0000     6.4437    72.1026     0.0300     0.1382     2.4190   -37.5885     9.7399    12.0770    15.1997
  898.5000     6.4302    73.3226     0.0317     0.1490     2.4094   -37.0080    10.2798    12.3388    15.5719
  899.0000     6.4321    76.4858     0.0334     0.1576     2.3990   -36.1938    10.8344    12.5516    15.9442
  899.5000     6.4336    77.7058     0.0337     0.1659     2.3879   -35.3795    11.3889    13.0157    16.3519
  900.0000     6.4351    63.5314     0.0339     0.1706     2.3723   -34.6757    11.9435    14.8916    17.2940
  900.5000     6.4368    55.1774     0.0322     0.1727     2.3777   -33.9105    12.4981    16.7674    18.2903
  901.0000     6.4388    60.4369     0.0301     0.1691     2.3838   -33.2949    13.0847    18.6433    19.3441
  901.5000     6.4408    62.8509     0.0252     0.1669     2.3870   -32.9781    13.7855    20.5191    20.6008
  902.0000     6.4431    60.4815     0.0223     0.1693     2.3834   -32.6614    14.9455    22.4755    21.7877
  902.5000     6.4296    59.7509     0.0194     0.1759     2.3760   -32.1952    16.1056    23.7695    24.3556
  903.0000     6.4320    62.4693     0.0165     0.1753     2.3709   -32.0280    17.4217    24.1156    24.8844
  903.5000     6.4339    65.9296     0.0151     0.1702     2.3808   -31.8608    19.6087    23.4717    22.5970
  904.0000     6.4356    66.9982     0.0152     0.1679     2.3779   -31.8430    20.7376    22.6875    24.2641
  904.5000     6.4378    63.4330     0.0139     0.1738     2.3668   -31.8252    21.6300    21.9255    25.2758
  905.0000     6.4398    61.5121     0.0140     0.1764     2.3767   -31.8075    21.6433    21.4825    22.1766
  905.5000     6.4417    63.7766     0.0142     0.1761     2.3806   -31.4908    20.6326    21.3571    21.2839
  906.0000     6.4436    65.2936     0.0157     0.1742     2.3740   -31.4715    19.8057    21.6907    23.3068
  906.5000     6.4456    62.9243     0.0174     0.1685     2.3861   -31.1563    19.4077    22.1369    23.8070
  907.0000     6.4625    61.5957     0.0190     0.1613     2.3968   -30.9891    18.8924    21.5486    20.6007
  907.5000     6.4644    64.0152     0.0208     0.1541     2.4036   -30.8218    18.3879    20.5423    18.9667
