~VERSION INFORMATION
 VERS.                2.0:   CWLS LOG ASCII STANDARD - VERSION 2.0
 WRAP.                 NO:   ONE LINE PER DEPTH STEP
~WELL INFORMATION
#MNEM.UNIT      DATA TYPE    INFORMATION
#----------   ------------   ------------------------------
 STRT.F            1.0000:   START DEPTH
 STOP.F          755.5000:   STOP DEPTH
 STEP.F            0.5000:   STEP LENGTH
 NULL.          -999.2500:   NO VALUE
 COMP. FENIX & SCISSON INC:   COMPANY
 WELL.       25-SX #25-14:   WELL
 FLD .        TEAPOT DOME:   FIELD
 LOC .      S14 T38N R78W:   LOCATION
 CNTY.            NATRONA:   COUNTY
 STAT.            WYOMING:   STATE
 CTRY. UNITED STATES OF AMERICA:   COUNTRY
 SRVC.           BIRDWELL:   SERVICE COMPANY
 DATE.        29-DEC-1978:   LOGDATE
 API .       490251076000:   API NUMBER
~CURVE INFORMATION
#MNEM.UNIT       API CODE    CURVE DESCRIPTION
#----------   ------------   ------------------------------
 DEPT.F                  :   
 SPR .MV     05 010 01 00:   SPONTANEOUS POTENTIAL FROM RES.
 SN  .OHMM   05 040 16 00:   SHORT NORMAL 16"
 IL  .OHMM   05 120 00 00:   INDUCTION LOG
 CALD.IN     45 280 60 00:   CALIPER
 GRD .GAPI   45 310 01 00:   GAMMA RAY FROM DENSITY LOG
 CORR.G/C3   45 356 01 00:   DENSITY CORRECTION
 DPHI.DEC    45 890 12 00:   DENSITY POROSITY SANDSTONE
 RHOB.G/C3   45 350 01 00:   BULK DENSITY
~PARAMETER INFORMATION
#MNEM.UNIT          VALUE    DESCRIPTION
#----------   ------------   ------------------------------
 PD  .                 GL:   PERMANENT DATUM
 EPD .F              5214:   ELEVATION PERMANENT DATUM
 LMF .                 KB:   LOG MEASURED FROM
 DAPD.F                 4:   FEET ABOVE PERMANENT DATUM
 DMF .                 KB:   DRILLING MEASURED FROM
 EKB .F              5218:   KELLING BUSHING
 EGL .F              5214:   GROUND LEVEL
 DATE.           12-29-79:   RUN DATE
 RUN .                  1:   RUN NUMBER
 DD  .F               765:   DEPTH DRILLER
 DL  .F               747:   DEPTH LOGGER
 BLI .F               740:   BOTTOM LOG INTERVAL
 TLI .F                40:   TOP LOG INTERVAL
 CS  .IN            8.625:   CASING SIZE
 CBD .F                40:   CASING BOTTOM DRILLER
 CBL .F                40:   CASING BOTTOM LOGGER
 BS  .IN            7.875:   BIT SIZE
 BSD .F               765:   BIT SIZE AT DEPTH
 DFT .                KCL:   DRILLING FLUID TYPE
 DFD .                8.8:   DRILLING FLUID DENSITY
 DFV .                 48:   DRILLING FLUID VISCOSITY
 DFPH.                9.2:   DRILLING FLUID PH
 MSS .           FLOWLINE:   MUD SAMPLE SOURCE
 RMS .OHMM            .17:   RESISTIVITY MUD SAMPLE
 MST .F                56:   MUD SAMPLE TEMPERATURE
 RMF .OHMM            .15:   RESISTIVITY MUD FILTRATE SAMPLE
 MFST.F                56:   MUD FILTRATE SAMPLE TEMPERATURE
 RMC .OHMM            .23:   RESISTIVITY MUD CAKE
 MCST.F                64:   MUD CAKE SAMPLE TEMPERATURE
 MFSS.           MEASURED:   MUD FILTRATE SAMPLE SOURCE
 MCSS.           MEASURED:   MUD CAKE SAMPLE SOURCE
 RMB .OHMM            .16:   RESISTIVITY MUD AT BHT
 BHT .F                59:   BOTTOM HOLE TEMPERATURE
 TCS .HRS              12:   TIME CURCULATED STOPPED
 MRT .F                59:   MAXIMUM RECORDED TEMPERATURE
 LUN .               2958:   LOGGING UNIT NUMBER
 LUL .             CASPER:   LOGGING UNIT LOCATION
 ENGI.            ROLLINS:   RECORDING ENGINEER
 WITN.         RICHARDSON:   WITNESSED BY
 CLNT.            A2DTECH:   CLIENT CODE
 ORIG.           5" PRINT:   ORIGIN OF DATA
 UWI .       490251076000:   UNIQUE WELL ID
 DICO. A2D Technologies, Inc.:   DIGITIZING COMPANY
~OTHER INFORMATION
~A    DEPT     SPR         SN         IL       CALD         GRD      CORR       DPHI       RHOB   
# ...
  325.0000   -62.2240     6.2200     5.1530     7.5270   123.3680     0.0480     0.1300     2.4630
  325.5000   -62.2240     6.2670     5.2100     7.5280   122.1730     0.0480     0.1280     2.4630
  326.0000   -62.2240     6.3130     5.2350     7.5300   118.5620     0.0480     0.1260     2.4690
  326.5000   -62.2240     6.3100     5.2380     7.5310   112.8410     0.0490     0.1230     2.4750
  327.0000   -62.2240     6.3060     5.2410     7.5330   109.6780     0.0490     0.1240     2.4780
  327.5000   -62.2240     6.3030     5.2450     7.5340   108.6040     0.0500     0.1230     2.4800
  328.0000   -62.2240     6.2990     5.2480     7.5360   108.3270     0.0500     0.1230     2.4800
  328.5000   -62.2240     6.2950     5.2520     7.5370   108.4570     0.0510     0.1220     2.4790
  329.0000   -62.2240     6.2920     5.2550     7.5280   109.1570     0.0510     0.1210     2.4760
  329.5000   -62.2240     6.2880     5.2580     7.5190   110.4640     0.0480     0.1200     2.4730
  330.0000   -62.2240     6.2850     5.2620     7.5280   110.6100     0.0450     0.1190     2.4750
  330.5000   -62.2240     6.2810     5.2650     7.5440   110.6730     0.0430     0.1180     2.4790
  331.0000   -62.2240     6.2770     5.2680     7.5600   111.6450     0.0400     0.1170     2.4800
  331.5000   -62.2240     6.2740     5.2720     7.5770   113.9820     0.0380     0.1160     2.4780
  332.0000   -62.2240     6.2700     5.2750     7.5760   116.2320     0.0350     0.1150     2.4760
  332.5000   -62.2240     6.2670     5.2890     7.5750   118.0300     0.0330     0.1140     2.4780
  333.0000   -62.2240     6.2630     5.3310     7.5740   119.4060     0.0330     0.1160     2.4810
  333.5000   -62.2240     6.2600     5.3720     7.5730   119.9020     0.0330     0.1200     2.4830
  334.0000   -62.2240     6.2600     5.4130     7.5720   120.1210     0.0360     0.1240     2.4800
  334.5000   -62.2240     6.2600     5.4550     7.5710   120.2560     0.0380     0.1270     2.4730
  335.0000   -62.2240     6.2600     5.5080     7.5690   120.3650     0.0400     0.1280     2.4650
  335.5000   -62.2240     6.2600     5.4790     7.5680   120.1400     0.0430     0.1250     2.4630
  336.0000   -62.2240     6.2540     5.4400     7.5670   119.2120     0.0450     0.1220     2.4670
  336.5000   -62.2240     6.2120     5.4000     7.5660   118.5610     0.0470     0.1190     2.4740
  337.0000   -62.2240     6.1700     5.3610     7.5650   119.0670     0.0470     0.1150     2.4790
  337.5000   -62.2250     6.1290     5.3210     7.5640   119.5490     0.0470     0.1140     2.4820
  338.0000   -62.2250     6.1010     5.2820     7.5620   118.3090     0.0470     0.1130     2.4870
  338.5000   -62.2250     6.1000     5.2420     7.5610   116.1200     0.0470     0.1120     2.4920
  339.0000   -62.2460     6.0990     5.2300     7.5600   115.6060     0.0470     0.1130     2.4970
  339.5000   -62.2830     6.0980     5.2270     7.5590   115.6270     0.0470     0.1140     2.4930
  340.0000   -62.3200     6.0970     5.2230     7.5580   115.6650     0.0450     0.1150     2.4810
  340.5000   -62.3580     6.0970     5.2200     7.5430   115.7010     0.0440     0.1160     2.4820
  341.0000   -62.3980     6.0960     5.2170     7.5230   115.7280     0.0420     0.1160     2.4840
  341.5000   -62.5020     6.0950     5.2130     7.5020   116.4880     0.0400     0.1160     2.4820
  342.0000   -62.9070     6.0940     5.2100     7.5020   116.8590     0.0390     0.1160     2.4800
  342.5000   -63.3070     6.0930     5.2070     7.5090   116.5930     0.0380     0.1160     2.4800
  343.0000   -63.6380     6.0920     5.2030     7.5160   115.3870     0.0360     0.1160     2.4810
  343.5000   -63.6370     6.0910     5.2000     7.5240   112.5210     0.0350     0.1150     2.4830
  344.0000   -63.6440     6.0900     5.1970     7.5310   110.6100     0.0350     0.1150     2.4850
  344.5000   -63.6520     6.0890     5.1930     7.5370   112.7350     0.0360     0.1150     2.4870
  345.0000   -63.6600     6.0880     5.1900     7.5370   114.7310     0.0360     0.1150     2.4850
  345.5000   -63.6680     6.0870     5.1770     7.5360   114.8610     0.0370     0.1140     2.4810
  346.0000   -63.6760     6.0860     5.1530     7.5350   115.0310     0.0370     0.1130     2.4820
  346.5000   -63.6840     6.0850     5.1290     7.5350   116.6760     0.0350     0.1120     2.4850
  347.0000   -63.6920     6.0840     5.1040     7.5340   118.3420     0.0340     0.1120     2.4880
  347.5000   -63.6990     6.0840     5.0800     7.5340   118.3200     0.0330     0.1110     2.4930
  348.0000   -63.7070     6.0830     5.0560     7.5330   117.9390     0.0310     0.1100     2.4980
  348.5000   -63.7150     6.0820     5.0310     7.5330   117.9040     0.0300     0.1100     2.5030
  349.0000   -63.7230     6.0810     5.0140     7.5320   117.8580     0.0290     0.1100     2.5020
  349.5000   -63.7310     6.0800     5.0140     7.5320   117.8090     0.0270     0.1100     2.4990
  350.0000   -63.7390     6.0790     5.0140     7.5310   117.8440     0.0270     0.1110     2.4950
  350.5000   -63.7460     6.0780     5.0140     7.5300   119.3340     0.0270     0.1110     2.4900
  351.0000   -63.7540     6.0770     5.0140     7.5300   122.0320     0.0310     0.1120     2.4850
  351.5000   -63.7620     6.0760     5.0140     7.5290   123.7050     0.0350     0.1130     2.4810
  352.0000   -63.7700     6.0750     5.0140     7.5290   124.9340     0.0370     0.1140     2.4760
  352.5000   -63.7780     6.0740     5.0140     7.5280   124.9890     0.0400     0.1150     2.4740
  353.0000   -63.7860     6.0730     5.0140     7.5280   124.5910     0.0420     0.1160     2.4780
  353.5000   -63.7930     6.0720     5.0150     7.5270   123.0890     0.0440     0.1170     2.4810
  354.0000   -63.8010     6.0710     5.0140     7.5260   121.6410     0.0470     0.1210     2.4850
  354.5000   -63.8090     6.0710     5.0620     7.5260   120.3790     0.0450     0.1260     2.4820
  355.0000   -63.8170     6.0700     5.1000     7.5250   120.2860     0.0470     0.1290     2.4750
  355.5000   -63.8250     6.0690     5.1380     7.5250   120.1990     0.0500     0.1320     2.4660
  356.0000   -63.8330     6.0680     5.1750     7.5240   120.3470     0.0530     0.1330     2.4580
  356.5000   -63.8400     6.0670     5.2130     7.5240   120.5570     0.0530     0.1290     2.4560
  357.0000   -63.8480     6.0660     5.2330     7.5230   120.7800     0.0530     0.1260     2.4620
  357.5000   -63.8560     6.0650     5.2330     7.5230   121.4310     0.0510     0.1220     2.4700
  358.0000   -63.8640     6.0640     5.2330     7.5220   121.6000     0.0470     0.1180     2.4760
  358.5000   -63.8720     6.0630     5.2330     7.5210   119.9380     0.0440     0.1140     2.4810
  359.0000   -63.8790     6.0620     5.2330     7.5210   116.0980     0.0410     0.1110     2.4820
  359.5000   -63.8870     6.0610     5.2330     7.5200   112.7480     0.0390     0.1100     2.4830
  360.0000   -63.8950     6.0600     5.2330     7.5200   111.1250     0.0410     0.1090     2.4860
  360.5000   -63.9030     6.0590     5.2330     7.5190   113.9820     0.0460     0.1080     2.4880
  361.0000   -63.9110     6.0590     5.2330     7.5190   113.8390     0.0510     0.1080     2.4890
  361.5000   -63.9190     6.0580     5.2320     7.5180   113.8200     0.0510     0.1080     2.4930
  362.0000   -63.9260     6.0570     5.2330     7.5170   113.8530     0.0490     0.1070     2.4970
  362.5000   -63.9340     6.0560     5.2180     7.5140   113.8970     0.0460     0.1070     2.5010
  363.0000   -63.9420     6.0550     5.1850     7.5050   113.9360     0.0430     0.1080     2.5050
  363.5000   -63.9500     6.0540     5.1520     7.4980   114.1030     0.0430     0.1130     2.5020
  364.0000   -63.9580     6.0530     5.1190     7.5100   112.8960     0.0430     0.1170     2.4920
  364.5000   -63.9660     6.0520     5.0860     7.5220   112.1430     0.0430     0.1200     2.4830
  365.0000   -63.9730     6.0510     5.0520     7.5350   112.1440     0.0440     0.1230     2.4780
