~VERSION INFORMATION
 VERS.                2.0:   CWLS LOG ASCII STANDARD - VERSION 2.0
 WRAP.                 NO:   ONE LINE PER DEPTH STEP
~WELL INFORMATION
#MNEM.UNIT      DATA TYPE    INFORMATION
#----------   ------------   ------------------------------
 STRT.F           93.0000:   START DEPTH
 STOP.F         1921.0000:   STOP DEPTH
 STEP.F            0.5000:   STEP LENGTH
 NULL.          -999.2500:   NO VALUE
 COMP. LAWRENCE-ALLISON &AS:   COMPANY
 WELL.  NPR 3 #15-1SHX2/T:   WELL
 FLD .             NPR #3:   :   FIELD
 LOC .       S2 T38N R78W:   LOCATION
 CNTY.            NATRONA:   COUNTY
 STAT.            WYOMING:   STATE
 CTRY. UNITED STATES OF AMERICA:   COUNTRY
 SRVC.       Schlumberger:   SERVICE COMPANY
 DATE.        10-JUN-1982:   LOGDATE
 API .       490251077600:   API NUMBER
~CURVE INFORMATION
#MNEM.UNIT       API CODE    CURVE DESCRIPTION
#----------   ------------   ------------------------------
 DEPT.F                  :   
 GR  .GAPI   70 310 01 00:   GAMMA RAY
 CALI.IN     70 280 01 00:   CALIPER
~PARAMETER INFORMATION
#MNEM.UNIT          VALUE    DESCRIPTION
#----------   ------------   ------------------------------
 PD  .                 GL:   PERMANENT DATUM
 EPD .F              5116:   ELEVATION PERMANENT DATUM
 LMF .                 KB:   LOG MEASURED FROM
 DAPD.F                10:   FEET ABOVE PERMANENT DATUM
 DMF .                 KB:   DRILLING MEASURED FROM
 EKB .F              5126:   KELLING BUSHING
 EGL .F              5116:   GROUND LEVEL
 DATE.        10-JUN-1982:   RUN DATE
 RUN .                  1:   RUN NUMBER
 DD  .F              2100:   DEPTH DRILLER
 DL  .F              1924:   DEPTH LOGGER
 BLI .F              1921:   BOTTOM LOG INTERVAL
 TLI .F               100:   TOP LOG INTERVAL
 CS  .IN            10.75:   CASING SIZE
 BS  .IN             8.75:   BIT SIZE
 BSD .F              2100:   BIT SIZE AT DEPTH
 DFT .                AIR:   DRILLING FLUID TYPE
 ENGI.        C. MARRINER:   RECORDING ENGINEER
 WITN.             SCOTTY:   WITNESSED BY
 CLNT.            A2DTECH:   CLIENT CODE
 ORIG.           5" PRINT:   ORIGIN OF DATA
 UWI .       490251077600:   UNIQUE WELL ID
 DICO. A2D Technologies, Inc.:   DIGITIZING COMPANY
~OTHER INFORMATION
~A   DEPT       GR       CALI   
# ...
  700.5000   131.0293     9.8762
  701.0000   129.9487     9.7939
  701.5000   126.4379     9.7288
  702.0000   122.9272     9.7000
  702.5000   122.5033     9.7158
  703.0000   127.3932     9.7461
  703.5000   131.1726     9.7470
  704.0000   134.5102     9.7479
  704.5000   134.7710     9.7337
  705.0000   131.8778     9.6907
  705.5000   127.3763     9.6448
  706.0000   122.5625     9.5893
  706.5000   122.9272     9.5755
  707.0000   124.4975     9.5766
  707.5000   123.1959     9.5922
  708.0000   122.1152     9.6225
  708.5000   125.8946     9.6528
  709.0000   129.6740     9.6979
  709.5000   132.3488     9.7282
  710.0000   130.3845     9.7585
  710.5000   129.7397     9.7594
  711.0000   130.4323     9.7605
  711.5000   130.4562     9.7758
  712.0000   129.5846     9.7767
  712.5000   125.3865     9.7778
  713.0000   123.6126     9.7786
  713.5000   121.9420     9.7795
  714.0000   121.7391     9.7804
  714.5000   122.6526     9.7812
  715.0000   126.4320     9.8116
  715.5000   130.8741     9.8861
  716.0000   133.5490    10.0637
  716.5000   135.1192    10.5358
  717.0000   136.2477    10.9932
  717.5000   139.8062    11.2600
  718.0000   144.9110    11.4087
  718.5000   143.3885    11.4377
  719.0000   141.4242    11.4535
  719.5000   140.5644    11.4689
  720.0000   142.3858    11.4699
  720.5000   144.1528    11.4855
  721.0000   144.1767    11.5011
  721.5000   144.6424    11.5167
  722.0000   145.3230    11.5323
  722.5000   143.1437    11.5332
  723.0000   140.9585    11.5341
  723.5000   139.2151    11.5054
  724.0000   138.1284    11.4620
  724.5000   139.4837    11.3707
  725.0000   137.2985    11.2086
  725.5000   131.3577    11.1260
  726.0000   127.8470    11.2005
  726.5000   129.2444    11.0249
  727.0000   132.8557    10.9813
  727.5000   133.8833    11.1297
  728.0000   130.3785    11.2189
  728.5000   131.5070    11.2051
  729.0000   133.5191    11.1323
  729.5000   135.3103    11.0890
  730.0000   132.6832    11.1488
  730.5000   128.0679    11.2087
  731.0000   126.5454    11.2831
  731.5000   127.8948    11.2815
  732.0000   130.3487    11.1377
  732.5000   132.3608    11.0500
  733.0000   135.2565    11.0361
  733.5000   139.9352    11.0961
  734.0000   142.6363    11.1706
  734.5000   141.4425    11.1566
  735.0000   138.4508    11.0693
  735.5000   132.7310    11.0112
  736.0000   129.4411    10.9826
  736.5000   128.5754    10.9393
  737.0000   132.3608    10.9106
  737.5000   135.4775    10.8674
  738.0000   138.5941    10.8218
  738.5000   137.5134    10.7810
  739.0000   135.9909    10.7522
  739.5000   135.3211    10.7384
  740.0000   137.5851    10.7098
  740.5000   137.8299    10.6959
  741.0000   137.1910    10.6528
  741.5000   137.2158    10.6979
  742.0000   136.3611    10.8165
  742.5000   132.6295    10.9647
  743.0000   130.8860    10.7446
  743.5000   131.1308    10.8193
  744.0000   132.4802    10.9844
  744.5000   134.4923    11.0271
  745.0000   136.7253    10.8956
  745.5000   139.4002    10.8079
  746.0000   141.8541    10.9415
  746.5000   143.6453    11.0602
  747.0000   141.9018    11.1494
  747.5000   137.5075    11.2239
  748.0000   132.1945    11.2395
  748.5000   130.7069    11.2404
  749.0000   132.0623    11.2265
  749.5000   130.7607    11.1832
  750.0000   129.5438    11.1694
  750.5000   127.7132    11.1423
  751.0000   127.2877    11.1152
  751.5000   127.9777    11.0881
  752.0000   130.6505    11.0610
  752.5000   134.8696    11.0339
  753.0000   138.6469    11.0135
  753.5000   138.8842    11.0146
  754.0000   131.8423    11.0453
  754.5000   128.3284    11.0463
  755.0000   128.1296    11.0473
  755.5000   127.2685    11.0333
  756.0000   125.3021    11.0196
  756.5000   123.1090    10.9767
  757.0000   125.8942    10.9777
  757.5000   129.2120    10.9787
  758.0000   131.2164    10.9797
  758.5000   132.7066    10.9807
  759.0000   134.4957    10.9817
  759.5000   133.4130    10.9680
  760.0000   131.0047    10.9691
  760.5000   130.1429    10.9259
  761.0000   128.6183    10.8974
  761.5000   126.8728    10.8690
  762.0000   125.7900    10.9292
  762.5000   126.9164    10.9744
  763.0000   132.2401    10.9901
  763.5000   136.6802    10.9911
  764.0000   139.1320    10.9921
  764.5000   139.5956    10.9782
  765.0000   139.3965    10.9794
  765.5000   140.7438    10.9804
  766.0000   143.7085    10.9667
  766.5000   146.5312    10.9677
  767.0000   144.9425    10.9540
  767.5000   143.9238    10.9553
  768.0000   143.7247    10.9710
  768.5000   141.9846    10.9868
  769.0000   137.8091    10.9878
  769.5000   132.9708    10.9888
  770.0000   128.1325    10.9751
  770.5000   125.9397    10.8877
  771.0000   129.0598    10.8445
  771.5000   135.2671    10.8308
  772.0000   140.5909    10.8171
  772.5000   139.0663    10.8329
  773.0000   135.5535    10.8639
  773.5000   133.8080    10.9119
  774.0000   137.3643    10.9537
  774.5000   139.3744    10.8519
  775.0000   135.8616    10.7645
  775.5000   129.6162    10.6624
  776.0000   123.6380    10.6485
  776.5000   122.8931    10.6645
  777.0000   129.3268    10.8422
  777.5000   139.0688    11.0200
  778.0000   142.8461    11.1093
  778.5000   140.6588    11.1251
  779.0000   138.2505    11.0966
  779.5000   136.5050    11.0829
  780.0000   137.6314    11.0692
  780.5000   138.3159    11.0702
  781.0000   136.5704    11.0715
  781.5000   131.9531    11.0725
  782.0000   128.8821    11.1030
  782.5000   128.4566    11.1334
  783.0000   131.7976    11.1492
  783.5000   135.7958    11.1796
  784.0000   141.1195    11.1954
  784.5000   143.7923    11.1964
  785.0000   138.3945    11.1974
  785.5000   130.7050    11.1984
  786.0000   128.8356    11.1994
  786.5000   134.8275    11.2004
  787.0000   137.7212    11.2015
  787.5000   135.0920    11.1877
  788.0000   130.9164    11.1890
  788.5000   126.7409    11.1900
  789.0000   127.6464    11.1760
  789.5000   130.7609    11.1773
  790.0000   134.7592    11.1783
  790.5000   138.5365    11.1793
  791.0000   140.5465    11.1951
  791.5000   140.7838    11.1814
  792.0000   139.0437    11.1824
  792.5000   134.4264    11.1687
  793.0000   130.6926    11.1697
  793.5000   130.4875    11.1707
  794.0000   133.3931    11.1570
  794.5000   130.9086    11.1582
  795.0000   128.3210    11.1592
  795.5000   128.1507    11.1603
  796.0000   132.5962    11.1613
  796.5000   134.8271    11.1623
  797.0000   132.8607    11.1633
  797.5000   132.4352    11.1643
  798.0000   134.0089    11.1653
  798.5000   137.7862    11.1663
  799.0000   140.6799    11.1673
  799.5000   141.3644    11.1831
  800.0000   141.6071    11.1838
  800.5000   141.1871    11.1839
  801.0000   139.2207    11.1839
  801.5000   132.4000    11.1839
  802.0000   131.9382    11.1840
  802.5000   132.0404    11.1840
  803.0000   128.0341    11.1840
  803.5000   120.7700    11.1841
  804.0000   120.3441    11.1841
  804.5000   124.1722    11.1841
  805.0000   128.6908    11.1841
  805.5000   134.0363    11.1842
  806.0000   138.4794    11.1842
  806.5000   141.8213    11.1848
  807.0000   143.3769    11.1860
  807.5000   140.0872    11.1724
  808.0000   138.9957    11.1736
  808.5000   144.0883    11.1600
  809.0000   148.0742    11.1465
  809.5000   149.6297    11.1476
  810.0000   140.1635    11.1488
  810.5000   134.6641    11.1500
  811.0000   131.8079    11.1658
  811.5000   134.2535    11.1817
  812.0000   135.5923    11.1976
  812.5000   136.0449    11.2001
  813.0000   131.4317    11.2166
  813.5000   123.5058    11.2454
  814.0000   117.7858    11.2615
  814.5000   115.5611    11.2627
  815.0000   123.1104    11.2638
  815.5000   129.0968    11.2650
  816.0000   135.1004    11.2809
  816.5000   137.9360    11.2821
  817.0000   136.5042    11.2832
  817.5000   133.4340    11.2844
  818.0000   130.2647    11.2855
  818.5000   128.9565    11.2720
  819.0000   130.7365    11.2732
  819.5000   132.0752    11.2743
  820.0000   133.4140    11.2605
  820.5000   133.4293    11.2619
  821.0000   134.1064    11.2631
  821.5000   137.6511    11.2643
