~VERSION INFORMATION
 VERS.                2.0:   CWLS LOG ASCII STANDARD - VERSION 2.0
 WRAP.                 NO:   ONE LINE PER DEPTH STEP
~WELL INFORMATION
#MNEM.UNIT      DATA TYPE    INFORMATION
#----------   ------------   ------------------------------
 STRT.F           33.5000:   START DEPTH
 STOP.F          692.0000:   STOP DEPTH
 STEP.F            0.5000:   STEP LENGTH
 NULL.          -999.2500:   NO VALUE
 COMP. FENIX & SCISSON INC:   COMPANY
 WELL.       NPR-3 #65-34:   WELL
 FLD .  TEAPOT DOME NPR-3:   FIELD
 LOC .      S34 T39N R78W:   LOCATION
 CNTY.            NATRONA:   COUNTY
 STAT.            WYOMING:   STATE
 CTRY. UNITED STATES OF AMERICA:   COUNTRY
 SRVC.           BIRDWELL:   SERVICE COMPANY
 DATE.        14-AUG-1978:   LOGDATE
 API .       490251070400:   API NUMBER
~CURVE INFORMATION
#MNEM.UNIT       API CODE    CURVE DESCRIPTION
#----------   ------------   ------------------------------
 DEPT.F                  :   
 CALD.IN     45 280 60 00:   CALIPER
 GRD .GAPI   45 310 01 00:   GAMMA RAY FROM DENSITY LOG
 RHOB.G/C3   45 350 01 00:   BULK DENSITY
 CORR.G/C3   45 356 01 00:   DENSITY CORRECTION
 DPHI.DEC    45 890 12 00:   DENSITY POROSITY SANDSTONE
 SPR .MV     05 010 01 00:   SPONTANEOUS POTENTIAL
 SN  .OHMM   05 040 16 00:   SHORT NORMAL 16'
 ILD .OHMM   05 120 46 00:   INDUCTION LOG DEEP RESISTIVITY
~PARAMETER INFORMATION
#MNEM.UNIT          VALUE    DESCRIPTION
#----------   ------------   ------------------------------
 PD  .                 GL:   PERMANENT DATUM
 EPD .F              5083:   ELEVATION PERMANENT DATUM
 LMF .                 KB:   LOG MEASURED FROM
 DAPD.F                 4:   FEET ABOVE PERMANENT DATUM
 DMF .                 KB:   DRILLING MEASURED FROM
 EKB .F              5087:   KELLING BUSHING
 EGL .F              5083:   GROUND LEVEL
 DATE.            8-14-78:   RUN DATE
 RUN .                  1:   RUN NUMBER
 DD  .F               675:   DEPTH DRILLER
 DL  .F               682:   DEPTH LOGGER
 BLI .F               676:   BOTTOM LOG INTERVAL
 TLI .F                50:   TOP LOG INTERVAL
 CS  .IN            8.625:   CASING SIZE
 CBD .F                40:   CASING BOTTOM DRILLER
 BS  .IN            7.875:   BIT SIZE
 BSD .F               675:   BIT SIZE AT DEPTH
 DFT .                KCL:   DRILLING FLUID TYPE
 DFD .                8.7:   DRILLING FLUID DENSITY
 DFV .                 31:   DRILLING FLUID VISCOSITY
 DFPH.                  9:   DRILLING FLUID PH
 TCS .HRS               2:   TIME CURCULATED STOPPED
 LUN .               3006:   LOGGING UNIT NUMBER
 LUL .               CASP:   LOGGING UNIT LOCATION
 ENGI.             MILLER:   RECORDING ENGINEER
 WITN.           MCGINLEY:   WITNESSED BY
 CLNT.            A2DTECH:   CLIENT CODE
 ORIG.           5" PRINT:   ORIGIN OF DATA
 UWI .       490251070400:   UNIQUE WELL ID
 DICO. A2D Technologies, Inc.:   DIGITIZING COMPANY
~OTHER INFORMATION
~A   DEPT     CALD         GRD      RHOB       CORR       DPHI        SPR         SN        ILD   
# ...
  276.5000     8.0702    82.9815     2.4867     0.0568     0.1141   -22.4009     6.0506     6.7134
  277.0000     8.0304    82.2197     2.4859     0.0555     0.1197   -22.3892     6.0373     6.5866
  277.5000     7.9905    81.3251     2.4765     0.0471     0.1264   -22.3776     6.0241     6.4338
  278.0000     7.9506    82.2595     2.4660     0.0395     0.1321   -22.3659     6.0109     6.4352
  278.5000     7.9107    83.5646     2.4630     0.0384     0.1247   -22.3542     5.9978     6.4347
  279.0000     7.8735    83.8401     2.4675     0.0371     0.1253   -22.3426     5.9846     6.4348
  279.5000     7.8585    84.0784     2.4685     0.0357     0.1242   -22.3309     5.9715     6.4348
  280.0000     7.8443    84.4837     2.4666     0.0344     0.1252   -22.3192     5.9585     6.4346
  280.5000     7.8301    84.0890     2.4642     0.0330     0.1287   -22.3076     5.9454     6.4548
  281.0000     7.8159    83.3844     2.4618     0.0321     0.1322   -22.2959     5.9324     6.5101
  281.5000     7.8017    83.7609     2.4597     0.0334     0.1308   -22.2842     5.9228     6.5662
  282.0000     7.7874    83.4376     2.4611     0.0347     0.1259   -22.2726     5.9442     6.6226
  282.5000     7.7732    82.3442     2.4693     0.0359     0.1218   -22.2609     5.9620     6.6795
  283.0000     7.7590    82.3512     2.4747     0.0372     0.1223   -22.2492     5.9798     6.7369
  283.5000     7.7447    83.2204     2.4715     0.0384     0.1245   -22.2375     5.9976     6.7948
  284.0000     7.7332    86.2226     2.4686     0.0397     0.1245   -22.2259     6.0155     6.8531
  284.5000     7.7334    83.6522     2.4678     0.0388     0.1262   -22.2142     6.0335     6.8737
  285.0000     7.7381    80.9886     2.4672     0.0374     0.1264   -22.2025     6.0515     6.8859
  285.5000     7.7449    81.3317     2.4660     0.0359     0.1269   -22.1909     6.0695     6.8980
  286.0000     7.7518    84.3998     2.4617     0.0306     0.1309   -22.1792     6.0876     6.9102
  286.5000     7.7587    84.7008     2.4574     0.0248     0.1350   -22.1675     6.1058     6.9225
  287.0000     7.7657    83.7416     2.4531     0.0246     0.1382   -22.1559     6.1240     6.9347
  287.5000     7.7723    81.7410     2.4488     0.0256     0.1397   -22.1442     6.1445     6.9469
  288.0000     7.7959    82.8945     2.4516     0.0293     0.1313   -22.1325     6.1358     6.9592
  288.5000     7.8288    85.5813     2.4681     0.0339     0.1255   -22.1209     6.1252     6.9715
  289.0000     7.8622    83.2942     2.4743     0.0386     0.1253   -22.1092     6.1146     6.9838
  289.5000     7.8955    81.8468     2.4868     0.0433     0.1070   -22.0974     6.1040     6.9914
  290.0000     7.9288    82.2446     2.5034     0.0445     0.1002   -22.0858     6.0935     6.9915
  290.5000     7.9586    82.7204     2.4995     0.0451     0.1107   -22.0795     6.0829     6.9915
  291.0000     7.9780    82.3940     2.4965     0.0457     0.1099   -22.0973     6.0724     6.9915
  291.5000     7.9973    81.1340     2.4977     0.0463     0.1090   -22.1144     6.0618     6.9298
  292.0000     8.0166    79.8793     2.4990     0.0470     0.1078   -22.1315     6.0514     6.8422
  292.5000     8.0359    77.9329     2.5002     0.0476     0.1098   -22.1487     6.0409     6.7558
  293.0000     8.0552    75.7702     2.5014     0.0615     0.1062   -22.1658     6.0317     6.7362
  293.5000     8.0745    73.8285     2.5022     0.0872     0.1062   -22.1829     6.0275     6.7307
  294.0000     8.0939    75.7451     2.5030     0.0963     0.1062   -22.2000     6.0232     6.7253
  294.5000     8.1132    78.0794     2.5030     0.0968     0.1066   -22.2171     6.0189     6.7199
  295.0000     8.1325    80.4209     2.5009     0.0976     0.1118   -22.2343     6.0146     6.7144
  295.5000     8.1518    82.7869     2.5015     0.0985     0.1069   -22.2514     6.0103     6.7090
  296.0000     8.1712    83.1963     2.5079     0.0993     0.1009   -22.2684     6.0061     6.7036
  296.5000     8.1821    78.5504     2.5142     0.0996     0.0994   -22.2746     6.0018     6.6982
  297.0000     8.1913    74.5732     2.5184     0.0992     0.0982   -22.2659     5.9975     6.6928
  297.5000     8.2005    73.1963     2.5214     0.0987     0.0950   -22.2574     5.9932     6.6873
  298.0000     8.2098    75.7974     2.5244     0.0982     0.0919   -22.2488     5.9890     6.6817
  298.5000     8.2190    80.0538     2.5275     0.0978     0.0889   -22.2402     5.9846     6.6767
  299.0000     8.2282    79.6651     2.5270     0.0973     0.0962   -22.2316     5.9805     6.7068
  299.5000     8.2375    79.4354     2.5116     0.0968     0.1082   -22.2230     5.9772     6.7375
  300.0000     8.2468    81.5180     2.5016     0.0964     0.1071   -22.2144     6.0102     6.7684
  300.5000     8.2531    87.9046     2.5038     0.0960     0.1048   -22.2059     6.0364     6.8007
  301.0000     8.2414    90.5325     2.5071     0.0916     0.1057   -22.1973     6.0628     6.8083
  301.5000     8.2299    88.1992     2.5010     0.0860     0.1137   -22.1887     6.0885     6.8160
  302.0000     8.2184    84.5324     2.4897     0.0805     0.1216   -22.1801     6.0971     6.8238
  302.5000     8.2070    81.4996     2.4790     0.0755     0.1238   -22.1715     6.1055     6.8316
  303.0000     8.1955    81.6549     2.4826     0.0741     0.1146   -22.1629     6.1139     6.8394
  303.5000     8.1841    88.0997     2.4870     0.0726     0.1142   -22.1544     6.1223     6.8472
  304.0000     8.1726    92.9551     2.4875     0.0683     0.1138   -22.1458     6.1307     6.8549
  304.5000     8.1612    94.7071     2.4875     0.0611     0.1138   -22.1372     6.1389     6.8608
  305.0000     8.1497    86.8079     2.4872     0.0539     0.1139   -22.1286     6.1719     6.9321
  305.5000     8.1383    81.3064     2.4867     0.0468     0.1148   -22.1200     6.2617     7.0102
  306.0000     8.1268    80.8363     2.4862     0.0394     0.1156   -22.1114     6.3527     7.0892
  306.5000     8.1154    83.5906     2.4857     0.0377     0.1164   -22.1029     6.4449     7.1691
  307.0000     8.1039    86.3318     2.4852     0.0374     0.1166   -22.0944     6.5084     7.2499
  307.5000     8.0925    89.0749     2.4846     0.0372     0.1183   -22.0862     6.5382     7.3360
  308.0000     8.0810    90.2928     2.4841     0.0369     0.1189   -22.0754     6.5682     7.4544
  308.5000     8.0696    90.7593     2.4836     0.0367     0.1190   -21.9776     6.5983     7.5267
  309.0000     8.0581    91.2040     2.4857     0.0364     0.1169   -21.8778     6.6304     7.5267
  309.5000     8.0467    90.3888     2.4908     0.0361     0.1133   -21.8844     6.6649     7.5267
  310.0000     8.0352    88.8403     2.4969     0.0364     0.1089   -21.8949     6.6996     7.5267
  310.5000     8.0238    90.7220     2.5032     0.0396     0.1032   -21.9049     6.7344     7.5267
  311.0000     8.0123    93.2935     2.5093     0.0419     0.0990   -21.9147     6.7695     7.5267
  311.5000     8.0009    93.2083     2.5115     0.0406     0.1051   -21.9246     6.8048     7.5267
  312.0000     7.9894    91.6447     2.4969     0.0382     0.1098   -21.9345     6.8402     7.6154
  312.5000     7.9780    90.7771     2.4979     0.0407     0.1066   -21.9444     6.8699     7.8005
  313.0000     7.9665    96.0642     2.5015     0.0415     0.1062   -21.9543     6.8879     7.9548
  313.5000     7.9551    98.0927     2.5022     0.0408     0.1062   -21.9642     6.9060     7.9548
  314.0000     7.9436    97.9739     2.5020     0.0397     0.1066   -21.9741     6.9241     7.9548
  314.5000     7.9321    97.4417     2.4967     0.0321     0.1165   -21.9840     6.9422     7.9548
  315.0000     7.9208    93.5660     2.4754     0.0244     0.1262   -21.9939     6.9605     7.9548
  315.5000     7.9138    91.2517     2.4661     0.0285     0.1330   -22.0038     6.9787     7.9548
  316.0000     7.9166    89.9150     2.4607     0.0336     0.1307   -22.0137     6.9970     7.9548
  316.5000     7.9290    90.5513     2.4613     0.0387     0.1210   -22.0236     7.0154     7.9548
