~VERSION INFORMATION
 VERS.                2.0:   CWLS LOG ASCII STANDARD - VERSION 2.0
 WRAP.                 NO:   ONE LINE PER DEPTH STEP
~WELL INFORMATION
#MNEM.UNIT      DATA TYPE    INFORMATION
#----------   ------------   ------------------------------
 STRT.F           19.0000:   START DEPTH
 STOP.F         1200.0000:   STOP DEPTH
 STEP.F            0.5000:   STEP LENGTH
 NULL.          -999.2500:   NO VALUE
 COMP.       INTEX OIL CO:   COMPANY
 WELL.     NPR 3 #73 S-14:   WELL
 FLD .             TEAPOT:   FIELD
 LOC .      S14 T38N R78W:   LOCATION
 CNTY.            NATRONA:   COUNTY
 STAT.            WYOMING:   STATE
 CTRY. UNITED STATES OF AMERICA:   COUNTRY
 SRVC.       Schlumberger:   SERVICE COMPANY
 DATE.        24-AUG-1966:   LOGDATE
 API .       490250970900:   API NUMBER
~CURVE INFORMATION
#MNEM.UNIT       API CODE    CURVE DESCRIPTION
#----------   ------------   ------------------------------
 DEPT.F                  :   
 SPR .MV     05 010 01 00:   SPONTANEOUS POTENTIAL FROM RES.
 ILD .OHMM   05 120 46 00:   INDUCTION LOG DEEP
 ASN .OHMM   05 041 16 00:   AMPLIFIED SHORT NORMAL 16"
 CILD.MMHO   05 110 46 00:   CONDUCTIVITY INDUCTION LOG DEEP
 CALD.IN     45 280 60 00:   CALIPER
 GRD .GAPI   45 310 01 00:   GAMMA RAY FROM DENSITY LOG
 CORR.G/C3   45 356 01 00:   DENSITY CORRECTION
 RHOB.G/C3   45 350 01 00:   BULK DENSITY
 DPHI.DEC    45 890 12 00:   DENSITY POROSITY SANDSTONE
~PARAMETER INFORMATION
#MNEM.UNIT          VALUE    DESCRIPTION
#----------   ------------   ------------------------------
 PD  .                 GL:   PERMANENT DATUM
 EPD .F              5274:   ELEVATION PERMANENT DATUM
 LMF .                 KB:   LOG MEASURED FROM
 DAPD.F                 5:   FEET ABOVE PERMANENT DATUM
 DMF .                 KB:   DRILLING MEASURED FROM
 EKB .F              5279:   KELLING BUSHING
 EGL .F              5274:   GROUND LEVEL
 DATE.            8-24-66:   RUN DATE
 RUN .                  1:   RUN NUMBER
 DD  .F              1200:   DEPTH DRILLER
 DL  .F              1200:   DEPTH LOGGER
 BLI .F              1199:   BOTTOM LOG INTERVAL
 TLI .F                86:   TOP LOG INTERVAL
 CS  .IN            8.625:   CASING SIZE
 CBD .F                10:   CASING BOTTOM DRILLER
 BS  .IN             6.75:   BIT SIZE
 BSD .F              1200:   BIT SIZE AT DEPTH
 DFT .                GEL:   DRILLING FLUID TYPE
 DFD .               10.1:   DRILLING FLUID DENSITY
 DFV .                 60:   DRILLING FLUID VISCOSITY
 MSS .          FLOW LINE:   MUD SAMPLE SOURCE
 RMS .OHMM            1.8:   RESISTIVITY MUD SAMPLE
 MST .F                67:   MUD SAMPLE TEMPERATURE
 RMF .OHMM            1.4:   RESISTIVITY MUD FILTRATE SAMPLE
 MFST.F                77:   MUD FILTRATE SAMPLE TEMPERATURE
 MFSS.                  M:   MUD FILTRATE SAMPLE SOURCE
 RMB .OHMM            1.1:   RESISTIVITY MUD AT BHT
 BHT .F               112:   BOTTOM HOLE TEMPERATURE
 TCS .HRS               1:   TIME CURCULATED STOPPED
 MRT .F               112:   MAXIMUM RECORDED TEMPERATURE
 LUN .               4507:   LOGGING UNIT NUMBER
 LUL .               CSPR:   LOGGING UNIT LOCATION
 ENGI.            MANGOLD:   RECORDING ENGINEER
 WITN.                MAY:   WITNESSED BY
 CLNT.            A2DTECH:   CLIENT CODE
 ORIG.           5" PRINT:   ORIGIN OF DATA
 UWI .       490250970900:   UNIQUE WELL ID
 DICO. A2D Technologies, Inc.:   DIGITIZING COMPANY
~OTHER INFORMATION
~A   DEPT      SPR        ILD        ASN       CILD       CALD         GRD        CORR     RHOB       DPHI   
# ...
   55.5000  -999.2500  -999.2500  -999.2500  -999.2500     7.1700    89.0480     0.0700     2.4650     0.1190
   56.0000  -999.2500  -999.2500  -999.2500  -999.2500     7.1380    85.4870     0.0750     2.5130     0.1110
   56.5000  -999.2500  -999.2500  -999.2500  -999.2500     7.1080    82.0300     0.0720     2.5010     0.1030
   57.0000  -999.2500  -999.2500  -999.2500  -999.2500     7.0780    81.5200     0.0700     2.4750     0.0980
   57.5000  -999.2500  -999.2500  -999.2500  -999.2500     7.0880    82.7360     0.0860     2.4460     0.1050
   58.0000  -999.2500  -999.2500  -999.2500  -999.2500     7.1050    84.8150     0.0760     2.4200     0.1210
   58.5000  -999.2500  -999.2500  -999.2500  -999.2500     7.1210    86.8140     0.0420     2.3960     0.1370
   59.0000  -999.2500  -999.2500  -999.2500  -999.2500     7.1380    89.8460     0.0290     2.4260     0.1520
   59.5000  -999.2500  -999.2500  -999.2500  -999.2500     7.1540    92.5200     0.0420     2.4550     0.1450
   60.0000  -999.2500  -999.2500  -999.2500  -999.2500     7.1720    95.9070     0.0630     2.4640     0.1390
   60.5000  -999.2500  -999.2500  -999.2500  -999.2500     7.1590    96.7690     0.0550     2.4450     0.1330
   61.0000  -999.2500  -999.2500  -999.2500  -999.2500     7.1370    93.2410     0.0410     2.4280     0.1270
   61.5000  -999.2500  -999.2500  -999.2500  -999.2500     7.1160    90.1490     0.0530     2.4530     0.1210
   62.0000  -999.2500  -999.2500  -999.2500  -999.2500     7.0940    86.8190     0.0700     2.5110     0.1150
   62.5000  -999.2500  -999.2500  -999.2500  -999.2500     7.0730    83.4980     0.0780     2.5130     0.1090
   63.0000  -999.2500  -999.2500  -999.2500  -999.2500     7.0520    81.0950     0.0620     2.5110     0.1040
   63.5000  -999.2500  -999.2500  -999.2500  -999.2500     7.0290    83.1340     0.0690     2.4970     0.1120
   64.0000  -999.2500  -999.2500  -999.2500  -999.2500     7.0110    85.5870     0.0890     2.4760     0.1190
   64.5000  -999.2500  -999.2500  -999.2500  -999.2500     6.9830    87.8770     0.0940     2.4610     0.1260
   65.0000  -999.2500  -999.2500  -999.2500  -999.2500     6.9950    90.7280     0.0710     2.4560     0.1340
   65.5000  -999.2500  -999.2500  -999.2500  -999.2500     7.0600    91.7130     0.0610     2.4490     0.1320
   66.0000  -999.2500  -999.2500  -999.2500  -999.2500     7.1270    89.8270     0.0550     2.4440     0.1290
   66.5000  -999.2500  -999.2500  -999.2500  -999.2500     7.1430    88.9310     0.0480     2.4370     0.1260
   67.0000  -999.2500  -999.2500  -999.2500  -999.2500     7.1060    91.7290     0.0420     2.4220     0.1220
   67.5000  -999.2500  -999.2500  -999.2500  -999.2500     7.0770    94.4470     0.0350     2.4100     0.1300
   68.0000  -999.2500  -999.2500  -999.2500  -999.2500     7.0560    93.7790     0.0290     2.3930     0.1420
   68.5000  -999.2500  -999.2500  -999.2500  -999.2500     7.0770    90.3090     0.0220     2.3970     0.1570
   69.0000  -999.2500  -999.2500  -999.2500  -999.2500     7.0940    87.1780     0.0220     2.4010     0.1560
   69.5000  -999.2500  -999.2500  -999.2500  -999.2500     7.1120    89.6440     0.0240     2.4060     0.1540
   70.0000  -999.2500  -999.2500  -999.2500  -999.2500     7.1300    97.9040     0.0280     2.4060     0.1520
   70.5000  -999.2500  -999.2500  -999.2500  -999.2500     7.1480    99.8890     0.0300     2.3990     0.1520
   71.0000  -999.2500  -999.2500  -999.2500  -999.2500     7.1660    96.4190     0.0340     2.3950     0.1560
   71.5000  -999.2500  -999.2500  -999.2500  -999.2500     7.1830    95.1860     0.0350     2.3890     0.1600
   72.0000  -999.2500  -999.2500  -999.2500  -999.2500     7.2040    98.1110     0.0380     2.3940     0.1610
   72.5000  -999.2500  -999.2500  -999.2500  -999.2500     7.2130   101.7080     0.0440     2.4070     0.1600
   73.0000  -999.2500  -999.2500  -999.2500  -999.2500     7.2030    99.1240     0.0500     2.4180     0.1480
   73.5000  -999.2500  -999.2500  -999.2500  -999.2500     7.1950    94.9370     0.0550     2.4300     0.1320
   74.0000  -999.2500  -999.2500  -999.2500  -999.2500     7.1860    97.0260     0.0620     2.4270     0.1370
   74.5000  -999.2500  -999.2500  -999.2500  -999.2500     7.1780    98.7920     0.0580     2.4080     0.1440
   75.0000  -999.2500  -999.2500  -999.2500  -999.2500     7.1690   101.5610     0.0540     2.3920     0.1520
   75.5000  -999.2500  -999.2500  -999.2500  -999.2500     7.1610    99.7660     0.0580     2.4030     0.1490
   76.0000  -999.2500  -999.2500  -999.2500  -999.2500     7.1520    95.4470     0.0610     2.4160     0.1440
   76.5000  -999.2500  -999.2500  -999.2500  -999.2500     7.1440    89.4450     0.0570     2.4220     0.1380
   77.0000  -999.2500  -999.2500  -999.2500  -999.2500     7.1350    90.2090     0.0430     2.4170     0.1520
   77.5000  -999.2500  -999.2500  -999.2500  -999.2500     7.1270    96.5170     0.0270     2.4050     0.1700
   78.0000  -999.2500  -999.2500  -999.2500  -999.2500     7.1170    98.0000     0.0210     2.3910     0.1690
   78.5000  -999.2500  -999.2500  -999.2500  -999.2500     7.1170    95.7080     0.0260     2.3780     0.1620
   79.0000  -999.2500  -999.2500  -999.2500  -999.2500     7.1260    93.7730     0.0300     2.3800     0.1550
   79.5000  -999.2500  -999.2500  -999.2500  -999.2500     7.1330    92.9750     0.0330     2.3910     0.1500
   80.0000  -999.2500     4.7450     1.1090   173.3270     7.1400    93.1900     0.0270     2.4010     0.1700
   80.5000  -999.2500     4.9450     1.1290   173.3270     7.1470    93.1900     0.0250     2.4110     0.1670
   81.0000  -999.2500     5.1450     1.1490   173.3270     7.1550    93.2880     0.0310     2.4220     0.1570
   81.5000  -999.2500     5.2450     1.1690   173.3270     7.1620    93.2560     0.0370     2.4230     0.1460
   82.0000  -999.2500     5.2450     1.1890   177.5870     7.1700    92.2890     0.0420     2.4280     0.1390
   82.5000  -999.2500     5.2450     1.2370   184.2330     7.1770    91.1610     0.0500     2.4380     0.1320
   83.0000   -64.4570     5.1450     1.3150   190.8800     7.1840    90.0200     0.0600     2.4470     0.1220
   83.5000   -64.3350     4.9540     1.3890   197.5260     7.1920    89.1490     0.0680     2.4610     0.1300
   84.0000   -64.2130     4.7770     1.7690   204.1720     7.1990    89.2910     0.0640     2.4320     0.1440
   84.5000   -64.0910     4.6000     2.1310   210.8190     7.2060    90.1540     0.0550     2.3840     0.1580
   85.0000   -63.9560     4.4230     2.4930   217.4650     7.2130    91.2490     0.0480     2.3310     0.1710
   85.5000   -63.6400     4.2460     3.1490   224.1110     7.2080    93.3560     0.0360     2.3390     0.1820
   86.0000   -63.2840     4.1540     4.2260   231.2690     7.2010    95.9310     0.0410     2.3510     0.1860
   86.5000   -62.9280     4.1740     4.3220   231.2690     7.1940    97.6550     0.0560     2.3650     0.1800
   87.0000   -62.5500     4.1770     4.3850   232.1020     7.1870    94.2650     0.0710     2.3780     0.1730
   87.5000   -63.0590     4.1900     4.2970   228.3840     7.1800    90.3720     0.0730     2.3910     0.1660
   88.0000   -63.6010     4.2200     4.3230   220.8840     7.1730    88.0160     0.0640     2.3950     0.1590
   88.5000   -64.1430     4.2170     4.1830   213.3840     7.1660    88.6990     0.0590     2.3900     0.1600
   89.0000   -64.6850     4.2620     4.1860   205.8840     7.1580    89.7980     0.0510     2.3860     0.1640
   89.5000   -65.2280     4.4810     4.4530   198.3840     7.1510    91.2570     0.0460     2.3810     0.1590
   90.0000   -65.3290     4.7100     4.7070   190.8840     7.1440    92.2030     0.0480     2.3890     0.1490
   90.5000   -65.7640     4.8790     4.9210   183.3840     7.1370    93.9060     0.0530     2.4160     0.1450
   91.0000   -65.9710     5.0910     5.1660   175.8840     7.1300    95.6430     0.0520     2.4250     0.1460
   91.5000   -65.4590     5.2780     5.3820   168.3840     7.1230    98.0200     0.0450     2.4180     0.1480
