~VERSION INFORMATION
 VERS.                2.0:   CWLS LOG ASCII STANDARD - VERSION 2.0
 WRAP.                 NO:   ONE LINE PER DEPTH STEP
~WELL INFORMATION
#MNEM.UNIT      DATA TYPE    INFORMATION
#----------   ------------   ------------------------------
 STRT.F           48.0000:   START DEPTH
 STOP.F          650.0000:   STOP DEPTH
 STEP.F            0.5000:   STEP LENGTH
 NULL.          -999.2500:   NO VALUE
 COMP. FENIX & SCISSON INC:   COMPANY
 WELL.    36 SX 34 #36-34:   WELL
 FLD .             TEAPOT:   FIELD
 LOC .      S34 T39N R78W:   LOCATION
 CNTY.            NATRONA:   COUNTY
 STAT.            WYOMING:   STATE
 CTRY. UNITED STATES OF AMERICA:   COUNTRY
 SRVC.            Unknown:   SERVICE COMPANY
 DATE.        19-JAN-1979:   LOGDATE
 API .       490251076800:   API NUMBER
~CURVE INFORMATION
#MNEM.UNIT       API CODE    CURVE DESCRIPTION
#----------   ------------   ------------------------------
 DEPT.F                  :   
 SPR .MV     05 010 01 00:   SPONTANEOUS POTENTIAL FROM RES.
 SN  .OHMM   05 040 16 00:   SHORT NORMAL 16"
 IL  .OHMM   05 120 00 00:   INDUCTION LOG
 CALD.IN     45 280 60 00:   CALIPER
 GRD .GAPI   45 310 01 00:   GAMMA RAY FROM DENSITY LOG
 RHOB.G/C3   45 350 01 00:   BULK DENSITY
 DPHI.DEC    45 890 12 00:   DENSITY POROSITY SANDSTONE
 CORR.G/C3   45 356 01 00:   DENSITY CORRECTION
~PARAMETER INFORMATION
#MNEM.UNIT          VALUE    DESCRIPTION
#----------   ------------   ------------------------------
 PD  .                 GL:   PERMANENT DATUM
 EPD .F              5125:   ELEVATION PERMANENT DATUM
 LMF .                 KB:   LOG MEASURED FROM
 DAPD.F                 4:   FEET ABOVE PERMANENT DATUM
 DMF .                 KB:   DRILLING MEASURED FROM
 EKB .F              5129:   KELLING BUSHING
 EGL .F              5125:   GROUND LEVEL
 DATE.            1-19-79:   RUN DATE
 RUN .                  1:   RUN NUMBER
 DD  .F               650:   DEPTH DRILLER
 DL  .F               650:   DEPTH LOGGER
 BLI .F               643:   BOTTOM LOG INTERVAL
 TLI .F                50:   TOP LOG INTERVAL
 CS  .IN            8.625:   CASING SIZE
 CBD .F                40:   CASING BOTTOM DRILLER
 CBL .F                36:   CASING BOTTOM LOGGER
 BS  .IN            7.875:   BIT SIZE
 BSD .F               650:   BIT SIZE AT DEPTH
 DFT .                KCL:   DRILLING FLUID TYPE
 DFD .                8.8:   DRILLING FLUID DENSITY
 DFV .                 34:   DRILLING FLUID VISCOSITY
 DFL .                8.8:   DRILLING FLUID LOSS
 MSS .           FLOWLINE:   MUD SAMPLE SOURCE
 RMS .OHMM            .17:   RESISTIVITY MUD SAMPLE
 MST .F                62:   MUD SAMPLE TEMPERATURE
 RMF .OHMM            .15:   RESISTIVITY MUD FILTRATE SAMPLE
 MFST.F                62:   MUD FILTRATE SAMPLE TEMPERATURE
 RMC .OHMM            .22:   RESISTIVITY MUD CAKE
 MCST.F                63:   MUD CAKE SAMPLE TEMPERATURE
 MFSS.           MEASURED:   MUD FILTRATE SAMPLE SOURCE
 MCSS.           MEASURED:   MUD CAKE SAMPLE SOURCE
 RMB .OHMM            .18:   RESISTIVITY MUD AT BHT
 BHT .F                60:   BOTTOM HOLE TEMPERATURE
 TCS .HRS               3:   TIME CURCULATED STOPPED
 MRT .F                60:   MAXIMUM RECORDED TEMPERATURE
 LUN .                 30:   LOGGING UNIT NUMBER
 LUL .             CASPER:   LOGGING UNIT LOCATION
 ENGI.         B. ROLLINS:   RECORDING ENGINEER
 WITN.           DINSMORE:   WITNESSED BY
 CLNT.            A2DTECH:   CLIENT CODE
 ORIG.           5" PRINT:   ORIGIN OF DATA
 UWI .       490251076800:   UNIQUE WELL ID
 DICO. A2D Technologies, Inc.:   DIGITIZING COMPANY
~OTHER INFORMATION
~A   DEPT      SPR           SN        IL      CALD        GRD       RHOB       DPHI       CORR   
# ...
  412.5000   -59.1010     6.6640     7.0520     8.2630   127.3800     2.5040     0.1010     0.0290
  413.0000   -59.7760     6.4880     6.8910     8.2580   124.1030     2.5010     0.1020     0.0360
  413.5000   -60.4410     6.3120     6.7310     8.2530   120.0300     2.4950     0.1030     0.0350
  414.0000   -60.2510     6.1360     6.5700     8.2480   119.5280     2.4810     0.1150     0.0300
  414.5000   -59.9320     5.9600     6.4100     8.2420   120.4940     2.4590     0.1280     0.0250
  415.0000   -59.6820     5.7830     6.2490     8.2370   123.5080     2.4380     0.1400     0.0220
  415.5000   -59.7330     5.6070     6.0890     8.2320   126.4560     2.4170     0.1530     0.0270
  416.0000   -60.7210     5.4310     5.9280     8.2270   129.8070     2.4070     0.1570     0.0360
  416.5000   -61.7320     5.2250     5.7680     8.2220   126.8470     2.4430     0.1350     0.0410
  417.0000   -61.0210     5.1770     5.6070     8.2170   122.2820     2.4710     0.1190     0.0390
  417.5000   -60.1110     5.1770     5.5240     8.2120   119.1290     2.4990     0.1030     0.0430
  418.0000   -59.1940     5.1850     5.5240     8.2070   113.8950     2.5070     0.1000     0.0460
  418.5000   -58.7520     5.1940     5.5240     8.2020   110.8660     2.5070     0.1040     0.0400
  419.0000   -58.9970     5.2020     5.5240     8.1970   114.5670     2.4940     0.1120     0.0360
  419.5000   -59.4840     5.2110     5.5280     8.1920   117.2020     2.4780     0.1210     0.0330
  420.0000   -59.9690     5.2200     5.5340     8.1870   119.2930     2.4630     0.1290     0.0350
  420.5000   -60.4560     5.2290     5.5410     8.1810   117.5830     2.4470     0.1340     0.0390
  421.0000   -60.8000     5.2380     5.5480     8.1760   116.3600     2.4370     0.1350     0.0440
  421.5000   -60.9490     5.2460     5.5540     8.1710   117.6120     2.4570     0.1250     0.0480
  422.0000   -61.1000     5.2550     5.5610     8.1660   120.6770     2.4800     0.1160     0.0470
  422.5000   -61.0720     5.2640     5.5680     8.1610   123.6550     2.5020     0.1070     0.0450
  423.0000   -60.7360     5.2730     5.5740     8.1560   125.8760     2.5220     0.0970     0.0430
  423.5000   -60.3990     5.4010     5.7300     8.1510   123.2590     2.5120     0.0980     0.0380
  424.0000   -60.0630     5.5930     5.9530     8.1290   119.3010     2.5030     0.1010     0.0330
  424.5000   -59.7270     5.7850     6.1760     8.1070   116.1870     2.5020     0.1010     0.0290
  425.0000   -59.3900     5.9760     6.3990     8.0840   119.3220     2.5040     0.1000     0.0310
  425.5000   -59.0430     6.1680     6.6210     8.0620   122.5140     2.5100     0.0980     0.0340
  426.0000   -58.9470     6.3470     6.8440     8.0400   120.0380     2.5130     0.0970     0.0350
  426.5000   -59.1890     6.4060     7.0270     8.0170   115.5540     2.5090     0.0980     0.0300
  427.0000   -59.5470     6.2850     6.9500     7.9950   112.5040     2.5050     0.1030     0.0250
  427.5000   -59.9080     6.0610     6.7210     7.9730   116.5260     2.4850     0.1190     0.0200
  428.0000   -60.2740     5.8370     6.4920     7.9500   117.8050     2.4550     0.1350     0.0150
  428.5000   -60.1560     5.6130     6.2630     7.9340   119.7970     2.4240     0.1500     0.0180
  429.0000   -59.9650     5.3890     6.0340     7.9350   122.0260     2.4070     0.1600     0.0270
  429.5000   -60.5690     5.1650     5.8050     7.9380   121.8370     2.4190     0.1490     0.0360
  430.0000   -61.2220     5.0350     5.6270     7.9460   118.9070     2.4440     0.1350     0.0360
  430.5000   -61.4210     5.0350     5.6270     7.9530   116.5520     2.4690     0.1210     0.0310
  431.0000   -60.8840     5.0350     5.6710     7.9610   115.3060     2.4940     0.1060     0.0400
  431.5000   -60.0290     5.1940     5.9040     7.9690   116.7430     2.5070     0.0990     0.0360
  432.0000   -59.1770     5.4700     6.1380     7.9980   118.3240     2.5170     0.0900     0.0340
  432.5000   -58.3780     5.7460     6.3710     8.1170   119.8990     2.5270     0.0830     0.0410
  433.0000   -58.4360     6.0210     6.6050     8.2030   119.7980     2.5260     0.0860     0.0450
  433.5000   -58.6310     6.2970     6.8390     8.2300   118.2910     2.5170     0.0890     0.0450
  434.0000   -58.8250     6.5720     7.0720     8.2580   117.2700     2.5110     0.0920     0.0460
  434.5000   -58.8010     6.8480     7.2920     8.2650   119.4360     2.5040     0.0950     0.0460
  435.0000   -58.4320     7.1240     7.4280     8.2540   121.5520     2.5060     0.0920     0.0500
  435.5000   -58.0730     7.2920     7.5670     8.2430   119.7290     2.5210     0.0840     0.0580
  436.0000   -57.8450     7.3600     7.6370     8.2320   117.3290     2.5350     0.0760     0.0590
  436.5000   -58.5310     7.3580     7.7080     8.2220   115.2900     2.5360     0.0790     0.0530
  437.0000   -59.1370     7.3540     7.7050     8.2110   113.8640     2.5340     0.0820     0.0460
  437.5000   -58.6760     7.3500     7.7000     8.2000   110.1790     2.5330     0.0810     0.0460
  438.0000   -57.7540     7.3470     7.6960     8.1920   107.4960     2.5330     0.0790     0.0440
  438.5000   -56.8390     7.3430     7.6910     8.1930   109.4740     2.5300     0.0790     0.0400
  439.0000   -55.9900     7.3390     7.6870     8.1940   113.2580     2.5220     0.0850     0.0360
  439.5000   -56.4530     7.3360     7.6820     8.1960   117.0190     2.5140     0.0910     0.0320
  440.0000   -57.5760     7.3320     7.6780     8.1970   120.7590     2.5150     0.0900     0.0350
  440.5000   -57.2050     7.3290     7.6730     8.1980   124.2640     2.5180     0.0890     0.0380
  441.0000   -56.5850     7.3250     7.6690     8.1990   124.8210     2.5160     0.0910     0.0370
  441.5000   -56.5630     7.3210     7.6640     8.2000   119.9840     2.5110     0.0940     0.0350
  442.0000   -56.5610     7.3180     7.6590     8.2020   114.7890     2.5060     0.0960     0.0340
  442.5000   -57.0530     7.3140     7.6550     8.2030   109.4900     2.5110     0.0910     0.0390
  443.0000   -57.9370     7.3100     7.6500     8.2040   107.9660     2.5200     0.0860     0.0410
  443.5000   -58.5970     7.3070     7.6460     8.2050   110.2540     2.5240     0.0880     0.0380
  444.0000   -58.7140     7.3030     7.6410     8.2060   110.6900     2.5210     0.0910     0.0340
  444.5000   -58.7450     7.2990     7.6370     8.2080   109.8940     2.5180     0.0930     0.0320
  445.0000   -58.7470     7.2960     7.5500     8.2090   109.9690     2.5160     0.0950     0.0320
  445.5000   -58.7440     7.2920     7.4710     8.2100   113.1100     2.5120     0.1000     0.0290
  446.0000   -58.9680     7.1720     7.2700     8.2110   117.8970     2.4780     0.1200     0.0260
  446.5000   -59.3080     6.9900     6.9190     8.2170   122.7680     2.4410     0.1410     0.0240
  447.0000   -59.6480     6.8070     6.5680     8.2230   129.0090     2.3880     0.1660     0.0340
  447.5000   -59.9940     6.6250     6.2180     8.2300   134.8720     2.4000     0.1530     0.0490
  448.0000   -59.9740     6.4420     5.8670     8.2270   129.2750     2.4330     0.1360     0.0560
  448.5000   -59.6030     6.2880     5.7850     8.2220   120.1080     2.4650     0.1200     0.0290
  449.0000   -58.7840     6.2880     6.0240     8.2170   110.7080     2.5000     0.1030     0.0160
  449.5000   -57.9530     6.2880     6.5650     8.2110   103.1050     2.5190     0.0850     0.0220
  450.0000   -57.1220     6.5240     7.1060     8.2060   101.0850     2.5310     0.0820     0.0280
  450.5000   -56.3560     6.7820     7.6470     8.2010   102.9640     2.5330     0.0810     0.0340
  451.0000   -56.0050     7.0400     8.0730     8.1950   105.5460     2.5320     0.0820     0.0360
  451.5000   -55.6760     7.2980     8.3550     8.1900   107.2860     2.5320     0.0830     0.0360
  452.0000   -54.9550     7.5560     8.5480     8.1850   108.7990     2.5310     0.0830     0.0360
  452.5000   -54.0310     7.8130     8.7400     8.1790   110.2990     2.5300     0.0840     0.0350
