~VERSION INFORMATION
 VERS.                2.0:   CWLS LOG ASCII STANDARD - VERSION 2.0
 WRAP.                 NO:   ONE LINE PER DEPTH STEP
~WELL INFORMATION
#MNEM.UNIT      DATA TYPE    INFORMATION
#----------   ------------   ------------------------------
 STRT.F            0.0000:   START DEPTH
 STOP.F         1008.0000:   STOP DEPTH
 STEP.F            0.5000:   STEP LENGTH
 NULL.          -999.2500:   NO VALUE
 COMP. LAWRENCE/ALLISON INC:   COMPANY
 WELL. NPR 3 #51-61-SX-14:   WELL
 FLD .             TEAPOT:   FIELD
 LOC .      S14 T38N R78W:   LOCATION
 CNTY.            NATRONA:   COUNTY
 STAT.            WYOMING:   STATE
 CTRY. UNITED STATES OF AMERICA:   COUNTRY
 SRVC.      Dresser Atlas:   SERVICE COMPANY
 DATE.        05-FEB-1986:   LOGDATE
 API .       490251106600:   API NUMBER
~CURVE INFORMATION
#MNEM.UNIT       API CODE    CURVE DESCRIPTION
#----------   ------------   ------------------------------
 DEPT.F                  :   
 GRR .GAPI   07 310 01 00:   GAMMA RAY FROM RES. LOG.
 RILD.OHMM   10 120 46 00:   INDUCTION LOG DEEP RESISTIVITY
 RILM.OHMM   07 120 44 00:   INDUCTION LOG MEDIUM RESISTIVITY
 CALD.IN     45 280 60 00:   CALIPER
 DEN .G/C3   45 350 01 00:   COMPENSATED BULK DENSTIY
 CORR.G/C3   45 356 01 00:   DENSITY CORRECTION
 PORD.DEC    45 890 10 00:   POROSITY DENSITY LIMESTONE
~PARAMETER INFORMATION
#MNEM.UNIT          VALUE    DESCRIPTION
#----------   ------------   ------------------------------
 PD  .                 GL:   PERMANENT DATUM
 EPD .F              5225:   ELEVATION PERMANENT DATUM
 LMF .                 GL:   LOG MEASURED FROM
 DMF .                 GL:   DRILLING MEASURED FROM
 EGL .F              5225:   GROUND LEVEL
 DATE.             2-5-86:   RUN DATE
 RUN .                  1:   RUN NUMBER
 DD  .F              1010:   DEPTH DRILLER
 DL  .F              1008:   DEPTH LOGGER
 BLI .F              1008:   BOTTOM LOG INTERVAL
 CS  .IN            8.625:   CASING SIZE
 CBD .F                86:   CASING BOTTOM DRILLER
 CBL .F                84:   CASING BOTTOM LOGGER
 BS  .IN             6.25:   BIT SIZE
 BSD .F              1010:   BIT SIZE AT DEPTH
 DFT .                AIR:   DRILLING FLUID TYPE
 LUN .            HL 6264:   LOGGING UNIT NUMBER
 LUL .           GILLETTE:   LOGGING UNIT LOCATION
 ENGI.           FAHLSING:   RECORDING ENGINEER
 WITN.              FIVAS:   WITNESSED BY
 CLNT.            A2DTECH:   CLIENT CODE
 ORIG.       2", 5" PRINT:   ORIGIN OF DATA
 UWI .       490251106600:   UNIQUE WELL ID
 DICO. A2D Technologies, Inc.:   DIGITIZING COMPANY
~OTHER INFORMATION
~A    DEPT      GRR      RILD       RILM       CALD        DEN       CORR       PORD   
# ...
  819.0000    69.3392    17.1204    16.2755     6.5702     2.3338     0.0979     0.2065
  819.5000    67.1119    16.6218    15.7381     6.5310     2.3383     0.0866     0.2041
  820.0000    68.5639    16.1378    15.2184     6.5356     2.3536     0.0767     0.1955
  820.5000    74.1733    15.6679    14.7159     6.5413     2.3689     0.0846     0.1839
  821.0000    79.8739    15.1793    14.2300     6.5466     2.3834     0.0937     0.1771
  821.5000    80.5453    14.6507    13.7601     6.5385     2.3836     0.1035     0.1761
  822.0000    78.7339    14.1036    13.3058     6.5115     2.3715     0.1176     0.1844
  822.5000    75.3532    13.5753    12.8664     6.5415     2.3544     0.1093     0.1923
  823.0000    73.7346    13.0669    12.4416     6.5702     2.3541     0.0935     0.1953
  823.5000    78.7611    12.6377    11.9469     6.5516     2.3691     0.0784     0.1785
  824.0000    84.7510    12.3367    11.6164     6.5329     2.4093     0.0944     0.1617
  824.5000    90.3069    12.0429    11.6251     6.5139     2.4344     0.1130     0.1460
  825.0000    89.8453    11.7290    11.4085     6.5143     2.4478     0.1239     0.1368
  825.5000    89.1487    11.7906    11.4095     6.5261     2.4505     0.1193     0.1361
  826.0000    88.4892    11.8774    11.4332     6.5379     2.4499     0.1057     0.1412
  826.5000    88.2869    11.9649    11.4958     6.5495     2.4399     0.0843     0.1471
  827.0000    88.8976    12.0530    11.5587     6.5474     2.4273     0.0656     0.1531
  827.5000    89.3888    12.1418    11.6220     6.5445     2.4147     0.0654     0.1581
  828.0000    89.9126    12.2312    11.6856     6.5416     2.4117     0.0792     0.1601
  828.5000    89.1483    12.3212    11.7496     6.5388     2.4103     0.0942     0.1621
  829.0000    88.0984    12.4120    11.8139     6.5359     2.4018     0.0962     0.1641
  829.5000    86.6424    12.5093    11.8785     6.5330     2.3885     0.0921     0.1749
  830.0000    84.7691    12.5058    11.9435     6.5301     2.3734     0.0996     0.1857
  830.5000    82.9273    12.4996    12.0089     6.5404     2.3580     0.1013     0.1924
  831.0000    82.0820    12.4933    12.0573     6.5569     2.3522     0.0906     0.1938
  831.5000    84.5975    12.4870    11.9598     6.5957     2.3653     0.0800     0.1870
  832.0000    86.9674    12.4808    11.8831     6.6293     2.3790     0.0782     0.1787
  832.5000    87.8198    12.4745    11.8374     6.6187     2.3925     0.0806     0.1703
  833.0000    87.1447    12.4682    11.8374     6.6098     2.4027     0.0733     0.1641
  833.5000    87.7253    12.4620    11.8374     6.6100     2.4008     0.0636     0.1677
  834.0000    89.6072    12.4557    11.8374     6.6100     2.3905     0.0606     0.1736
  834.5000    90.2656    12.4494    11.8374     6.6100     2.3805     0.0627     0.1795
  835.0000    88.8981    12.4432    11.8374     6.6100     2.3705     0.0695     0.1854
  835.5000    87.4958    12.4369    11.8372     6.6100     2.3626     0.0785     0.1882
  836.0000    88.9052    12.4307    11.8391     6.6074     2.3658     0.0981     0.1869
  836.5000    92.1251    12.4245    11.8414     6.6035     2.3726     0.1013     0.1819
  837.0000    94.1918    12.4182    11.9512     6.5996     2.3817     0.0892     0.1768
  837.5000    94.6350    12.4120    11.8363     6.5957     2.3910     0.0742     0.1701
  838.0000    95.1448    12.4058    11.8725     6.5918     2.3896     0.0591     0.1727
  838.5000    93.1970    12.3990    11.9114     6.5880     2.3835     0.0440     0.1767
  839.0000    90.5820    12.3940    11.9504     6.5841     2.3772     0.0255     0.1807
  839.5000    87.8084    12.5005    11.9895     6.5802     2.3710     0.0231     0.1848
  840.0000    88.8463    12.5868    12.0287     6.5763     2.3741     0.0597     0.1852
  840.5000    89.8481    12.6738    12.0681     6.5724     2.3851     0.0853     0.1764
  841.0000    88.3790    12.7614    12.1076     6.5666     2.3942     0.1098     0.1705
  841.5000    88.1369    12.8496    12.1473     6.5574     2.3903     0.1127     0.1701
  842.0000    89.1189    12.9384    12.1871     6.5483     2.3847     0.1128     0.1767
  842.5000    88.3338    12.9783    12.2271     6.5391     2.3818     0.1072     0.1775
  843.0000    87.5703    12.8974    12.2670     6.5303     2.3879     0.1005     0.1740
  843.5000    87.2732    12.8383    12.2812     6.5299     2.3964     0.0938     0.1705
  844.0000    89.3958    12.7794    12.1706     6.5300     2.3999     0.0868     0.1688
  844.5000    90.6356    12.7126    12.0952     6.5300     2.3939     0.0928     0.1715
  845.0000    89.5501    12.6301    12.0201     6.5300     2.3884     0.1017     0.1741
  845.5000    88.4669    12.5484    11.9454     6.5300     2.3830     0.1058     0.1767
  846.0000    90.5186    12.4672    11.8715     6.5300     2.3775     0.0846     0.1793
  846.5000    94.0061    12.3865    11.8096     6.5300     2.3723     0.0635     0.1820
  847.0000    97.5239    12.3064    11.7579     6.5300     2.3691     0.0671     0.1846
  847.5000    99.6319    12.2268    11.7066     6.5300     2.3685     0.0803     0.1848
  848.0000    98.2681    12.1477    11.6553     6.5300     2.3746     0.0875     0.1817
  848.5000    93.8949    12.0691    11.5829     6.5300     2.3770     0.0775     0.1801
  849.0000    90.5580    11.9912    11.4686     6.5300     2.3747     0.0848     0.1814
  849.5000    88.9923    11.9157    11.3558     6.5300     2.3728     0.0926     0.1827
  850.0000    88.7697    11.8443    11.2440     6.5300     2.3773     0.0986     0.1797
  850.5000    88.7744    11.7731    11.1334     6.5300     2.3830     0.0997     0.1757
  851.0000    88.7782    11.7023    11.0238     6.5300     2.3812     0.0981     0.1772
  851.5000    88.7855    11.6320    10.9153     6.5300     2.3779     0.0964     0.1792
  852.0000    88.3778    11.5621    10.7993     6.5300     2.3748     0.0902     0.1813
  852.5000    88.0835    11.4927    10.8191     6.5300     2.3735     0.0837     0.1833
  853.0000    89.2030    11.4236    10.8440     6.5300     2.3750     0.0803     0.1814
  853.5000    91.8459    11.3550    10.8689     6.5300     2.3764     0.0731     0.1795
  854.0000    94.4090    11.3052    10.8939     6.5300     2.3734     0.0574     0.1835
  854.5000    92.4787    11.3176    10.8966     6.5299     2.3610     0.0495     0.1891
  855.0000    90.2617    11.3273    10.8967     6.5290     2.3506     0.0569     0.1949
  855.5000    88.0281    11.3371    10.8967     6.5662     2.3513     0.0641     0.1954
  856.0000    86.1670    11.3468    10.8967     6.6094     2.3543     0.0670     0.1937
  856.5000    85.2935    11.3566    10.8967     6.6240     2.3572     0.0628     0.1920
  857.0000    85.9405    11.3664    10.8967     6.6138     2.3599     0.0588     0.1903
  857.5000    86.5262    11.3762    10.8967     6.6031     2.3624     0.0601     0.1893
  858.0000    88.4457    11.3860    10.8968     6.5923     2.3647     0.0669     0.1876
  858.5000    91.1819    11.3961    10.8964     6.5814     2.3704     0.0675     0.1849
  859.0000    92.2738    11.4100    10.8982     6.5707     2.3789     0.0688     0.1796
  859.5000    92.6997    11.3232    10.7843     6.5956     2.3875     0.0827     0.1739
  860.0000    93.1154    11.1766    10.5928     6.6247     2.3961     0.0982     0.1683
  860.5000    93.5376    11.0319    10.4053     6.6255     2.4046     0.0976     0.1629
  861.0000    93.9672    10.8891    10.2211     6.6180     2.4112     0.0940     0.1609
  861.5000    93.8668    10.7480    10.0402     6.6104     2.4093     0.0904     0.1656
  862.0000    93.7410    10.6085     9.9388     6.6028     2.3902     0.0908     0.1729
  862.5000    93.4843    10.4716     9.9482     6.5952     2.3756     0.0980     0.1801
  863.0000    90.7910    10.4067     9.9546     6.5877     2.3780     0.1019     0.1762
  863.5000    88.0424    10.4067     9.9613     6.5801     2.3927     0.0971     0.1691
  864.0000    90.1832    10.4067     9.9679     6.5725     2.4093     0.0928     0.1561
