~VERSION INFORMATION
 VERS.                2.0:   CWLS LOG ASCII STANDARD - VERSION 2.0
 WRAP.                 NO:   ONE LINE PER DEPTH STEP
~WELL INFORMATION
#MNEM.UNIT      DATA TYPE    INFORMATION
#----------   ------------   ------------------------------
 STRT.F           18.0000:   START DEPTH
 STOP.F          647.0000:   STOP DEPTH
 STEP.F            0.5000:   STEP LENGTH
 NULL.          -999.2500:   NO VALUE
 COMP. FENIX & SCISSON INC:   COMPANY
 WELL. NAVAL PETROLEUM RESERVE 3 SX-1 #82-15:   WELL
 FLD .        TEAPOT DOME:   FIELD
 LOC .      S15 T38N R78W:   LOCATION
 CNTY.            NATRONA:   COUNTY
 STAT.            WYOMING:   STATE
 CTRY. UNITED STATES OF AMERICA:   COUNTRY
 SRVC.            Unknown:   SERVICE COMPANY
 DATE.        15-MAR-1979:   LOGDATE
 API .       490251076500:   API NUMBER
~CURVE INFORMATION
#MNEM.UNIT       API CODE    CURVE DESCRIPTION
#----------   ------------   ------------------------------
 DEPT.F                  :   
 SPR .MV     05 010 01 00:   SPONTANEOUS POTENTIAL FROM RES.
 SN  .OHMM   05 040 16 00:   SHORT NORMAL 16"
 IL  .OHMM   05 120 00 00:   INDUCTION LOG
 CALD.IN     45 280 60 00:   CALIPER
 GRD .GAPI   45 310 01 00:   GAMMA RAY FROM DENSITY LOG
 RHOB.G/C3   45 350 01 00:   BULK DENSITY
 DPHI.DEC    45 890 12 00:   DENSITY POROSITY SANDSTONE
 CORR.G/C3   45 356 01 00:   DENSITY CORRECTION
~PARAMETER INFORMATION
#MNEM.UNIT          VALUE    DESCRIPTION
#----------   ------------   ------------------------------
 PD  .                 GL:   PERMANENT DATUM
 EPD .F              5249:   ELEVATION PERMANENT DATUM
 LMF .                 KB:   LOG MEASURED FROM
 DAPD.F                 4:   FEET ABOVE PERMANENT DATUM
 DMF .                 KB:   DRILLING MEASURED FROM
 EKB .F              5253:   KELLING BUSHING
 EGL .F              5249:   GROUND LEVEL
 DATE.            1-15-79:   RUN DATE
 RUN .                  1:   RUN NUMBER
 DD  .F               670:   DEPTH DRILLER
 DL  .F               647:   DEPTH LOGGER
 BLI .F               640:   BOTTOM LOG INTERVAL
 TLI .F                30:   TOP LOG INTERVAL
 CS  .IN            8.625:   CASING SIZE
 CBD .F                40:   CASING BOTTOM DRILLER
 CBL .F                34:   CASING BOTTOM LOGGER
 BS  .IN            7.875:   BIT SIZE
 BSD .F               670:   BIT SIZE AT DEPTH
 DFT .                KCL:   DRILLING FLUID TYPE
 DFD .                8.9:   DRILLING FLUID DENSITY
 DFV .                 44:   DRILLING FLUID VISCOSITY
 DFPH.                8.5:   DRILLING FLUID PH
 DFL .               14.8:   DRILLING FLUID LOSS
 MSS .           FLOWLINE:   MUD SAMPLE SOURCE
 RMS .OHMM            .26:   RESISTIVITY MUD SAMPLE
 MST .F                61:   MUD SAMPLE TEMPERATURE
 RMF .OHMM            .25:   RESISTIVITY MUD FILTRATE SAMPLE
 MFST.F                60:   MUD FILTRATE SAMPLE TEMPERATURE
 RMC .OHMM             .2:   RESISTIVITY MUD CAKE
 MCST.F                60:   MUD CAKE SAMPLE TEMPERATURE
 MFSS.           MEASURED:   MUD FILTRATE SAMPLE SOURCE
 MCSS.           MEASURED:   MUD CAKE SAMPLE SOURCE
 RMB .OHMM            .27:   RESISTIVITY MUD AT BHT
 BHT .F                58:   BOTTOM HOLE TEMPERATURE
 TCS .HRS               5:   TIME CURCULATED STOPPED
 MRT .F                58:   MAXIMUM RECORDED TEMPERATURE
 LUN .               3006:   LOGGING UNIT NUMBER
 LUL .             CASPER:   LOGGING UNIT LOCATION
 ENGI.            ROLLINS:   RECORDING ENGINEER
 WITN.              AMEND:   WITNESSED BY
 CLNT.            A2DTECH:   CLIENT CODE
 ORIG.         2.5" PRINT:   ORIGIN OF DATA
 UWI .       490251076500:   UNIQUE WELL ID
 DICO. A2D Technologies, Inc.:   DIGITIZING COMPANY
~OTHER INFORMATION
~A   DEPT      SPR         SN         IL       CALD         GRD      RHOB       DPHI       CORR   
# ...
  220.5000   -68.3830     7.5420     7.4810     8.2070   109.8510     2.4690     0.1390     0.0490
  221.0000   -68.3150     7.5720     7.4930     8.2010   109.6250     2.4670     0.1440     0.0430
  221.5000   -68.2480     7.6010     7.5050     8.2060   109.5940     2.4590     0.1420     0.0420
  222.0000   -68.1800     7.6300     7.5180     8.2100   111.3740     2.4550     0.1400     0.0420
  222.5000   -68.1130     7.6590     7.5190     8.2140   113.4120     2.4550     0.1410     0.0460
  223.0000   -68.0450     7.6360     7.5190     8.2190   111.3320     2.4550     0.1420     0.0480
  223.5000   -67.9770     7.6130     7.5190     8.2230   108.3840     2.4550     0.1420     0.0570
  224.0000   -67.9100     7.5910     7.5190     8.2270   110.6030     2.4550     0.1360     0.0690
  224.5000   -67.8420     7.5680     7.5190     8.2320   112.9370     2.4590     0.1300     0.0800
  225.0000   -67.7740     7.5460     7.5190     8.2360   113.2520     2.4700     0.1250     0.0920
  225.5000   -67.7070     7.5210     7.5190     8.2390   111.8380     2.4800     0.1210     0.0960
  226.0000   -67.6390     7.5350     7.5190     8.2310   111.0120     2.4920     0.1200     0.0890
  226.5000   -67.5720     7.5520     7.5190     8.2230   111.1030     2.4940     0.1200     0.0820
  227.0000   -67.5040     7.5710     7.5190     8.2140   111.2620     2.4950     0.1220     0.0770
  227.5000   -67.4360     7.5890     7.5190     8.2050   111.4820     2.4910     0.1280     0.0750
  228.0000   -67.3690     7.6070     7.5190     8.2030   111.6000     2.4830     0.1340     0.0760
  228.5000   -67.3010     7.6260     7.5200     8.2130   112.2670     2.4750     0.1380     0.0830
  229.0000   -67.2340     7.6430     7.5120     8.2220   114.0450     2.4690     0.1340     0.0820
  229.5000   -67.1650     7.6580     7.4870     8.2320   115.6140     2.4680     0.1280     0.0700
  230.0000   -67.1330     7.6280     7.4610     8.2400   113.6820     2.4710     0.1340     0.0680
  230.5000   -67.1420     7.6020     7.4350     8.2440   111.3360     2.4740     0.1400     0.0720
  231.0000   -67.0830     7.5750     7.4100     8.2480   109.4990     2.4660     0.1450     0.0830
  231.5000   -66.8530     7.5470     7.3840     8.2520   110.1320     2.4560     0.1470     0.1020
  232.0000   -66.7370     7.5200     7.3580     8.2560   110.6910     2.4530     0.1480     0.1190
  232.5000   -66.7910     7.4920     7.3330     8.2600   111.0360     2.4530     0.1370     0.1360
  233.0000   -66.8240     7.4650     7.3070     8.2630   110.9220     2.4680     0.1250     0.1410
  233.5000   -66.8640     7.4380     7.2820     8.2670   108.9980     2.4870     0.1100     0.1140
  234.0000   -66.9030     7.4100     7.2560     8.2710   107.7760     2.5070     0.1130     0.0830
  234.5000   -66.9420     7.3830     7.2300     8.2750   109.2460     2.5080     0.1200     0.0580
  235.0000   -66.9810     7.3560     7.2050     8.2790   110.5690     2.4960     0.1270     0.0550
  235.5000   -67.0190     7.3280     7.1790     8.2820   112.1080     2.4860     0.1340     0.0570
  236.0000   -67.0580     7.3010     7.1530     8.2860   112.6400     2.4760     0.1410     0.0590
  236.5000   -67.0970     7.2740     7.1280     8.2900   113.2100     2.4660     0.1480     0.0620
  237.0000   -67.1360     7.2460     7.1020     8.2940   113.2260     2.4550     0.1480     0.0640
  237.5000   -67.1740     7.2190     7.0770     8.2980   112.7340     2.4460     0.1400     0.0660
  238.0000   -67.2130     7.1920     7.0510     8.3020   112.8280     2.4530     0.1340     0.0610
  238.5000   -67.2520     7.1640     7.0250     8.3050   113.9540     2.4660     0.1270     0.0560
  239.0000   -67.2910     7.1370     7.0000     8.3090   116.3870     2.4770     0.1210     0.0510
  239.5000   -67.3300     7.1100     6.9740     8.3130   118.5510     2.4860     0.1270     0.0450
  240.0000   -67.3690     7.0820     6.9480     8.3170   120.9010     2.4860     0.1320     0.0420
  240.5000   -67.4070     7.0550     6.9230     8.3190   120.1880     2.4790     0.1370     0.0450
  241.0000   -67.4460     7.0280     6.8970     8.3090   118.6400     2.4700     0.1390     0.0460
  241.5000   -67.4850     6.9840     6.8720     8.3010   119.1580     2.4650     0.1350     0.0520
  242.0000   -67.5240     7.0200     6.8560     8.2910   120.0500     2.4660     0.1310     0.0590
  242.5000   -67.5630     7.1070     6.9620     8.2820   118.4560     2.4720     0.1280     0.0650
  243.0000   -67.6020     7.1940     7.0660     8.2730   117.5290     2.4800     0.1240     0.0710
  243.5000   -67.6400     7.2820     7.1690     8.2650   117.2450     2.4870     0.1240     0.0770
  244.0000   -67.6790     7.3690     7.2730     8.2560   115.9120     2.4870     0.1240     0.0810
  244.5000   -67.7180     7.4560     7.3760     8.2460   113.6430     2.4880     0.1230     0.0750
  245.0000   -67.7570     7.5430     7.4800     8.2400   113.0310     2.4880     0.1230     0.0700
  245.5000   -67.7960     7.6300     7.5840     8.2400   113.3350     2.4880     0.1250     0.0640
  246.0000   -67.8340     7.7180     7.6870     8.2400   113.1840     2.4890     0.1250     0.0580
  246.5000   -67.8730     7.8050     7.7910     8.2400   112.3530     2.4890     0.1220     0.0520
  247.0000   -67.9120     7.8920     7.8940     8.2400   111.8720     2.4920     0.1190     0.0470
  247.5000   -67.9400     7.9790     7.9980     8.2400   109.5190     2.4950     0.1160     0.0410
  248.0000   -67.9170     8.0960     8.0960     8.2400   105.9530     2.4980     0.1130     0.0410
  248.5000   -67.8970     8.0760     8.0660     8.2400   102.6010     2.5020     0.1170     0.0490
  249.0000   -67.8750     8.0470     8.0220     8.2400   100.6640     2.4990     0.1230     0.0560
  249.5000   -67.8540     8.0180     7.9780     8.2400   103.9000     2.4910     0.1290     0.0640
  250.0000   -67.8330     7.9890     7.9350     8.2400   113.3220     2.4820     0.1300     0.0700
  250.5000   -67.8110     7.9600     7.8910     8.2400   118.0960     2.4830     0.1220     0.0730
  251.0000   -67.7900     7.9310     7.8470     8.2400   115.7580     2.4860     0.1240     0.0770
  251.5000   -67.7690     7.9020     7.8030     8.2400   114.9380     2.4890     0.1240     0.0780
  252.0000   -67.7480     7.8730     7.7590     8.2400   115.3310     2.4900     0.1200     0.0750
  252.5000   -67.7260     7.8440     7.7150     8.2400   115.0500     2.4910     0.1190     0.0750
  253.0000   -67.7050     7.8160     7.6710     8.2400   115.6560     2.4930     0.1180     0.0670
  253.5000   -67.6840     7.7870     7.6270     8.2400   117.9730     2.4940     0.1190     0.0530
  254.0000   -67.6620     7.7580     7.5830     8.2400   120.2390     2.4950     0.1200     0.0440
  254.5000   -67.6410     7.7290     7.5190     8.2400   122.1070     2.4930     0.1240     0.0400
  255.0000   -67.6200     7.7000     7.5240     8.2400   121.6060     2.4860     0.1310     0.0530
  255.5000   -67.5980     7.6590     7.5330     8.2400   121.0250     2.4730     0.1380     0.0730
  256.0000   -67.5770     7.6660     7.5430     8.2400   121.6410     2.4610     0.1480     0.0920
  256.5000   -67.5560     7.6760     7.5520     8.2400   122.5180     2.4500     0.1440     0.1120
  257.0000   -67.5340     7.6860     7.5610     8.2400   123.3780     2.4560     0.1290     0.1050
  257.5000   -67.5130     7.6960     7.5700     8.2400   122.5600     2.4740     0.1130     0.0940
  258.0000   -67.4920     7.7070     7.5790     8.2400   117.9750     2.4890     0.1120     0.0820
  258.5000   -67.4700     7.7170     7.5880     8.2400   112.4730     2.5060     0.1130     0.0710
  259.0000   -67.4490     7.7270     7.5980     8.2400   106.4910     2.5060     0.1130     0.0630
  259.5000   -67.4280     7.7370     7.6070     8.2400   102.2970     2.5040     0.1140     0.0590
  260.0000   -67.4060     7.7470     7.6160     8.2400   103.5010     2.5030     0.1110     0.0550
  260.5000   -67.3850     7.7580     7.6250     8.2400   105.1090     2.5050     0.1080     0.0500
