~VERSION INFORMATION
 VERS.                2.0:   CWLS LOG ASCII STANDARD - VERSION 2.0
 WRAP.                 NO:   ONE LINE PER DEPTH STEP
~WELL INFORMATION
#MNEM.UNIT      DATA TYPE    INFORMATION
#----------   ------------   ------------------------------
 STRT.F            0.0000:   START DEPTH
 STOP.F          625.0000:   STOP DEPTH
 STEP.F            0.5000:   STEP LENGTH
 NULL.          -999.2500:   NO VALUE
 COMP.       F D SERV INC:   COMPANY
 WELL.    75-3 SX-3 #72-3:   WELL
 FLD .             TEAPOT:   FIELD
 LOC .       S3 T38N R78W:   LOCATION
 CNTY.            NATRONA:   COUNTY
 STAT.            WYOMING:   STATE
 CTRY. UNITED STATES OF AMERICA:   COUNTRY
 SRVC.     Atlas Wireline:   SERVICE COMPANY
 DATE.        05-MAY-1992:   LOGDATE
 API .       490252251800:   API NUMBER
~CURVE INFORMATION
#MNEM.UNIT       API CODE    CURVE DESCRIPTION
#----------   ------------   ------------------------------
 DEPT.F                  :   
 CALD.IN     45 280 60 00:   CALIPER FROM DENSITY
 CORR.G/C3   45 356 01 00:   DENSITY CORRECTION
 DEN .G/C3   45 350 01 00:   COMPENSATED BULK DENSTIY
 GRD .GAPI   45 310 01 00:   GAMMA RAY FROM DENSITY LOG
 RILD.OHMM   07 120 46 00:   INDUCTION LOG DEEP RESISTIVITY
 RILM.OHMM   07 120 44 00:   INDUCTION LOG MEDIUM RESISTIVITY
 PORD.DEC    45 890 12 00:   POROSITY DENSITY SANDSTONE
~PARAMETER INFORMATION
#MNEM.UNIT          VALUE    DESCRIPTION
#----------   ------------   ------------------------------
 PD  .                 GL:   PERMANENT DATUM
 EPD .F              5148:   ELEVATION PERMANENT DATUM
 LMF .                 KB:   LOG MEASURED FROM
 DAPD.F                 5:   FEET ABOVE PERMANENT DATUM
 DMF .                 KB:   DRILLING MEASURED FROM
 EKB .F              5153:   KELLING BUSHING
 EDF .F              5152:   DRILLING FLOOR
 EGL .F              5148:   GROUND LEVEL
 DATE.        05-MAY-1992:   RUN DATE
 RUN .                  1:   RUN NUMBER
 DD  .F               630:   DEPTH DRILLER
 DL  .F               633:   DEPTH LOGGER
 BLI .F               625:   BOTTOM LOG INTERVAL
 CS  .IN            8.625:   CASING SIZE
 CBD .F                44:   CASING BOTTOM DRILLER
 CBL .F                49:   CASING BOTTOM LOGGER
 BS  .IN            7.875:   BIT SIZE
 BSD .F               630:   BIT SIZE AT DEPTH
 DFT .        AIR DRILLED:   DRILLING FLUID TYPE
 MRT .F                88:   MAXIMUM RECORDED TEMPERATURE
 LUN .           HL- 6274:   LOGGING UNIT NUMBER
 LUL .             CASPER:   LOGGING UNIT LOCATION
 ENGI.       P. RASHUSSEN:   RECORDING ENGINEER
 WITN.          G. STRONG:   WITNESSED BY
 CLNT.            A2DTECH:   CLIENT CODE
 ORIG.           5" PRINT:   ORIGIN OF DATA
 UWI .       490252251800:   UNIQUE WELL ID
 DICO. A2D Technologies, Inc.:   DIGITIZING COMPANY
~OTHER INFORMATION
~A    DEPT    CALD       CORR        DEN         GRD      RILD       RILM       PORD   
# ...
  591.5000     8.0990     0.0083     2.5400   144.0040    12.3071    12.4014     0.0709
  592.0000     8.0990     0.0053     2.5430   145.9194    12.1312    12.3127     0.0682
  592.5000     8.0990    -0.0038     2.5430   148.5146    12.0418    12.2245     0.0661
  593.0000     8.0990    -0.0038     2.5430   146.4098    12.0368    12.2220     0.0682
  593.5000     8.0990    -0.0068     2.5445   114.3199    11.9480    12.0502     0.0679
  594.0000     8.0990    -0.0128     2.5445     0.0000    11.7773    11.9639     0.0673
  594.5000     8.0990    -0.0038     2.5460  -999.2500    11.6904    11.7957     0.0670
  595.0000     8.1139    -0.0008     2.5475  -999.2500    11.6854    11.6298     0.0661
  595.5000     8.1139    -0.0038     2.5475  -999.2500    11.5842    11.5461     0.0658
  596.0000     8.1139    -0.0098     2.5490  -999.2500    11.3529    11.3843     0.0655
  596.5000     8.0990    -0.0098     2.5490  -999.2500    11.2692    11.3027     0.0657
  597.0000     8.0990    -0.0068     2.5475  -999.2500    11.1082    11.1433     0.0648
  597.5000     8.0990    -0.0038     2.5460  -999.2500    11.0263    10.9866     0.0651
  598.0000     8.0990    -0.0038     2.5460  -999.2500    10.8688    10.7568     0.0630
  598.5000     8.0990    -0.0008     2.5460  -999.2500    10.7135    10.5318     0.0576
  599.0000     8.0990    -0.0038     2.5445  -999.2500    10.5604    10.3115     0.1937
  599.5000     8.0990  -999.2500  -999.2500  -999.2500    10.4095    10.0958     0.1934
  600.0000     8.0990  -999.2500  -999.2500  -999.2500    10.2513     9.8847     0.1937
  600.5000     8.0990  -999.2500  -999.2500  -999.2500    10.1880     9.8826     0.1937
  601.0000     8.0990  -999.2500  -999.2500  -999.2500     9.9745     9.8119     0.1934
  601.5000     8.0990  -999.2500  -999.2500  -999.2500     9.7659     9.7417     0.1934
  602.0000     8.0990  -999.2500  -999.2500  -999.2500     9.5616     9.6719     0.1935
  602.5000     8.0990  -999.2500  -999.2500  -999.2500     9.5600     9.6005     0.1938
  603.0000     8.0990  -999.2500  -999.2500  -999.2500     9.6254     9.5339     0.1938
  603.5000     8.0840  -999.2500  -999.2500  -999.2500     9.6238     9.4657     0.1938
  604.0000     8.0840  -999.2500  -999.2500  -999.2500     9.6221     9.5301     0.1938
  604.5000  -999.2500  -999.2500  -999.2500  -999.2500     9.6205     9.4614     0.1938
  605.0000  -999.2500  -999.2500  -999.2500  -999.2500     9.6863     9.4594     0.1935
  605.5000  -999.2500  -999.2500  -999.2500  -999.2500     9.6841     9.3264     0.1939
  606.0000  -999.2500  -999.2500  -999.2500  -999.2500     9.6089     9.2597     0.1939
  606.5000  -999.2500  -999.2500  -999.2500  -999.2500     9.5466     9.1934     0.1942
  607.0000  -999.2500  -999.2500  -999.2500  -999.2500     9.4785     9.1276     0.1939
  607.5000  -999.2500  -999.2500  -999.2500  -999.2500     9.4108     9.0621     0.1936
  608.0000  -999.2500  -999.2500  -999.2500  -999.2500     9.2786     8.9974     0.1936
  608.5000  -999.2500  -999.2500  -999.2500  -999.2500     9.0846     8.9330     0.1937
  609.0000  -999.2500  -999.2500  -999.2500  -999.2500     8.9570     8.8074     0.1940
  609.5000  -999.2500  -999.2500  -999.2500  -999.2500     8.8312     8.7407     0.1937
  610.0000  -999.2500  -999.2500  -999.2500  -999.2500     8.7682     8.6213     0.1934
  610.5000  -999.2500  -999.2500  -999.2500  -999.2500     8.5848     8.4998     0.1934
  611.0000  -999.2500  -999.2500  -999.2500  -999.2500     8.4642     8.4389     0.1937
  611.5000  -999.2500  -999.2500  -999.2500  -999.2500     8.3390     8.3203     0.1937
  612.0000  -999.2500  -999.2500  -999.2500  -999.2500     8.1135     8.1462     0.1941
  612.5000  -999.2500  -999.2500  -999.2500  -999.2500     7.9995     8.0879     0.1944
  613.0000  -999.2500  -999.2500  -999.2500  -999.2500     7.8323     7.9742     0.1944
  613.5000  -999.2500  -999.2500  -999.2500  -999.2500     7.6685     7.9171     0.1941
  614.0000  -999.2500  -999.2500  -999.2500  -999.2500     7.6671     7.8605     0.1941
  614.5000  -999.2500  -999.2500  -999.2500  -999.2500     7.6124     7.8042     0.1938
  615.0000  -999.2500  -999.2500  -999.2500  -999.2500     7.6111     7.7483     0.1938
  615.5000  -999.2500  -999.2500  -999.2500  -999.2500     7.6632     7.6929     0.1936
  616.0000  -999.2500  -999.2500  -999.2500  -999.2500     7.7697     7.6913     0.1936
  616.5000  -999.2500  -999.2500  -999.2500  -999.2500     7.8806     7.7483     0.1936
  617.0000  -999.2500  -999.2500  -999.2500  -999.2500     8.0498     7.9145     0.1939
  617.5000  -999.2500  -999.2500  -999.2500  -999.2500     8.2119     8.2416     0.1942
  618.0000  -999.2500  -999.2500  -999.2500  -999.2500     8.5025     8.4731     0.1945
  618.5000  -999.2500  -999.2500  -999.2500  -999.2500     8.7424     8.7112     0.1942
  619.0000  -999.2500  -999.2500  -999.2500  -999.2500     8.9883     9.0817     0.1940
  619.5000  -999.2500  -999.2500  -999.2500  -999.2500     9.1775     9.2719     0.1940
  620.0000  -999.2500  -999.2500  -999.2500  -999.2500     9.4357     9.4666     0.1940
  620.5000  -999.2500  -999.2500  -999.2500  -999.2500     9.7015     9.6644     0.1940
  621.0000  -999.2500  -999.2500  -999.2500  -999.2500     9.8363     9.7982     0.1940
  621.5000  -999.2500  -999.2500  -999.2500  -999.2500     9.9731     9.8649     0.1940
  622.0000  -999.2500  -999.2500  -999.2500  -999.2500    10.1117     9.8627     0.1941
  622.5000  -999.2500  -999.2500  -999.2500  -999.2500    10.1809     9.8607     0.1941
  623.0000  -999.2500  -999.2500  -999.2500  -999.2500    10.1787     9.8560     0.1941
  623.5000  -999.2500  -999.2500  -999.2500  -999.2500    10.1770     9.7880     0.1947
  624.0000  -999.2500  -999.2500  -999.2500  -999.2500    10.1752     9.7856     0.1941
  624.5000  -999.2500  -999.2500  -999.2500  -999.2500  -999.2500  -999.2500     0.1941
  625.0000  -999.2500  -999.2500  -999.2500  -999.2500  -999.2500  -999.2500     0.1941
