~VERSION INFORMATION
 VERS.                2.0:   CWLS LOG ASCII STANDARD - VERSION 2.0
 WRAP.                 NO:   ONE LINE PER DEPTH STEP
~WELL INFORMATION
#MNEM.UNIT      DATA TYPE    INFORMATION
#----------   ------------   ------------------------------
 STRT.F            4.0000:   START DEPTH
 STOP.F          508.0000:   STOP DEPTH
 STEP.F            0.5000:   STEP LENGTH
 NULL.          -999.2500:   NO VALUE
 COMP. LAWRENCE-ALLISON &AS:   COMPANY
 WELL. NPR ##3 58-65-SX-3-UPI:   WELL
 FLD .             TEAPOT:   FIELD
 LOC .       S3 T38N R78W:   LOCATION
 CNTY.            NATRONA:   COUNTY
 STAT.            WYOMING:   STATE
 CTRY. UNITED STATES OF AMERICA:   COUNTRY
 SRVC.      Dresser Atlas:   SERVICE COMPANY
 DATE.        07-DEC-1984:   LOGDATE
 API .       490251102500:   API NUMBER
~CURVE INFORMATION
#MNEM.UNIT       API CODE    CURVE DESCRIPTION
#----------   ------------   ------------------------------
 DEPT.F                  :   
 SPR .MV     07 010 01 00:   SPONTANEOUS POTENTIAL
 RILD.OHMM   07 120 46 00:   INDUCTION LOG DEEP RESISTIVITY
 RILM.OHMM   07 120 44 00:   INDUCTION LOG MEDIUM RESISTIVITY
 RFOC.OHMM   07 220 04 00:   RESISTIVITY FOCUSED LOG
 CALS.IN     60 280 50 00:   CALIPER FROM SONIC LOG
 GRS .GAPI   60 310 01 00:   GAMMA RAY FROM SONIC LOG
 AC  .US/F   60 520 00 00:   ACCOUSTIC SONIC
~PARAMETER INFORMATION
#MNEM.UNIT          VALUE    DESCRIPTION
#----------   ------------   ------------------------------
 PD  .                 GL:   PERMANENT DATUM
 EPD .F              5184:   ELEVATION PERMANENT DATUM
 LMF .                 GL:   LOG MEASURED FROM
 DMF .                 GL:   DRILLING MEASURED FROM
 EGL .F              5184:   GROUND LEVEL
 DATE.        07-DEC-1984:   RUN DATE
 RUN .                  1:   RUN NUMBER
 DD  .F               510:   DEPTH DRILLER
 DL  .F               510:   DEPTH LOGGER
 BLI .F               508:   BOTTOM LOG INTERVAL
 TLI .F                20:   TOP LOG INTERVAL
 CS  .IN            8.625:   CASING SIZE
 CBD .F                20:   CASING BOTTOM DRILLER
 CBL .F                20:   CASING BOTTOM LOGGER
 BS  .IN            7.875:   BIT SIZE
 BSD .F               510:   BIT SIZE AT DEPTH
 DFT .          KCL WATER:   DRILLING FLUID TYPE
 MSS .            MUD PIT:   MUD SAMPLE SOURCE
 RMS .OHMM            .14:   RESISTIVITY MUD SAMPLE
 MST .F                55:   MUD SAMPLE TEMPERATURE
 RMF .OHMM             .1:   RESISTIVITY MUD FILTRATE SAMPLE
 MFST.F                55:   MUD FILTRATE SAMPLE TEMPERATURE
 RMC .OHMM            .17:   RESISTIVITY MUD CAKE
 MCST.F                55:   MUD CAKE SAMPLE TEMPERATURE
 MFSS.               CALC:   MUD FILTRATE SAMPLE SOURCE
 MCSS.               CALC:   MUD CAKE SAMPLE SOURCE
 RMB .OHMM            .08:   RESISTIVITY MUD AT BHT
 BHT .F                86:   BOTTOM HOLE TEMPERATURE
 TCS .HRS               3:   TIME CURCULATED STOPPED
 MRT .F               100:   MAXIMUM RECORDED TEMPERATURE
 LUN .               6270:   LOGGING UNIT NUMBER
 LUL .                 FM:   LOGGING UNIT LOCATION
 ENGI.          E. GOVETT:   RECORDING ENGINEER
 WITN.      GROOMS, LUERS:   WITNESSED BY
 CLNT.            A2DTECH:   CLIENT CODE
 ORIG.           5" PRINT:   ORIGIN OF DATA
 UWI .       490251102500:   UNIQUE WELL ID
 DICO. A2D Technologies, Inc.:   DIGITIZING COMPANY
~OTHER INFORMATION
~A    DEPT     SPR       RILD       RILM       RFOC       CALS         GRS        AC   
# ...
  231.5000   -54.7988     7.1869     6.1806     7.6824     7.4495   106.2388   108.1432
  232.0000   -54.7839     7.0878     6.0141     7.6867     7.4506   103.8681   107.9116
  232.5000   -54.7689     6.7124     5.8538     7.7984     7.4516   106.5540   107.5291
  233.0000   -54.7538     6.1795     5.5797     8.0223     7.4527   109.5349   107.2116
  233.5000   -55.0368     5.7684     5.1012     8.1956     7.4389   108.2066   106.7519
  234.0000   -55.1714     5.4221     4.5277     8.2561     7.4399   107.3241   106.3831
  234.5000   -55.4536     5.1321     4.3847     7.4975     7.4410   108.0405   106.9811
  235.0000   -55.4385     5.0285     4.4187     5.6843     7.4420   111.1540   109.6907
  235.5000   -55.4234     4.9627     4.5130     4.8489     7.4431   113.1550   113.9085
  236.0000   -55.4083     4.9304     4.6425     4.8854     7.4442   112.9925   116.5427
  236.5000   -55.2441     4.9683     4.7757     5.4998     7.4303   108.8530   116.2357
  237.0000   -55.2290     5.0757     4.9469     6.4996     7.4314   106.7818   114.4203
  237.5000   -55.0649     5.2945     5.1598     7.0343     7.4324   107.0880   111.3984
  238.0000   -55.0497     5.7576     5.3078     7.2804     7.4335   106.6513   109.7339
  238.5000   -54.8856     6.3048     5.4601     7.6962     7.4346   104.8773   109.3515
  239.0000   -54.7214     6.9040     5.5779     8.1318     7.4505   104.2898   108.1395
  239.5000   -54.5604     7.2800     5.6983     8.4235     7.4514   105.4898   106.5504
  240.0000   -54.3964     7.6764     5.8213     8.5460     7.4523   107.7277   105.6400
  240.5000   -54.0834     7.8350     5.9469     8.6702     7.4534   108.4774   105.1679
  241.0000   -53.7705     7.8939     6.0753     8.7355     7.4545   104.9226   104.9411
  241.5000   -53.4574     7.8983     6.2064     8.7404     7.4704   104.3350   104.7144
  242.0000   -53.1442     7.9028     6.3404     8.8062     7.4715   105.2379   104.4877
  242.5000   -52.9801     7.9072     6.4765     8.8111     7.4725   104.0582   104.3325
  243.0000   -52.6669     7.9117     6.5705     8.8161     7.4736   103.3220   104.2517
  243.5000   -52.5027     7.9162     6.6659     8.8825     7.4746   103.1825   104.1710
  244.0000   -52.4876     7.9206     6.7166     8.8875     7.4757   105.6169   104.0902
  244.5000   -52.3235     7.9251     6.7665     8.9544     7.4767   108.6984   104.2356
  245.0000   -52.3083     7.9295     6.8174     9.0218     7.4778   110.2131   104.5319
  245.5000   -52.2932     7.9340     6.7739     9.0259     7.4788   107.8250   104.6787
  246.0000   -52.2781     7.9385     6.6846     9.0937     7.4799   102.1876   104.4458
  246.5000   -52.4158     7.9429     6.6412     9.0987     7.4810   102.3453   103.5355
  247.0000   -52.3969     7.9474     6.6459     9.1671     7.4820   103.6916   102.9268
  247.5000   -52.5346     8.0073     6.6959     9.1089     7.4831   103.1063   102.7706
  248.0000   -52.5157     8.0676     6.8880     8.6221     7.4990   102.0753   102.9915
  248.5000   -52.5037     8.1410     7.1349     8.3329     7.5148   102.9758   103.7232
  249.0000   -52.6383     8.2323     7.4420     8.2788     7.5157   105.2137   104.7355
  249.5000   -52.6230     8.3080     7.6555     8.4004     7.5317   105.6685   105.0129
  250.0000   -52.6088     8.3897     7.9031     8.7841     7.5475   102.6437   104.4327
  250.5000   -52.5981     8.4923     8.1572     9.3319     7.5384    99.1469   102.7585
  251.0000   -52.5874     8.4383     8.2762     9.8016     7.5345    97.6686   100.9241
  251.5000   -52.5753     7.8770     7.9442    10.1532     7.5206    97.3770    99.6367
  252.0000   -52.5647     6.9558     7.1149    10.3008     7.5066    97.5334    98.5002
  252.5000   -52.7058     6.3152     6.0285    10.3066     7.5075    97.5606    98.3454
  253.0000   -52.9933     5.9775     4.9683    10.1001     7.5084    98.3607   100.3749
  253.5000   -53.1317     5.8163     4.7690     8.2645     7.5093   104.0396   104.2912
  254.0000   -53.1207     5.7793     4.9746     4.4606     7.4951   109.9000   112.5815
  254.5000   -52.9612     5.8699     5.6002     4.3404     7.4811   109.4577   116.3469
  255.0000   -52.6528     6.0404     6.0476     4.7940     7.4671   103.6703   115.2104
  255.5000   -52.1951     6.3837     6.4857     6.9144     7.4533    97.1399   110.3786
  256.0000   -51.7374     6.7949     6.9555    10.3458     7.4542    94.3242   103.4351
  256.5000   -50.9816     7.2370     7.2814    11.2501     7.4551    94.6289    98.4524
  257.0000   -50.3749     7.8700     7.6850    11.0246     7.4560    93.8934    97.9192
  257.5000   -49.7681     8.6180     8.0064    10.8789     7.4718    93.7505    97.9139
  258.0000   -49.3104     9.5028     8.1204    10.7350     7.4727    95.9887    97.9853
  258.5000   -48.7037    10.1210     8.1256    10.6653     7.4736    97.7793    98.2049
  259.0000   -48.0969    10.3398     8.1307    10.6729     7.4894    98.5297    98.6521
  259.5000   -47.4902    10.4902     8.0794    10.6789     7.4903    99.7259    99.4763
  260.0000   -46.7344    10.6428     8.0848    10.7592     7.4912    99.2877    99.9397
  260.5000   -45.9787    10.9486     8.0899    10.9916     7.5070    96.1748   100.2966
  261.0000   -45.1953    11.3416     8.0379    11.3072     7.5079    92.3190   100.2157
  261.5000   -44.2808    11.7487     8.0443    11.8764     7.5237    87.1259    99.9841
  262.0000   -42.9488    12.5131     7.9925    13.4631     7.5245    77.7723   101.1744
  262.5000   -41.6170    13.4200     8.1105    14.4361     7.5403    70.3504   105.2842
  263.0000   -39.8180    14.0348     8.5783    13.1467     7.5412    64.5630   112.5378
  263.5000   -38.0190    14.9503     9.5240    12.1405     7.5570    59.9643   121.5337
  264.0000   -36.5181    16.1172    10.7217    12.2570     7.5428    55.5141   130.8505
  264.5000   -35.1662    17.2743    11.4567    13.7038     7.5139    55.9916   143.6172
  265.0000   -34.2614    18.7759    12.3555    16.8630     7.5000    56.5676   154.0945
  265.5000   -33.6547    20.5604    13.0473    19.9283     7.4860    56.5751   160.5749
  266.0000   -33.1970    22.5145    13.5088    23.7145     7.4869    57.2005   164.6420
  266.5000   -32.7393    24.3145    13.5257    27.8315     7.4878    60.7624   167.2008
  267.0000   -32.2816    25.7172    13.2477    28.6265     7.4887    63.8782   170.5137
  267.5000   -31.9729    26.4561    12.9833    27.4790     7.4896    65.8174   176.0891
  268.0000   -31.5152    26.6554    12.8998    26.0105     7.4905    66.1220   180.0808
  268.5000   -31.1789    26.4822    13.2729    24.4504     7.5062    65.0894   184.2987
  269.0000   -30.7511    26.1319    14.0384    23.3048     7.5071    63.0167   187.0083
  269.5000   -30.4426    25.7861    15.2655    23.4802     7.5080    60.6468   188.9638
  270.0000   -30.1341    25.6222    16.7153    24.8338     7.5089    59.4656   189.6372
  270.5000   -29.9745    25.4593    18.3027    24.6760     7.5098    60.5132   189.8595
  271.0000   -29.9639    25.2975    18.8291    24.8617     7.5107    62.0066   189.7774
  271.5000   -29.9533    25.3153    17.9489    27.6030     7.5265    63.2028   189.3950
  272.0000   -29.9427    25.5030    17.2287    29.4653     7.5274    63.5075   186.5240
  272.5000   -30.0811    25.7158    16.7487    29.1369     7.5432    63.3645   185.0858
  273.0000   -30.2222    26.0794    16.6604    26.8564     7.5441    62.0366   185.3067
  273.5000   -30.5070    25.9021    18.2518    24.5833     7.5599    59.5181   185.8306
  274.0000   -30.7971    24.8601    19.7002    23.5959     7.5457    58.0379   180.6958
  274.5000   -31.2309    24.1930    19.8498    24.4425     7.5617    59.6817   160.4479
  275.0000   -31.5184    24.0386    19.7247    26.3950     7.5626    63.7011   149.6910
  275.5000   -31.6594    24.7299    19.5983    28.5036     7.5635    66.3832   155.7519
  276.0000   -31.6483    25.9756    20.0259    29.9383     7.5493    68.9167   181.9759
  276.5000   -31.4689    27.2842    22.5441    28.3384     7.5353    71.0044   173.7004
