~VERSION INFORMATION
 VERS.                2.0:   CWLS LOG ASCII STANDARD - VERSION 2.0
 WRAP.                 NO:   ONE LINE PER DEPTH STEP
~WELL INFORMATION
#MNEM.UNIT      DATA TYPE    INFORMATION
#----------   ------------   ------------------------------
 STRT.F           16.0000:   START DEPTH
 STOP.F          484.5000:   STOP DEPTH
 STEP.F            0.5000:   STEP LENGTH
 NULL.          -999.2500:   NO VALUE
 COMP. FENIX & SCISSON INC:   COMPANY
 WELL. NPR 3 #83 SX 10-10:   WELL
 FLD .             TEAPOT:   FIELD
 LOC .      S10 T38N R78W:   LOCATION
 CNTY.            NATRONA:   COUNTY
 STAT.            WYOMING:   STATE
 CTRY. UNITED STATES OF AMERICA:   COUNTRY
 SRVC.           BIRDWELL:   SERVICE COMPANY
 DATE.        25-NOV-1978:   LOGDATE
 API .       490251075200:   API NUMBER
~CURVE INFORMATION
#MNEM.UNIT       API CODE    CURVE DESCRIPTION
#----------   ------------   ------------------------------
 DEPT.F                  :   
 SPR .MV     05 010 01 00:   SPONTANEOUS POTENTIAL FROM RES.
 SN  .OHMM   05 040 16 00:   SHORT NORMAL 16"
 IL  .OHMM   05 120 00 00:   INDUCTION LOG
 CALD.IN     45 280 60 00:   CALIPER
 GRD .GAPI   45 310 01 00:   GAMMA RAY FROM DENSITY LOG
 CORR.G/C3   45 356 01 00:   DENSITY CORRECTION
 DPHI.DEC    45 890 12 00:   DENSITY POROSITY SANDSTONE
 RHOB.G/C3   45 350 01 00:   BULK DENSITY
~PARAMETER INFORMATION
#MNEM.UNIT          VALUE    DESCRIPTION
#----------   ------------   ------------------------------
 PD  .                 GL:   PERMANENT DATUM
 EPD .F              5145:   ELEVATION PERMANENT DATUM
 LMF .                 KB:   LOG MEASURED FROM
 DAPD.F                 4:   FEET ABOVE PERMANENT DATUM
 DMF .                 KB:   DRILLING MEASURED FROM
 EKB .F              5149:   KELLING BUSHING
 EGL .F              5145:   GROUND LEVEL
 DATE.           11-25-78:   RUN DATE
 RUN .                  1:   RUN NUMBER
 DD  .F               490:   DEPTH DRILLER
 DL  .F               487:   DEPTH LOGGER
 BLI .F               481:   BOTTOM LOG INTERVAL
 TLI .F                30:   TOP LOG INTERVAL
 CS  .IN            8.625:   CASING SIZE
 CBD .F                40:   CASING BOTTOM DRILLER
 CBL .F                35:   CASING BOTTOM LOGGER
 BS  .IN            7.875:   BIT SIZE
 BSD .F               490:   BIT SIZE AT DEPTH
 DFT .             SEAMUD:   DRILLING FLUID TYPE
 DFD .                8.8:   DRILLING FLUID DENSITY
 DFV .                 38:   DRILLING FLUID VISCOSITY
 DFPH.               11.1:   DRILLING FLUID PH
 DFL .                9.6:   DRILLING FLUID LOSS
 MSS .           FLOWLINE:   MUD SAMPLE SOURCE
 RMS .OHMM            .28:   RESISTIVITY MUD SAMPLE
 MST .F                58:   MUD SAMPLE TEMPERATURE
 RMF .OHMM            .25:   RESISTIVITY MUD FILTRATE SAMPLE
 MFST.F                70:   MUD FILTRATE SAMPLE TEMPERATURE
 RMC .OHMM             .3:   RESISTIVITY MUD CAKE
 MCST.F                70:   MUD CAKE SAMPLE TEMPERATURE
 MFSS.           MEASURED:   MUD FILTRATE SAMPLE SOURCE
 MCSS.           MEASURED:   MUD CAKE SAMPLE SOURCE
 BHT .F                58:   BOTTOM HOLE TEMPERATURE
 TCS .HRS               3:   TIME CURCULATED STOPPED
 MRT .F                58:   MAXIMUM RECORDED TEMPERATURE
 LUN .               3029:   LOGGING UNIT NUMBER
 LUL .               CASP:   LOGGING UNIT LOCATION
 ENGI.           REYNOLDS:   RECORDING ENGINEER
 WITN.           DINSMORE:   WITNESSED BY
 CLNT.            A2DTECH:   CLIENT CODE
 ORIG.     1", 2.5" PRINT:   ORIGIN OF DATA
 UWI .       490251075200:   UNIQUE WELL ID
 DICO. A2D Technologies, Inc.:   DIGITIZING COMPANY
~OTHER INFORMATION
~A   DEPT      SPR         SN         IL       CALD         GRD      CORR       DPHI       RHOB   
# ...
  461.5000   -61.1520    11.6550    11.3660     7.5770   112.2950     0.0090     0.1150     2.4930
  462.0000   -61.0310    11.5330    11.2620     7.5750   112.2780     0.0110     0.1130     2.5010
  462.5000   -60.7170    11.4120    11.1580     7.5740   112.4470     0.0160     0.1100     2.5080
  463.0000   -60.4200    11.2910    11.0540     7.5720   114.2780     0.0210     0.1070     2.5160
  463.5000   -60.1280    11.1690    10.9500     7.5710   116.6820     0.0260     0.1040     2.5160
  464.0000   -60.0740    11.0480    10.8460     7.5690   117.1390     0.0310     0.1030     2.5140
  464.5000   -60.8710    10.9260    10.7420     7.5680   115.4950     0.0360     0.1040     2.5130
  465.0000   -61.7730    10.8050    10.6380     7.5690   109.9230     0.0330     0.1040     2.5110
  465.5000   -62.7000    10.7090    10.5340     7.5690   104.3410     0.0290     0.1080     2.5060
  466.0000   -63.6140    10.6440    10.4300     7.5690   105.4710     0.0280     0.1120     2.5000
  466.5000   -64.3090    10.5790    10.3260     7.5690   106.5350     0.0290     0.1150     2.4950
  467.0000   -63.2610    10.5150    10.2220     7.5680   107.2780     0.0290     0.1180     2.4880
  467.5000   -62.0810    10.4500    10.1180     7.5690   107.9990     0.0300     0.1200     2.4860
  468.0000   -61.5810    10.3860    10.0140     7.5680   110.8890     0.0300     0.1170     2.4920
  468.5000   -62.9820    10.3210     9.9100     7.5690   111.3460     0.0310     0.1130     2.4970
  469.0000   -64.2320    10.2570     9.8060     7.5630   111.8000     0.0310     0.1070     2.5020
  469.5000   -65.7280    10.1920     9.7030     7.5540   111.5800     0.0310     0.1090     2.4990
  470.0000   -65.5680    10.1280     9.5990     7.5460   110.2000     0.0320     0.1140     2.4940
  470.5000   -64.4130    10.0630     9.4950     7.5380   107.5840     0.0320     0.1160     2.4910
  471.0000   -63.8640     9.9990     9.4090     7.5290   104.9740     0.0350     0.1160     2.4910
  471.5000   -65.4160     9.9340     9.3570     7.5210   103.6530     0.0370     0.1160     2.4910
  472.0000   -66.8660     9.8700     9.3060     7.5130   104.1350     0.0400     0.1160     2.4910
  472.5000   -68.4230     9.8050     9.2540     7.5040   105.2730     0.0430     0.1160     2.4910
  473.0000   -69.5570     9.7410     9.2020     7.4960   111.6460     0.0480     0.1160     2.4930
  473.5000   -69.1160     9.6760     9.1500     7.4880   115.4510     0.0530     0.1090     2.4980
  474.0000   -68.6400     9.6120     9.0980     7.4790   112.7920     0.0600     0.1100     2.5020
  474.5000   -68.4340     9.5470     9.0460     7.4710   107.7320     0.0690     0.1110     2.5070
  475.0000   -68.6820     9.4830     8.9940     7.4630   110.9490     0.0820     0.1070     2.5110
  475.5000   -69.1590     9.4180     8.9420     7.4540   113.5530     0.0860     0.1060     2.5140
  476.0000   -69.5840     9.3540     8.8350     7.4460   116.6920     0.0770     0.1090     2.5050
  476.5000   -70.0640     9.2890     8.6740     7.4380  -999.2500     0.0700     0.1130     2.4950
  477.0000   -70.5570     9.2270     8.5140     7.4290  -999.2500     0.0640     0.1170     2.4910
  477.5000   -71.9810     9.1690     8.3530     7.4210  -999.2500     0.0660     0.1180     2.4910
  478.0000   -73.4290     9.1100     8.1260     7.4120  -999.2500     0.0660     0.1140     2.4930
  478.5000   -74.1560     9.0510     8.2770     7.4070  -999.2500     0.0680     0.1110     2.4990
  479.0000   -70.7610     8.9920     8.5310     7.4070  -999.2500     0.0680     0.1080     2.5040
  479.5000   -67.4470     8.9170     8.7530     7.4070  -999.2500     0.0680     0.1060     2.5130
  480.0000   -57.3860     9.2290  -999.2500     7.4070  -999.2500     0.0620     0.1050     2.5170
  480.5000   -47.4560     9.6650  -999.2500  -999.2500  -999.2500     0.0560     0.1050     2.5170
  481.0000   -46.6650    10.1000  -999.2500  -999.2500  -999.2500     0.0430     0.1040     2.5140
  481.5000  -999.2500  -999.2500  -999.2500  -999.2500  -999.2500     0.0350     0.1040     2.5100
  482.0000  -999.2500  -999.2500  -999.2500  -999.2500  -999.2500     0.0340     0.1040     2.5120
  482.5000  -999.2500  -999.2500  -999.2500  -999.2500  -999.2500     0.0310     0.1030     2.5190
  483.0000  -999.2500  -999.2500  -999.2500  -999.2500  -999.2500     0.0300     0.1020     2.5230
  483.5000  -999.2500  -999.2500  -999.2500  -999.2500  -999.2500     0.0210     0.1010     2.5210
  484.0000  -999.2500  -999.2500  -999.2500  -999.2500  -999.2500     0.0080  -999.2500     2.5200
  484.5000  -999.2500  -999.2500  -999.2500  -999.2500  -999.2500  -999.2500  -999.2500     2.5180
