~VERSION INFORMATION
 VERS.                2.0:   CWLS LOG ASCII STANDARD - VERSION 2.0
 WRAP.                 NO:   ONE LINE PER DEPTH STEP
~WELL INFORMATION
#MNEM.UNIT      DATA TYPE    INFORMATION
#----------   ------------   ------------------------------
 STRT.F            4.0000:   START DEPTH
 STOP.F          584.0000:   STOP DEPTH
 STEP.F            0.1000:   STEP LENGTH
 NULL.          -999.2500:   NO VALUE
 COMP.       F D SERV INC:   COMPANY
 WELL. N P R 3 SX-3 #62-3:   WELL
 FLD .             TEAPOT:   FIELD
 LOC .       S3 T38N R78W:   LOCATION
 CNTY.            NATRONA:   COUNTY
 STAT.            WYOMING:   STATE
 CTRY. UNITED STATES OF AMERICA:   COUNTRY
 SRVC.     Atlas Wireline:   SERVICE COMPANY
 DATE.        17-APR-1992:   LOGDATE
 API .       490252251600:   API NUMBER
~CURVE INFORMATION
#MNEM.UNIT       API CODE    CURVE DESCRIPTION
#----------   ------------   ------------------------------
 DEPT.F                  :   
 GRR .GAPI   07 310 01 00:   GAMMA RAY
 RILD.OHMM   07 120 46 00:   INDUCTION LOG DEEP RESISTIVITY
 RILM.OHMM   07 120 44 00:   INDUCTION LOG MEDIUM RESISTIVITY
~PARAMETER INFORMATION
#MNEM.UNIT          VALUE    DESCRIPTION
#----------   ------------   ------------------------------
 PD  .                 GL:   PERMANENT DATUM
 EPD .F              5135:   ELEVATION PERMANENT DATUM
 LMF .                 KB:   LOG MEASURED FROM
 DAPD.F                 5:   FEET ABOVE PERMANENT DATUM
 DMF .                 KB:   DRILLING MEASURED FROM
 EKB .F              5140:   KELLING BUSHING
 EDF .F              5139:   DRILLING FLOOR
 EGL .F              5135:   GROUND LEVEL
 DATE.        17-APR-1992:   RUN DATE
 RUN .                  1:   RUN NUMBER
 DD  .F               589:   DEPTH DRILLER
 DL  .F               590:   DEPTH LOGGER
 BLI .F               584:   BOTTOM LOG INTERVAL
 TLI .F                48:   TOP LOG INTERVAL
 CS  .IN            8.625:   CASING SIZE
 CBD .F                48:   CASING BOTTOM DRILLER
 CBL .F                48:   CASING BOTTOM LOGGER
 BS  .IN            7.875:   BIT SIZE
 BSD .F               589:   BIT SIZE AT DEPTH
 DFT .                AIR:   DRILLING FLUID TYPE
 TCS .HRS               2:   TIME CURCULATED STOPPED
 MRT .F                85:   MAXIMUM RECORDED TEMPERATURE
 LUN .            HL-6274:   LOGGING UNIT NUMBER
 LUL .             CASPER:   LOGGING UNIT LOCATION
 ENGI.             RAUTIO:   RECORDING ENGINEER
 WITN.        GARY STRONG:   WITNESSED BY
 CLNT.            A2DTECH:   CLIENT CODE
 ORIG.           5" PRINT:   ORIGIN OF DATA
 UWI .       490252251600:   UNIQUE WELL ID
 DICO. A2D Technologies, Inc.:   DIGITIZING COMPANY
~OTHER INFORMATION
~A    DEPT      GRR      RILD       RILM   
# ...
  477.2000    89.2146    19.9707    19.8106
  477.3000    88.9044    19.8544    19.6954
  477.4000    88.6561    19.7450    19.5542
  477.5000    88.3308    19.7428    19.3335
  477.6000    87.8565    19.6466    19.3312
  477.7000    87.5758    19.6018    19.2411
  477.8000    87.1441    19.5998    19.1932
  477.9000    86.6476    19.5980    19.1514
  478.0000    86.2574    19.5960    19.0242
  478.1000    85.9578    19.5941    18.7894
  478.2000    85.4545    19.5922    18.7877
  478.3000    85.2095    19.5903    18.7859
  478.4000    85.1515    19.5884    18.7313
  478.5000    85.1515    19.5864    18.6224
  478.6000    85.1515    19.5843    18.5197
  478.7000    85.1775    19.5826    18.5176
  478.8000    85.4545    19.5807    18.5161
  478.9000    85.8933    19.5788    18.5143
  479.0000    86.3900    19.5769    18.5125
  479.1000    86.9966    19.5750    18.5298
  479.2000    87.6861    19.5730    18.6386
  479.3000    88.1828    19.5711    18.6368
  479.4000    88.6792    19.5692    18.6350
  479.5000    89.3698    19.5673    18.6893
  479.6000    89.9754    19.5498    18.7619
  479.7000    90.3875    19.4271    18.7601
  479.8000    90.6657    19.4254    18.7581
  479.9000    91.2121    19.4235    18.8503
  480.0000    91.4354    19.3674    19.0279
  480.1000    91.5152    19.2251    19.1501
  480.2000    91.4014    19.0149    19.1717
  480.3000    91.0940    19.0127    19.2806
  480.4000    90.5976    18.9205    19.2787
  480.5000    90.1012    18.8769    19.2768
  480.6000    89.6045    18.8751    19.2749
  480.7000    89.1080    18.8733    19.2731
  480.8000    88.6115    18.8713    19.2712
  480.9000    88.1148    18.8696    19.2691
  481.0000    87.5758    18.8677    19.2674
  481.1000    87.3488    18.8658    19.1903
  481.2000    86.9283    18.8640    19.1295
  481.3000    86.5492    18.8621    19.1547
  481.4000    86.3636    18.8601    19.2599
  481.5000    86.3636    18.8584    19.2576
  481.6000    86.3636    18.9281    19.2561
  481.7000    86.3636    18.9870    19.2542
  481.8000    86.5103    18.9852    19.2523
  481.9000    86.8505    18.9833    19.2505
  482.0000    87.3100    18.9814    19.2485
  482.1000    87.5758    18.9796    19.2467
  482.2000    87.8065    18.9777    19.2448
  482.3000    88.2307    19.0535    19.2430
  482.4000    88.6060    19.2561    19.2104
  482.5000    88.7879    19.3739    19.1052
  482.6000    88.7996    19.4747    19.1030
  482.7000    89.0909    19.5061    19.1014
  482.8000    89.0909    19.5042    19.0996
  482.9000    89.0909    19.5023    19.0977
  483.0000    89.1865    19.4949    19.0755
  483.1000    89.4349    19.3624    18.9610
  483.2000    89.6970    19.1773    18.8543
  483.3000    89.6970    19.0232    18.7446
  483.4000    89.6970    18.9555    18.6923
  483.5000    89.6970    18.8768    18.6571
  483.6000    89.5564    18.4293    18.5486
  483.7000    89.0755    18.4276    18.4273
  483.8000    88.7879    18.3474    18.3335
  483.9000    87.9523    18.2957    18.2269
  484.0000    86.9592    18.2938    18.1664
  484.1000    85.9662    18.2825    18.1647
  484.2000    84.9282    18.1627    18.1629
  484.3000    83.6364    18.1611    18.1611
  484.4000    82.6834    18.0912    18.1593
  484.5000    81.8739    18.0311    18.0990
  484.6000    81.1294    18.0065    18.0294
  484.7000    80.5323    17.9020    18.0276
  484.8000    80.3030    17.9003    18.0257
  484.9000    80.3030    17.8985    18.0241
  485.0000    80.9408    17.8968    18.0223
  485.1000    82.0012    17.8951    18.0205
  485.2000    83.5519    17.8797    17.9927
  485.3000    85.4421    17.7668    17.8915
  485.4000    86.9697    17.7652    17.8895
  485.5000    88.4214    17.7635    17.8880
  485.6000    89.5364    17.7129    17.8863
  485.7000    90.6619    17.6098    17.8457
  485.8000    91.8258    17.5118    17.7582
  485.9000    92.7958    17.5098    17.7564
  486.0000    93.6364    17.4255    17.6592
  486.1000    94.2857    17.3847    17.6295
  486.2000    94.5455    17.3830    17.6277
  486.3000    94.5455    17.3813    17.6260
  486.4000    94.4412    17.3796    17.6243
  486.5000    93.9394    17.3779    17.6223
  486.6000    93.6938    17.3027    17.6208
  486.7000    93.4455    17.2535    17.5555
  486.8000    93.0611    17.2218    17.4534
  486.9000    92.7273    17.1214    17.3328
  487.0000    92.7007    17.0089    17.1283
  487.1000    92.4242    16.9228    17.1267
  487.2000    92.4242    16.8873    17.0510
  487.3000    92.4242    16.8437    16.8999
  487.4000    92.4242    16.7664    16.7358
  487.5000    92.4242    16.7648    16.6480
  487.6000    92.4242    16.8598    16.6462
  487.7000    92.4242    16.8791    16.6448
  487.8000    92.4242    16.8774    16.6432
  487.9000    92.4242    16.8757    16.6843
  488.0000    92.4242    16.8867    16.8006
  488.1000    92.4545    16.9906    16.9908
  488.2000    92.7273    17.0784    16.9891
  488.3000    92.7273    17.1751    17.0648
  488.4000    92.8963    17.2249    17.1049
  488.5000    93.1445    17.2489    17.1380
  488.6000    93.3929    17.3423    17.2349
  488.7000    93.6411    17.3403    17.3404
  488.8000    93.8895    17.3389    17.4303
  488.9000    94.1377    17.3372    17.4588
  489.0000    94.3860    17.3355    17.5052
  489.1000    94.6343    17.3338    17.5516
  489.2000    94.8825    17.3320    17.4536
  489.3000    95.1515    17.3304    17.4516
  489.4000    95.3791    17.2557    17.2865
  489.5000    95.6273    17.2063    17.1469
  489.6000    95.8756    17.1750    17.0849
  489.7000    96.0606    17.0749    17.0832
  489.8000    96.0690    16.9623    17.0814
  489.9000    96.3636    16.8768    17.2863
  490.0000    96.3636    16.8411    17.0881
  490.1000    96.3636    16.8395    17.0867
  490.2000    96.2712    16.8172    17.0097
  490.3000    95.9851    16.7189    16.9113
  490.4000    95.4545    16.7173    16.8134
  490.5000    94.9920    16.6413    16.7161
  490.6000    94.4956    16.4915    16.6084
  490.7000    93.9990    16.3657    16.5233
  490.8000    93.5694    16.3522    16.4278
  490.9000    93.3090    16.2484    16.2920
  491.0000    92.7273    15.9954    16.1252
  491.1000    92.5215    15.7209    16.0313
  491.2000    92.2732    15.4510    15.7593
  491.3000    91.9286    15.1420    15.6268
  491.4000    91.4737    14.7237    15.4400
  491.5000    91.2121    14.6227    15.2039
  491.6000    90.9771    14.6216    15.0208
  491.7000    90.9091    14.6201    14.7335
  491.8000    91.0345    14.6187    14.5122
  491.9000    91.2829    14.6031    14.3176
  492.0000    91.5629    14.5140    14.1188
  492.1000    92.4242    14.5127    13.8938
  492.2000    93.0526    14.3899    13.7328
  492.3000    93.6428    14.2662    13.6543
  492.4000    94.2394    14.2074    13.5753
  492.5000    94.8936    14.1994    13.5388
  492.6000    95.1515    14.1055    13.5377
  492.7000    95.8676    14.0346    13.5290
  492.8000    96.0606    13.9016    13.4410
  492.9000    96.1898    13.7751    13.3730
  493.0000    96.5125    13.6950    13.2957
  493.1000    96.9893    13.6147    13.2188
  493.2000    97.2727    13.4592    13.1578
  493.3000    97.4859    13.4231    13.1567
  493.4000    97.8924    13.3789    13.0086
  493.5000    97.9747    13.3010    12.9156
  493.6000    97.4780    13.2144    12.8409
  493.7000    96.9697    13.0478    12.7896
  493.8000    96.2424    13.0467    12.7818
  493.9000    95.4977    12.9941    12.6982
  494.0000    95.0186    12.9184    12.5719
  494.1000    94.6141    12.8433    12.5200
  494.2000    93.9161    12.7684    12.4887
  494.3000    93.6364    12.6806    12.4307
  494.4000    93.2025    12.6796    12.4296
  494.5000    92.8681    12.6784    12.3593
  494.6000    92.6198    12.6771    12.2879
  494.7000    92.4242    12.6639    12.2168
  494.8000    92.4242    12.5863    12.1676
  494.9000    92.4242    12.5851    12.1666
  495.0000    92.2329    12.4792    12.1655
  495.1000    92.1212    12.3717    12.1047
  495.2000    91.9574    12.2996    12.0789
  495.3000    91.5152    12.2225    12.0779
