~VERSION INFORMATION
 VERS.                2.0:   CWLS LOG ASCII STANDARD - VERSION 2.0
 WRAP.                 NO:   ONE LINE PER DEPTH STEP
~WELL INFORMATION
#MNEM.UNIT      DATA TYPE    INFORMATION
#----------   ------------   ------------------------------
 STRT.M            0.0000:   START DEPTH
 STOP.M          642.0000:   STOP DEPTH
 STEP.M            0.1000:   STEP LENGTH
 NULL.          -999.2500:   NO VALUE
 COMP.   FLUOR DANIEL INC:   COMPANY
 WELL.     71-1 X 3 #71-3:   WELL
 FLD .             TEAPOT:   FIELD
 LOC .       S3 T38N R78W:   LOCATION
 CNTY.            NATRONA:   COUNTY
 STAT.            WYOMING:   STATE
 CTRY. UNITED STATES OF AMERICA:   COUNTRY
 SRVC.      Western Atlas:   SERVICE COMPANY
 DATE.        04-JAN-1995:   LOGDATE
 API .       490252267900:   API NUMBER
~CURVE INFORMATION
#MNEM.UNIT       API CODE    CURVE DESCRIPTION
#----------   ------------   ------------------------------
 DEPT.M                  :   
 RILD.OHMM   07 120 46 00:   INDUCTION LOG DEEP RESISTIVITY
 RILM.OHMM   07 120 44 00:   INDUCTION LOG MEDIUM RESISTIVITY
 GRR .GAPI   07 310 01 00:   GAMMA RAY
~PARAMETER INFORMATION
#MNEM.UNIT          VALUE    DESCRIPTION
#----------   ------------   ------------------------------
 PD  .                 GL:   PERMANENT DATUM
 EPD .F              5123:   ELEVATION PERMANENT DATUM
 LMF .                 KB:   LOG MEASURED FROM
 DAPD.F                10:   FEET ABOVE PERMANENT DATUM
 DMF .                 KB:   DRILLING MEASURED FROM
 EKB .F              5133:   KELLING BUSHING
 EDF .F              5132:   DRILLING FLOOR
 EGL .F              5123:   GROUND LEVEL
 DATE.        04-JAN-1995:   RUN DATE
 RUN .                  1:   RUN NUMBER
 DD  .F               647:   DEPTH DRILLER
 DL  .F               650:   DEPTH LOGGER
 BLI .F               642:   BOTTOM LOG INTERVAL
 TLI .F                96:   TOP LOG INTERVAL
 CS  .IN            9.625:   CASING SIZE
 CBD .F                96:   CASING BOTTOM DRILLER
 CBL .F                96:   CASING BOTTOM LOGGER
 BS  .IN             8.75:   BIT SIZE
 BSD .F               647:   BIT SIZE AT DEPTH
 DFT .                AIR:   DRILLING FLUID TYPE
 MRT .F                91:   MAXIMUM RECORDED TEMPERATURE
 LUN .            HL 6530:   LOGGING UNIT NUMBER
 LUL .             CASPER:   LOGGING UNIT LOCATION
 ENGI.        VERN RAUTIO:   RECORDING ENGINEER
 WITN.        GARY STRONG:   WITNESSED BY
 CLNT.            A2DTECH:   CLIENT CODE
 ORIG.           5" PRINT:   ORIGIN OF DATA
 UWI .       490252267900:   UNIQUE WELL ID
 DICO. A2D Technologies, Inc.:   DIGITIZING COMPANY
~OTHER INFORMATION
~A    DEPT    RILD       RILM        GRR   
# ...
  163.8000     7.7013     7.7373   125.1621
  163.9000     7.7013     7.7374   125.2435
  164.0000     7.7013     7.7375   125.2447
  164.1000     7.7013     7.7376   125.2459
  164.2000     7.7013     7.7377   125.2471
  164.3000     7.7075     7.7378   125.2483
  164.4000     7.7549     7.7379   125.4461
  164.5000     7.7549     7.7611   125.6949
  164.6000     7.7549     7.8057   125.8562
  164.7000     7.7549     7.8465   125.8246
  164.8000     7.7549     7.8466   125.5566
  164.9000     7.7573     7.8467   125.3319
  165.0000     7.8089     7.8468   125.2568
  165.1000     7.8463     7.8664   125.1414
  165.2000     7.8633     7.9018   124.8330
  165.3000     7.8633     7.9019   124.3392
  165.4000     7.8716     7.9245   123.7513
  165.5000     7.9181     7.9473   123.5519
  165.6000     7.9181     7.9573   123.0139
  165.7000     7.9520     7.9574   122.3637
  165.8000     7.9732     7.9575   121.9066
  165.9000     7.9732     7.9576   121.6424
  166.0000     7.9776     7.9577   121.4139
  166.1000     8.0287     7.9893   121.1676
  166.2000     8.0691     8.0352   121.1621
  166.3000     8.0847     8.0694   121.5426
  166.4000     8.0847     8.0695   122.2751
  166.5000     8.0952     8.0696   122.8582
  166.6000     8.1410     8.0697   123.2676
  166.7000     8.1410     8.0698   123.7639
  166.8000     8.1779     8.0878   124.3553
  166.9000     8.1977     8.1263   125.0992
  167.0000     8.2144     8.1264   125.8853
  167.1000     8.2613     8.1708   126.5867
  167.2000     8.3123     8.1833   127.3305
  167.3000     8.3123     8.2076   128.0743
  167.4000     8.3123     8.2546   128.7485
  167.5000     8.3123     8.2981   129.2447
  167.6000     8.3251     8.2982   129.8201
  167.7000     8.3701     8.3394   130.2373
  167.8000     8.3701     8.3717   130.5801
  167.9000     8.4101     8.3958   130.8288
  168.0000     8.4284     8.4249   131.0775
  168.1000     8.4284     8.4735   131.3366
  168.2000     8.4284     8.5219   131.3378
  168.3000     8.4284     8.5328   131.3390
  168.4000     8.4284     8.5602   131.3402
  168.5000     8.4644     8.5925   131.3414
  168.6000     8.5128     8.5987   131.3426
  168.7000     8.5463     8.6527   131.3440
  168.8000     8.5463     8.6752   131.7688
  168.9000     8.5463     8.7001   131.9505
  169.0000     8.5463     8.7368   132.0544
  169.1000     8.5463     8.7742   132.3031
  169.2000     8.5678     8.7761   132.5583
  169.3000     8.6058     8.8356   132.5595
  169.4000     8.6061     8.8357   132.9337
  169.5000     8.6553     8.8662   133.1662
  169.6000     8.6657     8.8976   133.2447
  169.7000     8.6657     8.8977   133.4706
  169.8000     8.6657     8.8978   133.1699
  169.9000     8.6657     8.9462   132.7396
  170.0000     8.6657     8.9601   132.2457
  170.1000     8.6657     8.9602   131.7519
  170.2000     8.6657     8.9603   131.2580
  170.3000     8.6657     8.9605   130.7589
  170.4000     8.6789     8.9606   130.5152
  170.5000     8.7261     8.9607   130.2689
  170.6000     8.7261     8.9608   130.0226
  170.7000     8.7261     8.9393   129.7763
  170.8000     8.7261     8.8991   129.5564
  170.9000     8.7261     8.8992   129.5578
  171.0000     8.7261     8.8993   129.5589
  171.1000     8.7261     8.8994   129.7251
  171.2000     8.7261     8.8995   130.1945
  171.3000     8.7261     8.8826   130.8826
  171.4000     8.7261     8.8382   131.3813
  171.5000     8.7261     8.8383   132.3726
  171.6000     8.7261     8.8384   132.9756
  171.7000     8.7261     8.8386   133.4719
  171.8000     8.7261     8.8387   133.7982
  171.9000     8.7261     8.8388   133.7386
  172.0000     8.7044     8.8389   133.1965
  172.1000     8.6657     8.8391   132.3042
  172.2000     8.6657     8.8392   131.6528
  172.3000     8.6657     8.8393   131.1589
  172.4000     8.7047     8.8394   130.6651
  172.5000     8.7261     8.8395   130.1812
  172.6000     8.7261     8.8397   130.1825
  172.7000     8.7327     8.8876   130.1837
  172.8000     8.7869     8.9015   130.3283
  172.9000     8.7869     8.9016   130.5771
  173.0000     8.7869     8.9018   130.8600
  173.1000     8.7869     8.9057   131.3971
  173.2000     8.8001     8.9641   131.8526
  173.3000     8.8481     9.0082   132.1762
  173.4000     8.8481     9.0268   132.4250
  173.5000     8.8900     9.0269   132.7371
  173.6000     8.9097     9.0376   133.2246
  173.7000     8.9097     9.0901   133.5193
  173.8000     8.9186     9.1416   133.5202
  173.9000     8.9717     9.1537   133.3742
  174.0000     9.0209     9.1828   133.1279
  174.1000     9.0725     9.2354   132.8816
  174.2000     9.0971     9.2821   132.6188
  174.3000     9.1130     9.2823   132.3889
  174.4000     9.1651     9.2824   132.1426
  174.5000     9.2243     9.3189   132.0181
  174.6000     9.2702     9.3723   132.0193
  174.7000     9.2885     9.4259   132.0206
  174.8000     9.3117     9.4800   132.0220
  174.9000     9.3649     9.5446   132.0230
  175.0000     9.4184     9.5891   131.8731
  175.1000     9.4723     9.6441   131.7233
  175.2000     9.5264     9.6994   131.6826
  175.3000     9.5809     9.7550   131.4236
  175.4000     9.6357     9.8142   131.4248
  175.5000     9.6907     9.8672   131.2457
  175.6000     9.7510     9.9238   130.9994
  175.7000     9.8019    10.0098   130.8242
  175.8000     9.8579    10.0912   130.7924
  175.9000     9.9143    10.0955   130.2225
  176.0000     9.9561    10.1619   129.8046
  176.1000     9.9610    10.2117   129.6205
  176.2000    10.0953    10.3078   129.6217
  176.3000    10.1429    10.3763   129.6230
  176.4000    10.2009    10.3884   129.6242
  176.5000    10.2364    10.4489   130.1027
  176.6000    10.2465    10.5079   130.4149
  176.7000    10.3077    10.6146   130.6636
  176.8000    10.3640    10.6693   130.9873
  176.9000    10.4233    10.6897   131.4633
  177.0000    10.4829    10.7510   131.7464
  177.1000    10.5246    10.8190   131.9607
  177.2000    10.5297    10.8747   132.0508
  177.3000    10.5979    10.9371   131.7396
  177.4000    10.6505    10.9998   130.7999
  177.5000    10.6717    11.0629   129.0333
  177.6000    10.6981    11.1246   126.6095
  177.7000    10.7592    11.1248   123.1955
  177.8000    10.8209    11.1764   120.2838
  177.9000    10.8209    11.2405   117.8998
  178.0000    10.8209    11.2809   115.2749
  178.1000    10.8557    11.2911   113.3307
  178.2000    10.9177    11.3598   113.3317
  178.3000    10.9721    11.4210   113.4955
  178.4000    10.9721    11.4393   113.8521
  178.5000    10.9721    11.4395   114.4018
  178.6000    11.0156    11.4396   115.1493
  178.7000    11.0486    11.4398   115.6431
  178.8000    11.0486    11.4400   116.1394
  178.9000    11.0486    11.4401   116.6356
  179.0000    11.0486    11.4403   117.1319
  179.1000    11.1005    11.4404   117.5722
  179.2000    11.1255    11.4406   117.5735
  179.3000    11.1255    11.4407   117.5746
  179.4000    11.1255    11.4409   117.5758
  179.5000    11.1255    11.3914   117.3534
  179.6000    11.1255    11.3620   116.9168
  179.7000    11.1255    11.3622   116.6705
  179.8000    11.1255    11.3623   116.4242
  179.9000    11.1255    11.3625   116.3734
  180.0000    11.1255    11.3050   116.3746
  180.1000    11.1255    11.2842   116.3758
  180.2000    11.1255    11.2843   116.3770
  180.3000    11.1255    11.2691   116.3784
  180.4000    11.1255    11.2065   116.6042
  180.5000    11.1255    11.2067   117.0232
  180.6000    11.1255    11.1555   117.6351
  180.7000    11.1255    11.1294   118.3178
  180.8000    11.1255    11.1296   118.8206
  180.9000    11.1255    11.1201   119.7090
  181.0000    11.1040    11.0528   120.3081
  181.1000    11.0486    11.0530   121.1968
  181.2000    11.0486    11.0080   122.0979
  181.3000    11.0486    10.9768   122.8417
  181.4000    11.0054    10.9769   123.6424
  181.5000    10.9721    10.9771   124.1007
  181.6000    10.9721    10.9773   124.5970
  181.7000    10.9721    10.9509   125.0932
  181.8000    10.9721    10.9199   125.5895
  181.9000    10.9211    10.8889   126.0858
