~VERSION INFORMATION
 VERS.                2.0:   CWLS LOG ASCII STANDARD - VERSION 2.0
 WRAP.                 NO:   ONE LINE PER DEPTH STEP
~WELL INFORMATION
#MNEM.UNIT      DATA TYPE    INFORMATION
#----------   ------------   ------------------------------
 STRT.F            0.0000:   START DEPTH
 STOP.F          524.0000:   STOP DEPTH
 STEP.F            0.5000:   STEP LENGTH
 NULL.          -999.2500:   NO VALUE
 COMP.       F D SERV INC:   COMPANY
 WELL. NAVAL PETROLEUM RESERVE 3 SX-1 #83-2-10:   WELL
 FLD .             TEAPOT:   FIELD
 LOC .      S10 T38N R78W:   LOCATION
 CNTY.            NATRONA:   COUNTY
 STAT.            WYOMING:   STATE
 CTRY. UNITED STATES OF AMERICA:   COUNTRY
 SRVC.     Atlas Wireline:   SERVICE COMPANY
 DATE.        10-FEB-1993:   LOGDATE
 API .       490252258100:   API NUMBER
~CURVE INFORMATION
#MNEM.UNIT       API CODE    CURVE DESCRIPTION
#----------   ------------   ------------------------------
 DEPT.F                  :   
 RILM.OHMM   07 120 44 00:   RESITIVITY LONG MEDIUM
 RILD.OHMM   07 120 46 00:   INDUCTION LOG DEEP RESISTIVITY
 GRR .GAPI   07 310 01 00:   GAMMA RAY
 PORZ.DEC    45 890 12 00:   DENSITY POROSITY
 ZCOR.G/C3   45 356 01 00:   DENSITY CORRECTION
 ZDEN.G/C3   45 350 01 00:   BULK DENSITY
 NPHI.DEC    42 890 03 00:   NEUTRON POROSITY SANDSTONE
 C13 .IN     45 280 13 00:   CALIPER X
~PARAMETER INFORMATION
#MNEM.UNIT          VALUE    DESCRIPTION
#----------   ------------   ------------------------------
 PD  .                 GL:   PERMANENT DATUM
 EPD .F              5156:   ELEVATION PERMANENT DATUM
 LMF .                 KB:   LOG MEASURED FROM
 DAPD.F                10:   FEET ABOVE PERMANENT DATUM
 DMF .                 KB:   DRILLING MEASURED FROM
 EKB .F              5166:   KELLING BUSHING
 EDF .F              5165:   DRILLING FLOOR
 EGL .F              5156:   GROUND LEVEL
 DATE.        10-FEB-1993:   RUN DATE
 RUN .                  1:   RUN NUMBER
 DD  .F               525:   DEPTH DRILLER
 DL  .F               526:   DEPTH LOGGER
 BLI .F               518:   BOTTOM LOG INTERVAL
 CS  .IN            8.625:   CASING SIZE
 CBD .F                80:   CASING BOTTOM DRILLER
 CBL .F                81:   CASING BOTTOM LOGGER
 BS  .IN            7.875:   BIT SIZE
 BSD .F               525:   BIT SIZE AT DEPTH
 DFT .                AIR:   DRILLING FLUID TYPE
 MRT .F                70:   MAXIMUM RECORDED TEMPERATURE
 LUN .            HL 6274:   LOGGING UNIT NUMBER
 LUL .             CASPER:   LOGGING UNIT LOCATION
 ENGI.          V. RAUTIO:   RECORDING ENGINEER
 WITN.          G. STRONG:   WITNESSED BY
 CLNT.            A2DTECH:   CLIENT CODE
 ORIG.           5" PRINT:   ORIGIN OF DATA
 UWI .       490252258100:   UNIQUE WELL ID
 DICO. A2D Technologies, Inc.:   DIGITIZING COMPANY
~OTHER INFORMATION
~A    DEPT    RILM       RILD         GRR      PORZ       ZCOR       ZDEN       NPHI        C13   
# ...
  486.0000    12.0878    12.0272   128.8432     0.0818    -0.0037     2.5155     0.2612     7.9185
  486.5000    12.1695    12.1092   125.2119     0.0774    -0.0037     2.5208     0.2600     7.9178
  487.0000    12.2512    12.1914   123.9939     0.0758    -0.0022     2.5230     0.2606     7.9324
  487.5000    12.2481    12.2741   124.2814     0.0794    -0.0023     2.5207     0.2619     7.9466
  488.0000    12.3315    12.2725   124.5746     0.0839    -0.0008     2.5131     0.2616     7.9306
  488.5000    12.3285    12.3561   124.2588     0.0893     0.0022     2.5054     0.2604     7.9148
  489.0000    12.3261    12.3545   123.6441     0.0927     0.0039     2.4973     0.2592     7.9141
  489.5000    12.2380    12.3525   122.7250     0.0921     0.0066     2.4957     0.2598     7.9133
  490.0000    12.2356    12.2657   121.8086     0.0891     0.0066     2.4987     0.2640     7.9126
  490.5000    12.1487    12.2641   122.0989     0.0852     0.0036     2.5047     0.2646     7.9119
  491.0000    12.1464    12.1779   122.6909     0.0831     0.0005     2.5099     0.2637     7.9111
  491.5000    12.1434    12.0919   122.0734     0.0810    -0.0010     2.5137     0.2625     7.9103
  492.0000    12.0572    11.9240   122.9671     0.0807    -0.0025     2.5159     0.2622     7.9096
  492.5000    11.9716    11.9224   125.6707     0.0819    -0.0026     2.5151     0.2619     7.9089
  493.0000    11.8865    11.9209   128.9776     0.0819    -0.0011     2.5143     0.2613     7.9081
  493.5000    11.9663    11.9189   127.7568     0.0816    -0.0011     2.5143     0.2602     7.9073
  494.0000    11.8813    11.8352   126.2371     0.0782     0.0035     2.5158     0.2584     7.9066
  494.5000    11.8790    11.8336   125.6225     0.0738     0.0123     2.5195     0.2563     7.9059
  495.0000    11.7132    11.7504   126.5460     0.0732     0.0243     2.5255     0.2548     7.9050
  495.5000    11.5492    11.5869   127.4098     0.0757     0.0303     2.5253     0.2533     7.8892
  496.0000    11.4672    11.4261   127.0939     0.0808     0.0288     2.5164     0.2536     7.8885
  496.5000    11.3071    11.2674   126.7809     0.0781     0.0317     2.5179     0.2554     7.8115
  497.0000    11.1492    11.1799   127.7505     0.0754     0.0362     2.5231     0.2594     7.7062
  497.5000    10.9172    10.9564   131.5820     0.0721     0.0362     2.5299     0.2644     7.6904
  498.0000    10.7648    10.8794   133.3806     0.0700     0.0331     2.5366     0.2690     7.6897
  498.5000    10.6146    10.6543   132.4643     0.0706     0.0286     2.5336     0.2717     7.6889
  499.0000    10.4664    10.5686   128.5285     0.0742     0.0255     2.5281     0.2738     7.6882
  499.5000    10.3199    10.3602   126.1039     0.0742     0.0225     2.5237     0.2759     7.6875
  500.0000    10.2466    10.2873   125.4921     0.0713     0.0225     2.5275     0.2786     7.6867
  500.5000    10.0338    10.2150   132.1144     0.0686     0.0210     2.5372     0.2826     7.6708
  501.0000     9.8249    10.0729   140.8512     0.0701     0.0195     2.5357     0.2868     7.6853
  501.5000     9.6878     9.9330  -999.2500     0.0741     0.0179     2.5296     0.2904     7.6845
  502.0000     9.6190     9.7951  -999.2500     0.0773     0.0179     2.5206     0.2925     7.6821
  502.5000     9.6171     9.7263  -999.2500     0.0773     0.0119     2.5221     0.2952     7.6678
  503.0000     9.4170     9.5248  -999.2500     0.0770     0.0058     2.5213     0.2976     7.6671
  503.5000     9.4151     9.3925  -999.2500     0.0786    -0.0002     2.5160     0.2998     7.6664
  504.0000     9.3483     9.3913  -999.2500     0.0810    -0.0032     2.5144     0.3010     7.6655
  504.5000     9.4114     9.3901  -999.2500     0.0813    -0.0033     2.5174     0.3013     7.6799
  505.0000     9.4750     9.3886  -999.2500     0.0807    -0.0018     2.5174     0.2998     7.6643
  505.5000     9.5386     9.4529  -999.2500     0.0822     0.0012     2.5106     0.2998     7.6785
  506.0000     9.5367     9.4513  -999.2500     0.0868     0.0071     2.5057     0.2989     7.6776
  506.5000     9.5318     9.3819  -999.2500     0.0883     0.0131     2.5045     0.2959     7.6769
  507.0000     9.4013     9.2543  -999.2500     0.0843     0.0221     2.5120     0.2953     7.6762
  507.5000     9.3346     9.1892  -999.2500     0.0793     0.0236     2.5180  -999.2500     7.6753
  508.0000     9.2043     9.1246  -999.2500     0.0772     0.0190     2.5240  -999.2500     7.6898
  508.5000     9.0131     9.0605  -999.2500     0.0763     0.0085     2.5239  -999.2500     7.6890
  509.0000     8.8869     8.9965  -999.2500     0.0763     0.0025     2.5239  -999.2500     7.7033
  509.5000     8.8852     8.9332  -999.2500     0.0763     0.0054     2.5239  -999.2500     7.7024
  510.0000     8.8835     8.8704  -999.2500     0.0763     0.0144     2.5231  -999.2500     7.6867
  510.5000     8.8126     8.7473  -999.2500     0.0766     0.0234     2.5223  -999.2500     7.6860
  511.0000     8.5771     8.3320  -999.2500     0.0769     0.0294     2.5223  -999.2500     7.6852
  511.5000     8.3990     0.2000  -999.2500     0.0754     0.0233     2.5238  -999.2500     7.6844
  512.0000     8.2818     0.2000  -999.2500     0.0743     0.0173     2.5260  -999.2500     7.6837
  512.5000     8.1094  -999.2500  -999.2500     0.0758     0.0158     2.5260  -999.2500     7.6980
  513.0000     8.1078  -999.2500  -999.2500     0.0749     0.0142     2.5237  -999.2500     7.6971
  513.5000     8.1062  -999.2500  -999.2500     0.0728     0.0127     2.5251  -999.2500     7.6964
  514.0000     8.1046  -999.2500  -999.2500     0.0695     0.0112     2.5274  -999.2500     7.6807
  514.5000     7.9359  -999.2500  -999.2500     0.0714     0.0111     2.5319  -999.2500     7.6800
  515.0000     7.5587  -999.2500  -999.2500     0.0779     0.0111     2.5371  -999.2500     7.6791
  515.5000     7.0512  -999.2500  -999.2500     0.0837     0.0111     2.5310  -999.2500     7.6784
  516.0000     6.4872  -999.2500  -999.2500     0.0906     0.0110     2.5205  -999.2500     7.6927
  516.5000     6.2648  -999.2500  -999.2500     0.1025     0.0110     2.5017  -999.2500     7.6920
  517.0000     6.3951  -999.2500  -999.2500     0.1150     0.0140     2.4783  -999.2500     7.7064
  517.5000     6.7117  -999.2500  -999.2500     0.1096     0.0215     2.4602  -999.2500     7.7055
  518.0000     7.0956  -999.2500  -999.2500     0.0976     0.0214     2.4662  -999.2500     7.7048
  518.5000  -999.2500  -999.2500  -999.2500     0.0834     0.0229     2.4932  -999.2500     7.7039
  519.0000  -999.2500  -999.2500  -999.2500     0.0792     0.0229     2.5060  -999.2500     7.6882
  519.5000  -999.2500  -999.2500  -999.2500     0.0741     0.0244     2.5165  -999.2500     7.6875
  520.0000  -999.2500  -999.2500  -999.2500     0.0717     0.0168     2.5250  -999.2500     7.6867
  520.5000  -999.2500  -999.2500  -999.2500     0.0711     0.0063     2.5315  -999.2500     7.6859
  521.0000  -999.2500  -999.2500  -999.2500     0.0715     0.0047     2.5315  -999.2500     7.6852
  521.5000  -999.2500  -999.2500  -999.2500     0.0724     0.0062     2.5299  -999.2500     7.6845
  522.0000  -999.2500  -999.2500  -999.2500     0.0736     0.0152     2.5261  -999.2500     7.6836
  522.5000  -999.2500  -999.2500  -999.2500     0.0754     0.0197     2.5231  -999.2500     7.6829
  523.0000  -999.2500  -999.2500  -999.2500     0.0773     0.0211     2.5201  -999.2500     7.6822
  523.5000  -999.2500  -999.2500  -999.2500  -999.2500     0.0226     2.5169  -999.2500  -999.2500
  524.0000  -999.2500  -999.2500  -999.2500  -999.2500     0.0241     2.5147  -999.2500  -999.2500
