~VERSION INFORMATION
 VERS.                2.0:   CWLS LOG ASCII STANDARD - VERSION 2.0
 WRAP.                 NO:   ONE LINE PER DEPTH STEP
~WELL INFORMATION
#MNEM.UNIT      DATA TYPE    INFORMATION
#----------   ------------   ------------------------------
 STRT.F           30.0000:   START DEPTH
 STOP.F          770.5000:   STOP DEPTH
 STEP.F            0.5000:   STEP LENGTH
 NULL.          -999.2500:   NO VALUE
 COMP. FENIX & SCISSON INC:   COMPANY
 WELL. TEAPOT DOME 63 SX 34 #63-34:   WELL
 FLD .             TEAPOT:   FIELD
 LOC .      S34 T39N R78W:   LOCATION
 CNTY.            NATRONA:   COUNTY
 STAT.            WYOMING:   STATE
 CTRY. UNITED STATES OF AMERICA:   COUNTRY
 SRVC.           BIRDWELL:   SERVICE COMPANY
 DATE.        18-AUG-1978:   LOGDATE
 API .       490251070300:   API NUMBER
~CURVE INFORMATION
#MNEM.UNIT       API CODE    CURVE DESCRIPTION
#----------   ------------   ------------------------------
 DEPT.F                  :   
 SPR .MV     05 010 01 00:   SPONTANEOUS POTENTIAL
 SN  .OHMM   05 040 16 00:   SHORT NORMAL 16'
 ILD .OHMM   05 120 46 00:   INDUCTION LOG DEEP RESISTIVITY
 CALD.IN     45 280 60 00:   CALIPER
 GRD .GAPI   45 310 01 00:   GAMMA RAY FROM DENSITY LOG
 RHOB.G/C3   45 350 01 00:   BULK DENSITY
 DPHI.DEC    45 890 12 00:   DENSITY POROSITY SANDSTONE
 CORR.G/C3   45 356 01 00:   DENSITY CORRECTION
~PARAMETER INFORMATION
#MNEM.UNIT          VALUE    DESCRIPTION
#----------   ------------   ------------------------------
 PD  .                 GL:   PERMANENT DATUM
 EPD .F              5063:   ELEVATION PERMANENT DATUM
 LMF .                 KB:   LOG MEASURED FROM
 DAPD.F                 4:   FEET ABOVE PERMANENT DATUM
 DMF .                 KB:   DRILLING MEASURED FROM
 EKB .F              5067:   KELLING BUSHING
 EGL .F              5063:   GROUND LEVEL
 DATE.          8-18-1978:   RUN DATE
 RUN .                  1:   RUN NUMBER
 DD  .F               760:   DEPTH DRILLER
 DL  .F               770:   DEPTH LOGGER
 BLI .F               763:   BOTTOM LOG INTERVAL
 TLI .F                40:   TOP LOG INTERVAL
 CS  .IN            8.625:   CASING SIZE
 CBD .F                40:   CASING BOTTOM DRILLER
 CBL .F                40:   CASING BOTTOM LOGGER
 BS  .IN            7.875:   BIT SIZE
 BSD .F               760:   BIT SIZE AT DEPTH
 DFT .            MUD KCL:   DRILLING FLUID TYPE
 DFL .               10.6:   DRILLING FLUID LOSS
 MSS .          FLOW LINE:   MUD SAMPLE SOURCE
 RMS .OHMM             .2:   RESISTIVITY MUD SAMPLE
 MST .F                56:   MUD SAMPLE TEMPERATURE
 RMF .OHMM             .2:   RESISTIVITY MUD FILTRATE SAMPLE
 MFST.F                64:   MUD FILTRATE SAMPLE TEMPERATURE
 RMC .OHMM            .36:   RESISTIVITY MUD CAKE
 MCST.F                64:   MUD CAKE SAMPLE TEMPERATURE
 MFSS.               MEAS:   MUD FILTRATE SAMPLE SOURCE
 MCSS.               MEAS:   MUD CAKE SAMPLE SOURCE
 TCS .HRS               3:   TIME CURCULATED STOPPED
 MRT .F                72:   MAXIMUM RECORDED TEMPERATURE
 LUN .               3006:   LOGGING UNIT NUMBER
 LUL .               CASP:   LOGGING UNIT LOCATION
 ENGI.           REYNOLDS:   RECORDING ENGINEER
 WITN.              AMEND:   WITNESSED BY
 CLNT.            A2DTECH:   CLIENT CODE
 ORIG.           5" PRINT:   ORIGIN OF DATA
 UWI .       490251070300:   UNIQUE WELL ID
 DICO. A2D Technologies, Inc.:   DIGITIZING COMPANY
~OTHER INFORMATION
~A   DEPT      SPR         SN        ILD       CALD         GRD      RHOB       DPHI       CORR   
# ...
  354.0000   -76.9477     8.1186     6.4644     7.1562    88.9087     2.5171     0.0852     0.0429
  354.5000   -77.0092     8.1402     6.4977     7.1600    90.0276     2.5100     0.0938     0.0428
  355.0000   -77.0709     8.1618     6.5308     7.1637    90.3087     2.5017     0.0950     0.0439
  355.5000   -77.1325     8.1835     6.5518     7.1672    89.1888     2.4996     0.0941     0.0449
  356.0000   -77.1941     8.2052     6.5613     7.1655    87.8568     2.5001     0.0939     0.0459
  356.5000   -77.2557     8.2270     6.5709     7.1464    88.1876     2.5009     0.0944     0.0459
  357.0000   -77.3173     8.2488     6.5806     7.1279    89.1717     2.5017     0.0949     0.0459
  357.5000   -77.3791     8.2707     6.5903     7.1094    89.6321     2.5024     0.0954     0.0451
  358.0000   -77.4435     8.2927     6.6000     7.0909    88.0971     2.5001     0.1023     0.0414
  358.5000   -77.3998     8.3147     6.6097     7.0725    86.7599     2.4887     0.1089     0.0378
  359.0000   -77.3284     8.3368     6.6195     7.0725    87.8630     2.4776     0.1118     0.0342
  359.5000   -77.2563     8.3589     6.6292     7.0779    88.0331     2.4735     0.1142     0.0305
  360.0000   -77.1842     8.3904     6.6390     7.0833    87.0477     2.4699     0.1165     0.0302
  360.5000   -77.1125     8.3864     6.6488     7.0887    86.8838     2.4666     0.1189     0.0305
  361.0000   -77.0526     8.3801     6.6586     7.0941    87.7030     2.4646     0.1184     0.0308
  361.5000   -77.0539     8.3735     6.6684     7.0995    88.5177     2.4645     0.1172     0.0312
  362.0000   -77.0541     8.3670     6.6782     7.1049    89.3243     2.4680     0.1160     0.0315
  362.5000   -77.0541     8.3604     6.6881     7.1101    89.4944     2.4721     0.1149     0.0318
  363.0000   -77.0541     8.3539     6.6979     7.1019    89.5150     2.4736     0.1134     0.0311
  363.5000   -77.0541     8.3474     6.7078     7.0894    90.5227     2.4751     0.1126     0.0297
  364.0000   -77.0541     8.3408     6.7175     7.0770    90.4010     2.4765     0.1118     0.0282
  364.5000   -77.0541     8.3343     6.7279     7.0645    87.2457     2.4765     0.1118     0.0268
  365.0000   -77.0541     8.3279     6.7742     7.0519    84.1430     2.4760     0.1129     0.0254
  365.5000   -77.0541     8.3213     6.8486     7.0491    81.0742     2.4756     0.1143     0.0240
  366.0000   -77.0541     8.3133     6.9234     7.0733    78.7475     2.4773     0.1149     0.0254
  366.5000   -77.0541     8.3951     6.9990     7.1009    79.9385     2.4803     0.1123     0.0269
  367.0000   -77.0541     8.4944     7.0754     7.1286    82.8054     2.4815     0.1102     0.0284
  367.5000   -77.0541     8.5949     7.1526     7.1507    85.6366     2.4823     0.1102     0.0299
  368.0000   -77.0541     8.6966     7.2307     7.1500    87.4345     2.4833     0.1079     0.0314
  368.5000   -77.0541     8.7995     7.3407     7.1500    86.1867     2.4845     0.1027     0.0329
  369.0000   -77.0541     8.9036     7.4573     7.1500    83.0692     2.4873     0.0974     0.0344
  369.5000   -77.0541     9.0090     7.5763     7.1500    81.9726     2.4981     0.0922     0.0359
  370.0000   -77.0541     9.1156     7.6971     7.1500    82.5846     2.5093     0.0869     0.0355
  370.5000   -77.0541     9.2234     7.8199     7.1500    82.7458     2.5207     0.0826     0.0349
  371.0000   -77.0541     9.3325     7.9446     7.1500    77.7433     2.5215     0.0847     0.0344
  371.5000   -77.0541     9.4188     8.0879     7.1500    72.6168     2.5148     0.0885     0.0338
  372.0000   -77.0541     9.5224     8.0717     7.1500    71.8151     2.5081     0.0910     0.0329
  372.5000   -77.0541     9.6287     8.0477     7.1500    76.4650     2.5061     0.0918     0.0320
  373.0000   -77.0541     9.7360     8.0238     7.1500    78.9190     2.5051     0.0935     0.0311
  373.5000   -77.0541     9.8444     8.0000     7.1500    77.9576     2.5021     0.0979     0.0302
  374.0000   -77.0541     9.9001     7.9763     7.1501    76.2933     2.4990     0.1015     0.0284
  374.5000   -77.0541     9.8775     7.9527     7.1417    75.4941     2.4959     0.1031     0.0262
  375.0000   -77.0541     9.8568     7.9292     7.1279    75.8572     2.4928     0.1054     0.0240
  375.5000   -77.0541     9.8361     7.9057     7.1142    76.2135     2.4876     0.1094     0.0217
  376.0000   -77.0541     9.8155     7.8823     7.1004    76.7275     2.4820     0.1097     0.0195
  376.5000   -77.0541     9.8095     7.8590     7.0866    77.9134     2.4798     0.1094     0.0170
  377.0000   -77.0541     9.6925     7.8357     7.0725    79.1257     2.4793     0.1110     0.0135
  377.5000   -77.0541     9.6063     7.8126     7.0757    78.9936     2.4763     0.1169     0.0100
  378.0000   -77.0541     9.5209     7.7894     7.0827    75.6786     2.4669     0.1227     0.0065
  378.5000   -77.0541     9.4363     7.7664     7.0899    73.2432     2.4578     0.1281     0.0039
  379.0000   -77.0541     9.3524     7.7434     7.0970    73.8020     2.4488     0.1289     0.0038
  379.5000   -77.0541     9.2692     7.7205     7.1042    74.4383     2.4449     0.1341     0.0060
  380.0000   -77.0542     9.1970     7.6976     7.1113    74.6953     2.4419     0.1337     0.0059
  380.5000   -77.0545     9.1878     7.6749     7.1184    74.5071     2.4395     0.1347     0.0082
  381.0000   -77.0529     9.1787     7.6522     7.1255    73.1684     2.4398     0.1349     0.0135
  381.5000   -76.9858     9.1696     7.6295     7.1282    70.5783     2.4425     0.1235     0.0199
  382.0000   -76.9131     9.1605     7.6069     7.1231    69.5737     2.4626     0.1090     0.0265
  382.5000   -76.8406     9.1515     7.5833     7.1181    74.6782     2.4887     0.0946     0.0330
  383.0000   -76.7681     9.1424     7.5917     7.1132    80.8725     2.5150     0.0806     0.0324
  383.5000   -76.6957     9.1333     7.6023     7.1109    79.4628     2.5259     0.0794     0.0307
  384.0000   -76.6233     9.1242     7.6129     7.1173    75.2375     2.5154     0.0888     0.0289
  384.5000   -76.5508     9.1152     7.6235     7.1235    71.0139     2.5023     0.0963     0.0271
  385.0000   -76.4784     9.1061     7.6343     7.1297    70.6750     2.4890     0.1039     0.0253
  385.5000   -76.4060     9.0971     7.6454     7.1360    72.2730     2.4836     0.1114     0.0235
  386.0000   -76.3335     9.0881     7.7242     7.1422    73.8842     2.4805     0.1182     0.0217
  386.5000   -76.2611     9.0791     7.6230     7.1486    75.4984     2.4599     0.1210     0.0199
  387.0000   -76.1887     9.0701     7.5218     7.1500    77.1451     2.4567     0.1270     0.0181
  387.5000   -76.1162     9.0611     7.4220     7.1500    77.8787     2.4487     0.1356     0.0162
  388.0000   -76.0438     9.0521     7.3236     7.1500    77.9053     2.4333     0.1377     0.0196
  388.5000   -75.9714     9.0431     7.2264     7.1500    77.6382     2.4406     0.1335     0.0241
  389.0000   -75.8989     9.0336     7.1305     7.1500    77.5122     2.4442     0.1302     0.0258
  389.5000   -75.8265     8.9917     7.0359     7.1500    78.6550     2.4385     0.1361     0.0256
  390.0000   -75.7541     8.9287     6.9646     7.1501    80.7440     2.4435     0.1321     0.0253
  390.5000   -75.6816     8.8661     6.9244     7.1472    81.6736     2.4515     0.1280     0.0251
  391.0000   -75.6092     8.8039     6.8847     7.1434    80.6230     2.4576     0.1239     0.0249
  391.5000   -75.5368     8.7421     6.8451     7.1396    79.4726     2.4600     0.1206     0.0246
  392.0000   -75.4643     8.6808     6.8057     7.1358    78.3168     2.4604     0.1245     0.0244
  392.5000   -75.3917     8.6199     6.7666     7.1320    77.1615     2.4530     0.1283     0.0242
  393.0000   -75.3189     8.5595     6.7277     7.1283    76.0009     2.4481     0.1235     0.0237
  393.5000   -75.2529     8.4994     6.6890     7.1245    75.7627     2.4593     0.1186     0.0219
  394.0000   -75.2776     8.4398     6.6494     7.1207    76.7233     2.4637     0.1362     0.0202
