~VERSION INFORMATION
 VERS.                2.0:   CWLS LOG ASCII STANDARD - VERSION 2.0
 WRAP.                 NO:   ONE LINE PER DEPTH STEP
~WELL INFORMATION
#MNEM.UNIT      DATA TYPE    INFORMATION
#----------   ------------   ------------------------------
 STRT.F           28.0000:   START DEPTH
 STOP.F          856.0000:   STOP DEPTH
 STEP.F            0.5000:   STEP LENGTH
 NULL.          -999.2500:   NO VALUE
 COMP. FENIX & SCISSON INC:   COMPANY
 WELL. NPR 3  76 SX #76-27:   WELL
 FLD .             TEAPOT:   FIELD
 LOC .      S27 T39N R78W:   LOCATION
 CNTY.            NATRONA:   COUNTY
 STAT.            WYOMING:   STATE
 CTRY. UNITED STATES OF AMERICA:   COUNTRY
 SRVC.            Unknown:   SERVICE COMPANY
 DATE.        06-SEP-1978:   LOGDATE
 API .       490251069600:   API NUMBER
~CURVE INFORMATION
#MNEM.UNIT       API CODE    CURVE DESCRIPTION
#----------   ------------   ------------------------------
 DEPT.F                  :   
 SPR .MV     05 010 01 00:   SPONTANEOUS POTENTIAL FROM RES.
 SN  .OHMM   05 040 16 00:   SHORT NORMAL 16"
 ILD .OHMM   05 120 46 00:   INDUCTION LOG DEEP
 NPHI.DEC    42 890 03 00:   NEUTRON POROSITY SANDSTONE
 GRD .GAPI   45 310 01 00:   GAMMA RAY FROM DENSITY LOG
 CALD.IN     45 280 60 00:   CALIPER
 RHOB.G/C3   45 350 01 00:   BULK DENSITY
 DPHI.DEC    45 890 12 00:   DENSITY POROSITY SANDSTONE
 CORR.G/C3   45 356 01 00:   DENSITY CORRECTION
~PARAMETER INFORMATION
#MNEM.UNIT          VALUE    DESCRIPTION
#----------   ------------   ------------------------------
 PD  .                 GL:   PERMANENT DATUM
 EPD .F              5062:   ELEVATION PERMANENT DATUM
 LMF .                 KB:   LOG MEASURED FROM
 DAPD.F                 4:   FEET ABOVE PERMANENT DATUM
 DMF .                 KB:   DRILLING MEASURED FROM
 EKB .F              5066:   KELLING BUSHING
 EGL .F              5062:   GROUND LEVEL
 DATE.             9-6-78:   RUN DATE
 RUN .                  1:   RUN NUMBER
 DD  .F               865:   DEPTH DRILLER
 DL  .F               857:   DEPTH LOGGER
 BLI .F               851:   BOTTOM LOG INTERVAL
 TLI .F                40:   TOP LOG INTERVAL
 CS  .IN            8.625:   CASING SIZE
 CBD .F                43:   CASING BOTTOM DRILLER
 CBL .F                43:   CASING BOTTOM LOGGER
 BS  .IN            7.875:   BIT SIZE
 BSD .F               865:   BIT SIZE AT DEPTH
 DFT .                KCL:   DRILLING FLUID TYPE
 DFD .                8.4:   DRILLING FLUID DENSITY
 DFV .                 40:   DRILLING FLUID VISCOSITY
 DFPH.                  9:   DRILLING FLUID PH
 DFL .                  6:   DRILLING FLUID LOSS
 MSS .           FLOWLINE:   MUD SAMPLE SOURCE
 RMS .OHMM            .14:   RESISTIVITY MUD SAMPLE
 MST .F                84:   MUD SAMPLE TEMPERATURE
 RMF .OHMM             .1:   RESISTIVITY MUD FILTRATE SAMPLE
 MFST.F                94:   MUD FILTRATE SAMPLE TEMPERATURE
 RMC .OHMM            .18:   RESISTIVITY MUD CAKE
 MCST.F                92:   MUD CAKE SAMPLE TEMPERATURE
 MFSS.               MEAS:   MUD FILTRATE SAMPLE SOURCE
 MCSS.               MEAS:   MUD CAKE SAMPLE SOURCE
 RMB .OHMM           .145:   RESISTIVITY MUD AT BHT
 BHT .F                82:   BOTTOM HOLE TEMPERATURE
 TCS .HRS               3:   TIME CURCULATED STOPPED
 MRT .F                82:   MAXIMUM RECORDED TEMPERATURE
 LUN .               2958:   LOGGING UNIT NUMBER
 LUL .               CASP:   LOGGING UNIT LOCATION
 ENGI.           REYNOLDS:   RECORDING ENGINEER
 WITN.           MCGINLEY:   WITNESSED BY
 CLNT.            A2DTECH:   CLIENT CODE
 ORIG.           5" PRINT:   ORIGIN OF DATA
 UWI .       490251069600:   UNIQUE WELL ID
 DICO. A2D Technologies, Inc.:   DIGITIZING COMPANY
~OTHER INFORMATION
~A   DEPT      SPR         SN        ILD       NPHI         GRD      CALD       RHOB       DPHI       CORR   
# ...
  721.5000   -41.7501    12.0164    16.5050     0.3850    67.4684     7.7111     2.4448     0.1431     0.0068
  722.0000   -41.8919    12.0567    16.5713     0.3786    67.6135     7.7115     2.4490     0.1452     0.0087
  722.5000   -42.1505    12.0968    16.1720     0.3628    68.0060     7.7070     2.4521     0.1471     0.0116
  723.0000   -42.8530    12.1311    15.8795     0.3452    67.4774     7.6533     2.4474     0.1475     0.0143
  723.5000   -43.5350    12.0532    15.5923     0.3320    65.7825     7.6034     2.4428     0.1422     0.0167
  724.0000   -44.2162    11.9864    15.3104     0.3396    64.7157     7.5732     2.4445     0.1413     0.0189
  724.5000   -44.5661    11.9199    15.0335     0.3637    66.2417     7.5805     2.4489     0.1434     0.0188
  725.0000   -44.5651    11.8538    14.7616     0.3755    69.1484     7.5875     2.4507     0.1455     0.0151
  725.5000   -44.5653    11.7881    14.6692     0.3750    70.1352     7.5903     2.4480     0.1472     0.0120
  726.0000   -44.5647    11.7228    14.6046     0.3692    69.8450     7.5221     2.4454     0.1495     0.0088
  726.5000   -44.5873    11.6578    14.5403     0.3651    69.5143     7.4515     2.4428     0.1483     0.0148
  727.0000   -44.7679    11.5932    14.4763     0.3643    70.0674     7.3805     2.4400     0.1385     0.0235
  727.5000   -44.9496    11.5289    14.3040     0.3667    70.4391     7.3551     2.4477     0.1337     0.0250
  728.0000   -45.1308    11.4650    14.0014     0.3708    69.9314     7.3663     2.4572     0.1401     0.0222
  728.5000   -45.3120    11.4014    13.7052     0.3848    71.2936     7.4126     2.4613     0.1440     0.0193
  729.0000   -45.4927    11.3382    13.6086     0.3989    73.1773     7.4630     2.4547     0.1442     0.0250
  729.5000   -45.6751    11.2753    13.5412     0.4130    73.1895     7.5091     2.4488     0.1438     0.0355
  730.0000   -45.7496    11.2128    13.4742     0.4209    71.7722     7.5555     2.4493     0.1387     0.0485
  730.5000   -45.7503    11.1433    13.4074     0.4114    70.3515     7.6020     2.4529     0.1286     0.0570
  731.0000   -45.7510    11.0576    13.3411     0.4002    68.9144     7.6485     2.4660     0.1193     0.0507
  731.5000   -45.8088    10.9725    13.2600     0.3890    67.6813     7.6908     2.4785     0.1203     0.0429
  732.0000   -46.1334    10.8881    13.1488     0.3843    68.4227     7.6954     2.4878     0.1229     0.0385
  732.5000   -46.4530    10.8044    13.0385     0.3800    74.4818     7.7125     2.4856     0.1268     0.0377
  733.0000   -46.7721    10.7213    12.9291     0.3771    75.0914     7.7291     2.4834     0.1286     0.0368
  733.5000   -47.0900    10.6388    12.8207     0.3741    71.6382     7.7463     2.4811     0.1289     0.0332
  734.0000   -47.3609    10.5570    12.7132     0.3711    69.2262     7.7506     2.4789     0.1291     0.0268
  734.5000   -47.4728    10.4758    12.6065     0.3756    66.8569     7.7579     2.4767     0.1289     0.0201
  735.0000   -47.7160    10.3793    12.5008     0.3811    66.4874     7.7660     2.4756     0.1259     0.0132
  735.5000   -48.1284    10.3865    12.3959     0.3818    67.9989     7.7742     2.4756     0.1237     0.0175
  736.0000   -48.5377    10.3954    12.2920     0.3826    73.2152     7.7823     2.4765     0.1213     0.0253
  736.5000   -48.9047    10.4043    12.1889     0.3826    75.7056     7.7904     2.4837     0.1203     0.0331
  737.0000   -49.0796    10.4132    12.1311     0.3771    76.0591     7.7985     2.4886     0.1193     0.0410
  737.5000   -49.2649    10.4222    12.1311     0.3574    76.2064     7.8067     2.4892     0.1181     0.0488
  738.0000   -49.4586    10.4311    12.1311     0.3326    76.2176     7.8148     2.4901     0.1134     0.0567
  738.5000   -49.5647    10.4401    12.1311     0.3208    75.0234     7.8229     2.4926     0.1074     0.0641
  739.0000   -49.6483    10.4490    12.1311     0.3368    72.8631     7.8299     2.4987     0.1107     0.0530
  739.5000   -49.7311    10.4580    12.1311     0.3591    73.2200     7.8297     2.5047     0.1145     0.0388
  740.0000   -49.8147    10.4670    12.1311     0.3813    73.9259     7.8298     2.5093     0.1153     0.0342
  740.5000   -49.8972    10.4760    12.1309     0.3878    73.1501     7.8297     2.4976     0.1153     0.0316
  741.0000   -49.8757    10.4850    12.1143     0.3851    73.0796     7.8243     2.4930     0.1190     0.0299
  741.5000   -49.8475    10.4940    12.0586     0.3823    73.4587     7.7925     2.4952     0.1245     0.0282
  742.0000   -49.8196    10.5030    12.0037     0.3687    73.8138     7.7612     2.4964     0.1300     0.0270
  742.5000   -49.7919    10.5120    11.9491     0.3655    73.3956     7.7299     2.4887     0.1337     0.0248
  743.0000   -49.7644    10.5210    11.8948     0.3655    72.7057     7.6986     2.4801     0.1338     0.0241
  743.5000   -49.7363    10.5300    11.8407     0.3651    70.9928     7.6673     2.4716     0.1340     0.0230
  744.0000   -49.7101    10.5391    11.7868     0.3635    69.9764     7.6361     2.4669     0.1345     0.0220
  744.5000   -49.5677    10.5481    11.7333     0.3620    71.6831     7.6118     2.4676     0.1341     0.0205
  745.0000   -49.3480    10.5572    11.6799     0.3594    73.3223     7.6017     2.4682     0.1332     0.0190
  745.5000   -49.1264    10.5662    11.6268     0.3530    74.4401     7.5893     2.4689     0.1312     0.0184
  746.0000   -48.9041    10.5714    11.5738     0.3532    73.9107     7.5767     2.4695     0.1292     0.0171
  746.5000   -48.6843    10.5654    11.5215     0.3552    72.7319     7.5726     2.4718     0.1272     0.0147
  747.0000   -48.5610    10.5594    11.4817     0.3556    71.6815     7.5725     2.4744     0.1252     0.0130
  747.5000   -48.7877    10.5533    11.5548     0.3558    72.2508     7.5725     2.4771     0.1245     0.0130
  748.0000   -49.0049    10.5473    11.5872     0.3563    75.1474     7.5724     2.4797     0.1237     0.0131
  748.5000   -49.2216    10.5413    11.7014     0.3608    73.7687     7.5719     2.4823     0.1239     0.0110
  749.0000   -49.4415    10.5353    11.8102     0.3678    71.6954     7.5918     2.4828     0.1244     0.0110
  749.5000   -49.5439    10.5293    11.9200     0.3744    71.5485     7.6137     2.4831     0.1235     0.0110
  750.0000   -49.6247    10.5233    12.0308     0.3790    73.2340     7.6356     2.4833     0.1198     0.0110
  750.5000   -49.7039    10.5173    12.1311     0.3665    74.1252     7.6575     2.4843     0.1157     0.0110
  751.0000   -49.7833    10.5113    12.1311     0.3570    72.9737     7.6794     2.4909     0.1166     0.0110
  751.5000   -49.8619    10.5053    12.1311     0.3528    72.7748     7.7014     2.4951     0.1203     0.0111
  752.0000   -49.8263    10.4993    12.1311     0.3626    73.3688     7.7234     2.4906     0.1139     0.0119
  752.5000   -49.5783    10.4933    12.1938     0.3687    73.1560     7.7468     2.4902     0.1130     0.0128
  753.0000   -49.3094    10.4872    12.2819     0.3675    72.1872     7.7098     2.4952     0.1163     0.0137
  753.5000   -48.3319    10.4805    12.3706     0.3567    72.7561     7.6559     2.4985     0.1203     0.0145
  754.0000   -47.2664    10.4750    12.4599     0.3444    74.0052     7.6015     2.4937     0.1229     0.0153
  754.5000   -46.1895    10.6191    12.5499     0.3375    73.6816     7.5472     2.4886     0.1207     0.0210
  755.0000   -45.8092    10.7758    12.6405     0.3305    74.3876     7.4943     2.4865     0.1100     0.0246
  755.5000   -45.4603    10.9349    12.7898     0.3272    72.5434     7.5542     2.4876     0.0937     0.0357
  756.0000   -45.0108    11.0963    13.0543     0.3276    68.0099     7.6546     2.4938     0.0774     0.0461
  756.5000   -44.0225    11.2601    13.3242     0.3364    63.5150     7.6763     2.5182     0.0612     0.0895
  757.0000   -43.0288    11.4263    13.5975     0.3474    59.0048     7.6976     2.5432     0.0541     0.1524
  757.5000   -41.9524    11.5949    14.3894     0.3584    54.5057     7.7085     2.5682     0.0786     0.1971
