~VERSION INFORMATION
 VERS.                2.0:   CWLS LOG ASCII STANDARD - VERSION 2.0
 WRAP.                 NO:   ONE LINE PER DEPTH STEP
~WELL INFORMATION
#MNEM.UNIT      DATA TYPE    INFORMATION
#----------   ------------   ------------------------------
 STRT.F           22.0000:   START DEPTH
 STOP.F          654.0000:   STOP DEPTH
 STEP.F            0.5000:   STEP LENGTH
 NULL.          -999.2500:   NO VALUE
 COMP. FENIX & SCISSON INC:   COMPANY
 WELL.     54 S 34 #54-34:   WELL
 FLD .             TEAPOT:   FIELD
 LOC .      S34 T39N R78W:   LOCATION
 CNTY.            NATRONA:   COUNTY
 STAT.            WYOMING:   STATE
 CTRY. UNITED STATES OF AMERICA:   COUNTRY
 SRVC.           BIRDWELL:   SERVICE COMPANY
 DATE.        22-AUG-1978:   LOGDATE
 API .       490251070100:   API NUMBER
~CURVE INFORMATION
#MNEM.UNIT       API CODE    CURVE DESCRIPTION
#----------   ------------   ------------------------------
 DEPT.F                  :   
 SPR .MV     05 010 01 00:   SPONTANEOUS POTENTIAL FROM RES.
 SN  .OHMM   05 040 16 00:   SHORT NORMAL 16"
 ILD .OHMM   05 120 46 00:   INDUCTION LOG DEEP
 CALD.IN     45 280 60 00:   CALIPER
 GRD .GAPI   45 310 01 00:   GAMMA RAY FROM DENSITY LOG
 DPHI.DEC    45 890 12 00:   DENSITY POROSITY SANDSTONE
 RHOB.G/C3   45 350 01 00:   BULK DENSITY
 CORR.G/C3   45 356 01 00:   DENSITY CORRECTION
~PARAMETER INFORMATION
#MNEM.UNIT          VALUE    DESCRIPTION
#----------   ------------   ------------------------------
 PD  .                 GL:   PERMANENT DATUM
 EPD .F              5085:   ELEVATION PERMANENT DATUM
 LMF .                 KB:   LOG MEASURED FROM
 DAPD.F                 4:   FEET ABOVE PERMANENT DATUM
 DMF .                 KB:   DRILLING MEASURED FROM
 EKB .F              5089:   KELLING BUSHING
 EGL .F              5085:   GROUND LEVEL
 DATE.            8-22-78:   RUN DATE
 RUN .                  1:   RUN NUMBER
 DD  .F               685:   DEPTH DRILLER
 DL  .F               653:   DEPTH LOGGER
 BLI .F               646:   BOTTOM LOG INTERVAL
 TLI .F                30:   TOP LOG INTERVAL
 CS  .IN            8.625:   CASING SIZE
 CBD .F                46:   CASING BOTTOM DRILLER
 CBL .F                46:   CASING BOTTOM LOGGER
 BS  .IN            7.875:   BIT SIZE
 BSD .F               685:   BIT SIZE AT DEPTH
 DFT .                KCL:   DRILLING FLUID TYPE
 DFD .                8.7:   DRILLING FLUID DENSITY
 DFV .                 33:   DRILLING FLUID VISCOSITY
 DFPH.                  9:   DRILLING FLUID PH
 MSS .           FLOWLINE:   MUD SAMPLE SOURCE
 RMS .OHMM            .18:   RESISTIVITY MUD SAMPLE
 MST .F                86:   MUD SAMPLE TEMPERATURE
 RMF .OHMM            .16:   RESISTIVITY MUD FILTRATE SAMPLE
 MFST.F                86:   MUD FILTRATE SAMPLE TEMPERATURE
 RMC .OHMM            .52:   RESISTIVITY MUD CAKE
 MCST.F                86:   MUD CAKE SAMPLE TEMPERATURE
 MFSS.               MEAS:   MUD FILTRATE SAMPLE SOURCE
 MCSS.               MEAS:   MUD CAKE SAMPLE SOURCE
 BHT .F                70:   BOTTOM HOLE TEMPERATURE
 TCS .HRS               2:   TIME CURCULATED STOPPED
 MRT .F                70:   MAXIMUM RECORDED TEMPERATURE
 LUN .               2958:   LOGGING UNIT NUMBER
 LUL .               CASP:   LOGGING UNIT LOCATION
 ENGI.           REYNOLDS:   RECORDING ENGINEER
 WITN.              AMEND:   WITNESSED BY
 CLNT.            A2DTECH:   CLIENT CODE
 ORIG.           5" PRINT:   ORIGIN OF DATA
 UWI .       490251070100:   UNIQUE WELL ID
 DICO. A2D Technologies, Inc.:   DIGITIZING COMPANY
~OTHER INFORMATION
~A   DEPT      SPR         SN        ILD       CALD         GRD      DPHI       RHOB       CORR   
# ...
  548.5000   -21.7489    12.0532    16.3416     7.6372    69.1573     0.1819     2.3818     0.0454
  549.0000   -21.7858    12.0227    16.2115     7.6210    70.5191     0.1825     2.3808     0.0447
  549.5000   -21.8224    11.9922    16.0261     7.6049    71.8787     0.1825     2.3799     0.0440
  550.0000   -21.8608    11.9602    15.8429     7.5810    73.0875     0.1823     2.3799     0.0433
  550.5000   -21.9493    11.9746    15.6617     7.4943    72.5651     0.1821     2.3807     0.0427
  551.0000   -22.0350    11.9912    15.4826     7.4281    71.4941     0.1786     2.3831     0.0420
  551.5000   -22.1201    12.0081    15.3055     7.3658    70.4515     0.1721     2.3930     0.0413
  552.0000   -22.2052    12.0250    15.1309     7.3455    70.1982     0.1748     2.3986     0.0406
  552.5000   -22.2903    12.0420    14.9555     7.3384    72.2330     0.1787     2.3966     0.0413
  553.0000   -22.3754    12.0589    14.8973     7.3327    71.8708     0.1826     2.3878     0.0484
  553.5000   -22.4604    12.0759    14.8826     7.2894    70.9250     0.1853     2.3790     0.0555
  554.0000   -22.5455    12.0929    14.8679     7.2329    70.9030     0.1837     2.3777     0.0630
  554.5000   -22.6306    12.1100    14.8532     7.1760    70.6581     0.1774     2.3832     0.0569
  555.0000   -22.8281    12.1271    14.8385     7.1192    69.9426     0.1693     2.3989     0.0465
  555.5000   -23.0683    12.1441    14.8238     7.0624    69.2437     0.1605     2.4143     0.0360
  556.0000   -23.3091    12.1613    14.8091     7.0045    68.4877     0.1621     2.4117     0.0251
  556.5000   -23.5499    12.1784    14.7945     6.9762    68.4882     0.1699     2.4037     0.0209
  557.0000   -23.7906    12.1956    14.7799     6.9566    70.3531     0.1766     2.3953     0.0204
  557.5000   -24.0314    12.2128    14.7652     6.9374    72.3567     0.1833     2.3824     0.0205
  558.0000   -24.2721    12.2300    14.7506     6.9181    73.8851     0.1899     2.3694     0.0205
  558.5000   -24.5128    12.2472    14.7360     6.8992    73.4804     0.1961     2.3562     0.0205
  559.0000   -24.7538    12.2645    14.7215     6.8990    72.6928     0.1939     2.3569     0.0205
  559.5000   -24.9960    12.2818    14.7069     6.9302    71.8761     0.1898     2.3644     0.0205
  560.0000   -25.2396    12.3111    14.6924     6.9602    71.5630     0.1857     2.3715     0.0205
  560.5000   -25.3029    12.3644    14.6778     6.9903    72.5932     0.1816     2.3786     0.0205
  561.0000   -25.3570    12.4178    14.6635     7.0152    73.8815     0.1777     2.3831     0.0205
  561.5000   -25.4155    12.4715    14.6488     7.0313    75.1708     0.1792     2.3854     0.0205
  562.0000   -25.6524    12.5254    14.6363     7.0471    76.3397     0.1812     2.3839     0.0208
  562.5000   -26.2518    12.5796    14.6365     7.0629    73.9291     0.1832     2.3812     0.0227
  563.0000   -26.6525    12.6339    15.0979     7.0787    70.8249     0.1837     2.3784     0.0246
  563.5000   -26.6442    12.6885    15.4492     7.0946    70.9793     0.1837     2.3792     0.0266
  564.0000   -26.6315    12.7434    15.8089     7.1103    73.9254     0.1794     2.3833     0.0285
  564.5000   -27.3420    12.7985    16.1762     7.1254    76.3008     0.1699     2.4035     0.0285
  565.0000   -28.2487    12.8538    16.5564     7.1660    78.5786     0.1509     2.4310     0.0265
  565.5000   -28.9565    12.9096    16.6444     7.2131    79.2473     0.1319     2.4587     0.0243
  566.0000   -29.2470    12.9652    16.4923     7.2605    75.6261     0.1128     2.4863     0.0221
  566.5000   -29.4442    12.9905    16.3416     7.3079    71.1089     0.0938     2.5140     0.0199
  567.0000   -29.4407    12.9510    16.0056     7.3552    66.5710     0.0848     2.5377     0.0187
  567.5000   -29.4412    12.7239    15.5086     7.4024    63.0840     0.0918     2.5361     0.0201
  568.0000   -29.4411    12.5007    15.0270     7.4500    61.2688     0.0992     2.5196     0.0215
  568.5000   -29.4411    12.2815    14.5603     7.4698    64.4386     0.1142     2.4943     0.0228
  569.0000   -29.4411    12.0661    14.1082     7.4700    69.9581     0.1296     2.4691     0.0242
  569.5000   -29.4411    11.8544    13.6701     7.4700    71.1547     0.1450     2.4438     0.0256
  570.0000   -29.4409    11.6465    13.2421     7.4700    72.4128     0.1604     2.4187     0.0270
  570.5000   -29.4409    11.4423    12.9911     7.4700    74.8934     0.1681     2.4023     0.0283
  571.0000   -29.4428    11.3076    13.1543     7.4700    76.3792     0.1636     2.4073     0.0297
  571.5000   -29.5511    11.2802    13.2772     7.4700    77.1963     0.1591     2.4162     0.0303
  572.0000   -29.8454    11.2529    13.4000     7.4700    77.7193     0.1545     2.4218     0.0298
  572.5000   -30.1371    11.2257    13.5238     7.4700    77.3535     0.1499     2.4252     0.0293
  573.0000   -30.4298    11.1986    13.6498     7.4700    76.9176     0.1454     2.4367     0.0287
  573.5000   -30.7220    11.1715    13.7264     7.4700    76.4734     0.1460     2.4450     0.0285
  574.0000   -30.7113    11.1445    13.7268     7.4701    76.0537     0.1480     2.4400     0.0285
  574.5000   -30.0032    11.1175    13.5013     7.4701    74.7589     0.1500     2.4349     0.0285
  575.0000   -29.4263    11.0906    13.2802     7.4837    72.1852     0.1505     2.4353     0.0285
  575.5000   -29.4439    11.0638    13.0627     7.5057    69.3338     0.1470     2.4390     0.0287
  576.0000   -29.5812    11.0371    12.8487     7.5279    66.4205     0.1435     2.4427     0.0239
  576.5000   -29.8971    11.0104    12.6383     7.5502    65.4988     0.1400     2.4465     0.0182
  577.0000   -30.3163    10.9837    12.4313     7.5723    66.0887     0.1423     2.4449     0.0126
  577.5000   -30.7382    10.9572    12.2276     7.5890    69.8787     0.1453     2.4399     0.0146
  578.0000   -31.1637    10.9307    12.0695     7.5802    73.7926     0.1484     2.4352     0.0148
  578.5000   -31.3189    10.9042    12.1032     7.5720    77.1551     0.1514     2.4326     0.0194
  579.0000   -31.4195    10.8779    12.1310     7.5639    76.3739     0.1545     2.4273     0.0232
  579.5000   -31.5183    10.8516    12.1590     7.5558    74.5637     0.1565     2.4239     0.0269
  580.0000   -31.6137    10.8253    12.1870     7.5477    72.7589     0.1504     2.4291     0.0305
  580.5000   -31.8852    10.8115    12.2150     7.5395    72.1328     0.1418     2.4441     0.0311
  581.0000   -32.1878    10.8146    12.2432     7.5312    73.4601     0.1360     2.4546     0.0315
  581.5000   -32.4913    10.8177    12.2713     7.5342    75.7935     0.1344     2.4588     0.0320
  582.0000   -32.7947    10.8209    12.2996     7.5393    78.0943     0.1304     2.4643     0.0325
  582.5000   -33.0992    10.8240    12.3279     7.5445    79.1872     0.1220     2.4802     0.0330
  583.0000   -33.3997    10.8271    12.3563     7.5497    80.0110     0.1197     2.4852     0.0335
  583.5000   -33.5502    10.8302    12.3848     7.5548    80.8228     0.1235     2.4764     0.0340
  584.0000   -33.1054    10.8334    12.4133     7.5600    81.1558     0.1306     2.4674     0.0344
  584.5000   -32.6765    10.8365    12.4418     7.5652    81.0131     0.1376     2.4583     0.0410
  585.0000   -32.3998    10.8397    12.4705     7.5694    78.0225     0.1444     2.4492     0.0510
  585.5000   -32.3246    10.8428    12.4993     7.5541    74.7818     0.1436     2.4450     0.0543
  586.0000   -32.2472    10.8459    12.5210     7.5386    73.6592     0.1416     2.4473     0.0534
  586.5000   -32.1700    10.8491    12.4022     7.5231    76.7977     0.1378     2.4527     0.0525
  587.0000   -32.0940    10.8522    12.3075     7.5077    79.9975     0.1340     2.4580     0.0516
  587.5000   -32.0708    10.8553    12.2135     7.4923    80.7483     0.1312     2.4622     0.0504
  588.0000   -32.2438    10.8585    12.1202     7.4769    80.8805     0.1359     2.4617     0.0529
  588.5000   -32.4110    10.8616    12.0276     7.4615    79.7562     0.1404     2.4528     0.0615
