~VERSION INFORMATION
 VERS.                2.0:   CWLS LOG ASCII STANDARD - VERSION 2.0
 WRAP.                 NO:   ONE LINE PER DEPTH STEP
~WELL INFORMATION
#MNEM.UNIT      DATA TYPE    INFORMATION
#----------   ------------   ------------------------------
 STRT.F            0.0000:   START DEPTH
 STOP.F          649.0000:   STOP DEPTH
 STEP.F            0.1000:   STEP LENGTH
 NULL.          -999.2500:   NO VALUE
 COMP.   FLUOR DANIEL INC:   COMPANY
 WELL.     17-1 X 2 #17-2:   WELL
 FLD .             TEAPOT:   FIELD
 LOC .       S2 T38N R78W:   LOCATION
 CNTY.            NATRONA:   COUNTY
 STAT.            WYOMING:   STATE
 CTRY. UNITED STATES OF AMERICA:   COUNTRY
 SRVC.      Western Atlas:   SERVICE COMPANY
 DATE.        20-MAY-1995:   LOGDATE
 API .       490252271000:   API NUMBER
~CURVE INFORMATION
#MNEM.UNIT       API CODE    CURVE DESCRIPTION
#----------   ------------   ------------------------------
 DEPT.F                  :   
 GRR .GAPI   07 310 01 00:   GAMMA RAY
 RILD.OHMM   07 120 46 00:   INDUCTION LOG DEEP RESISTIVITY
 RILM.OHMM   07 120 44 00:   RESITIVITY LOG MEDIUM
~PARAMETER INFORMATION
#MNEM.UNIT          VALUE    DESCRIPTION
#----------   ------------   ------------------------------
 PD  .                 GL:   PERMANENT DATUM
 EPD .F              5145:   ELEVATION PERMANENT DATUM
 LMF .                 KB:   LOG MEASURED FROM
 DAPD.F                10:   FEET ABOVE PERMANENT DATUM
 DMF .                 KB:   DRILLING MEASURED FROM
 EKB .F              5155:   KELLING BUSHING
 EDF .F              5154:   DRILLING FLOOR
 EGL .F              5145:   GROUND LEVEL
 DATE.        20-MAY-1995:   RUN DATE
 RUN .                  1:   RUN NUMBER
 DD  .F               657:   DEPTH DRILLER
 DL  .F               657:   DEPTH LOGGER
 BLI .F               649:   BOTTOM LOG INTERVAL
 CS  .IN            9.625:   CASING SIZE
 CBD .F                82:   CASING BOTTOM DRILLER
 CBL .F                82:   CASING BOTTOM LOGGER
 BS  .IN             8.75:   BIT SIZE
 BSD .F               657:   BIT SIZE AT DEPTH
 DFT .                AIR:   DRILLING FLUID TYPE
 MRT .F                92:   MAXIMUM RECORDED TEMPERATURE
 LUN .            HL 6530:   LOGGING UNIT NUMBER
 LUL .             CASPER:   LOGGING UNIT LOCATION
 ENGI.        VERN RAUTIO:   RECORDING ENGINEER
 WITN.        STEVE HARDY:   WITNESSED BY
 CLNT.            A2DTECH:   CLIENT CODE
 ORIG.           5" PRINT:   ORIGIN OF DATA
 UWI .       490252271000:   UNIQUE WELL ID
 DICO. A2D Technologies, Inc.:   DIGITIZING COMPANY
~OTHER INFORMATION
~A    DEPT      GRR      RILD       RILM   
# ...
  291.2000   126.9841     2.9068     3.0203
  291.3000   126.0621     2.8600     2.9101
  291.4000   125.2018     2.8214     2.8288
  291.5000   124.2415     2.7782     2.7538
  291.6000   122.7776     2.7614     2.7029
  291.7000   121.3687     2.7318     2.6421
  291.8000   120.7324     2.7007     2.5881
  291.9000   120.3095     2.6855     2.5491
  292.0000   120.0644     2.6811     2.5339
  292.1000   119.8192     2.6647     2.5202
  292.2000   119.5705     2.6300     2.5059
  292.3000   119.3289     2.6172     2.4991
  292.4000   119.0837     2.6023     2.5034
  292.5000   118.9744     2.5938     2.5165
  292.6000   118.9768     2.5938     2.5166
  292.7000   118.9792     2.5939     2.5166
  292.8000   118.9819     2.5940     2.5259
  292.9000   118.9840     2.5940     2.5342
  293.0000   118.9864     2.5941     2.5342
  293.1000   118.8760     2.5942     2.5343
  293.2000   118.6896     2.5943     2.5487
  293.3000   118.6920     2.5943     2.5747
  293.4000   118.3932     2.5944     2.5960
  293.5000   118.1971     2.6048     2.6109
  293.6000   118.0959     2.6127     2.6277
  293.7000   118.0983     2.6167     2.6607
  293.8000   118.0650     2.6319     2.6745
  293.9000   117.8017     2.6498     2.7111
  294.0000   117.8039     2.6624     2.7431
  294.1000   117.8063     2.6779     2.7709
  294.2000   117.9298     2.6995     2.8347
  294.3000   118.1798     2.7307     2.9122
  294.4000   118.4555     2.7636     2.9673
  294.5000   119.3247     2.8256     3.0358
  294.6000   120.5648     2.8789     3.0989
  294.7000   121.7480     2.9381     3.1554
  294.8000   122.8387     2.9955     3.2319
  294.9000   124.0791     3.0318     3.3028
  295.0000   125.3696     3.0910     3.3934
  295.1000   126.7970     3.1384     3.4812
  295.2000   128.1013     3.2178     3.5676
  295.3000   129.2122     3.3203     3.6705
  295.4000   130.2049     3.4412     3.7916
  295.5000   131.2189     3.5816     3.8671
  295.6000   132.6241     3.7078     3.9860
  295.7000   133.9138     3.8205     4.1144
  295.8000   135.0806     3.9319     4.2332
  295.9000   135.9668     4.0639     4.3565
  296.0000   136.6596     4.2229     4.4817
  296.1000   137.1608     4.3546     4.6322
  296.2000   137.1632     4.5215     4.7627
  296.3000   137.1656     4.7273     4.8630
  296.4000   137.3056     4.8922     4.9468
  296.5000   137.6390     5.0059     5.0405
  296.6000   138.1071     5.1222     5.0928
  296.7000   138.3821     5.2597     5.1717
  296.8000   138.6071     5.3374     5.2468
  296.9000   139.0259     5.4304     5.3070
  297.0000   139.5234     5.5117     5.3678
  297.1000   140.0208     5.5755     5.4409
  297.2000   140.5120     5.6412     5.4919
  297.3000   140.8101     5.6733     5.5360
  297.4000   140.8121     5.7061     5.5798
  297.5000   140.8145     5.7391     5.6438
  297.6000   140.8169     5.7724     5.7122
  297.7000   140.7817     5.8096     5.7431
  297.8000   140.5202     5.8838     5.8001
  297.9000   139.8292     5.9144     5.8496
  298.0000   138.9121     5.9721     5.8930
  298.1000   137.9243     6.0250     5.9580
  298.2000   137.1427     6.0686     5.9971
  298.3000   136.9121     6.1388     6.0265
  298.4000   137.2167     6.2231     6.0833
  298.5000   137.2187     6.2233     6.1383
  298.6000   137.5292     6.2235     6.1662
  298.7000   138.0267     6.2373     6.1663
  298.8000   138.4785     6.2674     6.1664
  298.9000   138.7367     6.2676     6.1665
  299.0000   139.4571     6.2678     6.1666
  299.1000   140.7578     6.2680     6.1666
  299.2000   142.1144     6.2496     6.1667
  299.3000   143.0466     6.0644     6.1668
  299.4000   143.2736     6.0648     6.1669
  299.5000   143.2763     6.0651     6.1431
  299.6000   143.4948     6.0654     6.1083
  299.7000   143.4202     6.0658     6.0736
  299.8000   143.1751     6.0661     6.0402
  299.9000   142.6057     6.0665     6.0403
  300.0000   140.8748     6.0668     6.0125
  300.1000   139.8870     6.0671     5.9986
  300.2000   139.4795     6.0548     5.9859
  300.3000   139.2344     6.0208     5.9519
  300.4000   139.0745     5.9846     5.9162
  300.5000   139.1080     5.9849     5.8846
  300.6000   139.3812     5.9614     5.8513
  300.7000   139.3834     5.9280     5.8181
  300.8000   139.5564     5.8948     5.7756
  300.9000   139.6899     5.8595     5.7125
  301.0000   139.7546     5.7426     5.6753
  301.1000   140.0128     5.6903     5.5934
  301.2000   140.6026     5.5892     5.5384
  301.3000   140.8062     5.4641     5.4810
  301.4000   141.2038     5.3415     5.3881
  301.5000   141.7014     5.2126     5.2952
  301.6000   142.1201     5.1319     5.2070
  301.7000   142.1226     5.0456     5.1189
  301.8000   142.3578     4.9740     5.0167
  301.9000   142.4290     4.9182     4.9036
  302.0000   142.3067     4.8629     4.7929
  302.1000   142.1321     4.7980     4.6737
  302.2000   142.1180     4.7544     4.5795
  302.3000   141.8357     4.7010     4.4764
  302.4000   141.6277     4.6482     4.3869
  302.5000   141.5385     4.5960     4.3184
  302.6000   141.4391     4.5403     4.2695
  302.7000   141.2412     4.4701     4.2119
  302.8000   142.3340     4.3778     4.1926
  302.9000   142.1163     4.2912     4.1688
  303.0000   142.1178     4.2249     4.1452
  303.1000   142.1189     4.1781     4.1217
  303.2000   142.1201     4.1502     4.0969
  303.3000   142.0092     4.1504     4.0969
  303.4000   141.8208     4.1369     4.0802
  303.5000   141.8220     4.1222     4.0687
  303.6000   141.8232     4.1224     4.0688
  303.7000   141.8244     4.1227     4.0688
  303.8000   141.8256     4.1229     4.0689
  303.9000   141.9135     4.1394     4.0689
  304.0000   142.1297     4.1520     4.0837
  304.1000   142.1310     4.1522     4.0974
  304.2000   142.8066     4.1531     4.0974
  304.3000   143.3789     4.1817     4.0975
  304.4000   143.9902     4.1818     4.1205
  304.5000   144.6717     4.1959     4.1261
  304.6000   145.1604     4.2114     4.1262
  304.7000   145.4566     4.2149     4.1263
  304.8000   145.6571     4.2412     4.1289
  304.9000   145.7605     4.2414     4.1551
  305.0000   145.6712     4.2584     4.1552
  305.1000   145.2811     4.2829     4.1713
  305.2000   143.9542     4.3075     4.1842
  305.3000   141.8978     4.3322     4.1900
  305.4000   140.0228     4.3620     4.2146
  305.5000   137.9348     4.4022     4.2724
  305.6000   135.4642     4.4380     4.2922
  305.7000   133.0043     4.4726     4.3168
  305.8000   130.3869     4.5238     4.3507
  305.9000   130.1846     4.5802     4.4007
  306.0000   130.0875     4.6043     4.4544
  306.1000   130.0887     4.6490     4.5265
  306.2000   130.2493     4.7023     4.5857
  306.3000   131.2978     4.7562     4.6384
  306.4000   132.2290     4.8107     4.6840
  306.5000   133.3967     4.8769     4.7144
  306.6000   134.7571     4.8993     4.8082
  306.7000   136.1723     4.9437     4.8316
  306.8000   137.4091     4.9903     4.8769
  306.9000   138.8466     5.0227     4.9834
  307.0000   140.9191     5.0855     5.0881
  307.1000   142.7812     5.1387     5.1462
  307.2000   144.0691     5.1976     5.2099
  307.3000   145.0154     5.2572     5.3048
  307.4000   145.7907     5.3174     5.3618
  307.5000   146.2645     5.3784     5.4453
  307.6000   146.7600     5.4401     5.5233
  307.7000   147.0009     5.5025     5.5864
  307.8000   147.0021     5.5474     5.6515
  307.9000   147.0033     5.5905     5.7665
  308.0000   147.0047     5.6503     5.8204
  308.1000   146.5839     5.6858     5.9069
  308.2000   145.6215     5.7451     5.9831
  308.3000   144.4888     5.8110     6.0222
  308.4000   143.4538     5.8776     6.0966
  308.5000   142.1841     5.9450     6.1286
  308.6000   141.7050     6.0131     6.1636
  308.7000   141.2119     6.0821     6.2155
  308.8000   140.9810     6.1519     6.2777
  308.9000   140.9822     6.2021     6.3142
  309.0000   141.0056     6.2629     6.3865
  309.1000   141.2864     6.3659     6.4595
  309.2000   141.7170     6.4457     6.5121
  309.3000   142.0522     6.4793     6.5623
