~VERSION INFORMATION
 VERS.                2.0:   CWLS LOG ASCII STANDARD - VERSION 2.0
 WRAP.                 NO:   ONE LINE PER DEPTH STEP
~WELL INFORMATION
#MNEM.UNIT      DATA TYPE    INFORMATION
#----------   ------------   ------------------------------
 STRT.F           30.0000:   START DEPTH
 STOP.F          562.0000:   STOP DEPTH
 STEP.F            0.5000:   STEP LENGTH
 NULL.          -999.2500:   NO VALUE
 COMP. LAWRENCE/ALLISON INC:   COMPANY
 WELL. NPR 3 #53-16-SX-10:   WELL
 FLD .             TEAPOT:   FIELD
 LOC .      S10 T38N R78W:   LOCATION
 CNTY.            NATRONA:   COUNTY
 STAT.            WYOMING:   STATE
 CTRY. UNITED STATES OF AMERICA:   COUNTRY
 SRVC.      Dresser Atlas:   SERVICE COMPANY
 DATE.        27-AUG-1984:   LOGDATE
 API .       490251098200:   API NUMBER
~CURVE INFORMATION
#MNEM.UNIT       API CODE    CURVE DESCRIPTION
#----------   ------------   ------------------------------
 DEPT.F                  :   
 RILD.OHMM   07 120 46 00:   INDUCTION LOG DEEP RESISTIVITY
 RILM.OHMM   07 120 44 00:   INDUCTION LOG MEDIUM RESISTIVITY
 RFOC.OHMM   07 220 04 00:   RESISTIVITY FOCUSED LOG
 SPR .MV     07 010 01 00:   SPONTANEOUS POTENTIAL
 AC  .US/F   60 520 00 00:   ACOUSTIC SONIC
 DEN .G/C3   45 350 01 00:   COMPENSATED BULK DENSTIY
 CORR.G/C3   45 356 01 00:   DENSITY CORRECTION
 CNC .DEC    42 890 01 00:   NEUTRON POROSITY LIMESTONE
 CALD.IN     45 280 60 00:   CALIPER
 GRD .GAPI   45 310 01 00:   GAMMA RAY FROM DENSITY LOG
 PORD.DEC    45 890 10 00:   POROSITY DENSITY LIMESTONE
~PARAMETER INFORMATION
#MNEM.UNIT          VALUE    DESCRIPTION
#----------   ------------   ------------------------------
 PD  .                 GL:   PERMANENT DATUM
 EPD .F              5199:   ELEVATION PERMANENT DATUM
 LMF .                 GL:   LOG MEASURED FROM
 DMF .                 GL:   DRILLING MEASURED FROM
 EGL .F              5199:   GROUND LEVEL
 DATE.            8-27-84:   RUN DATE
 RUN .                  1:   RUN NUMBER
 DD  .F               550:   DEPTH DRILLER
 DL  .F               549:   DEPTH LOGGER
 BLI .F               547:   BOTTOM LOG INTERVAL
 TLI .F                30:   TOP LOG INTERVAL
 CS  .IN            9.625:   CASING SIZE
 CBD .F                40:   CASING BOTTOM DRILLER
 CBL .F                44:   CASING BOTTOM LOGGER
 BS  .IN            7.875:   BIT SIZE
 BSD .F               550:   BIT SIZE AT DEPTH
 DFT .          KCL/WATER:   DRILLING FLUID TYPE
 MSS .           MUD TANK:   MUD SAMPLE SOURCE
 RMS .OHMM            .28:   RESISTIVITY MUD SAMPLE
 MST .F                78:   MUD SAMPLE TEMPERATURE
 TCS .HRS               4:   TIME CURCULATED STOPPED
 LUN .               4082:   LOGGING UNIT NUMBER
 LUL .          ROOSEVELT:   LOGGING UNIT LOCATION
 ENGI.            FRANCIS:   RECORDING ENGINEER
 WITN.              FIVAS:   WITNESSED BY
 CLNT.            A2DTECH:   CLIENT CODE
 ORIG.       2", 5" PRINT:   ORIGIN OF DATA
 UWI .       490251098200:   UNIQUE WELL ID
 DICO. A2D Technologies, Inc.:   DIGITIZING COMPANY
~OTHER INFORMATION
~A   DEPT     RILD       RILM       RFOC        SPR         AC        DEN       CORR          CNC     CALD         GRD      PORD   
# ...
  487.5000     8.0903     7.8460     8.8335   -10.5175    98.2166     2.5188     0.0503     0.2306     7.9736   105.4876     0.0964
  488.0000     8.1225     7.9654     9.1978   -10.4093    97.7676     2.5159     0.0611     0.2272     7.9721   102.5964     0.0988
  488.5000     8.1554     8.0870     9.3765   -10.3003    97.9715     2.5140     0.0722     0.2362     7.9707   100.6782     0.0983
  489.0000     8.1884     8.2105     9.3041   -10.1887    98.1955     2.5174     0.0832     0.2430     7.9693   102.9966     0.0962
  489.5000     8.2216     8.3359     9.2501   -10.3249    98.4179     2.5208     0.0905     0.2492     7.9679   109.7089     0.0931
  490.0000     8.2390     8.4632     9.1964   -10.4879    98.6396     2.5261     0.0850     0.2497     7.9664   116.4783     0.0898
  490.5000     8.1900     8.5491     9.1202   -10.6507    98.8613     2.5339     0.0783     0.2398     7.9650   119.5791     0.0861
  491.0000     8.1570     8.5348     9.1657   -10.8130    99.0831     2.5362     0.0711     0.2324     7.9636   119.0028     0.0852
  491.5000     8.1241     8.5223     9.2459   -10.9752    99.3048     2.5251     0.0642     0.2328     7.9622   120.3875     0.0930
  492.0000     8.0913     8.5098     9.3267   -11.1374    99.5265     2.5137     0.0652     0.2458     7.9607   120.6379     0.0997
  492.5000     8.0587     8.4972     9.4082   -11.2996    99.7695     2.5024     0.0676     0.2546     7.9593   118.4688     0.1049
  493.0000     8.0261     8.4848     9.4905   -11.4619    99.9295     2.4995     0.0635     0.2585     7.9579   118.7684     0.1084
  493.5000     7.9938     8.4723     9.5735   -11.6253    99.9704     2.5002     0.0637     0.2577     7.9565   120.0622     0.1088
  494.0000     7.9615     8.4252     9.6572   -11.7881    99.9691     2.5114     0.0689     0.2556     7.9550   121.3822     0.1027
  494.5000     7.9294     8.3727     9.7295   -11.7957    99.7776     2.5252     0.0739     0.2553     7.9536   120.8496     0.0937
  495.0000     7.8974     8.3204     9.5211   -11.7943    99.4685     2.5369     0.0698     0.2585     7.9522   119.5897     0.0850
  495.5000     7.8656     8.2685     9.3071   -11.7815    99.1604     2.5316     0.0489     0.2621     7.9508   118.6590     0.0847
  496.0000     7.8338     8.2169     9.0979   -11.7537    99.0220     2.5185     0.0349     0.2633     7.9493   118.5016     0.0965
  496.5000     7.7948     8.1632     8.8934   -11.7260    99.3347     2.5065     0.0345     0.2502     7.9479   118.5384     0.1032
  497.0000     7.8086     8.1793     8.6935   -11.6982    99.6473     2.5113     0.0571     0.2427     7.9465   119.2989     0.1020
  497.5000     7.8269     8.1960     8.4713   -11.6705    99.9210     2.5186     0.0824     0.2415     7.9451   120.1227     0.0960
  498.0000     7.8452     8.2130     8.6213   -11.6423    99.9095     2.5246     0.0787     0.2403     7.9436   122.8583     0.0917
  498.5000     7.8635     8.2299     8.7990   -11.6124    99.4450     2.5273     0.0705     0.2338     7.9422   125.6630     0.0908
  499.0000     7.8819     8.2469     8.9818   -11.6028    98.9813     2.5225     0.0552     0.2324     7.9408   124.6915     0.0934
  499.5000     7.9003     8.2639     9.1680   -11.9610    98.5182     2.5161     0.0414     0.2375     7.9394   121.1555     0.0967
  500.0000     7.9188     8.2809     9.3682   -12.3313    98.4627     2.5097     0.0385     0.2441     7.9380   117.4822     0.0997
  500.5000     7.9373     8.2980     9.3047   -12.6996    98.6054     2.5033     0.0316     0.2385     7.9365   118.7983     0.1025
  501.0000     7.9559     8.3149     9.2253   -13.0676    98.8574     2.4970     0.0211     0.2313     7.9351   120.8601     0.1074
  501.5000     7.9742     8.2723     9.1463   -13.4359    99.1949     2.4906     0.0127     0.2260     7.9337   120.4138     0.1128
  502.0000     7.9929     8.2283     9.0681   -13.8045    99.5323     2.4901     0.0151     0.2264     7.9323   117.8326     0.1136
  502.5000     8.0143     8.1846     8.9916   -14.1681    99.5551     2.4925     0.0454     0.2438     7.9308   116.0417     0.1119
  503.0000     7.8243     8.1412     8.9453   -14.4248    99.5350     2.4949     0.0613     0.2589     7.9294   117.5684     0.1100
  503.5000     7.6199     8.0979     8.9317   -14.4648    99.5148     2.4973     0.0612     0.2525     7.9280   119.4747     0.1080
  504.0000     7.4193     7.8904     8.9174   -14.5095    99.4930     2.4994     0.0505     0.2413     7.9266   119.5824     0.1066
  504.5000     7.2242     7.6422     8.9035   -14.5530    99.4732     2.4989     0.0145     0.2352     7.9251   115.3639     0.1066
  505.0000     7.0343     7.4018     8.8890   -14.5968    99.9315     2.4984     0.0152     0.2400     7.9237   111.2921     0.1067
  505.5000     6.8495     7.1689     8.8748   -14.6405   100.8068     2.4977     0.0202     0.2460     7.9223   110.8759     0.1072
  506.0000     6.6694     6.9434     8.5437   -14.6843   102.3737     2.4917     0.0332     0.2424     7.9209   114.4773     0.1117
  506.5000     6.4941     6.7228     7.6569   -14.7282   104.1024     2.4783     0.0460     0.2361     7.9194   118.8122     0.1190
  507.0000     6.3612     6.6014     6.8621   -14.7730   104.8798     2.4751     0.0589     0.2358     7.9180   123.1256     0.1221
  507.5000     6.4444     6.8139     6.6006   -14.8150   104.1924     2.4866     0.0718     0.2440     7.9166   125.7901     0.1168
  508.0000     6.5263     6.9705     7.1282   -14.6745   102.9633     2.5009     0.0808     0.2529     7.9152   124.7800     0.1066
  508.5000     6.6091     7.1505     7.7831   -14.5180   101.7342     2.5151     0.0770     0.2549     7.9137   123.2951     0.0964
  509.0000     6.7861     7.4680     8.4982   -14.3620   100.5051     2.5254     0.0733     0.2477     7.9123   121.7809     0.0904
  509.5000     7.1257     7.7997     8.9678   -14.2065    99.2760     2.5282     0.0701     0.2412     7.9109   120.2727     0.0900
  510.0000     7.4881     8.1461     9.0037   -14.0454    98.3701     2.5254     0.0420     0.2348     7.9095   119.1662     0.0916
  510.5000     7.8689     8.5078     9.0364   -14.0857    97.6921     2.5227     0.0255     0.2316     7.9081   119.9611     0.0932
  511.0000     8.2690     8.8856     9.4238   -14.2161    97.0142     2.5280     0.0354     0.2440     7.9066   121.4858     0.0900
  511.5000     8.6895     9.2903     9.7923   -14.3479    96.4754     2.5374     0.0498     0.2392     7.9052   120.9139     0.0854
  512.0000     8.9701     9.3822    10.1752   -14.4793    96.2877     2.5329     0.0545     0.2313     7.9038   120.2507     0.0843
  512.5000     9.0125     9.4774    10.4758   -14.6106    96.4224     2.5095     0.0534     0.2232     7.9023   121.4957     0.0980
  513.0000     9.0554     9.5735    10.3872   -14.7419    96.5569     2.4862     0.0627     0.2243     7.9009   122.2730     0.1104
  513.5000     9.0979     9.6562    10.3163   -14.8732    96.6919     2.4820     0.0731     0.2267     7.8995   120.1172     0.1177
  514.0000     9.1409     9.7078    10.2461   -15.0045    96.8266     2.4875     0.0755     0.2333     7.8981   118.4747     0.1167
  514.5000     9.1841     9.7596    10.1895   -15.1359    96.9613     2.4934     0.0664     0.2494     7.8966   122.3260     0.1132
  515.0000     9.2275     9.8118    10.3319   -15.2676    97.0960     2.4924     0.0473     0.2574     7.8952   126.3979     0.1108
  515.5000     9.2711     9.8642    10.4527   -15.4035    97.1643     2.4857     0.0385     0.2512     7.8938   124.8597     0.1135
  516.0000     9.3149     9.9169    10.5749   -15.3268    97.0922     2.4783     0.0369     0.2405     7.8924   121.7715     0.1189
  516.5000     9.3590     9.9698    10.6986   -15.2067    96.6235     2.4829     0.0355     0.2308     7.8910   119.2728     0.1193
  517.0000     9.4032    10.0231    10.8236   -15.0861    96.1548     2.4894     0.0252     0.2352     7.8895   117.4457     0.1173
  517.5000     9.4636    10.0958    10.9710   -14.9660    95.6860     2.4960     0.0152     0.2401     7.8881   115.6096     0.1135
