~VERSION INFORMATION
 VERS.                2.0:   CWLS LOG ASCII STANDARD - VERSION 2.0
 WRAP.                 NO:   ONE LINE PER DEPTH STEP
~WELL INFORMATION
#MNEM.UNIT      DATA TYPE    INFORMATION
#----------   ------------   ------------------------------
 STRT.F            0.0000:   START DEPTH
 STOP.F          546.0000:   STOP DEPTH
 STEP.F            0.5000:   STEP LENGTH
 NULL.          -999.2500:   NO VALUE
 COMP. LAWRENCE/ALLISON INC:   COMPANY
 WELL.   NPR 3 #76-21SX10:   WELL
 FLD .             TEAPOT:   FIELD
 LOC .      S10 T38N R78W:   LOCATION
 CNTY.            NATRONA:   COUNTY
 STAT.            WYOMING:   STATE
 CTRY. UNITED STATES OF AMERICA:   COUNTRY
 SRVC.      Dresser Atlas:   SERVICE COMPANY
 DATE.        22-JUL-1984:   LOGDATE
 API .       490251097000:   API NUMBER
~CURVE INFORMATION
#MNEM.UNIT       API CODE    CURVE DESCRIPTION
#----------   ------------   ------------------------------
 DEPT.F                  :   
 CALD.IN     45 280 60 00:   CALIPER FROM DENSITY LOG
 DEN .G/C3   45 350 01 00:   COMPENSATED BULK DENSTIY
 CORR.G/C3   45 356 01 00:   DENSITY CORRECTION
 DPHI.DEC    45 890 12 00:   POROSITY DENSITY SANDSTONE
 CNC .DEC    42 890 03 00:   NEUTRON POROSITY SANDSTONE
 GRR .GAPI   07 310 01 00:   GAMMA RAY
 SPR .MV     07 010 01 00:   SPONTANEOUS POTENTIAL
 RILD.OHMM   07 120 46 00:   INDUCTION LOG DEEP RESISTIVITY
 RILM.OHMM   07 120 44 00:   INDUCTION LOG MEDIUM RESISTIVITY
 RFOC.OHMM   07 220 04 00:   RESISTIVITY FOCUSED LOG
 AC  .US/F   60 520 00 00:   ACCOUSTIC
~PARAMETER INFORMATION
#MNEM.UNIT          VALUE    DESCRIPTION
#----------   ------------   ------------------------------
 PD  .                 GL:   PERMANENT DATUM
 EPD .F              5167:   ELEVATION PERMANENT DATUM
 LMF .                 GL:   LOG MEASURED FROM
 DMF .                 GL:   DRILLING MEASURED FROM
 EGL .F              5167:   GROUND LEVEL
 DATE.        22-JUL-1984:   RUN DATE
 RUN .                  1:   RUN NUMBER
 DD  .F               551:   DEPTH DRILLER
 DL  .F               547:   DEPTH LOGGER
 BLI .F               544:   BOTTOM LOG INTERVAL
 CS  .IN            9.625:   CASING SIZE
 CBD .F                40:   CASING BOTTOM DRILLER
 CBL .F                42:   CASING BOTTOM LOGGER
 BS  .IN            7.875:   BIT SIZE
 BSD .F               551:   BIT SIZE AT DEPTH
 DFT .        KCL POLYMER:   DRILLING FLUID TYPE
 MSS .           FLOWLINE:   MUD SAMPLE SOURCE
 RMS .OHMM           .193:   RESISTIVITY MUD SAMPLE
 MST .F                75:   MUD SAMPLE TEMPERATURE
 RMF .OHMM           .144:   RESISTIVITY MUD FILTRATE SAMPLE
 MFST.F                75:   MUD FILTRATE SAMPLE TEMPERATURE
 RMC .OHMM            .24:   RESISTIVITY MUD CAKE
 MCST.F                74:   MUD CAKE SAMPLE TEMPERATURE
 MFSS.               CALC:   MUD FILTRATE SAMPLE SOURCE
 MCSS.               CALC:   MUD CAKE SAMPLE SOURCE
 TCS .HRS               5:   TIME CURCULATED STOPPED
 MRT .F                90:   MAXIMUM RECORDED TEMPERATURE
 LUN .               6274:   LOGGING UNIT NUMBER
 LUL .               GLTE:   LOGGING UNIT LOCATION
 ENGI.             RAUTIO:   RECORDING ENGINEER
 WITN.              FIVAS:   WITNESSED BY
 CLNT.            A2DTECH:   CLIENT CODE
 ORIG.       2", 5" PRINT:   ORIGIN OF DATA
 UWI .       490251097000:   UNIQUE WELL ID
 DICO. A2D Technologies, Inc.:   DIGITIZING COMPANY
~OTHER INFORMATION
~A    DEPT    CALD        DEN       CORR       DPHI        CNC         GRR       SPR       RILD       RILM       RFOC         AC   
# ...
  122.0000     8.4540     2.4390     0.0400     0.1260     0.2780   118.1990    -4.7290     8.2220     8.0780  -999.2500  -999.2500
  122.5000     8.4580     2.4370     0.0170     0.1270     0.2690   117.0170    -5.4900     8.2760     8.1390  -999.2500  -999.2500
  123.0000     8.4630     2.4370     0.0070     0.1280     0.2640   115.8410    -6.5880     8.3270     8.1770  -999.2500  -999.2500
  123.5000     8.4580     2.4380     0.0000     0.1280     0.2680   114.6960    -7.9450     8.3740     8.2110  -999.2500  -999.2500
  124.0000     8.4430     2.4390     0.0040     0.1280     0.2740   114.7140    -7.2970     8.6070     8.2880  -999.2500  -999.2500
  124.5000     8.4270     2.4420     0.0130     0.1260     0.2760   116.6090    -5.9080     8.5930     8.3840  -999.2500  -999.2500
  125.0000     8.4260     2.4460     0.0220     0.1230     0.2730   118.5960    -4.8670     8.5770     8.4510  -999.2500  -999.2500
  125.5000     8.4260     2.4500     0.0310     0.1200     0.2770   120.1570    -4.4180     8.5620     8.4010  -999.2500  -999.2500
  126.0000     8.4260     2.4480     0.0380     0.1210     0.2860   120.1870    -5.4930     8.5460     8.3740  -999.2500  -999.2500
  126.5000     8.4260     2.4460     0.0440     0.1230     0.2920   120.1840    -6.4560     8.5290     8.3740  -999.2500  -999.2500
  127.0000     8.4260     2.4460     0.0440     0.1230     0.2860   119.9410    -7.4330     8.6410     8.4520  -999.2500  -999.2500
  127.5000     8.4260     2.4470     0.0410     0.1230     0.2720   118.7030    -8.7540     8.7640     8.5610  -999.2500  -999.2500
  128.0000     8.4260     2.4490     0.0380     0.1230     0.2680   117.4620   -10.0870     8.8720     8.6710  -999.2500  -999.2500
  128.5000     8.4260     2.4540     0.0390     0.1190     0.2730   116.8730   -11.2120     8.9490     8.7740  -999.2500  -999.2500
  129.0000     8.4260     2.4600     0.0260     0.1160     0.2770   116.7280   -12.4730     9.0270     8.8370  -999.2500  -999.2500
  129.5000     8.4260     2.4670     0.0120     0.1120     0.2750   118.6870   -20.0300     9.1010     8.9000  -999.2500  -999.2500
  130.0000     8.4260     2.4760     0.0080     0.1080     0.2760   121.4660   -39.4750     9.1770     8.9690  -999.2500  -999.2500
  130.5000     8.4260     2.4840     0.0210     0.1020     0.2770   124.1780   -61.6130     9.1450     9.0440  -999.2500  -999.2500
  131.0000     8.4260     2.4860     0.0340     0.0980     0.2750   125.7400   -71.6750     9.0940     9.0940  -999.2500  -999.2500
  131.5000     8.4260     2.4780     0.0420     0.1000     0.2680   126.4490   -56.4570     9.0940     8.9710  -999.2500  -999.2500
  132.0000     8.4260     2.4700     0.0480     0.1070     0.2660   127.1100   -32.9580     9.0780     8.8800  -999.2500  -999.2500
  132.5000     8.4250     2.4640     0.0540     0.1120     0.2700   127.7700    -7.5250     8.9750     8.7880  -999.2500  -999.2500
  133.0000     8.4230     2.4620     0.0580     0.1140     0.2740   127.9840     7.1880     8.8720     8.7410  -999.2500  -999.2500
  133.5000     8.4210     2.4660     0.0600     0.1110     0.2760   127.0520     7.6860     8.7660     8.7070  -999.2500  -999.2500
  134.0000     8.4190     2.4710     0.0620     0.1070     0.2750   125.6710     6.1770     8.8990     8.6860  -999.2500  -999.2500
  134.5000     8.4170     2.4750     0.0630     0.1040     0.2710   126.0660     4.3300     9.0360     8.7580  -999.2500  -999.2500
  135.0000     8.4160     2.4740     0.0500     0.1050     0.2561   126.8570     2.9260     9.0940     8.8180  -999.2500  -999.2500
  135.5000     8.4140     2.4730     0.0360     0.1060     0.2475   126.1710     1.5180     9.0940     8.8790  -999.2500  -999.2500
  136.0000     8.4120     2.4730     0.0230     0.1050     0.2539   122.5000     0.0190     9.0940     8.9290  -999.2500  -999.2500
  136.5000     8.4100     2.4740     0.0280     0.1050     0.2616   119.5520    -1.6660     9.0940     8.9290  -999.2500  -999.2500
  137.0000     8.4080     2.4710     0.0350     0.1090     0.2600   119.9940    -0.5570     9.0940     8.9290  -999.2500  -999.2500
  137.5000     8.4060     2.4610     0.0290     0.1160     0.2590   122.2060     0.4850     9.0940     8.9290  -999.2500  -999.2500
  138.0000     8.4040     2.4500     0.0250     0.1220     0.2648   124.8460     0.3410     9.0750     8.9180  -999.2500  -999.2500
  138.5000     8.4020     2.4450     0.0320     0.1240     0.2654   125.5690     0.2300     8.9840     8.8670  -999.2500  -999.2500
  139.0000     8.4000     2.4440     0.0380     0.1240     0.2608   126.6900     0.1610     8.8930     8.8160  -999.2500  -999.2500
  139.5000     8.3990     2.4430     0.0380     0.1250     0.2598   126.4430    -1.3800     8.8010     8.7660  -999.2500  -999.2500
  140.0000     8.3970     2.4400     0.0140     0.1270     0.2601   122.5100    -2.2810     8.6740     8.5160  -999.2500  -999.2500
  140.5000     8.3950     2.4340     0.0000     0.1290     0.2628   118.6220    -0.9380     8.5290     8.3540  -999.2500  -999.2500
  141.0000     8.3930     2.4370     0.0090     0.1290     0.2723   117.3740     0.4890     8.4760     8.3060  -999.2500  -999.2500
  141.5000     8.3910     2.4420     0.0180     0.1250     0.2777   116.9380     1.6420     8.4240     8.1790  -999.2500  -999.2500
  142.0000     8.3890     2.4480     0.0240     0.1200     0.2809   116.1880     0.8600     8.3740     7.9990  -999.2500  -999.2500
  142.5000     8.3870     2.4530     0.0310     0.1160     0.2771   118.2820     0.3260     8.2050     8.0610  -999.2500  -999.2500
  143.0000     8.3850     2.4570     0.0340     0.1160     0.2749   122.2610    -1.3840     8.1250     8.1470  -999.2500  -999.2500
  143.5000     8.3840     2.4530     0.0300     0.1180     0.2730   123.3340    -3.8190     8.0910     8.1260  -999.2500  -999.2500
  144.0000     8.3820     2.4490     0.0260     0.1210     0.2758   121.6740    -6.2290     8.0070     8.0790  -999.2500  -999.2500
  144.5000     8.3800     2.4470     0.0220     0.1220     0.2859   115.6600    -8.5700     7.8610     7.8910  -999.2500  -999.2500
  145.0000     8.3780     2.4500     0.0180     0.1200     0.2911   114.1900    -9.9980     7.6560     7.6790  -999.2500  -999.2500
  145.5000     8.3760     2.4540     0.0200     0.1170     0.2911   116.9010   -11.3710     7.3820     7.4670  -999.2500  -999.2500
  146.0000     8.3740     2.4570     0.0320     0.1150     0.2907   120.0570   -12.9320     7.1080     7.2550  -999.2500  -999.2500
  146.5000     8.3720     2.4580     0.0430     0.1160     0.2907   120.7720   -14.7320     6.8930     7.0920  -999.2500  -999.2500
  147.0000     8.3700     2.4530     0.0530     0.1200     0.2904   120.5770   -16.5180     6.8370     7.0610  -999.2500  -999.2500
  147.5000     8.3680     2.4470     0.0570     0.1230     0.2845   118.8960   -17.9570     6.7820     7.0300  -999.2500  -999.2500
  148.0000     8.3670     2.4420     0.0490     0.1250     0.2755   116.0980   -18.3620     6.7270     7.0000  -999.2500  -999.2500
  148.5000     8.3710     2.4490     0.0360     0.1220     0.2739   113.6920   -20.9020     6.7200     6.9710  -999.2500  -999.2500
  149.0000     8.3770     2.4570     0.0230     0.1160     0.2792   114.4780   -24.0880     6.7200     6.9080  -999.2500  -999.2500
  149.5000     8.3830     2.4620     0.0270     0.1130     0.2960   118.7460   -26.2390     6.8360     6.9770  -999.2500  -999.2500
  150.0000     8.3860     2.4570     0.0330     0.1160     0.3080   123.1750   -27.2720     7.0690     7.0760  -999.2500  -999.2500
  150.5000     8.3860     2.4490     0.0370     0.1220     0.3139   125.0280   -27.9750     7.2830     7.1660  -999.2500  -999.2500
  151.0000     8.3860     2.4390     0.0330     0.1270     0.2980   120.3220   -27.7370     7.4530     7.2580  -999.2500  -999.2500
  151.5000     8.3860     2.4320     0.0300     0.1320     0.2819   117.1950   -21.2920     7.5950     7.3420  -999.2500  -999.2500
  152.0000     8.3870     2.4300     0.0260     0.1330     0.2794   117.5440   -14.0210     7.6730     7.4330  -999.2500  -999.2500
