~VERSION INFORMATION
 VERS.                2.0:   CWLS LOG ASCII STANDARD - VERSION 2.0
 WRAP.                 NO:   ONE LINE PER DEPTH STEP
~WELL INFORMATION
#MNEM.UNIT      DATA TYPE    INFORMATION
#----------   ------------   ------------------------------
 STRT.F           24.0000:   START DEPTH
 STOP.F          472.0000:   STOP DEPTH
 STEP.F            0.5000:   STEP LENGTH
 NULL.          -999.2500:   NO VALUE
 COMP. FENIX & SCISSON INC:   COMPANY
 WELL. 55-66 SX-3-FP #55-3:   WELL
 FLD .             WLDCAT:   FIELD
 LOC .       S3 T38N R78W:   LOCATION
 CNTY.            NATRONA:   COUNTY
 STAT.            WYOMING:   STATE
 CTRY. UNITED STATES OF AMERICA:   COUNTRY
 SRVC.              Welex:   SERVICE COMPANY
 DATE.        11-JUN-1980:   LOGDATE
 API .       490251082200:   API NUMBER
~CURVE INFORMATION
#MNEM.UNIT       API CODE    CURVE DESCRIPTION
#----------   ------------   ------------------------------
 DEPT.F                  :   
 SPR .MV     07 010 01 00:   SPONTANEOUS POTENTIAL
 GURD.OHMM   07 220 05 00:   GUARD RESISTIVITY
 ILD .OHMM   07 120 46 00:   INDUCTION LOG DEEP RESISTIVITY
 ILM .OHMM   07 120 44 00:   INDUCTION LOG MEDIUM
 DPHI.DEC    45 890 12 00:   DENSITY POROSITY SANDSTONE
 NPHI.DEC    42 890 03 00:   NEUTRON POROSITY SANDSTONE
 CORR.G/C3   45 356 01 00:   DENSITY CORRECTION
 RHOB.G/C3   45 350 01 00:   BULK DENSITY
 CALD.IN     45 280 60 00:   CALIPER
 GRD .GAPI   45 310 01 00:   GAMMA RAY FROM DENSITY LOG
~PARAMETER INFORMATION
#MNEM.UNIT          VALUE    DESCRIPTION
#----------   ------------   ------------------------------
 PD  .                 GL:   PERMANENT DATUM
 EPD .F              5169:   ELEVATION PERMANENT DATUM
 LMF .                 KB:   LOG MEASURED FROM
 DAPD.F                 5:   FEET ABOVE PERMANENT DATUM
 DMF .                 KB:   DRILLING MEASURED FROM
 EKB .F              5174:   KELLING BUSHING
 EGL .F              5169:   GROUND LEVEL
 DATE.            6-11-80:   RUN DATE
 RUN .                  1:   RUN NUMBER
 DD  .F               472:   DEPTH DRILLER
 DL  .F               472:   DEPTH LOGGER
 BLI .F               470:   BOTTOM LOG INTERVAL
 TLI .F                30:   TOP LOG INTERVAL
 BS  .IN            9.875:   BIT SIZE
 BSD .F               472:   BIT SIZE AT DEPTH
 DFT .                KCL:   DRILLING FLUID TYPE
 DFD .                9.5:   DRILLING FLUID DENSITY
 DFV .                 47:   DRILLING FLUID VISCOSITY
 DFPH.                 12:   DRILLING FLUID PH
 DFL .                7.2:   DRILLING FLUID LOSS
 MSS .           MUD TANK:   MUD SAMPLE SOURCE
 RMS .OHMM            .26:   RESISTIVITY MUD SAMPLE
 MST .F                75:   MUD SAMPLE TEMPERATURE
 RMF .OHMM            .21:   RESISTIVITY MUD FILTRATE SAMPLE
 MFST.F                75:   MUD FILTRATE SAMPLE TEMPERATURE
 RMC .OHMM            .31:   RESISTIVITY MUD CAKE
 MCST.F                75:   MUD CAKE SAMPLE TEMPERATURE
 MFSS.           MEASURED:   MUD FILTRATE SAMPLE SOURCE
 MCSS.           MEASURED:   MUD CAKE SAMPLE SOURCE
 RMB .OHMM            .26:   RESISTIVITY MUD AT BHT
 BHT .F                75:   BOTTOM HOLE TEMPERATURE
 TCS .HRS             1.5:   TIME CURCULATED STOPPED
 MRT .F                75:   MAXIMUM RECORDED TEMPERATURE
 LUN .               9685:   LOGGING UNIT NUMBER
 LUL .             CASPER:   LOGGING UNIT LOCATION
 ENGI.               REIN:   RECORDING ENGINEER
 WITN.          DINSMOORE:   WITNESSED BY
 CLNT.            A2DTECH:   CLIENT CODE
 ORIG.           5" PRINT:   ORIGIN OF DATA
 UWI .       490251082200:   UNIQUE WELL ID
 DICO. A2D Technologies, Inc.:   DIGITIZING COMPANY
~OTHER INFORMATION
~A   DEPT      SPR       GURD        ILD        ILM         DPHI       NPHI     CORR       RHOB        CALD       GRD   
# ...
  191.5000   -59.4228     5.4650     2.3323     3.1570     0.1754     0.3221     0.1211     2.2902    10.1244    95.4859
  192.0000   -59.1623     3.6456     2.4913     3.4926     0.1575     0.3199     0.1087     2.3245    10.1237    97.5598
  192.5000   -58.9018     4.9984     2.7267     3.8637     0.1484     0.3226     0.0778     2.3704    10.1230    99.4655
  193.0000   -58.6413     7.4039     2.9844     4.2739     0.1457     0.3246     0.0821     2.3819    10.1223   100.3032
  193.5000   -58.3801     7.2696     3.2665     4.7278     0.1429     0.3190     0.0946     2.3891    10.1216   101.1724
  194.0000   -58.1179     7.1030     3.5752     5.1715     0.1144     0.3112     0.0720     2.3942    10.1209   102.0119
  194.5000   -57.8796     7.0710     3.9133     5.3755     0.1140     0.3123     0.0879     2.4677    10.1202   103.7635
  195.0000   -58.0187     7.1863     4.2832     5.5760     0.1216     0.3178     0.0896     2.4534    10.1195   105.6288
  195.5000   -58.1685     7.2689     4.6896     5.7839     0.1274     0.3234     0.0765     2.4370    10.1188   106.2055
  196.0000   -58.3167     7.0487     4.8219     5.9939     0.1232     0.3294     0.0768     2.4311    10.1180   106.5874
  196.5000   -58.4644     6.7920     4.8970     6.0858     0.1184     0.3283     0.0850     2.4384    10.1173   106.9667
  197.0000   -58.6122     6.7531     4.9390     6.1343     0.1136     0.3252     0.0870     2.4487    10.1166   107.2560
  197.5000   -58.7599     7.1259     4.8458     6.1815     0.1118     0.3222     0.0929     2.4592    10.1159   107.3652
  198.0000   -58.9076     7.3952     4.6477     6.2169     0.1158     0.3207     0.1075     2.4644    10.1152   107.2439
  198.5000   -59.0553     7.5414     4.4577     5.8382     0.1215     0.3257     0.0891     2.4461    10.1145   106.9802
  199.0000   -59.2031     7.3557     4.2755     5.5518     0.1243     0.3286     0.0916     2.4396    10.1138   106.9527
  199.5000   -59.3509     7.2023     4.0456     5.3567     0.1257     0.3269     0.0775     2.4341    10.1131   107.8078
  200.0000   -59.5001     6.1147     3.7149     5.1413     0.1284     0.3258     0.0702     2.4303    10.1124   108.7272
  200.5000   -59.6514     4.9602     3.3405     4.9340     0.1313     0.3304     0.1064     2.4264    10.1117   109.6508
  201.0000   -59.4713     4.1957     3.4340     4.7160     0.1376     0.3354     0.1108     2.4161    10.1110   110.5788
  201.5000   -59.2581     5.7092     3.5464     4.8077     0.1454     0.3392     0.1110     2.3954    10.1103   110.5300
  202.0000   -59.0442     6.3610     3.4657     4.9961     0.1534     0.3384     0.1019     2.3714    10.1096   110.2801
  202.5000   -58.8311     5.5156     3.3869     5.1798     0.1629     0.3333     0.0785     2.3522    10.1088   108.8789
  203.0000   -58.6181     4.5465     3.5041     5.2639     0.1525     0.3302     0.0601     2.3519    10.1081   107.4312
  203.5000   -58.4051     6.3318     3.6820     5.3494     0.1415     0.3283     0.0736     2.4031    10.1074   105.9710
  204.0000   -58.1921     7.1364     3.8695     5.4362     0.1278     0.3257     0.0867     2.4199    10.1067   105.6471
  204.5000   -57.9791     6.5692     4.0664     5.5156     0.1304     0.3218     0.0961     2.4332    10.1060   105.9922
  205.0000   -57.7660     6.2164     4.2733     5.6609     0.1330     0.3214     0.0702     2.4108    10.1053   106.8859
  205.5000   -57.5530     7.0817     4.4906     5.9868     0.1260     0.3209     0.0637     2.4339    10.1046   107.7808
  206.0000   -57.3372     7.8849     4.7190     6.3318     0.1161     0.3207     0.0868     2.4420    10.1039   108.6751
  206.5000   -57.2543     8.0996     4.9591     6.6968     0.1060     0.3137     0.1025     2.4617    10.1032   109.5049
  207.0000   -57.2162     8.2883     5.2113     7.0829     0.1022     0.3083     0.0993     2.4810    10.1025   108.3010
  207.5000   -57.1797     8.4806     5.4764     7.3384     0.1072     0.3073     0.0763     2.4657    10.1018   107.5631
  208.0000   -57.1429     8.7263     5.7223     7.5364     0.1152     0.3099     0.0554     2.4326    10.1011   106.5084
  208.5000   -57.1057     8.6543     5.8825     7.7402     0.1180     0.3137     0.0622     2.4440    10.1004   105.1457
  209.0000   -57.0740     8.5353     6.0750     7.9529     0.1189     0.3174     0.0747     2.4541    10.0996   104.0911
  209.5000   -57.1135     8.4182     6.1594     7.8141     0.1238     0.3203     0.0674     2.4402    10.0989   105.0842
  210.0000   -57.1537     8.3026     6.0128     7.6438     0.1310     0.3207     0.0549     2.4202    10.0982   106.2239
  210.5000   -57.1936     8.1198     5.8825     7.4778     0.1085     0.3211     0.0807     2.4483    10.0975   104.5275
  211.0000   -57.2330     7.9124     5.7550     7.3154     0.0947     0.3211     0.1098     2.4908    10.0968   105.1112
  211.5000   -57.2669     7.7098     5.6303     7.1565     0.1018     0.3190     0.1070     2.4917    10.0961   105.4796
  212.0000   -57.3921     7.6106     5.4854     7.0011     0.1093     0.3171     0.0840     2.4601    10.0954   105.3726
  212.5000   -57.5338     7.7406     5.3013     6.8491     0.1019     0.3180     0.0829     2.4719    10.0947   104.8893
  213.0000   -57.6761     7.8242     5.1234     6.7003     0.0974     0.3187     0.1079     2.4844    10.0940   105.0500
  213.5000   -57.8182     7.6149     4.9514     6.5692     0.1006     0.3187     0.0895     2.4807    10.0933   105.6317
  214.0000   -57.9602     7.4295     4.7853     6.4051     0.1041     0.3200     0.0956     2.4696    10.0926   106.2601
  214.5000   -58.1024     7.2486     4.6247     6.2594     0.1091     0.3243     0.0892     2.4625    10.0919   107.7897
  215.0000   -58.2443     7.0722     4.4636     6.1171     0.1135     0.3278     0.0882     2.4561    10.0912   109.3829
  215.5000   -58.3846     6.9000     4.3159     5.9780     0.1210     0.3264     0.0773     2.4385    10.0904   110.9753
  216.0000   -58.4054     6.3345     4.1575     5.7598     0.1262     0.3241     0.0861     2.4327    10.0897   112.3130
  216.5000   -58.2618     5.4719     4.0050     5.5153     0.1164     0.3228     0.1004     2.4584    10.0890   113.5827
  217.0000   -58.1202     4.8489     3.9241     5.2808     0.1236     0.3222     0.0853     2.4348    10.0883   114.3870
  217.5000   -57.9781     5.7421     4.0299     5.1228     0.1325     0.3217     0.0744     2.4171    10.0876   114.3410
  218.0000   -57.8361     6.9288     4.1860     5.3004     0.1337     0.3175     0.0823     2.4106    10.0869   112.6037
  218.5000   -57.6941     7.7735     4.3481     5.6715     0.1210     0.3116     0.0938     2.4427    10.0862   109.9512
  219.0000   -57.5521     7.9868     4.5166     6.0687     0.1111     0.3056     0.0912     2.4646    10.0855   108.2364
  219.5000   -57.4101     8.2058     4.6953     6.4621     0.1059     0.3034     0.0856     2.4648    10.0848   107.5436
  220.0000   -57.2680     8.6348     4.9260     6.5820     0.1037     0.3086     0.0906     2.4643    10.0841   106.8526
  220.5000   -57.1262     8.3666     5.1693     6.7038     0.1025     0.3097     0.0992     2.4750    10.0834   106.1557
  221.0000   -56.9732     7.8958     5.4245     6.8281     0.1050     0.3085     0.0898     2.4763    10.0827   105.8463
  221.5000   -56.8145     8.0055     5.6923     6.9549     0.1073     0.3087     0.0860     2.4666    10.0820   106.7969
  222.0000   -56.6554     8.2296     5.8137     7.0840     0.1140     0.3101     0.0886     2.4571    10.0812   108.3277
  222.5000   -56.4966     8.4611     5.8690     7.2355     0.1189     0.3125     0.0712     2.4485    10.0805   109.8190
  223.0000   -56.3359     8.6599     5.9248     7.3731     0.1142     0.3139     0.0729     2.4479    10.0798   110.9612
  223.5000   -56.2993     8.6770     5.9812     7.4906     0.1097     0.3135     0.0874     2.4621    10.0791   111.0207
  224.0000   -56.3362     8.6945     6.0382     7.6100     0.1072     0.3132     0.0946     2.4711    10.0784   110.5893
  224.5000   -56.3744     8.7122     6.0957     7.7313     0.1031     0.3146     0.0975     2.4784    10.0777   110.1630
