~VERSION INFORMATION
 VERS.                2.0:   CWLS LOG ASCII STANDARD - VERSION 2.0
 WRAP.                 NO:   ONE LINE PER DEPTH STEP
~WELL INFORMATION
#MNEM.UNIT      DATA TYPE    INFORMATION
#----------   ------------   ------------------------------
 STRT.F            0.0000:   START DEPTH
 STOP.F         4535.0000:   STOP DEPTH
 STEP.F            0.5000:   STEP LENGTH
 NULL.          -999.2500:   NO VALUE
 COMP.   FLUOR DANIEL INC:   COMPANY
 WELL.     56 X 15 #56-15:   WELL
 FLD .             TEAPOT:   FIELD
 LOC .      S15 T38N R78W:   LOCATION
 CNTY.            NATRONA:   COUNTY
 STAT.            WYOMING:   STATE
 CTRY. UNITED STATES OF AMERICA:   COUNTRY
 SRVC.      Dresser Atlas:   SERVICE COMPANY
 DATE.        03-MAY-1984:   LOGDATE
 API .       490252268500:   API NUMBER
~CURVE INFORMATION
#MNEM.UNIT       API CODE    CURVE DESCRIPTION
#----------   ------------   ------------------------------
 DEPT.F                  :   
 CNC .DEC    42 890 03 00:   NEUTRON POROSITY SANDSTONE
 PORD.DEC    45 890 12 00:   POROSITY DENSITY SANDSTONE
 RHOB.G/C3   45 350 01 00:   BULK DENSITY
 CORR.G/C3   45 356 01 00:   DENSITY CORRECTION
 DT  .US/F   60 520 00 00:   INTERVAL TRANSIT TIME
 RILD.OHMM   07 120 46 00:   INDUCTION LOG DEEP RESISTIVITY
 RILM.OHMM   07 120 44 00:   INDUCTION LOG MEDIUM RESISTIVITY
 CALR.IN     07 280 01 00:   CALIPER FROM RESISTIVITY
 GRR .GAPI   07 310 01 00:   GAMMA RAY FROM RESISTIVITY LOG
 SPR .MV     07 010 01 00:   SPONTANEOUS POTENTIAL
 RFOC.OHMM   07 220 04 00:   RESISTIVITY FOCUSED LOG
~PARAMETER INFORMATION
#MNEM.UNIT          VALUE    DESCRIPTION
#----------   ------------   ------------------------------
 PD  .                 GL:   PERMANENT DATUM
 EPD .F              5326:   ELEVATION PERMANENT DATUM
 LMF .                 KB:   LOG MEASURED FROM
 DAPD.F                12:   FEET ABOVE PERMANENT DATUM
 DMF .                 KB:   DRILLING MEASURED FROM
 EKB .F              5338:   KELLING BUSHING
 EDF .F              5337:   DRILLING FLOOR
 EGL .F              5326:   GROUND LEVEL
 DATE.        03-MAY-1984:   RUN DATE
 RUN .                  1:   RUN NUMBER
 DD  .F              4547:   DEPTH DRILLER
 DL  .F              4539:   DEPTH LOGGER
 BLI .F              4536:   BOTTOM LOG INTERVAL
 TLI .F              1021:   TOP LOG INTERVAL
 CS  .IN            8.625:   CASING SIZE
 CBD .F              1027:   CASING BOTTOM DRILLER
 CBL .F              1021:   CASING BOTTOM LOGGER
 BS  .IN            7.875:   BIT SIZE
 BSD .F              4547:   BIT SIZE AT DEPTH
 DFT .            KCL GEL:   DRILLING FLUID TYPE
 DFD .                9.1:   DRILLING FLUID DENSITY
 DFV .                 44:   DRILLING FLUID VISCOSITY
 DFPH.                  8:   DRILLING FLUID PH
 DFL .               14.5:   DRILLING FLUID LOSS
 MSS .            MUDTANK:   MUD SAMPLE SOURCE
 RMS .OHMM           0.56:   RESISTIVITY MUD SAMPLE
 MST .F                73:   MUD SAMPLE TEMPERATURE
 RMF .OHMM           0.42:   RESISTIVITY MUD FILTRATE SAMPLE
 MFST.F                73:   MUD FILTRATE SAMPLE TEMPERATURE
 RMC .OHMM           0.71:   RESISTIVITY MUD CAKE
 MCST.F                73:   MUD CAKE SAMPLE TEMPERATURE
 MFSS.               MEAS:   MUD FILTRATE SAMPLE SOURCE
 MCSS.               CALC:   MUD CAKE SAMPLE SOURCE
 RMB .OHMM           0.29:   RESISTIVITY MUD AT BHT
 BHT .F               141:   BOTTOM HOLE TEMPERATURE
 TCS .HRS             3.5:   TIME CURCULATED STOPPED
 MRT .F               125:   MAXIMUM RECORDED TEMPERATURE
 LUN .               6302:   LOGGING UNIT NUMBER
 LUL .               CODY:   LOGGING UNIT LOCATION
 ENGI.              GETTY:   RECORDING ENGINEER
 WITN.           JENNINGS:   WITNESSED BY
 CLNT.            A2DTECH:   CLIENT CODE
 ORIG.           5" PRINT:   ORIGIN OF DATA
 UWI .       490252268500:   UNIQUE WELL ID
 DICO. A2D Technologies, Inc.:   DIGITIZING COMPANY
~OTHER INFORMATION
~A    DEPT     CNC       PORD       RHOB       CORR         DT       RILD       RILM       CALR         GRR       SPR       RFOC   
# ...
 1037.0000  -999.2500  -999.2500  -999.2500  -999.2500  -999.2500    10.1161     7.2656     9.8681    85.8859    11.9081     7.0139
 1037.5000  -999.2500  -999.2500  -999.2500  -999.2500  -999.2500     9.4565     7.2154     9.8681    86.7868    11.7441     6.6816
 1038.0000  -999.2500  -999.2500  -999.2500  -999.2500  -999.2500     8.8228     7.1160     9.8847    84.9850    11.6220     6.3650
 1038.5000  -999.2500  -999.2500  -999.2500  -999.2500  -999.2500     7.9511     7.1160     9.9130    83.7838    11.6256     6.1057
 1039.0000  -999.2500  -999.2500  -999.2500  -999.2500  -999.2500     7.6801     7.0668     9.9280    86.4865    11.7785     5.8569
 1039.5000  -999.2500  -999.2500  -999.2500  -999.2500  -999.2500     6.7788     6.5025     9.9580    89.4895    11.9313     5.6940
 1040.0000  -999.2500  -999.2500  -999.2500  -999.2500  -999.2500     5.8195     5.6603    10.0180    85.8859    12.0842     5.5028
 1040.5000  -999.2500  -999.2500  -999.2500  -999.2500  -999.2500     4.6612     4.4712    10.0780    81.0811    12.3869     5.4272
 1041.0000  -999.2500  -999.2500  -999.2500  -999.2500  -999.2500     3.4316     3.5813    10.1229    78.0781    12.5398     5.2061
 1041.5000  -999.2500  -999.2500  -999.2500  -999.2500  -999.2500     2.7753     2.6394    10.1829    81.0811    13.1534     4.8573
 1042.0000  -999.2500  -999.2500  -999.2500  -999.2500  -999.2500     2.1736     2.0850    10.2279    83.7838    13.8956     4.2870
 1042.5000  -999.2500  -999.2500  -999.2500  -999.2500  -999.2500     1.9724     1.8656    10.2879    84.6847    14.1984     3.6547
 1043.0000  -999.2500  -999.2500  -999.2500  -999.2500  -999.2500     1.9588     1.7760    10.3178    84.0841    14.5012     3.0940
 1043.5000  -999.2500  -999.2500  -999.2500  -999.2500  -999.2500     1.9588     1.7531    10.3478    81.6436    14.8039     2.5452
 1044.0000  -999.2500  -999.2500  -999.2500  -999.2500  -999.2500     1.9724     1.7899    10.3028    77.4775    14.5070     2.2110
 1044.5000  -999.2500  -999.2500  -999.2500  -999.2500  -999.2500     2.1141     2.1887    10.1679    76.2763    13.3105     2.0690
 1045.0000  -999.2500  -999.2500  -999.2500  -999.2500  -999.2500     2.4970     2.7326     9.9280    78.0781    11.6643     2.1571
 1045.5000  -999.2500  -999.2500  -999.2500  -999.2500  -999.2500     3.0339     3.1830     9.8231    81.6817     9.8681     2.6937
 1046.0000  -999.2500  -999.2500  -999.2500  -999.2500  -999.2500     3.6753     3.5320     9.8081    87.6877     7.7161     3.4345
 1046.5000  -999.2500  -999.2500  -999.2500  -999.2500  -999.2500     4.6612     3.9465     9.8081    91.5916     5.3769     3.9271
 1047.0000  -999.2500  -999.2500  -999.2500  -999.2500  -999.2500     6.0668     4.6311     9.7777    91.2913     3.2809     4.1428
 1047.5000  -999.2500  -999.2500  -999.2500  -999.2500  -999.2500     7.0668     5.6788     9.7481    89.1288     0.5851     4.5976
 1048.0000  -999.2500  -999.2500  -999.2500  -999.2500  -999.2500     7.1160     6.2374     9.7181    83.3794    -0.3115     5.1379
 1048.5000  -999.2500  -999.2500  -999.2500  -999.2500  -999.2500     6.9213     6.5477     9.6882    81.9820    -2.2576     5.6233
 1049.0000  -999.2500  -999.2500  -999.2500  -999.2500  -999.2500     6.7788     6.5933     9.6582    84.6847    -2.8551     5.9861
 1049.5000  -999.2500  -999.2500  -999.2500  -999.2500  -999.2500     7.0668     6.4575     9.6582    88.5886    -3.1513     5.9449
 1050.0000  -999.2500  -999.2500  -999.2500  -999.2500  -999.2500     7.5220     6.5476     9.7032    90.2792    -3.4483     5.9453
 1050.5000  -999.2500  -999.2500  -999.2500  -999.2500  -999.2500     7.7406     6.5015     9.7183    91.4492    -3.4453     5.9870
 1051.0000  -999.2500  -999.2500  -999.2500  -999.2500  -999.2500     7.8405     6.4557     9.7334    92.6192    -3.5924     6.0290
 1051.5000  -999.2500  -999.2500  -999.2500  -999.2500  -999.2500     7.6254     6.4102     9.7636    93.1105    -3.7394     6.0713
 1052.0000  -999.2500  -999.2500  -999.2500  -999.2500  -999.2500     7.3650     6.4093     9.8087    90.7154    -3.7358     6.1139
 1052.5000  -999.2500  -999.2500  -999.2500  -999.2500  -999.2500     7.1630     6.4084     9.8688    87.4179    -3.7329     6.1567
 1053.0000  -999.2500  -999.2500  -999.2500  -999.2500  -999.2500     7.0150     6.4074     9.9012    86.8231    -3.7300     6.1999
 1053.5000  -999.2500  -999.2500  -999.2500  -999.2500  -999.2500     6.9179     6.3622     9.9291    87.4295    -3.7271     6.2002
 1054.0000  -999.2500  -999.2500  -999.2500  -999.2500  -999.2500     6.8640     6.3174     9.9293    87.3796    -3.7241     6.2006
 1054.5000  -999.2500  -999.2500  -999.2500  -999.2500  -999.2500     6.8216     6.2729     9.8994    84.7399    -3.5706     6.2009
 1055.0000  -999.2500  -999.2500  -999.2500  -999.2500  -999.2500     6.7272     6.2287     9.8845    83.8433    -3.5677     6.1157
 1055.5000  -999.2500  -999.2500  -999.2500  -999.2500  -999.2500     6.7267     6.1849     9.8697    85.9527    -3.5648     6.0736
 1056.0000  -999.2500  -999.2500  -999.2500  -999.2500  -999.2500     6.6798     6.1413     9.8549    90.4630    -3.5619     5.9487
 1056.5000  -999.2500  -999.2500  -999.2500  -999.2500  -999.2500     6.6793     6.1403     9.8550    93.1715    -3.7097     5.8265
 1057.0000  -999.2500  -999.2500  -999.2500  -999.2500  -999.2500     6.7254     6.1822     9.8552    92.8769    -3.7060     5.7067
 1057.5000  -999.2500  -999.2500  -999.2500  -999.2500  -999.2500     6.7249     6.2246     9.8403    93.1832    -3.8531     5.5507
 1058.0000  -999.2500  -999.2500  -999.2500  -999.2500  -999.2500     6.7712     6.3105     9.8405    93.1904    -3.8501     5.5621
 1058.5000  -999.2500  -999.2500  -999.2500  -999.2500  -999.2500     6.8179     6.3537     9.8406    94.3974    -3.6966     5.8277
 1059.0000  -999.2500  -999.2500  -999.2500  -999.2500  -999.2500     6.8649     6.3969     9.8408    95.0038    -3.3939     5.9506
 1059.5000  -999.2500  -999.2500  -999.2500  -999.2500  -999.2500     6.9122     6.3960     9.8409    93.8084    -3.0911     6.0341
 1060.0000  -999.2500  -999.2500  -999.2500  -999.2500  -999.2500     6.9117     6.3508     9.8411    91.4118    -2.7884     6.1187
 1060.5000  -999.2500  -999.2500  -999.2500  -999.2500  -999.2500     6.9593     6.3499     9.8563    89.9161    -2.6355     6.1190
 1061.0000  -999.2500  -999.2500  -999.2500  -999.2500  -999.2500     7.0073     6.3052     9.8864    88.4168    -2.4827     6.0349
 1061.5000  -999.2500  -999.2500  -999.2500  -999.2500  -999.2500     7.0556     6.2608     9.9165    87.2250    -2.4798     6.0352
 1062.0000  -999.2500  -999.2500  -999.2500  -999.2500  -999.2500     7.1042     6.1737     9.9466    91.4365    -2.9259     5.9523
 1062.5000  -999.2500  -999.2500  -999.2500  -999.2500  -999.2500     7.1036     6.1729     9.9768    94.1450    -3.2229     5.8705
 1063.0000  -999.2500  -999.2500  -999.2500  -999.2500  -999.2500     7.1031     6.1720     9.9919    93.2499    -3.5199     5.8302
 1063.5000  -999.2500  -999.2500  -999.2500  -999.2500  -999.2500     6.9083     6.1710     9.9921    90.5530    -3.6676     5.8306
 1064.0000  -999.2500  -999.2500  -999.2500  -999.2500  -999.2500     6.7188     6.0431     9.9922    89.9568    -3.8146     5.8715
 1064.5000  -999.2500  -999.2500  -999.2500  -999.2500  -999.2500     6.4419     5.6767    10.0074    94.4685    -4.1108     5.8311
 1065.0000  -999.2500  -999.2500  -999.2500  -999.2500  -999.2500     6.1386     5.2956    10.0375    95.3754    -4.4078     5.7910
 1065.5000  -999.2500  -999.2500  -999.2500  -999.2500  -999.2500     5.9290     5.0091    10.0826    95.0807    -4.7247     5.5938
 1066.0000  -999.2500  -999.2500  -999.2500  -999.2500  -999.2500     5.7266     4.8043    10.1427    94.4859    -5.1516     5.2138
 1066.5000  -999.2500  -999.2500  -999.2500  -999.2500  -999.2500     5.5310     4.9068    10.2328    93.8926    -5.4486     4.7580
 1067.0000  -999.2500  -999.2500  -999.2500  -999.2500  -999.2500     5.4545     5.2560    10.2930    92.0966    -5.8947     4.2977
