~VERSION INFORMATION
 VERS.                2.0:   CWLS LOG ASCII STANDARD - VERSION 2.0
 WRAP.                 NO:   ONE LINE PER DEPTH STEP
~WELL INFORMATION
#MNEM.UNIT      DATA TYPE    INFORMATION
#----------   ------------   ------------------------------
 STRT.F            4.0000:   START DEPTH
 STOP.F          572.0000:   STOP DEPTH
 STEP.F            0.5000:   STEP LENGTH
 NULL.          -999.2500:   NO VALUE
 COMP. FENIX & SCISSON INC:   COMPANY
 WELL.       NPR#3 #33-10:   WELL
 FLD .             TEAPOT:   FIELD
 LOC .      S10 T38N R78W:   LOCATION
 CNTY.            NATRONA:   COUNTY
 STAT.            WYOMING:   STATE
 CTRY. UNITED STATES OF AMERICA:   COUNTRY
 SRVC.              Welex:   SERVICE COMPANY
 DATE.        05-MAY-1980:   LOGDATE
 API .       490251080800:   API NUMBER
~CURVE INFORMATION
#MNEM.UNIT       API CODE    CURVE DESCRIPTION
#----------   ------------   ------------------------------
 DEPT.F                  :   
 SGRD.OHMM   07 220 05 00:   SHALLOW GUARD RESISTIVITY
 ILD .OHMM   07 120 46 00:   INDUCTION LOG DEEP RESISTIVITY
 ILM .OHMM   07 120 44 00:   INDUCTION LOG MEDIUM
 SPR .MV     07 010 01 00:   SPONTANEOUS POTENTIAL
 CALD.IN     45 280 60 00:   CALIPER
 GRD .GAPI   45 310 01 00:   GAMMA RAY FROM DENSITY LOG
 RHOB.G/C3   45 350 01 00:   BULK DENSITY
 CORR.G/C3   45 356 01 00:   DENSITY CORRECTION
 DPHI.DEC    45 890 12 00:   DENSITY POROSITY SANDSTONE
~PARAMETER INFORMATION
#MNEM.UNIT          VALUE    DESCRIPTION
#----------   ------------   ------------------------------
 PD  .                 GL:   PERMANENT DATUM
 EPD .F              5228:   ELEVATION PERMANENT DATUM
 LMF .                 KB:   LOG MEASURED FROM
 DAPD.F                 5:   FEET ABOVE PERMANENT DATUM
 DMF .                 KB:   DRILLING MEASURED FROM
 EKB .F              5233:   KELLING BUSHING
 EGL .F              5228:   GROUND LEVEL
 DATE.             5-5-80:   RUN DATE
 RUN .                  1:   RUN NUMBER
 DD  .F               572:   DEPTH DRILLER
 DL  .F               572:   DEPTH LOGGER
 BLI .F               570:   BOTTOM LOG INTERVAL
 TLI .F                30:   TOP LOG INTERVAL
 BS  .IN            7.875:   BIT SIZE
 BSD .F               572:   BIT SIZE AT DEPTH
 DFT .            KCL MUD:   DRILLING FLUID TYPE
 DFD .                8.9:   DRILLING FLUID DENSITY
 DFV .                 36:   DRILLING FLUID VISCOSITY
 DFL .               12.6:   DRILLING FLUID LOSS
 MSS .           FLOWLINE:   MUD SAMPLE SOURCE
 RMS .OHMM           1.08:   RESISTIVITY MUD SAMPLE
 MST .F                60:   MUD SAMPLE TEMPERATURE
 RMF .OHMM            .86:   RESISTIVITY MUD FILTRATE SAMPLE
 MFST.F                60:   MUD FILTRATE SAMPLE TEMPERATURE
 RMC .OHMM           1.29:   RESISTIVITY MUD CAKE
 MCST.F                60:   MUD CAKE SAMPLE TEMPERATURE
 MFSS.           MEASURED:   MUD FILTRATE SAMPLE SOURCE
 MCSS.           MEASURED:   MUD CAKE SAMPLE SOURCE
 TCS .HRS               2:   TIME CURCULATED STOPPED
 MRT .F               100:   MAXIMUM RECORDED TEMPERATURE
 LUN .               1892:   LOGGING UNIT NUMBER
 LUL .             CASPER:   LOGGING UNIT LOCATION
 ENGI.               REIN:   RECORDING ENGINEER
 WITN.              AMEND:   WITNESSED BY
 CLNT.            A2DTECH:   CLIENT CODE
 ORIG.           5" PRINT:   ORIGIN OF DATA
 UWI .       490251080800:   UNIQUE WELL ID
 DICO. A2D Technologies, Inc.:   DIGITIZING COMPANY
~OTHER INFORMATION
~A    DEPT    SGRD        ILD        ILM        SPR       CALD         GRD        RHOB       CORR     DPHI   
# ...
  332.5000     5.3805     4.9634     6.3928   -31.4183     7.9053   101.5325     2.4832    -0.0274     0.1202
  333.0000     4.4502     4.9379     6.4524   -31.2067     7.9059   100.5137     2.5266    -0.0135     0.1001
  333.5000     6.5323     4.9252     6.4884   -30.9972     7.9065   100.3377     2.5598    -0.0006     0.0818
  334.0000     8.3301     4.9682     6.3866   -30.8733     7.9071   100.1614     2.5693    -0.0025     0.0791
  334.5000     7.8095     5.0300     6.3048   -31.0608     7.9077    99.9905     2.5698    -0.0048     0.0773
  335.0000     8.1828     5.0926     6.2241   -31.2433     7.9083    99.8076     2.5635    -0.0070     0.0756
  335.5000     7.9517     5.1910     6.1445   -31.4351     7.9089    99.4724     2.5577    -0.0093     0.0782
  336.0000     8.2602     5.3491     6.0658   -30.8621     7.9094    99.1069     2.5468    -0.0083     0.0853
  336.5000     8.0285     5.5121     5.9882   -30.1948     7.9100    98.7396     2.5334    -0.0061     0.0924
  337.0000     8.1779     5.6556     5.9225   -30.1160     7.9106    98.3770     2.5336    -0.0034     0.0956
  337.5000     7.9456     5.6556     5.9225   -30.3493     7.9111    98.0149     2.5382    -0.0008     0.0921
  338.0000     8.2536     5.6227     5.9225   -30.5913     7.9117    98.3251     2.5274     0.0066     0.0966
  338.5000     7.9548     5.4064     5.9225   -30.5658     7.9123    99.3104     2.5145     0.0165     0.1020
  339.0000     8.1833     5.1993     5.9225   -30.4402     7.9128   100.3249     2.4973     0.0275     0.1105
  339.5000     8.2536     5.0000     5.9460   -30.3145     7.9134   100.5836     2.4760     0.0389     0.1182
  340.0000     7.3345     4.8332     5.9875   -30.2778     7.9140   100.2301     2.4549     0.0286     0.1318
  340.5000     5.5966     4.7115     6.0293   -30.4859     7.9146    99.5207     2.4265     0.0106     0.1563
  341.0000     4.0648     4.5928     6.0714   -30.6882     7.9151    99.0417     2.4804    -0.0060     0.1248
  341.5000     3.8046     4.4771     6.0885   -30.8443     7.9157    98.6188     2.5906    -0.0143     0.0962
  342.0000     7.2090     4.4093     6.0885   -30.7468     7.9163    98.6264     2.5821     0.0046     0.0705
  342.5000     7.9548     4.4924     6.0885   -30.6398     7.9168    98.6132     2.5719    -0.0043     0.0748
  343.0000     7.9548     4.5978     6.0885   -30.5328     7.9174    98.4308     2.5658     0.0003     0.0760
  343.5000     5.7080     4.7129     6.0885   -30.4348     7.9180    97.7031     2.5913     0.0064     0.0735
  344.0000     8.3301     4.9595     6.0885   -30.5120     7.9185    96.9605     2.5842    -0.0076     0.0721
  344.5000     8.1779     5.2190     6.0889   -30.6132     7.9191    96.2189     2.5680    -0.0291     0.0802
  345.0000     8.7231     5.4923     6.0881   -30.7145     7.9197    95.4678     2.5518    -0.0517     0.0856
  345.5000     8.2536     5.7799     6.1381   -30.8161     7.9202    94.7013     2.5418    -0.0502     0.0807
  346.0000     8.8915     6.0813     6.2422   -30.9176     7.9208    94.9085     2.6004    -0.0338     0.0737
  346.5000     8.4883     6.3210     6.3591   -31.0173     7.9214    95.8810     2.5897    -0.0256     0.0689
  347.0000    10.0117     6.4592     6.4782   -30.8563     7.9219    96.8160     2.5660    -0.0393     0.0842
  347.5000     8.8039     6.4956     6.5995   -30.4032     7.9225    97.7499     2.5363    -0.0416     0.0918
  348.0000     9.1346     6.5557     6.7231   -29.9532     7.9231    98.2554     2.5525    -0.0236     0.0868
  348.5000     8.7231     6.6116     6.8495   -29.5068     7.9236    98.4035     2.5767    -0.0060     0.0756
  349.0000     9.0601     6.5510     6.8837   -29.2574     7.9242    98.5464     2.5993     0.0114     0.0645
  349.5000     9.2192     6.6225     6.9128   -29.0441     7.9248    98.6024     2.6082     0.0287     0.0534
  350.0000     8.6391     6.6372     6.9420   -28.8315     7.9254    99.2284     2.5983     0.0335     0.0457
  350.5000     8.7844     6.6519     6.9714   -28.6227     7.9260   100.0867     2.5977     0.0258     0.0592
  351.0000     9.3046     6.6666     7.0009   -28.5016     7.9264   100.9513     2.5999     0.0271     0.0573
  351.5000     9.3046     6.6814     7.0305   -28.3752     7.9245   100.9009     2.5942     0.0366     0.0546
  352.0000     8.8854     6.6961     7.0602   -28.2465     7.9154    99.9765     2.6044     0.0466     0.0499
  352.5000     9.2725     6.7110     7.0901   -28.1356     7.9066    99.0510     2.6148     0.0567     0.0434
  353.0000     9.7436     6.7258     7.1217   -28.0235     7.8979    98.1174     2.6240     0.0668     0.0377
  353.5000     9.5105     6.7407     7.1067   -27.9158     7.8891    97.1833     2.6186     0.0698     0.0407
  354.0000     9.1022     6.7557     7.0863   -27.8074     7.8804    96.2695     2.6113     0.0676     0.0449
  354.5000     8.7114     6.7706     7.0662   -27.6989     7.8717    95.7844     2.6045     0.0618     0.0472
  355.0000     8.3247     6.7856     7.0461   -27.5905     7.8776    96.5387     2.6010     0.0558     0.0474
  355.5000     8.3244     6.8007     7.0261   -27.4809     7.8957    97.2702     2.5980     0.0498     0.0501
  356.0000     8.8415     6.8157     7.0061   -27.4456     7.9139    97.9997     2.5909     0.0450     0.0582
  356.5000     9.0237     6.8311     6.9862   -27.4450     7.9322    98.6231     2.5785     0.0393     0.0669
  357.0000     9.7162     6.8468     6.9664   -27.4450     7.9505    97.6419     2.5660     0.0345     0.0755
  357.5000    10.2977     6.8666     6.9466   -27.4451     7.9687    97.9568     2.5535     0.0348     0.0837
  358.0000     9.9550     6.6630     6.9274   -27.4451     7.9867    98.6347     2.5452     0.0371     0.0956
  358.5000     9.8338     6.3476     6.9212   -27.4451     8.0090    99.3267     2.4975     0.0394     0.1188
  359.0000    10.1952     6.0488     6.9137   -27.4451     8.0199   100.0027     2.4468     0.0371     0.1419
  359.5000    10.3931     5.7640     6.9062   -27.4451     8.0064   100.6882     2.3958     0.0308     0.1651
  360.0000     6.6028     5.4931     6.8988   -27.4451     7.9922    99.3000     2.3702     0.0099     0.1883
  360.5000     4.3706     5.3022     6.8913   -27.4451     7.9779    96.4800     2.4026    -0.0087     0.1589
  361.0000     3.7751     5.3022     6.8839   -27.4451     7.9637    93.6533     2.4890    -0.0038     0.1212
  361.5000     8.3970     5.3022     6.8764   -27.4448     7.9496    91.8797     2.5761     0.0087     0.0834
  362.0000    11.0860     5.3866     6.8689   -27.4428     7.9354    92.2336     2.5891     0.0212     0.0711
  362.5000    10.6355     5.6886     6.8639   -27.5298     7.9212    92.7763     2.6017     0.0296     0.0656
  363.0000    10.4894     6.0074     6.8912   -27.6309     7.9071    93.3300     2.6072     0.0341     0.0599
  363.5000    11.3969     6.3443     6.9218   -27.7323     7.8929    93.8682     2.6013     0.0384     0.0543
  364.0000    10.9842     6.7000     6.9525   -27.8335     7.8788    93.8491     2.6027     0.0417     0.0487
  364.5000    11.2848     7.0756     6.9833   -27.9347     7.8643    92.8308     2.6088     0.0472     0.0464
  365.0000    11.3969     7.4723     7.0143   -28.0358     7.8482    91.7822     2.6151     0.0519     0.0461
  365.5000    11.4228     7.8912     7.0454   -28.1366     7.8675    90.7435     2.6201     0.0552     0.0570
  366.0000    11.5024     8.3336     7.0767   -28.2433     7.8672    89.7466     2.5978     0.0417     0.0677
  366.5000    11.4279     8.8039     7.1080   -28.4735     7.8676    88.0402     2.5749     0.0280     0.0785
  367.0000    11.2959     8.8738     7.1635   -28.7166     7.8676    86.3654     2.5521     0.0145     0.0888
  367.5000    11.1641     8.9677     7.2379   -28.9597     7.8676    82.9866     2.5294     0.0073     0.0979
  368.0000    11.0701     9.4356     7.4598   -29.2026     7.8676    79.4528     2.5068     0.0096     0.1083
  368.5000    13.3123    10.0698     7.7312   -29.4454     7.8676    75.8830     2.4847     0.0131     0.1187
