~VERSION INFORMATION
 VERS.                2.0:   CWLS LOG ASCII STANDARD - VERSION 2.0
 WRAP.                 NO:   ONE LINE PER DEPTH STEP
~WELL INFORMATION
#MNEM.UNIT      DATA TYPE    INFORMATION
#----------   ------------   ------------------------------
 STRT.F            0.0000:   START DEPTH
 STOP.F          790.0000:   STOP DEPTH
 STEP.F            0.1000:   STEP LENGTH
 NULL.          -999.2500:   NO VALUE
 COMP.   FLUOR DANIEL INC:   COMPANY
 WELL.   72-2 X-34 #72-34:   WELL
 FLD .          N.P.R. #3:   FIELD
 LOC .      S34 T39N R78W:   LOCATION
 CNTY.            NATRONA:   COUNTY
 STAT.            WYOMING:   STATE
 CTRY. UNITED STATES OF AMERICA:   COUNTRY
 SRVC.      Western Atlas:   SERVICE COMPANY
 DATE.        25-MAR-1995:   LOGDATE
 API .       490252269300:   API NUMBER
~CURVE INFORMATION
#MNEM.UNIT       API CODE    CURVE DESCRIPTION
#----------   ------------   ------------------------------
 DEPT.F                  :   
 GRR .GAPI   07 310 01 00:   GAMMA RAY
 RILD.OHMM   07 120 46 00:   INDUCTION LOG DEEP RESISTIVITY
 RILM.OHMM   07 120 44 00:   INDUCTION LOG MEDIUM RESISTIVITY
~PARAMETER INFORMATION
#MNEM.UNIT          VALUE    DESCRIPTION
#----------   ------------   ------------------------------
 PD  .                 GL:   PERMANENT DATUM
 EPD .F              5058:   ELEVATION PERMANENT DATUM
 LMF .                 KB:   LOG MEASURED FROM
 DAPD.F                10:   FEET ABOVE PERMANENT DATUM
 DMF .                 KB:   DRILLING MEASURED FROM
 EKB .F              5068:   KELLING BUSHING
 EDF .F              5067:   DRILLING FLOOR
 EGL .F              5058:   GROUND LEVEL
 DATE.        25-MAR-1995:   RUN DATE
 RUN .                  1:   RUN NUMBER
 DD  .F               796:   DEPTH DRILLER
 DL  .F               798:   DEPTH LOGGER
 BLI .F               790:   BOTTOM LOG INTERVAL
 TLI .F                96:   TOP LOG INTERVAL
 CS  .IN            9.625:   CASING SIZE
 CBD .F                95:   CASING BOTTOM DRILLER
 CBL .F                96:   CASING BOTTOM LOGGER
 BS  .IN             8.75:   BIT SIZE
 BSD .F               796:   BIT SIZE AT DEPTH
 DFT .                AIR:   DRILLING FLUID TYPE
 MRT .F                97:   MAXIMUM RECORDED TEMPERATURE
 LUN .            HL 6530:   LOGGING UNIT NUMBER
 LUL .             CASPER:   LOGGING UNIT LOCATION
 ENGI.             RAUTIO:   RECORDING ENGINEER
 WITN.             STRONG:   WITNESSED BY
 CLNT.            A2DTECH:   CLIENT CODE
 ORIG.       2", 5" PRINT:   ORIGIN OF DATA
 UWI .       490252269300:   UNIQUE WELL ID
 DICO. A2D Technologies, Inc.:   DIGITIZING COMPANY
~OTHER INFORMATION
~A    DEPT      GRR      RILD       RILM   
# ...
  182.0000   113.2814     7.9372     7.5297
  182.1000   113.2851     7.9598     7.5296
  182.2000   113.2877     7.9628     7.5295
  182.3000   113.2908     7.9727     7.4881
  182.4000   113.2939     7.9826     7.4771
  182.5000   113.2970     7.9925     7.4771
  182.6000   113.3001     8.0024     7.4770
  182.7000   113.3036     8.0123     7.4769
  182.8000   113.5361     8.0222     7.4767
  182.9000   113.8008     8.0321     7.4766
  183.0000   113.9347     8.0420     7.4765
  183.1000   114.0189     8.0519     7.4765
  183.2000   114.2520     8.0618     7.4594
  183.3000   114.2553     8.0698     7.4245
  183.4000   114.2582     8.0697     7.4244
  183.5000   114.2613     8.0696     7.4242
  183.6000   114.1201     8.0314     7.4241
  183.7000   113.8617     8.0135     7.4240
  183.8000   113.5581     8.0134     7.4240
  183.9000   113.0296     8.0021     7.4337
  184.0000   112.2612     7.9555     7.4755
  184.1000   111.6876     7.9025     7.4754
  184.2000   111.1677     7.8631     7.4753
  184.3000   110.4308     7.8173     7.4751
  184.4000   109.3882     7.7505     7.4751
  184.5000   108.3638     7.6605     7.4639
  184.6000   107.7641     7.5714     7.4179
  184.7000   107.5454     7.4747     7.3206
  184.8000   107.2870     7.3968     7.2838
  184.9000   107.1508     7.3110     7.2414
  185.0000   107.1540     7.1467     7.1598
  185.1000   107.1571     6.9084     7.0358
  185.2000   107.1605     6.6701     6.9103
  185.3000   107.1633     6.4318     6.7346
  185.4000   107.1664     6.1934     6.6649
  185.5000   107.1695     5.9551     6.5085
  185.6000   106.9139     5.7168     6.2678
  185.7000   106.1694     5.5858     5.9411
  185.8000   105.6238     5.4350     5.5716
  185.9000   104.8811     5.1812     5.3880
  186.0000   104.2986     4.8396     5.1996
  186.1000   103.7788     4.5639     5.0112
  186.2000   103.2589     4.1698     4.8227
  186.3000   102.7894     4.0356     4.6343
  186.4000   102.5319     3.8339     4.4458
  186.5000   102.8466     3.6165     4.2574
  186.6000   103.2747     3.4243     4.0689
  186.7000   103.8008     3.2877     3.8805
  186.8000   104.3270     3.1580     3.6920
  186.9000   105.0452     3.0810     3.5036
  187.0000   106.3416     2.9813     3.3093
  187.1000   107.5307     2.8711     3.3845
  187.2000   108.8915     2.7518     3.2650
  187.3000   110.1101     2.6271     3.1455
  187.4000   111.5411     2.5109     3.0260
  187.5000   113.3743     2.4215     2.9064
  187.6000   115.2085     2.3530     2.7869
  187.7000   117.1915     2.2921     2.6674
  187.8000   118.6352     2.2262     2.5790
  187.9000   121.7312     2.1636     2.5069
  188.0000   124.8314     2.1105     2.4348
  188.1000   127.2668     2.0538     2.3627
  188.2000   129.3611     2.0034     2.2906
  188.3000   131.5180     1.9572     2.2185
  188.4000   133.5513     1.9241     2.1471
  188.5000   135.2383     1.9129     2.1179
  188.6000   136.3460     1.9015     2.0969
  188.7000   136.9232     1.8799     2.0722
  188.8000   137.1322     1.8581     2.0538
  188.9000   137.1353     1.8365     2.0338
  189.0000   137.1389     1.8195     2.0017
  189.1000   137.1415     1.8066     1.9896
  189.2000   137.1446     1.7861     1.9759
  189.3000   137.1477     1.7861     1.9664
  189.4000   137.1508     1.7860     1.9548
  189.5000   137.1736     1.7860     1.9486
  189.6000   137.4685     1.7860     1.9486
  189.7000   137.4713     1.7860     1.9486
  189.8000   137.4744     1.7867     1.9486
  189.9000   137.6100     1.7984     1.9486
  190.0000   137.7916     1.7983     1.9486
  190.1000   137.7947     1.8055     1.9486
  190.2000   137.7980     1.8213     1.9588
  190.3000   137.8009     1.8426     1.9790
  190.4000   137.8040     1.8654     1.9896
  190.5000   137.8071     1.9010     1.9896
  190.6000   137.7136     1.9318     2.0005
  190.7000   137.4553     1.9742     2.0214
  190.8000   137.1944     2.0208     2.0385
  190.9000   136.8871     2.0684     2.0605
  191.0000   136.6802     2.1152     2.1004
  191.1000   136.2620     2.1540     2.1515
  191.2000   135.6318     2.2028     2.2233
  191.3000   134.7898     2.2548     2.2951
  191.4000   133.7243     2.3080     2.3886
  191.5000   131.9289     2.3678     2.5233
  191.6000   130.1465     2.4321     2.6805
  191.7000   128.2315     2.4750     2.8232
  191.8000   126.4042     2.5980     2.9591
  191.9000   124.5021     2.6991     3.1023
  192.0000   122.3890     2.8175     3.2156
  192.1000   119.8168     2.9500     3.3659
  192.2000   117.2146     3.0996     3.5596
  192.3000   115.4654     3.2290     3.7861
  192.4000   113.1978     3.4061     4.0126
  192.5000   110.4144     3.5276     4.2391
  192.6000   108.3252     3.7187     4.4656
  192.7000   106.1494     3.9532     4.6921
  192.8000   103.1474     4.2143     4.9186
  192.9000   101.0165     4.4820     5.1452
  193.0000    99.7948     4.6880     5.3717
  193.1000    99.0135     4.8381     5.5982
  193.2000    98.2842     5.0527     5.8247
  193.3000    97.7646     5.2939     6.0512
  193.4000    97.1514     5.5569     6.2777
  193.5000    96.7247     5.8411     6.5042
  193.6000    96.2048     6.0612     6.7308
  193.7000    95.6850     6.2646     6.9573
  193.8000    95.1652     6.6045     7.1838
  193.9000    94.6288     7.0248     7.4532
  194.0000    93.7485     7.4228     7.7988
  194.1000    93.2945     7.7312     8.0847
  194.2000    92.7747     8.0576     8.4284
  194.3000    92.3841     8.4372     8.6348
  194.4000    92.0462     8.7585     8.8604
  194.5000    91.5563     9.0061     9.0985
  194.6000    91.2786     9.1961     9.3717
  194.7000    90.7975     9.3581     9.6455
  194.8000    90.4701     9.5241     9.8873
  194.9000    90.2117     9.7865    10.0564
  195.0000    89.9533     9.9793    10.2368
  195.1000    89.7382    10.2148    10.4205
  195.2000    89.7419    10.4278    10.5520
  195.3000    89.7449    10.6115    10.6485
  195.4000    89.7480    10.7896    10.8209
  195.5000    89.7512    10.8603    10.8209
  195.6000    89.8613    10.9158    10.8802
  195.7000    90.0684    10.9357    10.8963
  195.8000    90.0715    10.9355    10.8963
  195.9000    90.0751    10.9353    10.8963
  196.0000    90.0777    10.9352    10.8963
  196.1000    90.4212    10.9351    10.8963
  196.2000    90.9472    10.8185    10.8963
  196.3000    91.4736    10.7839    10.8963
  196.4000    91.9999    10.7167    10.8500
  196.5000    92.5820    10.5713    10.8209
  196.6000    93.0516    10.3876    10.7732
  196.7000    93.3939    10.2005    10.6589
  196.8000    93.6584    10.0867    10.5940
  196.9000    93.9230     9.9696    10.4518
  197.0000    94.1877     9.8210    10.2938
  197.1000    94.4667     9.6506    10.1126
  197.2000    94.7169     9.4829     9.9046
  197.3000    94.9814     9.3177     9.6534
  197.4000    95.0980     9.0635     9.3620
  197.5000    95.1996     8.8520     9.0342
  197.6000    95.4153     8.5368     8.6058
  197.7000    95.4184     8.1951     8.3175
  197.8000    95.4221     7.8146     7.9498
  197.9000    95.6360     7.2913     7.6030
  198.0000    96.0623     6.9121     7.3200
  198.1000    96.5882     6.6760     7.1059
  198.2000    97.1142     6.4583     6.8918
  198.3000    97.6143     6.2558     6.6216
  198.4000    97.6179     6.0696     6.3532
  198.5000    98.0705     5.9642     6.1176
  198.6000    98.5965     5.8503     5.8733
  198.7000    99.1226     5.7893     5.6190
  198.8000    99.6488     5.7221     5.4258
  198.9000   100.2014     5.6388     5.2574
  199.0000   101.0578     5.5513     5.1707
  199.1000   101.5379     5.4911     5.0798
  199.2000   102.2533     5.4573     5.0078
  199.3000   103.1804     5.4273     4.9366
  199.4000   104.4093     5.3957     4.8710
  199.5000   106.1439     5.3818     4.8733
  199.6000   108.8524     5.3702     4.9049
  199.7000   112.8945     5.3444     4.9313
  199.8000   116.6748     5.3443     4.9606
  199.9000   118.3226     5.4906     5.0237
  200.0000   118.5471     5.5100     5.1018
  200.1000   118.7717     5.5099     5.1693
