~VERSION INFORMATION
 VERS.                2.0:   CWLS LOG ASCII STANDARD - VERSION 2.0
 WRAP.                 NO:   ONE LINE PER DEPTH STEP
~WELL INFORMATION
#MNEM.UNIT      DATA TYPE    INFORMATION
#----------   ------------   ------------------------------
 STRT.F           20.0000:   START DEPTH
 STOP.F          930.0000:   STOP DEPTH
 STEP.F            0.5000:   STEP LENGTH
 NULL.          -999.2500:   NO VALUE
 COMP. FENIX & SCISSON INC:   COMPANY
 WELL.     NPR 3 #45-S-14:   WELL
 FLD .        TEAPOT DOME:   FIELD
 LOC .      S14 T38N R78W:   LOCATION
 CNTY.            NATRONA:   COUNTY
 STAT.            WYOMING:   STATE
 CTRY. UNITED STATES OF AMERICA:   COUNTRY
 SRVC.           BIRDWELL:   SERVICE COMPANY
 DATE.        02-JAN-1979:   LOGDATE
 API .       490251076200:   API NUMBER
~CURVE INFORMATION
#MNEM.UNIT       API CODE    CURVE DESCRIPTION
#----------   ------------   ------------------------------
 DEPT.F                  :   
 GRD .GAPI   45 310 01 00:   GAMMA RAY FROM DENSITY LOG
 CALD.IN     45 280 60 00:   CALIPER
 RHOB.G/C3   45 350 01 00:   BULK DENSITY
 DPHI.DEC    45 890 12 00:   DENSITY POROSITY SANDSTONE
 CORR.G/C3   45 356 01 00:   DENSITY CORRECTION
~PARAMETER INFORMATION
#MNEM.UNIT          VALUE    DESCRIPTION
#----------   ------------   ------------------------------
 PD  .                 GL:   PERMANENT DATUM
 EPD .F              5261:   ELEVATION PERMANENT DATUM
 LMF .                 KB:   LOG MEASURED FROM
 DAPD.F                 4:   FEET ABOVE PERMANENT DATUM
 DMF .                 KB:   DRILLING MEASURED FROM
 EKB .F              5265:   KELLING BUSHING
 EGL .F              5261:   GROUND LEVEL
 DATE.             1-7-79:   RUN DATE
 RUN .                  1:   RUN NUMBER
 DD  .F               969:   DEPTH DRILLER
 DL  .F               928:   DEPTH LOGGER
 BLI .F               928:   BOTTOM LOG INTERVAL
 TLI .F                20:   TOP LOG INTERVAL
 CS  .IN            8.625:   CASING SIZE
 CBD .F                40:   CASING BOTTOM DRILLER
 CBL .F                46:   CASING BOTTOM LOGGER
 BS  .IN            7.875:   BIT SIZE
 BSD .F               969:   BIT SIZE AT DEPTH
 DFT .                KCL:   DRILLING FLUID TYPE
 DFD .                8.8:   DRILLING FLUID DENSITY
 DFV .                 42:   DRILLING FLUID VISCOSITY
 DFPH.                9.2:   DRILLING FLUID PH
 DFL .                 10:   DRILLING FLUID LOSS
 MSS .           FLOWLINE:   MUD SAMPLE SOURCE
 RMS .OHMM            .95:   RESISTIVITY MUD SAMPLE
 MST .F                60:   MUD SAMPLE TEMPERATURE
 RMF .OHMM            1.7:   RESISTIVITY MUD FILTRATE SAMPLE
 MFST.F                60:   MUD FILTRATE SAMPLE TEMPERATURE
 RMC .OHMM            1.6:   RESISTIVITY MUD CAKE
 MCST.F                60:   MUD CAKE SAMPLE TEMPERATURE
 MFSS.           MEASURED:   MUD FILTRATE SAMPLE SOURCE
 MCSS.           MEASURED:   MUD CAKE SAMPLE SOURCE
 RMB .OHMM            .98:   RESISTIVITY MUD AT BHT
 BHT .F                58:   BOTTOM HOLE TEMPERATURE
 TCS .HRS               4:   TIME CURCULATED STOPPED
 MRT .F                58:   MAXIMUM RECORDED TEMPERATURE
 LUN .               3006:   LOGGING UNIT NUMBER
 LUL .             CASPER:   LOGGING UNIT LOCATION
 ENGI.            ROLLINS:   RECORDING ENGINEER
 WITN.           DINSMORE:   WITNESSED BY
 CLNT.            A2DTECH:   CLIENT CODE
 ORIG.           5" PRINT:   ORIGIN OF DATA
 UWI .       490251076200:   UNIQUE WELL ID
 DICO. A2D Technologies, Inc.:   DIGITIZING COMPANY
~OTHER INFORMATION
~A   DEPT      GRD         CALD     RHOB       DPHI       CORR   
# ...
  569.0000    96.6540     7.8300     2.4650     0.1260     0.1150
  569.5000    98.4750     7.8300     2.4600     0.1380     0.1080
  570.0000    98.6010     7.8300     2.4500     0.1400     0.1110
  570.5000    97.7520     7.8300     2.4520     0.1370     0.1180
  571.0000   100.5430     7.8300     2.4560     0.1340     0.1250
  571.5000   101.2450     7.8300     2.4570     0.1340     0.1320
  572.0000   101.3800     7.8300     2.4570     0.1340     0.1400
  572.5000   100.6630     7.8300     2.4580     0.1330     0.1480
  573.0000    99.9000     7.8300     2.4580     0.1310     0.1560
  573.5000    98.2240     7.8170     2.4580     0.1330     0.1650
  574.0000    96.8050     7.7940     2.4590     0.1270     0.1750
  574.5000    96.2290     7.7700     2.4590     0.1320     0.1890
  575.0000    95.6340     7.7460     2.4560     0.1430     0.1720
  575.5000    95.0940     7.7230     2.4420     0.1530     0.1330
  576.0000    96.8590     7.6990     2.4290     0.1590     0.1010
  576.5000   102.8160     7.6870     2.4230     0.1520     0.0980
  577.0000   102.0190     7.6820     2.4280     0.1430     0.1160
  577.5000    98.7350     7.6770     2.4430     0.1340     0.1300
  578.0000    96.0990     7.6730     2.4590     0.1270     0.1380
  578.5000    94.6910     7.6750     2.4680     0.1210     0.1420
  579.0000    94.2690     7.6880     2.4710     0.1160     0.1420
  579.5000    94.1260     7.7450     2.4760     0.1160     0.1420
  580.0000    94.7170     7.7840     2.4770     0.1160     0.1410
  580.5000    96.4460     7.7580     2.4780     0.1170     0.1380
  581.0000    97.9790     7.7360     2.4770     0.1180     0.1320
  581.5000    96.8320     7.6690     2.4740     0.1270     0.1170
  582.0000    94.7180     7.6200     2.4620     0.1360     0.1120
  582.5000    94.4390     7.6230     2.4520     0.1380     0.1130
  583.0000    95.5940     7.6410     2.4530     0.1370     0.1140
  583.5000    96.1270     7.6590     2.4530     0.1360     0.1150
  584.0000    96.4140     7.6770     2.4530     0.1350     0.1160
  584.5000    97.1320     7.6950     2.4530     0.1320     0.1160
  585.0000    97.4380     7.7150     2.4520     0.1330     0.1100
  585.5000    96.7820     7.7360     2.4500     0.1380     0.1000
  586.0000    95.5700     7.7640     2.4450     0.1430     0.0860
  586.5000    95.0380     7.7920     2.4330     0.1540     0.0730
  587.0000    95.0340     7.8130     2.4210     0.1600     0.0610
  587.5000    95.3030     7.8220     2.4120     0.1630     0.0530
  588.0000    96.8190     7.8300     2.4080     0.1630     0.0520
  588.5000    97.9250     7.8220     2.4080     0.1640     0.0510
  589.0000    97.4370     7.8160     2.4080     0.1670     0.0570
  589.5000    96.3590     7.8080     2.4080     0.1670     0.0690
  590.0000    96.3210     7.6850     2.4070     0.1660     0.0840
  590.5000    96.7860     7.8310     2.4060     0.1650     0.0970
  591.0000    98.6560     7.8270     2.4290     0.1450     0.1000
  591.5000   100.2480     7.8260     2.4350     0.1430     0.0970
  592.0000    98.6260     7.8240     2.4350     0.1500     0.0940
  592.5000    94.5540     7.8230     2.4340     0.1520     0.0930
  593.0000    91.6770     7.8210     2.4340     0.1490     0.0930
  593.5000    92.0400     7.8190     2.4370     0.1410     0.0940
  594.0000    94.1490     7.8170     2.4440     0.1330     0.0950
  594.5000    95.6040     7.8160     2.4500     0.1360     0.0960
  595.0000    96.5510     7.8140     2.4510     0.1390     0.0970
  595.5000    98.7740     7.8120     2.4500     0.1410     0.1020
  596.0000   100.2320     7.8110     2.4510     0.1270     0.1060
  596.5000   100.0080     7.8090     2.4570     0.1300     0.1090
  597.0000    99.9760     7.8070     2.4600     0.1350     0.1100
  597.5000   100.5930     7.8050     2.4550     0.1400     0.1110
  598.0000   101.0010     7.8040     2.4500     0.1410     0.1120
  598.5000    96.7870     7.8020     2.4490     0.1420     0.1170
  599.0000    98.0320     7.8000     2.4490     0.1410     0.1190
  599.5000   100.8510     7.7980     2.4490     0.1380     0.1190
  600.0000   101.9670     7.7970     2.4490     0.1370     0.1110
  600.5000   103.0250     7.7950     2.4490     0.1370     0.1110
  601.0000   103.4470     7.7930     2.4490     0.1370     0.1120
  601.5000   103.6660     7.7920     2.4490     0.1380     0.1120
  602.0000   103.1860     7.8060     2.4490     0.1400     0.1130
  602.5000   102.9800     7.8680     2.4510     0.1400     0.1170
  603.0000   103.1950     7.8470     2.4520     0.1390     0.1250
  603.5000   104.3640     7.8300     2.4540     0.1370     0.1260
  604.0000   105.9500     7.8300     2.4560     0.1360     0.1270
  604.5000   106.6860     7.8300     2.4580     0.1320     0.1330
  605.0000   106.4950     7.8300     2.4590     0.1290     0.1390
  605.5000   102.9680     7.8300     2.4610     0.1300     0.1380
  606.0000   100.2300     7.8300     2.4590     0.1370     0.1400
  606.5000   104.3750     7.8230     2.4580     0.1190     0.1490
  607.0000   102.0450     7.8110     2.4590     0.1190     0.1530
  607.5000   100.6450     7.7990     2.4740     0.1240     0.1480
  608.0000   106.3460     7.7870     2.4720     0.1290     0.1420
  608.5000   111.3310     7.7750     2.4580     0.1310     0.1390
  609.0000   108.9120     7.7360     2.4560     0.1330     0.1400
  609.5000   109.4670     7.6800     2.4530     0.1350     0.1400
  610.0000   109.7100     7.6240     2.4490     0.1370     0.1400
  610.5000   108.4100     7.5680     2.4430     0.1390     0.1400
  611.0000   105.6580     7.5300     2.4400     0.1410     0.1410
  611.5000   103.0780     7.5350     2.4370     0.1470     0.1380
  612.0000    98.5190     7.5400     2.4340     0.1570     0.1330
  612.5000    94.7920     7.5450     2.4210     0.1610     0.1320
  613.0000    94.1520     7.5490     2.4210     0.1550     0.1340
  613.5000    97.9210     7.5540     2.4220     0.1520     0.1410
  614.0000   101.9470     7.5590     2.4290     0.1510     0.1470
  614.5000   102.2590     7.5630     2.4310     0.1410     0.1570
  615.0000   100.8090     7.5670     2.4410     0.1300     0.1910
  615.5000   100.4150     7.6260     2.4560     0.1110     0.2260
  616.0000    97.8630     7.7020     2.4850     0.0870     0.2610
  616.5000    95.1140     7.7780     2.5030     0.0630     0.2950
  617.0000    94.3960     7.7900     2.5340     0.0590     0.3170
  617.5000    95.3720     7.7900     2.5680     0.0860     0.2690
  618.0000    98.9600     7.7900     2.5860     0.1170     0.1400
  618.5000   100.8110     7.7900     2.4840     0.1470     0.0620
  619.0000   101.1310     7.7770     2.4310     0.1600     0.0330
  619.5000   101.7660     7.7580     2.4110     0.1670     0.0220
  620.0000   102.4780     7.6150     2.4020     0.1680     0.0200
  620.5000   102.7290     7.6700     2.3940     0.1670     0.0180
  621.0000   101.4740     7.7650     2.3950     0.1670     0.0160
  621.5000    98.8030     7.7890     2.3950     0.1690     0.0140
  622.0000    95.5360     7.7900     2.3950     0.1720     0.0120
  622.5000    96.9200     7.7900     2.3900     0.1760     0.0130
  623.0000   101.8640     7.7890     2.3850     0.1790     0.0160
  623.5000   103.1320     7.7910     2.3790     0.1830     0.0190
  624.0000   105.3210     7.7910     2.3770     0.1870     0.0230
  624.5000   107.9040     7.5070     2.3770     0.1820     0.0250
  625.0000   104.1220     7.6010     2.3770     0.1770     0.0240
  625.5000   102.4310     7.6210     2.3840     0.1700     0.0230
  626.0000   101.5720     7.6690     2.3970     0.1630     0.0210
  626.5000    97.4040     7.7420     2.4100     0.1610     0.0210
  627.0000    97.4850     7.7720     2.4140     0.1600     0.0200
  627.5000   100.3840     7.7030     2.4140     0.1610     0.0190
  628.0000   103.0040     7.6350     2.4150     0.1630     0.0190
  628.5000   101.7460     7.7060     2.4140     0.1590     0.0180
  629.0000   101.2950     7.6740     2.4150     0.1550     0.0180
  629.5000   102.5400     7.6860     2.4180     0.1530     0.0170
