~VERSION INFORMATION
 VERS.                2.0:   CWLS LOG ASCII STANDARD - VERSION 2.0
 WRAP.                 NO:   ONE LINE PER DEPTH STEP
~WELL INFORMATION
#MNEM.UNIT      DATA TYPE    INFORMATION
#----------   ------------   ------------------------------
 STRT.F            4.0000:   START DEPTH
 STOP.F          572.0000:   STOP DEPTH
 STEP.F            0.5000:   STEP LENGTH
 NULL.          -999.2500:   NO VALUE
 COMP. FENIX & SCISSON INC:   COMPANY
 WELL.       NPR#3 #33-10:   WELL
 FLD .             TEAPOT:   FIELD
 LOC .      S10 T38N R78W:   LOCATION
 CNTY.            NATRONA:   COUNTY
 STAT.            WYOMING:   STATE
 CTRY. UNITED STATES OF AMERICA:   COUNTRY
 SRVC.              Welex:   SERVICE COMPANY
 DATE.        05-MAY-1980:   LOGDATE
 API .       490251080800:   API NUMBER
~CURVE INFORMATION
#MNEM.UNIT       API CODE    CURVE DESCRIPTION
#----------   ------------   ------------------------------
 DEPT.F                  :   
 SGRD.OHMM   07 220 05 00:   SHALLOW GUARD RESISTIVITY
 ILD .OHMM   07 120 46 00:   INDUCTION LOG DEEP RESISTIVITY
 ILM .OHMM   07 120 44 00:   INDUCTION LOG MEDIUM
 SPR .MV     07 010 01 00:   SPONTANEOUS POTENTIAL
 CALD.IN     45 280 60 00:   CALIPER
 GRD .GAPI   45 310 01 00:   GAMMA RAY FROM DENSITY LOG
 RHOB.G/C3   45 350 01 00:   BULK DENSITY
 CORR.G/C3   45 356 01 00:   DENSITY CORRECTION
 DPHI.DEC    45 890 12 00:   DENSITY POROSITY SANDSTONE
~PARAMETER INFORMATION
#MNEM.UNIT          VALUE    DESCRIPTION
#----------   ------------   ------------------------------
 PD  .                 GL:   PERMANENT DATUM
 EPD .F              5228:   ELEVATION PERMANENT DATUM
 LMF .                 KB:   LOG MEASURED FROM
 DAPD.F                 5:   FEET ABOVE PERMANENT DATUM
 DMF .                 KB:   DRILLING MEASURED FROM
 EKB .F              5233:   KELLING BUSHING
 EGL .F              5228:   GROUND LEVEL
 DATE.             5-5-80:   RUN DATE
 RUN .                  1:   RUN NUMBER
 DD  .F               572:   DEPTH DRILLER
 DL  .F               572:   DEPTH LOGGER
 BLI .F               570:   BOTTOM LOG INTERVAL
 TLI .F                30:   TOP LOG INTERVAL
 BS  .IN            7.875:   BIT SIZE
 BSD .F               572:   BIT SIZE AT DEPTH
 DFT .            KCL MUD:   DRILLING FLUID TYPE
 DFD .                8.9:   DRILLING FLUID DENSITY
 DFV .                 36:   DRILLING FLUID VISCOSITY
 DFL .               12.6:   DRILLING FLUID LOSS
 MSS .           FLOWLINE:   MUD SAMPLE SOURCE
 RMS .OHMM           1.08:   RESISTIVITY MUD SAMPLE
 MST .F                60:   MUD SAMPLE TEMPERATURE
 RMF .OHMM            .86:   RESISTIVITY MUD FILTRATE SAMPLE
 MFST.F                60:   MUD FILTRATE SAMPLE TEMPERATURE
 RMC .OHMM           1.29:   RESISTIVITY MUD CAKE
 MCST.F                60:   MUD CAKE SAMPLE TEMPERATURE
 MFSS.           MEASURED:   MUD FILTRATE SAMPLE SOURCE
 MCSS.           MEASURED:   MUD CAKE SAMPLE SOURCE
 TCS .HRS               2:   TIME CURCULATED STOPPED
 MRT .F               100:   MAXIMUM RECORDED TEMPERATURE
 LUN .               1892:   LOGGING UNIT NUMBER
 LUL .             CASPER:   LOGGING UNIT LOCATION
 ENGI.               REIN:   RECORDING ENGINEER
 WITN.              AMEND:   WITNESSED BY
 CLNT.            A2DTECH:   CLIENT CODE
 ORIG.           5" PRINT:   ORIGIN OF DATA
 UWI .       490251080800:   UNIQUE WELL ID
 DICO. A2D Technologies, Inc.:   DIGITIZING COMPANY
~OTHER INFORMATION
~A    DEPT    SGRD        ILD        ILM        SPR       CALD         GRD        RHOB       CORR     DPHI   
# ...
  150.0000     9.6114     6.8080     7.3763   -39.1935     7.9568    97.2119     2.5835     0.0231     0.0737
  150.5000    10.0168     6.8798     7.4585   -38.8995     7.9549    97.9101     2.5737     0.0209     0.0811
  151.0000     9.8237     6.9524     7.4571   -38.6054     7.9530    96.9325     2.5534     0.0106     0.0885
  151.5000     9.5551     7.0258     7.4756   -38.3098     7.9510    96.2300     2.5259     0.0214     0.0958
  152.0000     9.4778     7.0999     7.4874   -38.1175     7.9491    96.6000     2.5317     0.0360     0.0979
  152.5000     9.8067     7.1876     7.4994   -37.9639     7.9471    97.3092     2.5425     0.0503     0.0933
  153.0000    10.0168     7.1420     7.5113   -37.7499     7.9476    98.0505     2.5473     0.0527     0.0896
  153.5000     9.6010     7.1074     7.5267   -37.0318     7.9489    98.9718     2.5370     0.0435     0.0925
  154.0000     9.3908     7.0729     7.4937   -36.8872     7.9502    98.5847     2.5262     0.0344     0.0965
  154.5000     9.4907     7.0386     7.4477   -36.9664     7.9515    98.0748     2.5154     0.0252     0.1005
  155.0000     9.5655     7.0044     7.4019   -37.0505     7.9529    97.5779     2.5093     0.0157     0.1032
  155.5000     9.2882     6.9705     7.3565   -37.1350     7.9542    97.0833     2.5212     0.0080     0.1024
  156.0000     8.9959     6.9367     7.3113   -37.2204     7.9555    96.6287     2.5331    -0.0025     0.0957
  156.5000     8.8039     6.8955     7.2664   -37.2219     7.9568    97.2860     2.5449     0.0003     0.0884
  157.0000     9.6541     6.8517     7.2218   -36.5073     7.9581    98.2054     2.5570     0.0059     0.0820
  157.5000     9.3981     6.8082     7.1775   -35.7126     7.9595    99.1789     2.5588     0.0111     0.0820
  158.0000     8.9326     6.7650     7.1334   -35.4131     7.9608    98.4718     2.5358    -0.0028     0.0945
  158.5000     8.7165     6.7220     7.0755   -35.1760     7.9621    97.1719     2.5137    -0.0182     0.1062
  159.0000     8.9735     6.6766     7.0129   -34.9390     7.9634    96.2339     2.4922    -0.0285     0.1144
  159.5000     8.6326     6.6191     6.9509   -34.6994     7.9648    97.3875     2.5192    -0.0196     0.1093
  160.0000     8.2536     6.5582     6.8894   -34.6986     7.9661    98.6650     2.5499     0.0035     0.0938
  160.5000     8.3227     6.4944     6.8285   -34.9356     7.9674    99.7878     2.5760     0.0262     0.0744
  161.0000     8.4072     6.4348     6.8008   -35.1715     7.9687    99.0202     2.5709     0.0287     0.0759
  161.5000     8.2605     6.4348     6.8857   -35.4048     7.9701    98.2260     2.5641     0.0209     0.0796
  162.0000     8.1779     6.4348     6.9496   -35.4747     7.9714    97.4361     2.5732     0.0173     0.0774
  162.5000     8.4364     6.4348     7.0142   -35.5241     7.9727    97.2522     2.5844     0.0266     0.0733
  163.0000     8.8854     6.4638     7.0792   -35.5728     7.9740    97.5506     2.5956     0.0387     0.0692
  163.5000     8.7976     6.5167     7.1449   -35.6241     7.9754    96.9333     2.6066     0.0510     0.0648
  164.0000     8.7231     6.5700     7.2113   -35.8936     7.9767    96.3522     2.6120     0.0627     0.0630
  164.5000     9.0235     6.6239     7.2782   -36.2037     7.9780    95.8803     2.5911     0.0467     0.0701
  165.0000     9.2179     6.6788     7.3457   -37.4362     7.9793    96.4940     2.5742     0.0309     0.0758
  165.5000     9.3046     6.7341     7.3892   -37.6227     7.9806    97.0296     2.5599     0.0289     0.0815
  166.0000     9.2218     6.7899     7.4058   -37.0347     7.9820    96.8572     2.5474     0.0263     0.0871
  166.5000     9.1346     6.8461     7.4228   -37.6813     7.9833    96.4961     2.5348     0.0263     0.0928
  167.0000     9.3638     6.9028     7.4399   -38.4177     7.9846    96.1371     2.5216     0.0302     0.0959
  167.5000     9.7436     6.9432     7.4571   -39.1585     7.9859    95.7768     2.5348     0.0338     0.0947
  168.0000     9.6583     6.9712     7.4744   -38.1710     7.9873    95.4456     2.5213     0.0259     0.0988
  168.5000     9.5655     6.9992     7.4917   -38.4350     7.9886    95.9165     2.5108     0.0165     0.1029
  169.0000    10.0168     7.0275     7.5090   -39.0122     7.9899    96.5735     2.5012     0.0070     0.1071
  169.5000    10.0168     7.0562     7.5263   -39.3169     7.9912    97.2327     2.5059    -0.0026     0.1088
  170.0000     9.3398     7.0703     7.5437   -38.1559     7.9926    97.8948     2.5148    -0.0086     0.1037
  170.5000     9.0492     7.0844     7.5612   -38.2786     7.9939    98.1935     2.5237     0.0009     0.0986
  171.0000     9.2159     7.0986     7.5787   -38.5638     7.9952    97.6058     2.5326     0.0150     0.0934
  171.5000     9.3914     7.1129     7.5964   -38.8218     7.9965    97.0456     2.5415     0.0291     0.0892
  172.0000     9.1365     7.1217     7.5891   -37.8631     7.9979    96.6009     2.5459     0.0433     0.0931
  172.5000     9.3046     7.1217     7.5816   -35.9351     7.9992    95.8335     2.5280     0.0573     0.0981
  173.0000     9.1346     7.1217     7.5742   -34.0341     8.0005    95.3424     2.5132     0.0506     0.1032
  173.5000     9.3046     7.1217     7.5667   -34.2039     8.0018    94.8930     2.5018     0.0419     0.1072
  174.0000     9.1020     7.1216     7.5593   -34.9497     8.0031    94.6322     2.5261     0.0330     0.1006
  174.5000     9.0508     7.1213     7.5519   -34.9843     8.0045    93.8577     2.5467     0.0349     0.0861
  175.0000     9.3908     7.1203     7.5445   -34.5344     8.0054    93.1062     2.5561     0.0429     0.0807
  175.5000     8.8490     7.1875     7.5367   -34.0777     8.0240    92.3625     2.5659     0.0510     0.0775
  176.0000     8.7214     7.2541     7.5270   -33.6235     8.0494    91.6315     2.5719     0.0579     0.0764
  176.5000     9.6719     7.3130     7.5920   -33.1667     8.0751    91.2721     2.5591     0.0634     0.0835
  177.0000     9.9277     7.3719     7.7031   -32.8876     8.1008    91.9655     2.5408     0.0579     0.0940
  177.5000     9.6537     7.4314     7.8151   -32.6762     8.1265    92.6193     2.5222     0.0539     0.1047
  178.0000     9.6537     7.4913     7.9381   -32.4658     8.1438    93.0419     2.5037     0.0579     0.1152
  178.5000     9.9249     7.5908     8.0768   -32.2573     8.1212    92.8217     2.4853     0.0703     0.1258
  179.0000    10.3832     7.7483     8.2179   -32.1901     8.0999    92.5937     2.4673     0.0765     0.1364
  179.5000    10.4894     7.9090     8.3615   -32.1402     8.0847    92.4042     2.4520     0.0660     0.1380
  180.0000    10.3931     8.0730     8.5077   -32.0894     8.0873    91.7499     2.4718     0.0546     0.1235
  180.5000    10.4875     8.2400     8.6568   -32.0424     8.0921    91.0983     2.5041     0.0431     0.0988
  181.0000    10.8837     8.4078     8.8034   -32.2799     8.0969    90.7435     2.5306     0.0479     0.0905
  181.5000    10.6846     8.6376     8.8350   -32.5536     8.1015    90.3170     2.5527     0.0556     0.0852
  182.0000    10.6846     8.8686     8.8717   -32.7656     8.0947    89.8900     2.5614     0.0628     0.0827
  182.5000    11.7951     9.1058     8.9089   -32.9530     8.0497    89.3819     2.5707     0.0486     0.0802
  183.0000    11.9345     9.3493     8.9464   -33.1401     8.0098    88.8868     2.5855     0.0339     0.0708
  183.5000    11.3969     9.5994     8.9805   -33.2004     7.9700    87.7529     2.6076     0.0323     0.0531
  184.0000    15.8274     9.8561     9.0102   -33.1337     7.9285    86.9189     2.6269     0.0341     0.0361
  184.5000    20.0000    10.1203     9.0400   -33.0676     7.9216    87.6431     2.5969     0.0178     0.0534
  185.0000    15.0670    10.3905     9.0698   -32.9731     7.9033    88.3221     2.5752     0.0016     0.0701
  185.5000    14.3593    10.4906     9.1000   -32.8452     7.8875    88.9998     2.5563    -0.0148     0.0845
  186.0000    12.6133    10.4334     9.1299   -32.4205     7.9011    89.6806     2.5377    -0.0174     0.0914
