~VERSION INFORMATION
 VERS.                2.0:   CWLS LOG ASCII STANDARD - VERSION 2.0
 WRAP.                 NO:   ONE LINE PER DEPTH STEP
~WELL INFORMATION
#MNEM.UNIT      DATA TYPE    INFORMATION
#----------   ------------   ------------------------------
 STRT.F            0.0000:   START DEPTH
 STOP.F          446.0000:   STOP DEPTH
 STEP.F            0.5000:   STEP LENGTH
 NULL.          -999.2500:   NO VALUE
 COMP.       F D SERV INC:   COMPANY
 WELL. NAVAL PETROLEUM RESERVE 3 SX-1 #63-5-10:   WELL
 FLD .            WILDCAT:   FIELD
 LOC .      S10 T38N R78W:   LOCATION
 CNTY.            NATRONA:   COUNTY
 STAT.            WYOMING:   STATE
 CTRY. UNITED STATES OF AMERICA:   COUNTRY
 SRVC.     Atlas Wireline:   SERVICE COMPANY
 DATE.        02-FEB-1993:   LOGDATE
 API .       490252257100:   API NUMBER
~CURVE INFORMATION
#MNEM.UNIT       API CODE    CURVE DESCRIPTION
#----------   ------------   ------------------------------
 DEPT.F                  :   
 GRR .GAPI   07 310 01 00:   GAMMA RAY
 RILD.OHMM   07 120 46 00:   INDUCTION LOG DEEP RESISTIVITY
 RILM.OHMM   07 120 44 00:   RESITIVITY LONG MEDIUM
 PORZ.DEC    45 890 12 00:   DENSITY POROSITY SANDSTONE
 ZCOR.G/C3   45 356 01 00:   DENSITY CORRECTION
 ZDEN.G/C3   45 350 01 00:   BULK DENSITY
 NPHI.DEC    42 890 03 00:   NEUTRON POROSITY SANDSTONE
 C13 .IN     45 280 13 00:   CALIPER X
~PARAMETER INFORMATION
#MNEM.UNIT          VALUE    DESCRIPTION
#----------   ------------   ------------------------------
 PD  .                 GL:   PERMANENT DATUM
 EPD .F              5182:   ELEVATION PERMANENT DATUM
 LMF .                 KB:   LOG MEASURED FROM
 DAPD.F                10:   FEET ABOVE PERMANENT DATUM
 DMF .                 KB:   DRILLING MEASURED FROM
 EKB .F              5192:   KELLING BUSHING
 EDF .F              5191:   DRILLING FLOOR
 EGL .F              5182:   GROUND LEVEL
 DATE.        02-FEB-1993:   RUN DATE
 RUN .                  1:   RUN NUMBER
 DD  .F               450:   DEPTH DRILLER
 DL  .F               450:   DEPTH LOGGER
 BLI .F               442:   BOTTOM LOG INTERVAL
 CS  .IN            8.625:   CASING SIZE
 CBD .F                84:   CASING BOTTOM DRILLER
 CBL .F                84:   CASING BOTTOM LOGGER
 BS  .IN            7.875:   BIT SIZE
 BSD .F               450:   BIT SIZE AT DEPTH
 DFT .                AIR:   DRILLING FLUID TYPE
 MRT .F                51:   MAXIMUM RECORDED TEMPERATURE
 LUN .            HL 6274:   LOGGING UNIT NUMBER
 LUL .             CASPER:   LOGGING UNIT LOCATION
 ENGI.       P. RASMUSSEN:   RECORDING ENGINEER
 WITN.          G. STRONG:   WITNESSED BY
 CLNT.            A2DTECH:   CLIENT CODE
 ORIG.           5" PRINT:   ORIGIN OF DATA
 UWI .       490252257100:   UNIQUE WELL ID
 DICO. A2D Technologies, Inc.:   DIGITIZING COMPANY
~OTHER INFORMATION
~A    DEPT      GRR      RILD       RILM       PORZ       ZCOR       ZDEN       NPHI        C13   
# ...
  324.0000   104.6976    13.7183    13.6724     0.1440    -0.0066     2.4082     0.2598     8.2458
  324.5000   104.0829    13.4330    13.3877     0.1407    -0.0052     2.4120     0.2637     8.2297
  325.0000   105.5797    13.0634    13.1091     0.1371    -0.0053     2.4194     0.2610     8.2288
  325.5000   108.2833    12.8812    12.8353     0.1322     0.0007     2.4269     0.2595     8.2280
  326.0000   112.5349    12.6139    12.6555     0.1269     0.0051     2.4329     0.2602     8.2269
  326.5000   115.4974    12.3515    12.4781     0.1252     0.0020     2.4398     0.2644     8.2261
  327.0000   116.3939    12.1792    12.2184     0.1249    -0.0042     2.4434     0.2656     8.2252
  327.5000   116.6813    12.0928    12.0464     0.1288    -0.0026     2.4411     0.2665     8.2244
  328.0000   117.2732    12.0070    12.0432     0.1339     0.0033     2.4328     0.2671     8.2233
  328.5000   116.9573    12.0972    12.2080     0.1345     0.0062     2.4290     0.2681     8.2378
  329.0000   114.8343    12.4245    12.4610     0.1349     0.0015     2.4282     0.2699     8.2367
  329.5000   111.5046    13.0391    13.1039     0.1391    -0.0074     2.4274     0.2750     8.2509
  330.0000   110.5882    13.6840    14.4031     0.1535    -0.0120     2.4184     0.2792     8.2500
  330.5000   112.0823    14.5673    15.7557     0.1778    -0.0151     2.3784     0.2771     8.2491
  331.0000   112.9787    16.1511    16.9984     0.2143    -0.0107     2.3423     0.2687     8.2482
  331.5000   110.8528    18.4187    18.8718     0.2291    -0.0032     2.3080     0.2621     8.2473
  332.0000   105.1099    20.5729    21.9498     0.2462     0.0012     2.2707     0.2528     8.2463
  332.5000    96.6492    22.6629    24.6856     0.2625    -0.0109     2.2428     0.2468     8.2454
  333.0000    92.1129    25.3121    27.0040     0.2688    -0.0080     2.2201     0.2441     8.2446
  333.5000    90.2916    27.3103    28.3379     0.2649    -0.0005     2.2079     0.2444     8.2435
  334.0000    91.7885    29.8771    29.9423     0.2540     0.0099     2.2065     0.2475     8.2428
  334.5000    94.8235    31.5728    30.7753     0.2433     0.0173     2.2306     0.2511     8.2418
  335.0000    95.6872    32.9058    31.4131     0.2397     0.0082     2.2441     0.2550     8.2410
  335.5000    95.3713    32.4452    31.4049     0.2397    -0.0008     2.2540     0.2538     8.2399
  336.0000    96.2649    31.9927    31.3964     0.2391     0.0006     2.2531     0.2490     8.2543
  336.5000    96.5551    31.7657    31.1698     0.2334     0.0144     2.2538     0.2487     8.2533
  337.0000    94.4293    31.3225    30.9466     0.2289     0.0200     2.2598     0.2509     8.2524
  337.5000    94.1162    31.3149    30.7250     0.2256     0.0214     2.2703     0.2545     8.2363
  338.0000    95.9148    31.3087    30.7168     0.2365     0.0108     2.2771     0.2539     8.2355
  338.5000    97.1100    31.0866    30.7069     0.2443     0.0017     2.2612     0.2530     8.2346
  339.0000    96.4924    30.8660    30.0676     0.2362     0.0302     2.2484     0.2552     8.2337
  339.5000    94.3694    30.4339    29.2385     0.2203     0.0346     2.2536     0.2615     8.2328
  340.0000    90.1348    30.0094    28.4323     0.2083     0.0240     2.2822     0.2669     8.2319
  340.5000    88.9168    29.3866    28.0320     0.2008     0.0119     2.3063     0.2678     8.2310
  341.0000    90.4535    28.9767    28.0247     0.2079    -0.0002     2.3176     0.2651     8.2300
  341.5000    95.2260    28.5724    28.0174     0.2288    -0.0137     2.3085     0.2612     8.2291
  342.0000    96.4240    27.5934    27.6248     0.2357    -0.0153     2.2798     0.2564     8.2283
  342.5000    93.9965    27.2085    27.4252     0.2387    -0.0004     2.2617     0.2525     8.2123
  343.0000    92.1752    27.0154    27.0409     0.2393     0.0101     2.2564     0.2519     8.2113
  343.5000    94.2725    26.6367    26.4779     0.2324     0.0175     2.2579     0.2510     8.1954
  344.0000    96.3727    26.0845    25.9267     0.2219     0.0172     2.2722     0.2505     8.1945
  344.5000    98.1713    25.3669    25.3693     0.2069     0.0083     2.2948     0.2508     8.1786
  345.0000    99.0649    24.8404    24.8569     0.1991    -0.0008     2.3130     0.2532     8.1625
  345.5000    99.3551    24.4939    24.1715     0.1979    -0.0023     2.3218     0.2565     8.1617
  346.0000    99.3409    23.9844    23.5050     0.1979     0.0021     2.3233     0.2559     8.1608
  346.5000    98.7261    23.8142    23.4988     0.2016     0.0080     2.3195     0.2532     8.1599
  347.0000    98.7147    23.6452    23.4911     0.2064     0.0140     2.3124     0.2496     8.1589
  347.5000    99.9071    23.4774    23.4850     0.2070     0.0184     2.3066     0.2455     8.1430
  348.0000   101.1052    23.4727    23.4788     0.1995     0.0228     2.3239     0.2403     8.1422
  348.5000   101.9988    23.4671    23.4727     0.1788     0.0243     2.3593     0.2322     8.1411
  349.0000   100.7779    23.4625    23.6296     0.1553     0.0227     2.4151     0.2210     8.1402
  349.5000   100.1327    23.7850    23.9529     0.1284     0.0119     2.4601     0.2073     8.1394
  350.0000    98.3397    24.1120    24.2790     0.1117    -0.0015     2.4639     0.2124     8.1445
  350.5000    95.9121    24.2707    24.6100     0.1305    -0.0061     2.4292     0.2163     8.1677
  351.0000    91.8975    23.9251    24.2615     0.1728     0.0149     2.3709     0.2308     8.1514
  351.5000    88.9417    23.9156    24.0861     0.1990     0.0261     2.3317     0.2381     8.1504
  352.0000    91.6423    23.9058    23.7470     0.2083     0.0246     2.3061     0.2456     8.1494
  352.5000    94.3429    23.8943    23.5753     0.2140     0.0080     2.2970     0.2493     8.1482
  353.0000    95.2338    23.8849    23.5656     0.2195    -0.0011     2.2879     0.2514     8.1321
  353.5000    96.2474    23.8754    23.5578     0.2213     0.0139     2.2849     0.2523     8.1311
  354.0000   100.6311    23.7013    23.3875     0.2105     0.0228     2.2976     0.2529     8.1151
  354.5000   105.7450    23.3657    23.3798     0.2000     0.0107     2.3171     0.2541     8.1291
  355.0000   112.0655    23.0332    23.0506     0.1949     0.0077     2.3284     0.2559     8.1279
  355.5000   113.8612    22.7074    22.7242     0.1943     0.0076     2.3306     0.2560     8.1269
  356.0000   107.5084    22.5418    22.4042     0.1982     0.0075     2.3222     0.2557     8.1259
  356.5000   103.2708    21.9173    22.0888     0.1966     0.0075     2.3230     0.2560     8.1247
  357.0000    99.9383    21.7371    21.6275     0.1937     0.0074     2.3289     0.2590     8.1237
  357.5000    97.8123    21.4475    21.1758     0.1916     0.0074     2.3334     0.2620     8.1227
  358.0000    96.2896    21.1442    20.8563     0.1901     0.0043     2.3371     0.2639     8.1217
  358.5000    97.7801    20.8451    20.4400     0.1895    -0.0003     2.3386     0.2642     8.1204
  359.0000   100.7823    20.4084    20.0131     0.1919    -0.0079     2.3355     0.2624     8.1347
  359.5000   104.6896    19.9622    19.7313     0.1926    -0.0124     2.3310     0.2612     8.1336
  360.0000   105.8824    19.1582    19.3192     0.1817    -0.0110     2.3369     0.2645     8.1325
  360.5000   104.9161    18.8872    18.7850     0.1697    -0.0035     2.3580     0.2670     8.1313
  361.0000   103.4364    18.7494    18.2645     0.1667     0.0039     2.3715     0.2682     8.1303
  361.5000   103.7237    18.4842    17.7596     0.1682     0.0054     2.3759     0.2682     8.1293
  362.0000   104.3163    18.3323    17.6313     0.1734     0.0053     2.3669     0.2685     8.1283
  362.5000   104.2983    18.0881    17.6254     0.1785     0.0007     2.3578     0.2695     8.1271
  363.0000   106.1699    17.8322    17.6195     0.1827    -0.0023     2.3517     0.2686     8.1261
  363.5000   108.1877    17.5800    17.4908     0.1812    -0.0039     2.3479     0.2668     8.1251
  364.0000   108.7802    17.4518    17.3644     0.1746    -0.0009     2.3524     0.2644     8.1241
