~VERSION INFORMATION
 VERS.                2.0:   CWLS LOG ASCII STANDARD - VERSION 2.0
 WRAP.                 NO:   ONE LINE PER DEPTH STEP
~WELL INFORMATION
#MNEM.UNIT      DATA TYPE    INFORMATION
#----------   ------------   ------------------------------
 STRT.F           20.0000:   START DEPTH
 STOP.F          698.0000:   STOP DEPTH
 STEP.F            0.5000:   STEP LENGTH
 NULL.          -999.2500:   NO VALUE
 COMP. FENIX & SCISSON INC:   COMPANY
 WELL.    52 SX 34 #52-34:   WELL
 FLD .             TEAPOT:   FIELD
 LOC .      S34 T39N R78W:   LOCATION
 CNTY.            NATRONA:   COUNTY
 STAT.            WYOMING:   STATE
 CTRY. UNITED STATES OF AMERICA:   COUNTRY
 SRVC.            Unknown:   SERVICE COMPANY
 DATE.        26-JAN-1979:   LOGDATE
 API .       490251077100:   API NUMBER
~CURVE INFORMATION
#MNEM.UNIT       API CODE    CURVE DESCRIPTION
#----------   ------------   ------------------------------
 DEPT.F                  :   
 SPR .MV     05 010 01 00:   SPONTANEOUS POTENTIAL FROM RES.
 CALD.IN     45 280 60 00:   CALIPER
 GRD .GAPI   45 310 01 00:   GAMMA RAY FROM DENSITY LOG
 CORR.G/C3   45 356 01 00:   DENSITY CORRECTION
 RHOB.G/C3   45 350 01 00:   BULK DENSITY
 ILD .OHMM   05 120 46 00:   INDUCTION LOG DEEP
 SN  .OHMM   05 040 16 00:   SHORT NORMAL 16"
 DPHI.DEC    45 890 12 00:   DENSITY POROSITY SANDSTONE
~PARAMETER INFORMATION
#MNEM.UNIT          VALUE    DESCRIPTION
#----------   ------------   ------------------------------
 PD  .                 GL:   PERMANENT DATUM
 EPD .F              5072:   ELEVATION PERMANENT DATUM
 LMF .                 KB:   LOG MEASURED FROM
 DAPD.F                 4:   FEET ABOVE PERMANENT DATUM
 DMF .                 KB:   DRILLING MEASURED FROM
 EKB .F              5076:   KELLING BUSHING
 EGL .F              5072:   GROUND LEVEL
 DATE.            1-26-79:   RUN DATE
 RUN .                  1:   RUN NUMBER
 DD  .F               688:   DEPTH DRILLER
 DL  .F               698:   DEPTH LOGGER
 BLI .F               691:   BOTTOM LOG INTERVAL
 TLI .F                30:   TOP LOG INTERVAL
 CS  .IN            8.625:   CASING SIZE
 CBD .F                40:   CASING BOTTOM DRILLER
 CBL .F                20:   CASING BOTTOM LOGGER
 BS  .IN            7.875:   BIT SIZE
 BSD .F               688:   BIT SIZE AT DEPTH
 DFT .                KCL:   DRILLING FLUID TYPE
 DFD .                8.9:   DRILLING FLUID DENSITY
 DFV .                 39:   DRILLING FLUID VISCOSITY
 DFPH.                 10:   DRILLING FLUID PH
 DFL .                 10:   DRILLING FLUID LOSS
 MSS .           FLOWLINE:   MUD SAMPLE SOURCE
 RMS .OHMM             .3:   RESISTIVITY MUD SAMPLE
 MST .F                60:   MUD SAMPLE TEMPERATURE
 RMF .OHMM            .22:   RESISTIVITY MUD FILTRATE SAMPLE
 MFST.F                66:   MUD FILTRATE SAMPLE TEMPERATURE
 MFSS.           MEASURED:   MUD FILTRATE SAMPLE SOURCE
 MCSS.           MEASURED:   MUD CAKE SAMPLE SOURCE
 RMB .OHMM            .25:   RESISTIVITY MUD AT BHT
 BHT .F                70:   BOTTOM HOLE TEMPERATURE
 TCS .HRS               7:   TIME CURCULATED STOPPED
 MRT .F                70:   MAXIMUM RECORDED TEMPERATURE
 LUN .               3006:   LOGGING UNIT NUMBER
 LUL .             CASPER:   LOGGING UNIT LOCATION
 ENGI.            ROLLINS:   RECORDING ENGINEER
 WITN.              AMEND:   WITNESSED BY
 CLNT.            A2DTECH:   CLIENT CODE
 ORIG.       2", 5" PRINT:   ORIGIN OF DATA
 UWI .       490251077100:   UNIQUE WELL ID
 DICO. A2D Technologies, Inc.:   DIGITIZING COMPANY
~OTHER INFORMATION
~A   DEPT      SPR         CALD       GRD      CORR       RHOB        ILD         SN       DPHI   
# ...
  627.5000   -32.6888     8.2843    74.9642     0.0767     2.3805    17.0551    12.9097     0.1709
  628.0000   -32.8267     8.2708    81.2599     0.0442     2.3893    17.0879    12.6981     0.1664
  628.5000   -33.2061     8.1793    81.8829     0.0235     2.3979    16.6459    12.5703     0.1663
  629.0000   -33.7369     8.0886    80.1168     0.0227     2.3938    16.3130    12.5295     0.1709
  629.5000   -34.3821     7.9974    72.2199     0.0219     2.3844    15.9868    12.4889     0.1820
  630.0000   -35.2348     7.9064    70.9029     0.0224     2.3710    15.8682    12.4253     0.1885
  630.5000   -35.5868     7.8156    72.8892     0.0249     2.3576    15.8682    12.3485     0.1869
  631.0000   -36.1634     7.7522    75.7275     0.0274     2.3545    16.0162    12.2722     0.1842
  631.5000   -36.4444     7.7288    76.2277     0.0271     2.3647    15.9840    12.1964     0.1803
  632.0000   -36.8820     7.7049    76.8063     0.0267     2.3729    15.9283    12.1064     0.1754
  632.5000   -37.0471     7.6501    77.4111     0.0263     2.3814    15.8691    11.9357     0.1706
  633.0000   -37.0558     7.5852    77.8980     0.0259     2.3872    15.6475    11.7673     0.1669
  633.5000   -37.1134     7.5184    77.1851     0.0255     2.3930    15.1977    11.6014     0.1669
  634.0000   -37.3857     7.4811    70.4501     0.0251     2.3917    14.6752    11.4378     0.1689
  634.5000   -37.8687     7.4526    71.4157     0.0247     2.3894    14.1706    11.2762     0.1712
  635.0000   -38.3802     7.4250    73.6242     0.0243     2.3872    13.6838    11.1171     0.1729
  635.5000   -38.8984     7.4342    75.8063     0.0239     2.3850    13.2136    11.0485     0.1697
  636.0000   -39.4193     7.5124    76.1915     0.0234     2.3907    12.7597    11.0234     0.1623
  636.5000   -39.5474     7.6155    76.2592     0.0276     2.4065    12.3199    10.9980     0.1545
  637.0000   -40.2190     7.6033    76.3254     0.0324     2.4222    11.7984    10.9728     0.1467
  637.5000   -40.5854     7.5864    76.3886     0.0354     2.4343    11.8818    10.9475     0.1405
  638.0000   -41.0206     7.6783    74.4826     0.0354     2.4408    12.0324    10.9224     0.1368
  638.5000   -41.0277     7.8389    72.5578     0.0355     2.4473    12.1850    10.8973     0.1332
  639.0000   -41.0253     8.0012    73.0237     0.0355     2.4538    12.3387    10.8722     0.1295
  639.5000   -41.0335     8.0723    75.9879     0.0389     2.4604    12.4944    10.8472     0.1275
  640.0000   -41.2347     8.0868    79.3951     0.0489     2.4616    12.6520    10.8223     0.1279
  640.5000   -41.4382     8.1845    77.7093     0.0532     2.4614    12.7422    10.7974     0.1282
  641.0000   -41.6407     8.2705    74.6646     0.0387     2.4611    12.7962    10.7726     0.1286
  641.5000   -41.8431     8.2704    77.1993     0.0272     2.4617    12.8504    10.7478     0.1259
  642.0000   -42.0449     8.2449    80.5362     0.0314     2.4687    12.9049    10.7232     0.1227
  642.5000   -42.2187     8.1441    80.4286     0.0356     2.4736    12.9596    10.6986     0.1246
  643.0000   -42.2329     8.0461    80.3618     0.0349     2.4716    13.0145    10.6739     0.1268
  643.5000   -42.2472     8.0078    80.5030     0.0328     2.4638    13.0696    10.6581     0.1290
  644.0000   -42.2621     7.8960    82.3787     0.0307     2.4561    13.1250    10.6728     0.1312
  644.5000   -42.2769     7.7868    84.9148     0.0295     2.4543    13.1808    10.6840     0.1346
  645.0000   -42.2917     7.6793    86.2337     0.0295     2.4498    13.0703    10.6954     0.1389
  645.5000   -42.3065     7.5924    83.5991     0.0295     2.4428    12.9419    10.7067     0.1432
  646.0000   -42.3213     7.5126    77.5675     0.0290     2.4332    12.8146    10.7180     0.1492
  646.5000   -42.3361     7.4594    75.6620     0.0265     2.4236    12.6884    10.7293     0.1548
  647.0000   -42.3509     7.4777    77.1148     0.0251     2.4139    12.5446    10.7408     0.1543
  647.5000   -42.3657     7.4941    78.4440     0.0244     2.4126    12.3326    10.7526     0.1519
  648.0000   -42.3805     7.4956    80.9728     0.0236     2.4203    12.1242    10.7927     0.1494
  648.5000   -42.3964     7.4416    84.1285     0.0242     2.4236    11.9193    10.8879     0.1443
  649.0000   -42.4110     7.5837    86.3909     0.0251     2.4338    11.7179    10.9840     0.1376
  649.5000   -42.5624     7.7302    88.0331     0.0285     2.4444    11.5836    11.0809     0.1346
  650.0000   -42.8340     7.7400    86.7308     0.0319     2.4517    11.6114    11.1788     0.1353
  650.5000   -43.2986     7.8953    85.9285     0.0329     2.4507    11.6325    11.2774     0.1334
  651.0000   -43.7429     7.9715    85.9792     0.0432     2.4536    11.6536    11.3711     0.1274
  651.5000   -43.8077     8.0351    84.6521     0.0548     2.4685    11.6748    11.3711     0.1187
  652.0000   -43.8083     8.0982    83.7703     0.0477     2.4830    11.6946    11.3373     0.1176
  652.5000   -43.8081     8.1319    86.1770     0.0415     2.4855    11.7098    11.2834     0.1166
  653.0000   -43.8109     8.1321    85.3039     0.0419     2.4863    11.7249    11.2297     0.1156
  653.5000   -43.8098     8.1915    83.7350     0.0301     2.4867    11.7401    11.1764     0.1191
  654.0000   -44.2290     8.2606    80.6071     0.0178     2.4781    11.7553    11.1626     0.1207
  654.5000   -44.6575     8.2563    82.3362     0.0187     2.4766    11.7704    11.0597     0.1198
  655.0000   -44.7672     8.2397    84.5367     0.0203     2.4802    11.7859    11.0380     0.1212
  655.5000   -44.8302     8.2227    86.5123     0.0215     2.4735    11.7988    11.0075     0.1309
  656.0000   -44.8756     8.2058    88.0296     0.0215     2.4553    11.7667    10.9757     0.1321
  656.5000   -44.9196     8.1891    91.1162     0.0215     2.4519    11.7355    10.9447     0.1307
  657.0000   -44.9633     8.1704    88.8389     0.0215     2.4580    11.7043    10.9137     0.1295
  657.5000   -45.0013     8.0988    84.9935     0.0215     2.4619    11.6733    10.8827     0.1295
  658.0000   -45.0000     8.0427    82.3876     0.0215     2.4610    11.6423    10.8517     0.1295
  658.5000   -44.9999     8.0161    82.7446     0.0215     2.4596    11.6114    10.8189     0.1291
  659.0000   -45.0000     7.9749    85.0506     0.0215     2.4583    11.5557    10.7860     0.1267
  659.5000   -45.0000     7.8664    85.3975     0.0215     2.4629    11.2969    10.7561     0.1240
  660.0000   -45.0000     7.7927    87.0326     0.0215     2.4734    11.1494    10.6396     0.1224
  660.5000   -45.0000     7.7962    86.9387     0.0215     2.4770    11.0180    10.5334     0.1218
  661.0000   -45.0000     7.9288    81.8547     0.0218     2.4779    10.8881    10.4281     0.1215
  661.5000   -45.0000     7.7959    79.3250     0.0242     2.4758    10.7598    10.3238     0.1260
  662.0000   -44.9999     7.7030    82.3764     0.0267     2.4648    10.6330    10.2204     0.1307
  662.5000   -44.9911     7.7797    82.3917     0.0292     2.4567    10.5077    10.0940     0.1318
  663.0000   -44.9652     7.7820    81.8079     0.0290     2.4559    10.3842     9.9507     0.1280
  663.5000   -44.9397     7.6789    83.0066     0.0285     2.4644    10.2622     9.8095     0.1227
  664.0000   -44.9141     7.6775    89.9459     0.0279     2.4754    10.1229     9.6703     0.1215
  664.5000   -44.8885     7.6776    89.9229     0.0274     2.4757     9.9410     9.5330     0.1227
  665.0000   -44.8630     7.6768    90.3679     0.0269     2.4731     9.7622     9.3977     0.1239
  665.5000   -44.8375     7.6711    95.4601     0.0263     2.4704     9.5869     9.2643     0.1294
  666.0000   -44.8117     7.7336    95.3570     0.0258     2.4627     9.4149     9.1328     0.1343
  666.5000   -44.8015     7.7861    94.8157     0.0250     2.4481     9.2459     8.9439     0.1395
  667.0000   -44.8014     7.7791    94.6270     0.0239     2.4317     8.9943     8.7437     0.1554
  667.5000   -44.8013     8.0504    93.9941     0.0240     2.4070     8.3156     8.5345     0.1708
