~VERSION INFORMATION
 VERS.                2.0:   CWLS LOG ASCII STANDARD - VERSION 2.0
 WRAP.                 NO:   ONE LINE PER DEPTH STEP
~WELL INFORMATION
#MNEM.UNIT      DATA TYPE    INFORMATION
#----------   ------------   ------------------------------
 STRT.F           29.0000:   START DEPTH
 STOP.F          507.0000:   STOP DEPTH
 STEP.F            0.5000:   STEP LENGTH
 NULL.          -999.2500:   NO VALUE
 COMP.    FENIX & SCISSON:   COMPANY
 WELL.       NPR #64-SX-3:   WELL
 FLD .            WILDCAT:   FIELD
 LOC .       S3 T38N R78W:   LOCATION
 CNTY.            NATRONA:   COUNTY
 STAT.            WYOMING:   STATE
 CTRY. UNITED STATES OF AMERICA:   COUNTRY
 SRVC.           BIRDWELL:   SERVICE COMPANY
 DATE.        28-MAR-1977:   LOGDATE
 API .       490251032200:   API NUMBER
~CURVE INFORMATION
#MNEM.UNIT       API CODE    CURVE DESCRIPTION
#----------   ------------   ------------------------------
 DEPT.F                  :   
 SPR .MV     05 010 01 00:   SPONTANEOUS POTENTIAL FROM RES.
 ILD .OHMM   05 120 46 00:   INDUCTION LOG DEEP
 SN  .OHMM   05 040 16 00:   SHORT NORMAL 16"
 GRD .GAPI   45 310 01 00:   GAMMA RAY FROM DENSITY LOG
 CALD.IN     45 280 60 00:   CALIPER FROM DENSITY LOG
 CORR.G/C3   45 356 01 00:   DENSITY CORRECTION
 RHOB.G/C3   45 350 01 00:   BULK DENSITY
 DPHI.DEC    45 890 12 00:   DENSITY POROSITY SANDSTONE
~PARAMETER INFORMATION
#MNEM.UNIT          VALUE    DESCRIPTION
#----------   ------------   ------------------------------
 PD  .                 GL:   PERMANENT DATUM
 EPD .F              5145:   ELEVATION PERMANENT DATUM
 LMF .                 GL:   LOG MEASURED FROM
 DMF .                 GL:   DRILLING MEASURED FROM
 EKB .F              5150:   KELLING BUSHING
 EDF .F              5149:   DRILLING FLOOR
 EGL .F              5145:   GROUND LEVEL
 DATE.        28-MAR-1977:   RUN DATE
 RUN .                  1:   RUN NUMBER
 DD  .F               507:   DEPTH DRILLER
 DL  .F               507:   DEPTH LOGGER
 BLI .F               501:   BOTTOM LOG INTERVAL
 TLI .F                40:   TOP LOG INTERVAL
 CS  .IN            8.625:   CASING SIZE
 CBD .F                40:   CASING BOTTOM DRILLER
 CBL .F                43:   CASING BOTTOM LOGGER
 BS  .IN            7.875:   BIT SIZE
 BSD .F               507:   BIT SIZE AT DEPTH
 DFT .                KCL:   DRILLING FLUID TYPE
 DFD .                8.5:   DRILLING FLUID DENSITY
 DFV .                 31:   DRILLING FLUID VISCOSITY
 DFPH.                 10:   DRILLING FLUID PH
 DFL .                 78:   DRILLING FLUID LOSS
 MSS .                PIT:   MUD SAMPLE SOURCE
 RMS .OHMM            .54:   RESISTIVITY MUD SAMPLE
 MST .F                60:   MUD SAMPLE TEMPERATURE
 RMF .OHMM            .46:   RESISTIVITY MUD FILTRATE SAMPLE
 MFST.F                64:   MUD FILTRATE SAMPLE TEMPERATURE
 RMC .OHMM            .52:   RESISTIVITY MUD CAKE
 MCST.F                64:   MUD CAKE SAMPLE TEMPERATURE
 MFSS.               MEAS:   MUD FILTRATE SAMPLE SOURCE
 MCSS.               MEAS:   MUD CAKE SAMPLE SOURCE
 RMB .OHMM            .51:   RESISTIVITY MUD AT BHT
 BHT .F                63:   BOTTOM HOLE TEMPERATURE
 TCS .HRS            0300:   TIME CURCULATED STOPPED
 MRT .F                63:   MAXIMUM RECORDED TEMPERATURE
 LUN .               3026:   LOGGING UNIT NUMBER
 LUL .             CASPER:   LOGGING UNIT LOCATION
 ENGI.             RAWSON:   RECORDING ENGINEER
 WITN.         STUERINCER:   WITNESSED BY
 CLNT.            A2DTECH:   CLIENT CODE
 ORIG.           5" PRINT:   ORIGIN OF DATA
 UWI .       490251032200:   UNIQUE WELL ID
 DICO. A2D Technologies, Inc.:   DIGITIZING COMPANY
~OTHER INFORMATION
~A   DEPT      SPR        ILD         SN        GRD       CALD       CORR       RHOB       DPHI   
# ...
  434.0000   -42.6205    12.3080    13.5420    61.9818     7.4663    -0.1815     2.4365     0.1235
  434.5000   -42.7711    12.0534    13.5410    62.2868     7.4678    -0.1636     2.4403     0.1268
  435.0000   -42.7711    11.8063    13.4464    63.1894     7.4693    -0.1321     2.4382     0.1343
  435.5000   -42.7711    11.6340    13.4455    63.9424     7.4708    -0.0946     2.4367     0.1330
  436.0000   -42.8951    11.5632    13.4446    63.6474     7.4726    -0.0662     2.4291     0.1306
  436.5000   -43.0314    11.5632    13.3507    63.7267     7.4740    -0.0603     2.4278     0.1275
  437.0000   -43.0723    11.5632    13.3498    63.4317     7.4905    -0.0589     2.4347     0.1233
  437.5000   -43.0723    11.5632    13.3489    62.5380     7.4766    -0.0606     2.4408     0.1182
  438.0000   -43.6747    11.5632    13.4410    62.3168     7.4631    -0.0668     2.4439     0.1124
  438.5000   -43.9844    11.6437    13.4400    63.2954     7.4350    -0.0685     2.4500     0.1100
  439.0000   -44.2771    11.7247    13.3461    63.5992     7.4211    -0.0656     2.4606     0.1115
  439.5000   -44.7289    11.7247    13.3452    63.5277     7.4080    -0.0688     2.4637     0.1135
  440.0000   -45.0301    11.7247    13.3443    64.5908     7.4095    -0.0946     2.4615     0.1165
  440.5000   -45.4819    11.7247    13.3432    65.8168     7.4110    -0.1265     2.4586     0.1186
  441.0000   -45.6325    11.6437    13.3423    66.8593     7.4274    -0.1372     2.4557     0.1150
  441.5000   -45.4819    11.5632    13.2491    66.3916     7.4589    -0.1644     2.4542     0.1125
  442.0000   -44.8795    11.5632    13.2482    65.7972     7.5204    -0.1796     2.4603     0.1170
  442.5000   -45.6325    11.4833    13.2473    65.2029     7.5818    -0.0969     2.4687     0.1245
  443.0000   -46.3855    11.3251    13.1547    63.8593     7.5983    -0.0188     2.4680     0.1366
  443.5000   -46.6867    11.1691    13.0629    65.2118     7.6747    -0.0008     2.4568     0.1378
  444.0000   -46.8373    11.0132    12.8819    64.4677     7.6762    -0.0026     2.4237     0.1311
  444.5000   -46.8373    10.9391    12.7919    63.1986     7.6777    -0.0118     2.4246     0.1250
  445.0000   -46.6867    10.9391    12.7026    63.4283     7.6642    -0.0164     2.4308     0.1214
  445.5000   -46.5361    10.8635    12.6138    62.7591     7.6657    -0.0135     2.4362     0.1199
  446.0000   -46.5361    10.7139    12.5257    62.4521     7.6672    -0.0092     2.4421     0.1201
  446.5000   -46.8639    10.6398    12.4383    63.2171     7.6687    -0.0064     2.4422     0.1225
  447.0000   -47.1386    10.5663    12.3514    63.1466     7.6551     0.0025     2.4415     0.1297
  447.5000   -47.1386    10.4207    12.1803    64.1317     7.6416     0.0114     2.4393     0.1342
  448.0000   -47.1386    10.3487    12.0115    64.7157     7.6582     0.0157     2.4288     0.1311
  448.5000   -47.2892    10.1356    11.9150    65.5554     7.6750     0.0156     2.4251     0.1284
  449.0000   -47.4398     9.9960    11.6809    64.8054     7.6764     0.0154     2.4335     0.1263
  449.5000   -47.8916     9.8583    11.5993    64.5135     7.6929     0.0092     2.4351     0.1254
  450.0000   -48.6075     9.7494    11.4157    64.7455     7.6899     0.0015     2.4366     0.1250
  450.5000   -49.6988     9.5020    11.1344    65.2769     7.6655    -0.0032     2.4398     0.1238
  451.0000   -50.0000     9.2592    10.8947    64.7545     7.6511    -0.0079     2.4398     0.1216
  451.5000   -50.1506     9.1301    10.7438    63.6451     7.5033    -0.0125     2.4429     0.1198
  452.0000   -50.3233     9.0032    10.5948    65.4811     7.6554    -0.0157     2.4460     0.1201
  452.5000   -51.0542     8.8166    10.3758    67.5523     7.6709    -0.0127     2.4484     0.1241
  453.0000   -51.8072     8.4562    10.1613    66.5867     7.6723    -0.0053     2.4492     0.1306
  453.5000   -52.1084     7.8097     9.8825    67.3708     7.6736     0.0005     2.4463     0.1339
  454.0000   -52.2590     6.8182     9.6068    68.5879     7.6750     0.0002     2.4275     0.1347
  454.5000   -52.2590     6.4494     9.0914    69.8368     7.6763    -0.0030     2.4246     0.1344
  455.0000   -52.2590     6.2721     8.3643    68.6726     7.6927    -0.0120     2.4254     0.1359
  455.5000   -52.1084     6.2279     7.6421    67.8964     7.6940    -0.0107     2.4247     0.1409
  456.0000   -52.2590     6.2271     7.3810    67.5808     7.6803    -0.0112     2.4211     0.1491
  456.5000   -52.2590     6.3130     7.3805    67.3874     7.6817    -0.0234     2.4128     0.1262
  457.0000   -52.2590     6.4004     7.4314    67.0818     7.6680    -0.0352     2.4129     0.1066
  457.5000   -52.2590     6.5795     7.6400    65.8323     7.6697    -0.0289     2.4477     0.1061
  458.0000   -52.2590     7.0511     8.2456    66.2889     7.6710    -0.0172     2.4719     0.1080
  458.5000   -52.2590     7.8773     9.4106    67.0449     7.6724    -0.0068     2.4758     0.1082
  459.0000   -52.2590     8.5007    10.1528    67.8008     7.6584     0.0039     2.4706     0.1101
  459.5000   -52.2590     8.9845    10.5106    68.7065     7.6447     0.0143     2.4654     0.1115
  460.0000   -52.2590     9.3650    10.8058    68.4894     7.6311     0.0226     2.4617     0.1117
  460.5000   -52.2590     9.6276    11.1093    67.9729     7.6178     0.0209     2.4618     0.1111
  461.0000   -52.2590     9.6929    11.2638    67.5313     7.6191     0.0117     2.4626     0.1098
  461.5000   -52.2590     9.7591    11.3415    66.6386     7.6205     0.0040     2.4627     0.1089
  462.0000   -52.2590     9.8257    11.5792    67.4713     7.6218    -0.0006     2.4681     0.1070
  462.5000   -52.4096     9.9616    11.8221    67.4021     7.6232    -0.0023     2.4712     0.1043
  463.0000   -52.5602    10.0991    11.9865    66.5880     7.6245    -0.0024     2.4727     0.1040
  463.5000   -52.7108    10.3097    12.2379    67.1176     7.6105    -0.0056     2.4743     0.1033
  464.0000   -52.8614    10.4524    12.4944    65.5551     7.6122    -0.0148     2.4744     0.0976
  464.5000   -52.8614    10.5973    12.6682    65.4877     7.6135    -0.0255     2.4760     0.0942
  465.0000   -52.8614    10.8183    12.8447    65.1957     7.6149    -0.0271     2.4821     0.0948
  465.5000   -52.8614    10.9736    13.0231    64.9768     7.6009    -0.0198     2.4860     0.0984
  466.0000   -53.0120    11.1971    13.2960    66.1837     7.6026    -0.0079     2.4861     0.1019
  466.5000   -53.0120    11.3516    13.3880    66.8630     7.6039    -0.0035     2.4801     0.1058
  467.0000   -53.0120    11.5087    13.4803    63.5789     7.6203    -0.0036     2.4704     0.1106
  467.5000   -52.7108    11.7491    13.5731    65.3827     7.6063    -0.0022     2.4644     0.1130
  468.0000   -52.4096    11.8381    13.6668    64.9411     7.5926    -0.0100     2.4630     0.1142
  468.5000   -52.2590    12.2447    13.6656    64.2001     7.5790    -0.0252     2.4623     0.1148
  469.0000   -52.2590    12.4145    13.7601    65.0309     7.5653    -0.0344     2.4609     0.1129
  469.5000   -52.4096    12.5862    13.8551    64.3647     7.5670    -0.0556     2.4618     0.1047
  470.0000   -52.5602    12.6718    13.9504    63.7715     7.5684    -0.1024     2.4694     0.0953
  470.5000   -52.4096    12.7582    13.8528    65.5772     7.5697    -0.1417     2.4747     0.0911
  471.0000   -52.2590    12.6680    13.8519    66.1086     7.5711    -0.1600     2.4884     0.0899
  471.5000   -51.9578    12.5788    13.7551    66.3406     7.5724    -0.1616     2.4960     0.0913
  472.0000   -52.1084    12.4902    13.7542    66.9469     7.6037    -0.1527     2.4976     0.0958
  472.5000   -52.4096    12.4022    13.7533    67.2537     7.6351    -0.1288     2.4947     0.1009
  473.0000   -52.8614    12.4002    13.7522    67.7103     7.6514    -0.0792     2.4887     0.1048
  473.5000   -53.1627    12.3128    13.7513    68.7657     7.6677    -0.0372     2.4805     0.1066
  474.0000   -53.3133    12.2261    13.7504    68.3240     7.6691    -0.0253     2.4708     0.0957
