~VERSION INFORMATION
 VERS.                2.0:   CWLS LOG ASCII STANDARD - VERSION 2.0
 WRAP.                 NO:   ONE LINE PER DEPTH STEP
~WELL INFORMATION
#MNEM.UNIT      DATA TYPE    INFORMATION
#----------   ------------   ------------------------------
 STRT.F            2.0000:   START DEPTH
 STOP.F          500.0000:   STOP DEPTH
 STEP.F            0.1000:   STEP LENGTH
 NULL.          -999.2500:   NO VALUE
 COMP.   FLUOR DANIEL INC:   COMPANY
 WELL.   73-5 X 10 #73-10:   WELL
 FLD .             TEAPOT:   FIELD
 LOC .      S10 T38N R78W:   LOCATION
 CNTY.            NATRONA:   COUNTY
 STAT.            WYOMING:   STATE
 CTRY. UNITED STATES OF AMERICA:   COUNTRY
 SRVC.      Western Atlas:   SERVICE COMPANY
 DATE.        07-JUN-1995:   LOGDATE
 API .       490252271400:   API NUMBER
~CURVE INFORMATION
#MNEM.UNIT       API CODE    CURVE DESCRIPTION
#----------   ------------   ------------------------------
 DEPT.F                  :   
 GRR .GAPI   07 310 01 00:   GAMMA RAY
 RILD.OHMM   07 120 46 00:   INDUCTION LOG DEEP RESISTIVITY
 RILM.OHMM   07 120 44 00:   RESITIVITY LONG MEDIUM
~PARAMETER INFORMATION
#MNEM.UNIT          VALUE    DESCRIPTION
#----------   ------------   ------------------------------
 PD  .                 GL:   PERMANENT DATUM
 EPD .F              5175:   ELEVATION PERMANENT DATUM
 LMF .                 KB:   LOG MEASURED FROM
 DAPD.F                10:   FEET ABOVE PERMANENT DATUM
 DMF .                 KB:   DRILLING MEASURED FROM
 EKB .F              5185:   KELLING BUSHING
 EDF .F              5184:   DRILLING FLOOR
 EGL .F              5175:   GROUND LEVEL
 DATE.        07-JUN-1995:   RUN DATE
 RUN .                  1:   RUN NUMBER
 DD  .F               511:   DEPTH DRILLER
 DL  .F               508:   DEPTH LOGGER
 BLI .F               500:   BOTTOM LOG INTERVAL
 TLI .F                96:   TOP LOG INTERVAL
 CS  .IN            9.625:   CASING SIZE
 CBD .F                96:   CASING BOTTOM DRILLER
 CBL .F                96:   CASING BOTTOM LOGGER
 BS  .IN             8.75:   BIT SIZE
 BSD .F               511:   BIT SIZE AT DEPTH
 DFT .                AIR:   DRILLING FLUID TYPE
 MRT .F               116:   MAXIMUM RECORDED TEMPERATURE
 LUN .            HL 6530:   LOGGING UNIT NUMBER
 LUL .             CASPER:   LOGGING UNIT LOCATION
 ENGI.        VERN RAUTIO:   RECORDING ENGINEER
 WITN.        GARY STRONG:   WITNESSED BY
 CLNT.            A2DTECH:   CLIENT CODE
 ORIG.           5" PRINT:   ORIGIN OF DATA
 UWI .       490252271400:   UNIQUE WELL ID
 DICO. A2D Technologies, Inc.:   DIGITIZING COMPANY
~OTHER INFORMATION
~A    DEPT       GRR     RILD       RILM   
# ...
  475.2000   107.8337     8.8212     8.7187
  475.3000   107.8349     8.7999     8.7195
  475.4000   107.9683     8.7836     8.6730
  475.5000   108.2159     8.7405     8.6245
  475.6000   108.4410     8.7414     8.6014
  475.7000   108.4423     8.6974     8.5875
  475.8000   108.6574     8.6824     8.5432
  475.9000   108.9050     8.6603     8.5439
  476.0000   109.1526     8.6120     8.5028
  476.1000   109.4002     8.5650     8.4861
  476.2000   109.6530     8.5659     8.4867
  476.3000   109.6542     8.5274     8.4774
  476.4000   109.8418     8.4798     8.4293
  476.5000   109.9578     8.4499     8.3828
  476.6000   110.0357     8.4437     8.3724
  476.7000   110.2615     8.3930     8.3469
  476.8000   110.2628     8.3496     8.3158
  476.9000   110.2639     8.3364     8.3110
  477.0000   110.2651     8.3141     8.2596
  477.1000   110.2663     8.2676     8.2602
  477.2000   110.2185     8.2237     8.2291
  477.3000   109.9675     8.2245     8.2043
  477.4000   109.9687     8.1864     8.1938
  477.5000   109.7841     8.1407     8.1489
  477.6000   109.5390     8.1132     8.1495
  477.7000   109.2937     8.1060     8.1500
  477.8000   109.0486     8.0585     8.1506
  477.9000   108.7700     8.0592     8.1343
  478.0000   108.5582     8.0264     8.0954
  478.1000   108.3131     7.9816     8.0961
  478.2000   108.0679     7.9371     8.0966
  478.3000   107.8708     7.8959     8.0972
  478.4000   107.8723     7.8967     8.0752
  478.5000   107.8735     7.8591     8.0424
  478.6000   107.8747     7.8434     8.0430
  478.7000   107.8759     7.8256     8.0436
  478.8000   108.0281     7.7819     8.0441
  478.9000   108.5014     7.7374     8.0166
  479.0000   108.7833     7.7380     7.9897
  479.1000   109.2088     7.7055     7.9903
  479.2000   109.7028     7.6859     7.9909
  479.3000   110.2993     7.6727     7.9479
  479.4000   111.0397     7.6298     7.9368
  479.5000   111.8012     7.5820     7.9374
  479.6000   112.5204     7.5826     7.9242
  479.7000   113.2608     7.5549     7.8837
  479.8000   114.0012     7.5127     7.8844
  479.9000   114.5918     7.4801     7.8848
  480.0000   114.8795     7.4807     7.8564
  480.1000   115.7243     7.4389     7.8315
  480.2000   115.9370     7.4303     7.8227
  480.3000   116.1845     7.4309     7.7786
  480.4000   116.3301     7.4315     7.7354
  480.5000   116.3313     7.4321     7.7260
  480.6000   116.3326     7.4328     7.7022
  480.7000   116.3337     7.3954     7.6738
  480.8000   116.3349     7.3826     7.6744
  480.9000   116.2070     7.3832     7.6749
  481.0000   116.0361     7.3839     7.6363
  481.1000   116.0179     7.3845     7.6230
  481.2000   115.7375     7.3852     7.6035
  481.3000   115.5275     7.3857     7.5715
  481.4000   115.2823     7.3618     7.5708
  481.5000   115.0372     7.3359     7.5204
  481.6000   114.8383     7.3365     7.5208
  481.7000   114.8398     7.3372     7.4962
  481.8000   114.8410     7.3377     7.4700
  481.9000   115.0255     7.3384     7.4641
  482.0000   115.2731     7.3390     7.4196
  482.1000   115.5943     7.3396     7.4200
  482.2000   116.0883     7.3402     7.4206
  482.3000   116.6544     7.3409     7.4211
  482.4000   116.8658     7.3414     7.4216
  482.5000   117.2690     7.3420     7.4221
  482.6000   117.7631     7.3590     7.4227
  482.7000   118.3030     7.3943     7.4231
  482.8000   119.0699     7.3950     7.4236
  482.9000   119.5462     7.3955     7.4413
  483.0000   119.6747     7.3962     7.4762
  483.1000  -999.2500     7.4184     7.4768
  483.2000  -999.2500     7.4488     7.5185
  483.3000  -999.2500     7.4494     7.5619
  483.4000  -999.2500     7.4502     7.6055
  483.5000  -999.2500     7.4870     7.6357
  483.6000  -999.2500     7.5031     7.6403
  483.7000  -999.2500     7.5215     7.6898
  483.8000  -999.2500     7.5566     7.7287
  483.9000  -999.2500     7.5572     7.7733
  484.0000  -999.2500     7.5999     7.8181
  484.1000  -999.2500     7.6438     7.8631
  484.2000  -999.2500     7.6646     7.9085
  484.3000  -999.2500     7.6791     7.9995
  484.4000  -999.2500     7.7192     8.0554
  484.5000  -999.2500     7.7199     8.1019
  484.6000  -999.2500     7.7591     8.1486
  484.7000  -999.2500     7.7748     8.1955
  484.8000  -999.2500     7.7949     8.2471
  484.9000  -999.2500     7.8400     8.2903
  485.0000  -999.2500     7.8853     8.3381
  485.1000  -999.2500     7.9309     8.3862
  485.2000  -999.2500     7.9414     8.4468
  485.3000  -999.2500     7.9931     8.5420
  485.4000  -999.2500     8.0693     8.6003
  485.5000  -999.2500     8.1103     8.6008
  485.6000  -999.2500     8.1110     8.6602
  485.7000  -999.2500     8.1534     8.7407
  485.8000  -999.2500     8.2005     8.7830
  485.9000  -999.2500     8.2480     8.7837
  486.0000  -999.2500     8.2956     8.8314
  486.1000  -999.2500     8.3436     8.8823
  486.2000  -999.2500     8.4013     8.9336
  486.3000  -999.2500     8.4404     8.9704
  486.4000  -999.2500     8.4892     8.9745
  486.5000  -999.2500     8.5383     9.0340
  486.6000  -999.2500     8.5876     9.0783
  486.7000  -999.2500     8.6409     9.0979
  486.8000  -999.2500     8.6873     9.1199
  486.9000  -999.2500     8.7375     9.1623
  487.0000  -999.2500     8.7880     9.1630
  487.1000  -999.2500     8.8388     9.2146
  487.2000  -999.2500     8.8899     9.2279
  487.3000  -999.2500     8.9501     9.2569
  487.4000  -999.2500     9.0357     9.2932
  487.5000  -999.2500     9.1080     9.2993
  487.6000  -999.2500     9.1403     9.3591
  487.7000  -999.2500     9.1589     9.3597
  487.8000  -999.2500     9.2695     9.3604
  487.9000  -999.2500     9.2702     9.3848
  488.0000  -999.2500     9.3096     9.4267
  488.1000  -999.2500     9.3635     9.4273
  488.2000  -999.2500     9.4019     9.4280
  488.3000  -999.2500     9.4027     9.4286
  488.4000  -999.2500     9.4036     9.4293
  488.5000  -999.2500     9.4501     9.4489
  488.6000  -999.2500     9.4705     9.4961
  488.7000  -999.2500     9.4712     9.4968
  488.8000  -999.2500     9.4720     9.4974
  488.9000  -999.2500     9.4728     9.4980
  489.0000  -999.2500     9.5263     9.4987
  489.1000  -999.2500     9.5403     9.4994
  489.2000  -999.2500     9.5411     9.5000
  489.3000  -999.2500     9.5419     9.5008
  489.4000  -999.2500     9.5374     9.5013
  489.5000  -999.2500     9.4776     9.4694
  489.6000  -999.2500     9.4783     9.4371
  489.7000  -999.2500     9.4791     9.4378
  489.8000  -999.2500     9.4799     9.4385
  489.9000  -999.2500     9.4807     9.4391
  490.0000  -999.2500     9.4815     9.4397
  490.1000  -999.2500     9.4286     9.4404
  490.2000  -999.2500     9.4176     9.4410
  490.3000  -999.2500     9.4184     9.4377
  490.4000  -999.2500     9.4191     9.3773
  490.5000  -999.2500     9.4134     9.3779
  490.6000  -999.2500     9.3557     9.3785
  490.7000  -999.2500     9.3564     9.3792
  490.8000  -999.2500     9.3572     9.3798
  490.9000  -999.2500     9.3580     9.3805
  491.0000  -999.2500     9.3458     9.3811
  491.1000  -999.2500     9.2949     9.3818
  491.2000  -999.2500     9.2958     9.3824
  491.3000  -999.2500     9.2964     9.3657
  491.4000  -999.2500     9.2664     9.3189
  491.5000  -999.2500     9.2338     9.3197
  491.6000  -999.2500     9.2345     9.3203
  491.7000  -999.2500     9.2354     9.3209
  491.8000  -999.2500     9.1876     9.3216
  491.9000  -999.2500     9.1731     9.3222
  492.0000  -999.2500     9.1738     9.3229
  492.1000  -999.2500     9.1746     9.3235
  492.2000  -999.2500     9.1728     9.2821
  492.3000  -999.2500     9.1129     9.2605
  492.4000  -999.2500     9.1135     9.2611
  492.5000  -999.2500     9.1142     9.2618
  492.6000  -999.2500     9.1150     9.2625
  492.7000  -999.2500     9.1158     9.2147
  492.8000  -999.2500     9.1166     9.1998
  492.9000  -999.2500     9.0682     9.2005
  493.0000  -999.2500     9.0551     9.2011
  493.1000  -999.2500     9.0558     9.2017
  493.2000  -999.2500     9.0566     9.2025
  493.3000  -999.2500     9.0536     9.2030
