~VERSION INFORMATION
 VERS.                2.0:   CWLS LOG ASCII STANDARD - VERSION 2.0
 WRAP.                 NO:   ONE LINE PER DEPTH STEP
~WELL INFORMATION
#MNEM.UNIT      DATA TYPE    INFORMATION
#----------   ------------   ------------------------------
 STRT.F           42.0000:   START DEPTH
 STOP.F         3140.0000:   STOP DEPTH
 STEP.F            0.5000:   STEP LENGTH
 NULL.          -999.2500:   NO VALUE
 COMP. LAWRENCE-ALLISON & AS:   COMPANY
 WELL.     88 X 33 #88-33:   WELL
 FLD .             NPR #3:   FIELD
 LOC .      S33 T39N R78W:   LOCATION
 CNTY.            NATRONA:   COUNTY
 STAT.            WYOMING:   STATE
 CTRY. UNITED STATES OF AMERICA:   COUNTRY
 SRVC.       Schlumberger:   SERVICE COMPANY
 DATE.        13-DEC-1987:   LOGDATE
 API .       490251120300:   API NUMBER
~CURVE INFORMATION
#MNEM.UNIT       API CODE    CURVE DESCRIPTION
#----------   ------------   ------------------------------
 DEPT.F                  :   
 GRR .GAPI   07 310 01 00:   GAMMA RAY FROM RES
 SPR .MV     07 010 01 00:   SPONTANEOUS POTENTIAL
 ILD .OHMM   07 120 46 00:   INDUCTION LOG DEEP RES
 ILM .OHMM   07 120 44 00:   INDUCTION LOG MEDIUM RES
 SFLU.OHMM   07 220 01 00:   SPHERICALLY FOCUSED LOG UNAVERAGED RES
 DPHI.DEC    45 890 12 00:   DENSITY POROSITY SANDSTONE
 NPHI.DEC    42 890 03 00:   NEUTRON POROSITY SANDSTONE
 CALD.IN     45 280 60 00:   CALIPER FROM DENSITY LOG
 DRHO.G/C3   45 356 01 00:   DENSITY CORRECTION
 RHOB.G/C3   45 350 01 00:   BULK DENSITY
~PARAMETER INFORMATION
#MNEM.UNIT          VALUE    DESCRIPTION
#----------   ------------   ------------------------------
 PD  .                 GL:   PERMANENT DATUM
 EPD .F              5746:   ELEVATION PERMANENT DATUM
 LMF .                 KB:   LOG MEASURED FROM
 DAPD.F                11:   FEET ABOVE PERMANENT DATUM
 DMF .                 KB:   DRILLING MEASURED FROM
 EKB .F              5157:   KELLING BUSHING
 EGL .F              5146:   GROUND LEVEL
 DATE.        13-DEC-1987:   RUN DATE
 RUN .                  1:   RUN NUMBER
 DD  .F              3155:   DEPTH DRILLER
 DL  .F              3140:   DEPTH LOGGER
 BLI .F              3132:   BOTTOM LOG INTERVAL
 TLI .F               614:   TOP LOG INTERVAL
 CS  .IN            9.625:   CASING SIZE
 CBD .F               608:   CASING BOTTOM DRILLER
 CBL .F               614:   CASING BOTTOM LOGGER
 BS  .IN            7.875:   BIT SIZE
 BSD .F              3155:   BIT SIZE AT DEPTH
 DFT .       KCL DIS. PAC:   DRILLING FLUID TYPE
 DFD .                  9:   DRILLING FLUID DENSITY
 DFV .                 41:   DRILLING FLUID VISCOSITY
 DFPH.                9.5:   DRILLING FLUID PH
 DFL .                8.4:   DRILLING FLUID LOSS
 MSS .           FLOWLINE:   MUD SAMPLE SOURCE
 RMS .OHMM          0.523:   RESISTIVITY MUD SAMPLE
 MST .F                63:   MUD SAMPLE TEMPERATURE
 RMF .OHMM          0.435:   RESISTIVITY MUD FILTRATE SAMPLE
 MFST.F                63:   MUD FILTRATE SAMPLE TEMPERATURE
 RMC .OHMM          0.489:   RESISTIVITY MUD CAKE
 MCST.F                63:   MUD CAKE SAMPLE TEMPERATURE
 MFSS.              PRESS:   MUD FILTRATE SAMPLE SOURCE
 MCSS.               CALC:   MUD CAKE SAMPLE SOURCE
 RMB .OHMM          0.288:   RESISTIVITY MUD AT BHT
 BHT .F               120:   BOTTOM HOLE TEMPERATURE
 TCS .HRS            0600:   TIME CURCULATED STOPPED
 TLAB.HRS            1430:   TIME LOGGER AT BOTTOM
 MRT .F               120:   MAXIMUM RECORDED TEMPERATURE
 LUN .               8198:   LOGGING UNIT NUMBER
 LUL .             CASPER:   LOGGING UNIT LOCATION
 ENGI.          W. BENSON:   RECORDING ENGINEER
 WITN.        GARY STRONG:   WITNESSED BY
 CLNT.            A2DTECH:   CLIENT CODE
 ORIG.           5" PRINT:   ORIGIN OF DATA
 UWI .       490251120300:   UNIQUE WELL ID
 DICO. A2D Technologies, Inc.:   DIGITIZING COMPANY
~OTHER INFORMATION
~A   DEPT      GRR        SPR        ILD        ILM       SFLU       DPHI       NPHI       CALD       DRHO       RHOB   
# ...
 1951.5000   143.2100   -40.8309     7.2430     6.9977     9.0837     0.1094     0.3277     8.8410    -0.0300     2.4626
 1952.0000   141.3971   -40.9891     7.3430     7.0459     9.2110     0.1082     0.3343     8.8434    -0.0299     2.4626
 1952.5000   137.7781   -40.9940     7.4445     7.0944     9.1481     0.1073     0.3392     8.8458    -0.0292     2.4657
 1953.0000   135.7404   -40.9739     7.4434     7.1433     8.8988     0.1043     0.3376     8.8482    -0.0277     2.4717
 1953.5000   137.9949   -40.8334     7.4424     7.1427     8.8379     0.0991     0.3286     8.8506    -0.0247     2.4792
 1954.0000   140.4754   -40.5601     7.3900     7.1422     9.2136     0.0982     0.3232     8.8530    -0.0232     2.4815
 1954.5000   142.0521   -40.5663     7.2872     7.0434     9.7391     0.0988     0.3238     8.8554    -0.0239     2.4800
 1955.0000   142.0476   -40.5723     7.2359     6.9460     9.6726     0.1000     0.3265     8.8578    -0.0254     2.4801
 1955.5000   142.2701   -40.5783     7.0371     6.8026     9.2796     0.0997     0.3334     8.8602    -0.0254     2.4793
 1956.0000   141.5867   -40.7349     6.9875     6.6161     8.4813     0.1000     0.3346     8.8626    -0.0254     2.4749
 1956.5000   135.2569   -40.7410     7.0352     6.5701     7.9694     0.1027     0.3307     8.8650    -0.0254     2.4689
 1957.0000   134.1239   -40.8977     7.0342     6.7075     7.8059     0.1060     0.3264     8.8674    -0.0246     2.4659
 1957.5000   136.6032   -40.9037     7.0332     6.8481     8.0816     0.1071     0.3249     8.8698    -0.0239     2.4659
 1958.0000   140.4390   -40.9098     7.0322     6.8475     8.7219     0.1053     0.3216     8.8722    -0.0231     2.4720
 1958.5000   144.2748   -40.9158     7.0312     6.8948     9.5442     0.1029     0.3150     8.8885    -0.0231     2.4773
 1959.0000   148.1107   -41.0725     7.0794     6.9422     9.6112     0.1008     0.3113     8.9032    -0.0238     2.4803
 1959.5000   149.4615   -41.0786     7.1769     6.9900     9.6119     0.1002     0.3116     8.9478    -0.0253     2.4796
 1960.0000   147.4239   -41.3858     7.2261     6.9895     9.3499     0.1008     0.3125     8.9775    -0.0267     2.4706
 1960.5000   142.6754   -41.6931     7.2753     6.9976     9.2859     0.1030     0.3152     8.9022    -0.0223     2.4722
 1961.0000   142.8967   -41.6992     7.3756     7.0372     9.2867     0.1010     0.3294     8.8270    -0.0156     2.4805
 1961.5000   144.4735   -41.5546     7.3236     6.9880     9.0964     0.0966     0.3390     8.7817    -0.0134     2.4924
 1962.0000   144.9219   -41.4086     7.2721     6.9876     8.7874     0.0941     0.3430     8.7664    -0.0126     2.4877
 1962.5000   142.2812   -41.1150     7.2710     6.9871     8.6670     0.0951     0.3405     8.7661    -0.0207     2.4743
 1963.0000   141.5243   -40.9689     7.3208     7.0352     8.8497     0.1016     0.3324     8.7658    -0.0259     2.4659
 1963.5000   143.3839   -40.5232     7.3705     7.0854     9.1108     0.1095     0.3294     8.7655    -0.0311     2.4558
 1964.0000   144.9037   -40.3786     7.3695     7.1827     9.5620     0.1127     0.3303     8.7652    -0.0327     2.4598
 1964.5000   144.1819   -40.2341     7.3684     7.2314     9.7614     0.1114     0.3372     8.7649    -0.0266     2.4667
 1965.0000   143.3133   -40.5429     7.3674     7.1810     9.7533     0.1068     0.3408     8.7796    -0.0236     2.4719
 1965.5000   143.9865   -41.6032     7.2650     7.1309     9.6151     0.1023     0.3378     8.7793    -0.0214     2.4763
 1966.0000   142.6081   -41.9104     7.3147     7.1304     9.3576     0.0974     0.3363     8.7790    -0.0199     2.4920
 1966.5000   137.4262   -42.0671     7.3135     7.1299     9.1019     0.0920     0.3396     8.7787    -0.0199     2.4950
 1967.0000   138.3253   -41.9210     7.3125     7.1294     8.8545     0.0900     0.3429     8.7784    -0.0206     2.4920
 1967.5000   141.0316   -41.9286     7.3114     7.1289     8.8551     0.0929     0.3363     8.7931    -0.0214     2.4808
 1968.0000   141.9428   -41.9347     7.2098     7.0792     8.9173     0.0976     0.3203     8.7928    -0.0235     2.4733
 1968.5000   137.6340   -41.7901     7.1590     7.0298     9.0423     0.1012     0.3155     8.7925    -0.0258     2.4726
 1969.0000   134.8765   -41.7962     7.1086     6.9808     9.2328     0.1029     0.3269     8.7922    -0.0280     2.4727
 1969.5000   136.7213   -41.6502     7.1076     6.9803     9.1697     0.1010     0.3399     8.7919    -0.0294     2.4757
 1970.0000   138.7498   -41.5056     7.1066     7.0284     8.9198     0.0977     0.3453     8.7916    -0.0301     2.4832
 1970.5000   140.3268   -41.3611     7.0565     7.0278     8.8587     0.0947     0.3380     8.7913    -0.0317     2.4930
 1971.0000   139.6444   -41.2165     7.0556     6.9788     8.9830     0.0932     0.3311     8.7910    -0.0341     2.4915
 1971.5000   135.1218   -41.2229     7.0546     7.0270     9.1722     0.0950     0.3284     8.7907    -0.0368     2.4856
 1972.0000   127.2106   -41.0542     7.1029     7.0264     9.3008     0.0992     0.3287     8.7903    -0.0330     2.4758
 1972.5000   124.7211   -40.7829     7.1510     7.0749     9.2373     0.0995     0.3308     8.7900    -0.0316     2.4796
 1973.0000   129.6865   -40.6384     7.1500     7.1236     8.9855     0.0976     0.3341     8.7897    -0.0293     2.4819
 1973.5000   133.0705   -40.4939     7.2488     7.1726     8.9240     0.0973     0.3368     8.7895    -0.0286     2.4804
 1974.0000   133.5189   -40.1987     7.3490     7.3227     9.2392     0.0982     0.3362     8.7892    -0.0285     2.4789
 1974.5000   130.8035   -40.2048     7.4508     7.4243     9.7662     0.0991     0.3298     8.7889    -0.0293     2.4797
 1975.0000   135.3159   -40.6627     7.5015     7.5276     9.8346     0.0994     0.3217     8.7886    -0.0352     2.4768
 1975.5000   141.1848   -41.1205     7.5527     7.4749     9.7674     0.1006     0.3163     8.7883    -0.0404     2.4730
 1976.0000   144.7948   -41.1266     7.5514     7.4228     9.8361     0.1039     0.3160     8.7880    -0.0440     2.4671
 1976.5000   143.6607   -40.8314     7.6559     7.4740     9.9740     0.1078     0.3169     8.7877    -0.0440     2.4626
 1977.0000   140.2676   -40.6867     7.7615     7.5777    10.0440     0.1108     0.3172     8.7874    -0.0433     2.4551
 1977.5000   139.5865   -40.5422     7.7604     7.6300     9.9065     0.1138     0.3168     8.7721    -0.0418     2.4514
 1978.0000   143.1953   -40.3976     7.8676     7.7896     9.8387     0.1141     0.3132     8.7718    -0.0403     2.4552
 1978.5000   144.5473   -40.4039     7.9215     7.7890     9.9079     0.1107     0.3105     8.7715    -0.0380     2.4650
 1979.0000   142.7344   -40.5606     7.9201     7.6813    10.1166     0.1077     0.3111     8.7712    -0.0358     2.4673
 1979.5000   144.9889   -40.8678     7.9744     7.7343    10.4738     0.1092     0.3159     8.7709    -0.0380     2.4620
 1980.0000   149.5024   -41.1751     7.9732     7.7875    10.5618     0.1149     0.3307     8.7706    -0.0410     2.4433
 1980.5000   149.9508   -41.1812     7.9721     7.7331    10.5479     0.1188     0.3473     8.7703    -0.0417     2.4516
 1981.0000   147.2343   -40.8860     7.9159     7.6261    10.4657     0.1149     0.3482     8.7850    -0.0328     2.4621
 1981.5000   143.3894   -40.7400     7.7520     7.5628    10.2534     0.1058     0.3469     8.7997    -0.0283     2.4757
 1982.0000   142.9342   -40.4448     7.6896     7.3655    10.0399     0.0995     0.3524     8.8294    -0.0261     2.4802
 1982.5000   143.3814   -40.1497     7.5310     7.1067     9.2406     0.0992     0.3605     8.8441    -0.0239     2.4787
 1983.0000   142.9240   -40.1573     7.4332     6.9673     8.6306     0.1019     0.3551     8.8737    -0.0216     2.4720
 1983.5000   141.1122   -40.1633     7.3808     6.9668     8.6323     0.1043     0.3460     8.8734    -0.0194     2.4690
 1984.0000   140.8829   -40.1694     7.3798     7.1166     9.1247     0.1049     0.3228     8.8731    -0.0179     2.4721
 1984.5000   143.1362   -40.3261     7.3828     7.3150    10.0543     0.1018     0.3141     8.8728    -0.0179     2.4766
