~VERSION INFORMATION
 VERS.                2.0:   CWLS LOG ASCII STANDARD - VERSION 2.0
 WRAP.                 NO:   ONE LINE PER DEPTH STEP
~WELL INFORMATION
#MNEM.UNIT      DATA TYPE    INFORMATION
#----------   ------------   ------------------------------
 STRT.F            0.5000:   START DEPTH
 STOP.F          474.0000:   STOP DEPTH
 STEP.F            0.5000:   STEP LENGTH
 NULL.          -999.2500:   NO VALUE
 COMP.       F D SERV INC:   COMPANY
 WELL. NAVAL PETROLEUM RESERVE 3 SX-3 #78-1-3:   WELL
 FLD .             TEAPOT:   FIELD
 LOC .       S3 T38N R78W:   LOCATION
 CNTY.            NATRONA:   COUNTY
 STAT.            WYOMING:   STATE
 CTRY. UNITED STATES OF AMERICA:   COUNTRY
 SRVC.      Western Atlas:   SERVICE COMPANY
 DATE.        13-OCT-1992:   LOGDATE
 API .       490252255800:   API NUMBER
~CURVE INFORMATION
#MNEM.UNIT       API CODE    CURVE DESCRIPTION
#----------   ------------   ------------------------------
 DEPT.F                  :   
 GRR .GAPI   06 310 01 00:   GAMMA RAY FROM RESISTIVITY
 RILD.OHMM   06 120 46 00:   DEEP INDUCTION RESISTIVITY
 RILM.OHMM   06 120 44 00:   INDUCTION LOG MEDIUM RESISTIVITY
~PARAMETER INFORMATION
#MNEM.UNIT          VALUE    DESCRIPTION
#----------   ------------   ------------------------------
 PD  .                 GL:   PERMANENT DATUM
 EPD .F              5157:   ELEVATION PERMANENT DATUM
 LMF .                 KB:   LOG MEASURED FROM
 DAPD.F                10:   FEET ABOVE PERMANENT DATUM
 DMF .                 KB:   DRILLING MEASURED FROM
 EKB .F              5167:   KELLING BUSHING
 EDF .F              5166:   DRILLING FLOOR
 EGL .F              5157:   GROUND LEVEL
 DATE.        13-OCT-1992:   RUN DATE
 RUN .                  1:   RUN NUMBER
 DD  .F               480:   DEPTH DRILLER
 DL  .F               480:   DEPTH LOGGER
 BLI .F               474:   BOTTOM LOG INTERVAL
 CS  .IN            8.625:   CASING SIZE
 CBD .F                85:   CASING BOTTOM DRILLER
 CBL .F               100:   CASING BOTTOM LOGGER
 BS  .IN            7.875:   BIT SIZE
 BSD .F               480:   BIT SIZE AT DEPTH
 DFT .           AIR FOAM:   DRILLING FLUID TYPE
 BHT .F                70:   BOTTOM HOLE TEMPERATURE
 TCS .HRS            0230:   TIME CURCULATED STOPPED
 MRT .F                70:   MAXIMUM RECORDED TEMPERATURE
 LUN .            HL-6274:   LOGGING UNIT NUMBER
 LUL .             CASPER:   LOGGING UNIT LOCATION
 ENGI.             RAUTIO:   RECORDING ENGINEER
 WITN.        GARY STRONG:   WITNESSED BY
 CLNT.            A2DTECH:   CLIENT CODE
 ORIG.           5" PRINT:   ORIGIN OF DATA
 UWI .       490252255800:   UNIQUE WELL ID
 DICO. A2D Technologies, Inc.:   DIGITIZING COMPANY
~OTHER INFORMATION
~A    DEPT      GRR      RILD       RILM   
# ...
  364.5000    99.6352    16.1274    16.4913
  365.0000   100.5431    15.9091    16.0439
  365.5000   100.5370    15.8018    15.7169
  366.0000   100.2472    15.8058    15.6108
  366.5000   101.7592    15.6992    15.6129
  367.0000   102.6671    15.5949    15.6155
  367.5000   101.7650    15.5981    15.7258
  368.0000   100.5613    15.4938    15.7279
  368.5000   101.4692    15.6052    15.7301
  369.0000   103.8854    15.5000    15.7322
  369.5000   104.1900    15.3963    15.6254
  370.0000   102.9870    15.2933    15.4136
  370.5000   100.5767    14.9831    15.3095
  371.0000    99.0713    14.7803    14.8946
  371.5000    99.3759    14.4797    14.4906
  372.0000   100.2838    14.1762    14.2936
  372.5000   101.4933    13.9933    14.0993
  373.0000   103.9095    13.9004    14.0041
  373.5000   106.3922    13.8067    14.0060
  374.0000   107.2343    13.6205    13.9114
  374.5000   105.8627    13.4361    13.7223
  375.0000   105.1278    13.4388    13.6297
  375.5000   108.4497    13.4415    13.5377
  376.0000   111.1676    13.3516    13.3541
  376.5000   112.3772    13.2622    13.3559
  377.0000   108.7602    13.1735    13.2653
  377.5000   108.4614    13.0860    13.2675
  378.0000   109.6717    13.0887    13.3613
  378.5000   109.9756    13.1821    13.5490
  379.0000   107.5659    13.3990    13.6448
  379.5000   106.0606    13.6801    13.7417
  380.0000   108.7784    13.9405    13.9348
  380.5000   111.4963    14.0401    14.1306
  381.0000   110.4857    14.1403    14.2304
  381.5000   101.8498    14.3402    14.3310
  382.0000    99.1370    14.3437    14.3329
  382.5000   102.1573    14.2471    14.1365
  383.0000   106.5672    14.0549    13.7546
  383.5000   109.7046    13.7691    13.5676
  384.0000   109.4058    13.4885    13.2915
  384.5000   107.2971    13.1238    13.0206
  385.0000   107.7226    12.9462    12.8436
  385.5000   110.9236    12.7631    12.5818
  386.0000   111.2282    12.4251    12.3253
  386.5000   111.8345    12.0885    12.1578
  387.0000   112.1383    12.0083    12.0652
  387.5000   111.2370    12.0107    11.9942
  388.0000   109.4299    12.0131    11.9962
  388.5000   109.1312    12.0155    12.0810
  389.0000   109.1342    12.1013    12.3357
  389.5000   108.8354    12.3641    12.6831
  390.0000   108.2350    13.0636    13.0402
  390.5000   107.3337    14.3943    14.3668
  391.0000   104.6217    17.3524    17.3156
  391.5000    98.8931    19.9300    19.0768
  392.0000    91.6562    22.2661    20.3304
  392.5000    84.6607    24.5342    24.0697
  393.0000    79.5964    28.3742    28.8895
  393.5000    78.3919    32.8736    32.2709
  394.0000    79.9039    36.6632    35.0653
  394.5000    83.5267    38.2240    37.0627
  395.0000    86.5462    39.3039    36.8125
  395.5000    90.1691    39.0409    35.8150
  396.0000    91.3786    38.2452    34.8433
  396.5000    90.7511    38.2548    34.3686
  397.0000    90.7819    38.2625    34.3744
  397.5000    90.4824    37.9935    35.0990
  398.0000    87.7711    37.4920    35.8390
  398.5000    82.6458    36.4784    35.8438
  399.0000    78.7272    35.2459    35.0715
  399.5000    77.8250    34.2913    32.7744
  400.0000    79.9397    33.3626    31.2312
  400.5000    85.2671    32.4590    29.3521
  401.0000    92.3077    31.5799    28.3592
  401.5000    95.0226    29.8865    27.0238
  402.0000    95.6259    28.4645    26.4728
  402.5000    94.7210    27.1413    26.1131
  403.0000    92.6094    26.5881    25.9238
  403.5000    92.6094    26.2282    25.4082
  404.0000    95.3243    26.2349    25.2366
  404.5000    96.8326    26.2402    25.2408
  405.0000    97.4359    26.2455    24.8977
  405.5000    97.4359    25.8903    24.7288
  406.0000    97.7376    25.5397    24.0791
  406.5000    98.0392    25.3672    23.9169
  407.0000    97.7376    25.1993    23.2709
  407.5000    95.6259    25.2056    23.2756
  408.0000    94.1176    25.2107    23.4417
  408.5000    93.5143    25.2158    23.7782
  409.0000    94.1176    24.8745    24.1085
  409.5000    95.0226    24.7069    24.1144
  410.0000    95.3243    24.3737    24.1193
  410.5000    95.6259    24.2105    23.7931
  411.0000    97.4359    24.0487    22.5182
  411.5000    97.7376    23.8807    22.2125
  412.0000    96.8326    23.5645    22.2181
  412.5000    95.6259    23.2467    22.5318
  413.0000    95.9276    22.9321    22.8500
  413.5000    95.9276    22.6217    23.0131
  414.0000    95.6259    22.3144    22.3699
  414.5000    96.2293    21.8618    21.6354
  415.0000    98.0392    21.5659    21.3428
  415.5000    99.2760    21.2739    20.9092
  416.0000   100.1508    21.1317    20.3433
  416.5000   100.4525    20.9793    19.6565
  417.0000    99.8492    20.7073    19.3897
  417.5000    99.2458    20.4270    19.5290
  418.0000    98.9442    20.1495    19.8048
  418.5000    99.2458    19.7408    19.9462
  419.0000   100.4525    19.4727    19.6584
  419.5000   105.2790    19.2091    18.8821
  420.0000   110.1056    18.9501    19.1487
  420.5000   111.0106    18.9539    18.8888
  421.0000   106.4857    18.6965    18.7635
  421.5000   103.7707    18.3034    18.3823
  422.0000   104.0724    17.5773    18.0088
  422.5000   105.2790    17.3385    17.4008
  423.0000   105.5807    17.2225    17.1654
  423.5000   104.9774    17.2268    17.0507
  424.0000   100.7542    16.9937    17.0543
  424.5000    96.5309    16.7637    16.8235
  425.0000    95.6259    16.5366    16.5960
  425.5000    96.5913    16.5401    16.6002
  426.0000    99.8492    16.4250    16.4884
  426.5000    99.8492    15.8588    15.9325
  427.0000    98.3409    15.5516    15.6080
  427.5000    96.5309    15.2354    15.2915
  428.0000    94.7210    15.1335    15.0848
  428.5000    94.4193    15.0322    14.9806
  429.0000    96.8326    14.9324    14.7814
  429.5000   101.3575    14.8318    14.4818
  430.0000   104.3741    14.5310    14.1875
  430.5000   104.3741    14.2355    13.9950
  431.0000   103.4691    13.9461    13.7113
  431.5000   102.8658    13.8528    13.5259
  432.0000   101.9608    13.6660    13.4348
  432.5000   104.0724    13.6687    13.3456
  433.0000   105.2790    13.5766    13.3483
  433.5000   104.6757    13.4865    13.3511
  434.0000   103.7707    13.4892    13.3416
  434.5000   105.2790    13.3983    13.2645
  435.0000   108.2956    13.4017    13.2678
  435.5000   112.3678    13.4044    13.2705
  436.0000   115.8371    13.4071    13.1811
  436.5000   112.5189    13.4105    13.1845
  437.0000   107.9940    13.3201    13.1871
  437.5000   106.4857    13.2316    13.0990
  438.0000   106.7873    13.1424    13.0114
  438.5000   107.3906    13.1458    12.9244
  439.0000   107.6923    13.1484    12.9271
  439.5000   107.6923    13.0604    12.9303
  440.0000   108.2956    12.9730    12.8432
  440.5000   107.6621    12.8863    12.7574
  441.0000   107.0890    12.7119    12.6727
  441.5000   107.9940    12.6268    12.5874
  442.0000   108.2956    12.5430    12.5032
  442.5000   107.6923    12.4591    12.4202
  443.0000   107.6923    12.2905    12.2523
  443.5000   108.2956    12.2930    12.2548
  444.0000   109.2006    12.2101    12.1729
  444.5000   110.4072    12.1289    12.0915
  445.0000   111.3122    12.1315    12.0946
  445.5000   112.5792    12.2182    12.1809
  446.0000   113.7255    12.3055    12.2678
  446.5000   113.4238    12.3085    12.1858
  447.0000   113.1222    12.2255    12.0204
  447.5000   114.0272    12.2286    12.1907
  448.0000   114.9321    12.5741    12.3629
  448.5000   114.9321    12.5767    12.3654
  449.0000   113.7255    12.3203    12.0198
  449.5000   113.1222    12.2385    11.9503
  450.0000   114.9226    11.9897    11.9533
  450.5000   115.7846    11.9922    11.9557
  451.0000   116.6181    11.9951    11.8758
  451.5000   117.4710    11.9897    11.7958
  452.0000   114.3777    11.8250    11.7988
  452.5000   112.8122    11.7435    11.7198
  453.0000   111.8500    11.6626    11.6416
  453.5000   111.4911    11.5822    11.4815
  454.0000   111.1312    11.5024    11.3529
  454.5000  -999.2500    11.3405    11.3580
  455.0000  -999.2500    11.1758    11.2836
