~VERSION INFORMATION
 VERS.                2.0:   CWLS LOG ASCII STANDARD - VERSION 2.0
 WRAP.                 NO:   ONE LINE PER DEPTH STEP
~WELL INFORMATION
#MNEM.UNIT      DATA TYPE    INFORMATION
#----------   ------------   ------------------------------
 STRT.F           27.0000:   START DEPTH
 STOP.F          713.0000:   STOP DEPTH
 STEP.F            0.5000:   STEP LENGTH
 NULL.          -999.2500:   NO VALUE
 COMP. FENIX & SCISSON INC:   COMPANY
 WELL.       NPR 3 #44-34:   WELL
 FLD .        TEAPOT DOME:   FIELD
 LOC .      S34 T39N R78W:   LOCATION
 CNTY.            NATRONA:   COUNTY
 STAT.            WYOMING:   STATE
 CTRY. UNITED STATES OF AMERICA:   COUNTRY
 SRVC.           BIRDWELL:   SERVICE COMPANY
 DATE.        24-AUG-1978:   LOGDATE
 API .       490251070000:   API NUMBER
~CURVE INFORMATION
#MNEM.UNIT       API CODE    CURVE DESCRIPTION
#----------   ------------   ------------------------------
 DEPT.F                  :   
 SPR .MV     05 010 01 00:   SPONTANEOUS POTENTIAL FROM RES.
 ILD .OHMM   05 120 46 00:   INDUCTION LOG DEEP
 SN  .OHMM   05 040 16 00:   SHORT NORMAL 16"
 CALD.IN     45 280 60 00:   CALIPER
 GRD .GAPI   45 310 01 00:   GAMMA RAY FROM DENSITY LOG
 DEN .G/C3   45 350 01 00:   COMPENSATED BULK DENSTIY
 DPHI.DEC    45 890 12 00:   DENSITY POROSITY SANDSTONE
 CORR.G/C3   45 356 01 00:   DENSITY CORRECTION
~PARAMETER INFORMATION
#MNEM.UNIT          VALUE    DESCRIPTION
#----------   ------------   ------------------------------
 PD  .                 GL:   PERMANENT DATUM
 EPD .F              5124:   ELEVATION PERMANENT DATUM
 LMF .                 KB:   LOG MEASURED FROM
 DAPD.F                 4:   FEET ABOVE PERMANENT DATUM
 DMF .                 KB:   DRILLING MEASURED FROM
 EKB .F              5128:   KELLING BUSHING
 EGL .F              5124:   GROUND LEVEL
 DATE.            8-24-78:   RUN DATE
 RUN .                  1:   RUN NUMBER
 DD  .F               716:   DEPTH DRILLER
 DL  .F               713:   DEPTH LOGGER
 BLI .F               707:   BOTTOM LOG INTERVAL
 TLI .F                50:   TOP LOG INTERVAL
 CS  .IN            8.625:   CASING SIZE
 CBD .F                40:   CASING BOTTOM DRILLER
 BS  .IN            7.875:   BIT SIZE
 BSD .F               716:   BIT SIZE AT DEPTH
 DFT .            MUD KCL:   DRILLING FLUID TYPE
 DFD .                8.6:   DRILLING FLUID DENSITY
 DFV .                 34:   DRILLING FLUID VISCOSITY
 DFL .                7.4:   DRILLING FLUID LOSS
 MSS .          FLOW LINE:   MUD SAMPLE SOURCE
 RMS .OHMM            .18:   RESISTIVITY MUD SAMPLE
 MST .F                76:   MUD SAMPLE TEMPERATURE
 RMF .OHMM            .16:   RESISTIVITY MUD FILTRATE SAMPLE
 MFST.F                92:   MUD FILTRATE SAMPLE TEMPERATURE
 RMC .OHMM             .3:   RESISTIVITY MUD CAKE
 MCST.F                86:   MUD CAKE SAMPLE TEMPERATURE
 MFSS.               MEAS:   MUD FILTRATE SAMPLE SOURCE
 TCS .HRS               3:   TIME CURCULATED STOPPED
 MRT .F                72:   MAXIMUM RECORDED TEMPERATURE
 LUN .               2958:   LOGGING UNIT NUMBER
 LUL .               CASP:   LOGGING UNIT LOCATION
 ENGI.           REYNOLDS:   RECORDING ENGINEER
 WITN.              AMEND:   WITNESSED BY
 CLNT.            A2DTECH:   CLIENT CODE
 ORIG.           5" PRINT:   ORIGIN OF DATA
 UWI .       490251070000:   UNIQUE WELL ID
 DICO. A2D Technologies, Inc.:   DIGITIZING COMPANY
~OTHER INFORMATION
~A   DEPT      SPR        ILD         SN       CALD         GRD       DEN       DPHI       CORR   
# ...
  553.5000   -50.7393    15.7716    13.1868     8.6124    72.3088     2.4442     0.1566     0.0258
  554.0000   -50.6908    15.6914    13.2234     8.6308    74.5012     2.4319     0.1655     0.0255
  554.5000   -50.6423    16.0599    13.2627     8.6273    76.7058     2.4176     0.1744     0.0255
  555.0000   -50.5939    16.6908    13.3020     8.6058    76.8664     2.4034     0.1796     0.0247
  555.5000   -50.5454    17.6747    13.3415     8.5842    70.0535     2.3970     0.1820     0.0220
  556.0000   -50.4969    17.6537    13.3811     8.5625    67.4796     2.3966     0.1847     0.0194
  556.5000   -50.4485    17.6129    13.4208     8.5409    66.9513     2.3963     0.1847     0.0226
  557.0000   -50.4000    17.5722    13.4608     8.5192    66.6202     2.3992     0.1847     0.0518
  557.5000   -50.3508    17.5316    13.5011     8.5257    66.4899     2.4053     0.1761     0.0805
  558.0000   -50.3016    17.4911    13.5533     8.5383    66.5590     2.4083     0.1743     0.1042
  558.5000   -50.3651    17.4509    13.4742     8.5509    67.0435     2.3921     0.1827     0.1049
  559.0000   -50.4396    17.4110    13.3600     8.5634    67.4677     2.3792     0.1792     0.1119
  559.5000   -50.5265    17.3694    13.2468     8.5759    66.8425     2.4513     0.1773     0.1212
  560.0000   -50.6710    17.1703    13.1345     8.5876    65.6428     2.4037     0.1775     0.1274
  560.5000   -50.8137    16.8838    13.0232     8.6030    65.6736     2.4019     0.1859     0.1230
  561.0000   -50.9564    16.7787    12.9128     8.6381    65.9163     2.3914     0.1923     0.1120
  561.5000   -51.0989    16.7300    12.8033     8.6728    67.8825     2.3809     0.1916     0.1011
  562.0000   -51.2426    16.2667    12.7074     8.6972    67.0584     2.3822     0.1905     0.0902
  562.5000   -51.2941    15.6914    12.6787     8.6942    66.0824     2.4015     0.1768     0.0840
  563.0000   -51.2946    15.7297    12.6501     8.6917    65.1910     2.4045     0.1825     0.0877
  563.5000   -51.2943    15.7749    12.6216     8.6892    64.3358     2.3932     0.1839     0.0926
  564.0000   -51.3275    15.8229    12.5887     8.6867    61.6019     2.3912     0.1839     0.1186
  564.5000   -51.5508    15.8357    12.5187     8.6842    60.7409     2.3851     0.1930     0.1445
  565.0000   -51.7735    15.8357    12.4490     8.6819    63.4824     2.3704     0.2009     0.1449
  565.5000   -51.9607    15.8357    12.3798     8.6793    68.0170     2.3656     0.2018     0.1319
  566.0000   -52.1082    15.6149    12.3295     8.6668    68.9255     2.3642     0.2027     0.0948
  566.5000   -52.2567    15.2703    12.2834     8.6371    69.3066     2.3662     0.1709     0.0911
  567.0000   -52.4411    14.9332    12.2375     8.6286    68.8731     2.4026     0.1759     0.0970
  567.5000   -52.6380    14.7019    12.1918     8.5997    68.0372     2.4145     0.1790     0.1068
  568.0000   -52.8349    14.6027    12.1462     8.5766    67.1928     2.4041     0.1727     0.1165
  568.5000   -53.0404    14.5041    12.1008     8.5771    66.8941     2.3914     0.1888     0.1239
  569.0000   -53.0671    14.4061    12.0556     8.5771    67.0273     2.3819     0.1931     0.1250
  569.5000   -53.0391    14.3089    12.0324     8.5771    67.2966     2.3824     0.1931     0.1262
  570.0000   -53.0097    14.1881    12.0324     8.5773    68.3561     2.3912     0.1848     0.1276
  570.5000   -52.9809    14.1978    12.0324     8.5822    69.4979     2.4002     0.1765     0.1311
  571.0000   -52.9522    14.2108    12.0324     8.5875    69.3515     2.4092     0.1711     0.1272
  571.5000   -52.9235    14.2237    12.0324     8.5927    66.8017     2.4130     0.1727     0.1233
  572.0000   -52.8947    14.2367    12.0324     8.5979    67.3539     2.4131     0.1743     0.1234
  572.5000   -52.8660    14.2497    12.0324     8.6032    69.0457     2.4131     0.1743     0.1200
  573.0000   -52.8373    14.2627    12.0324     8.6084    69.7445     2.4131     0.1743     0.1048
  573.5000   -52.8086    14.2757    12.0324     8.6136    70.0509     2.4131     0.1743     0.0903
  574.0000   -52.7799    14.2888    12.0324     8.6173    70.3138     2.4144     0.1677     0.0816
  574.5000   -52.7510    14.3016    12.0324     8.6172    70.5146     2.4218     0.1635     0.0831
  575.0000   -52.7222    14.3173    12.0324     8.6173    72.2364     2.4233     0.1707     0.0889
  575.5000   -52.6944    14.1922    12.0324     8.6173    74.4035     2.4210     0.1679     0.1002
  576.0000   -52.7447    14.0162    12.0324     8.6171    74.5617     2.4082     0.1791     0.1075
  576.5000   -52.8665    13.8424    12.0324     8.6033    74.7748     2.3944     0.1890     0.1077
  577.0000   -52.9879    13.6779    12.0324     8.5562    75.1562     2.3807     0.1939     0.0946
  577.5000   -53.1277    13.6991    12.0324     8.5324    75.4484     2.3789     0.1913     0.0792
  578.0000   -53.3533    13.7241    12.0324     8.5232    73.1940     2.3844     0.1857     0.0640
  578.5000   -53.5782    13.7492    12.0324     8.5042    70.4448     2.3952     0.1767     0.0633
  579.0000   -53.8031    13.7742    12.0324     8.4499    68.9321     2.4094     0.1751     0.0634
  579.5000   -54.0330    13.8026    12.0324     8.3977    70.4738     2.4071     0.1820     0.0651
  580.0000   -54.1689    13.7820    12.0324     8.3551    72.1657     2.3987     0.1867     0.0670
  580.5000   -54.2893    13.7559    12.0324     8.3865    73.1935     2.3912     0.1879     0.0689
  581.0000   -54.5630    13.7299    12.0324     8.5679    70.6603     2.3917     0.1841     0.0708
  581.5000   -54.8403    13.7043    12.0324     8.6044    68.8741     2.4022     0.1793     0.0706
  582.0000   -55.0870    13.6782    12.0324     8.7864    68.6690     2.4109     0.1745     0.0694
  582.5000   -55.0804    13.7594    12.0324     8.1703    68.5053     2.4145     0.1694     0.0682
  583.0000   -55.0797    13.8424    12.0325     8.0797    69.2531     2.4211     0.1640     0.0672
  583.5000   -55.0797    13.9307    12.0326     8.0979    71.1170     2.4296     0.1586     0.0665
  584.0000   -55.0797    13.7001    12.0343     8.1155    76.4735     2.4381     0.1563     0.0659
  584.5000   -55.0797    13.4525    11.9542     8.1337    76.2013     2.4305     0.1661     0.0674
  585.0000   -55.0797    13.3059    11.8516     8.1180    73.7399     2.4137     0.1738     0.0737
  585.5000   -55.0795    13.3451    11.7498     8.0979    74.7132     2.4054     0.1783     0.0799
  586.0000   -55.0788    13.3773    11.6496     8.0859    75.6791     2.4063     0.1735     0.0838
  586.5000   -55.0800    13.4101    11.5952     8.3239    75.1635     2.4139     0.1676     0.0845
  587.0000   -55.1879    13.4294    11.5844     7.2430    72.4885     2.4238     0.1618     0.0852
  587.5000   -55.4882    13.1736    11.5727     7.5428    73.7825     2.4344     0.1560     0.0888
  588.0000   -55.7777    13.0592    11.5610     7.9312    76.3360     2.4454     0.1502     0.0933
  588.5000   -56.0669    13.0433    11.5494     8.2661    76.8292     2.4536     0.1460     0.0974
  589.0000   -56.3584    13.0275    11.5377     8.2608    69.0702     2.4572     0.1460     0.0984
  589.5000   -56.6596    13.0117    11.5261     8.2825    61.9648     2.4579     0.1460     0.0992
  590.0000   -56.8157    12.9958    11.5147     8.3059    60.9374     2.4593     0.1440     0.1001
  590.5000   -56.9688    12.9800    11.5029     8.3619    63.2514     2.4624     0.1408     0.1011
  591.0000   -57.1223    12.9643    11.4742     8.4563    65.5846     2.4634     0.1432     0.1085
  591.5000   -57.2809    12.9503    11.3928     8.4996    67.8245     2.4602     0.1463     0.1229
  592.0000   -57.5956    12.8785    11.3121     8.5098    67.8943     2.4436     0.1567     0.1235
  592.5000   -57.9073    12.8163    11.2319     8.5189    68.9657     2.4271     0.1647     0.1234
  593.0000   -58.2177    12.7288    11.1826     8.5280    70.6194     2.4276     0.1615     0.1234
  593.5000   -58.5284    12.6442    11.1826     8.5373    70.7583     2.4401     0.1531     0.1248
