~VERSION INFORMATION
 VERS.                2.0:   CWLS LOG ASCII STANDARD - VERSION 2.0
 WRAP.                 NO:   ONE LINE PER DEPTH STEP
~WELL INFORMATION
#MNEM.UNIT      DATA TYPE    INFORMATION
#----------   ------------   ------------------------------
 STRT.F            3.0000:   START DEPTH
 STOP.F          523.0000:   STOP DEPTH
 STEP.F            0.1000:   STEP LENGTH
 NULL.          -999.2500:   NO VALUE
 COMP.     BROWN JOHN E&C:   COMPANY
 WELL.   NPR 3 #52-2-SX-3:   WELL
 FLD .             TEAPOT:   FIELD
 LOC .       S3 T38N R78W:   LOCATION
 CNTY.            NATRONA:   COUNTY
 STAT.            WYOMING:   STATE
 CTRY. UNITED STATES OF AMERICA:   COUNTRY
 SRVC.     Atlas Wireline:   SERVICE COMPANY
 DATE.        18-APR-1992:   LOGDATE
 API .       490252251500:   API NUMBER
~CURVE INFORMATION
#MNEM.UNIT       API CODE    CURVE DESCRIPTION
#----------   ------------   ------------------------------
 DEPT.F                  :   
 GRR .GAPI   07 310 01 00:   GAMMA RAY
 RILD.OHMM   07 120 46 00:   INDUCTION LOG DEEP RESISTIVITY
 RILM.OHMM   07 120 44 00:   INDUCTION LOG MEDIUM RESISTIVITY
~PARAMETER INFORMATION
#MNEM.UNIT          VALUE    DESCRIPTION
#----------   ------------   ------------------------------
 PD  .                 GL:   PERMANENT DATUM
 EPD .F              5128:   ELEVATION PERMANENT DATUM
 LMF .                 KB:   LOG MEASURED FROM
 DAPD.F                 5:   FEET ABOVE PERMANENT DATUM
 DMF .                 KB:   DRILLING MEASURED FROM
 EKB .F              5133:   KELLING BUSHING
 EDF .F              5132:   DRILLING FLOOR
 EGL .F              5128:   GROUND LEVEL
 DATE.        18-APR-1992:   RUN DATE
 RUN .                  1:   RUN NUMBER
 DD  .F               525:   DEPTH DRILLER
 DL  .F               526:   DEPTH LOGGER
 BLI .F               524:   BOTTOM LOG INTERVAL
 CS  .IN            8.625:   CASING SIZE
 CBD .F                48:   CASING BOTTOM DRILLER
 CBL .F                49:   CASING BOTTOM LOGGER
 BS  .IN            7.875:   BIT SIZE
 BSD .F               525:   BIT SIZE AT DEPTH
 DFT .                AIR:   DRILLING FLUID TYPE
 TCS .HRS               2:   TIME CURCULATED STOPPED
 MRT .F                87:   MAXIMUM RECORDED TEMPERATURE
 LUN .            HL 6274:   LOGGING UNIT NUMBER
 LUL .             CASPER:   LOGGING UNIT LOCATION
 ENGI.            LEBSOCK:   RECORDING ENGINEER
 WITN.             STRONG:   WITNESSED BY
 CLNT.            A2DTECH:   CLIENT CODE
 ORIG.       2", 5" PRINT:   ORIGIN OF DATA
 UWI .       490252251500:   UNIQUE WELL ID
 DICO. A2D Technologies, Inc.:   DIGITIZING COMPANY
~OTHER INFORMATION
~A    DEPT     GRR       RILD       RILM   
# ...
  221.4000   121.4836     2.4060     2.2851
  221.5000   120.9091     2.3901     2.2743
  221.6000   120.7006     2.3787     2.2613
  221.7000   120.6061     2.3651     2.2533
  221.8000   120.6061     2.3569     2.2533
  221.9000   120.6061     2.3569     2.2533
  222.0000   120.6061     2.3569     2.2532
  222.1000   120.3703     2.3698     2.2720
  222.2000   119.2194     2.3834     2.3048
  222.3000   118.2339     2.4040     2.3446
  222.4000   116.9649     2.4317     2.3835
  222.5000   113.8181     2.4596     2.3993
  222.6000   111.5152     2.4925     2.4341
  222.7000   110.6836     2.5165     2.4675
  222.8000   109.9976     2.5545     2.5015
  222.9000   109.5018     2.5928     2.5447
  223.0000   109.0909     2.6252     2.5909
  223.1000   109.0909     2.6729     2.6192
  223.2000   109.3261     2.7168     2.6493
  223.3000   109.9339     2.7523     2.6877
  223.4000   110.6776     2.7921     2.7387
  223.5000   111.7001     2.8403     2.8008
  223.6000   113.4206     2.8884     2.8569
  223.7000   115.1515     2.9271     2.9128
  223.8000   116.3952     2.9838     2.9695
  223.9000   118.1868     3.0420     3.0421
  224.0000   120.1697     3.1088     3.1414
  224.1000   122.2782     3.2019     3.2170
  224.2000   125.1515     3.3194     3.3067
  224.3000   127.0278     3.4108     3.4173
  224.4000   128.1139     3.5246     3.5473
  224.5000   128.9818     3.6476     3.6856
  224.6000   129.9733     3.7746     3.8154
  224.7000   130.9648     3.9098     3.9949
  224.8000   132.1212     4.1512     4.1342
  224.9000   132.7412     4.2932     4.3033
  225.0000   133.3333     4.4847     4.4897
  225.1000   133.9255     4.6943     4.6940
  225.2000   134.6692     4.9181     4.8920
  225.3000   135.4545     5.1915     5.0573
  225.4000   136.1564     5.3631     5.2341
  225.5000   136.7213     5.5506     5.3840
  225.6000   137.2170     5.7275     5.5181
  225.7000   137.7127     5.8838     5.6751
  225.8000   138.1951     6.0196     5.8253
  225.9000   138.4848     6.1825     5.9411
  226.0000   138.6909     6.3017     6.0786
  226.1000   138.9388     6.4024     6.2192
  226.2000   139.1867     6.4904     6.3486
  226.3000   139.4346     6.5963     6.4236
  226.4000   139.6970     6.6765     6.4954
  226.5000   139.9303     6.7489     6.5419
  226.6000   140.1782     6.8265     6.5793
  226.7000   140.4261     6.8853     6.6169
  226.8000   140.7419     6.9248     6.6516
  226.9000   141.2376     6.9665     6.6515
  227.0000   141.8182     7.0604     6.6843
  227.1000   142.4345     7.0940     6.6979
  227.2000   143.0279     7.1346     6.6978
  227.3000   143.5236     7.1755     6.6977
  227.4000   144.0594     7.2167     6.6976
  227.5000   144.8485     7.2605     6.6976
  227.6000   145.3139     7.2996     6.6686
  227.7000   145.8097     7.3718     6.6507
  227.8000   146.1830     7.4144     6.6506
  227.9000   146.3636     7.4144     6.6505
  228.0000   146.3515     7.4144     6.6504
  228.1000   146.0606     7.4144     6.6836
  228.2000   145.6509     7.4144     6.6969
  228.3000   145.1552     7.4144     6.6968
  228.4000   144.6594     7.4144     6.6967
  228.5000   144.2030     7.4144     6.6966
  228.6000   143.9394     7.4144     6.6965
  228.7000   143.4751     7.4144     6.6964
  228.8000   142.8024     7.4144     6.7171
  228.9000   142.0588     7.4144     6.7432
  229.0000   141.4485     7.4144     6.7431
  229.1000   141.2121     7.4144     6.7430
  229.2000   141.2121     7.4144     6.7429
  229.3000   141.2121     7.4144     6.7428
  229.4000   141.2121     7.4144     6.7427
  229.5000   141.2121     7.3984     6.7345
  229.6000   141.2121     7.3627     6.6956
  229.7000   141.2121     7.3627     6.6955
  229.8000   141.4436     7.3236     6.6954
  229.9000   141.5152     7.3115     6.6953
  230.0000   141.5152     7.2911     6.6952
  230.1000   141.5152     7.2495     6.6951
  230.2000   141.5152     7.2064     6.6950
  230.3000   141.5152     7.1099     6.6949
  230.4000   140.9042     7.0766     6.6445
  230.5000   139.8636     6.9886     6.5688
  230.6000   138.7175     6.8844     6.4940
  230.7000   137.8024     6.8002     6.4197
  230.8000   137.2727     6.6765     6.3109
  230.9000   137.0418     6.5363     6.2309
  231.0000   137.1454     6.4144     6.1215
  231.1000   137.3933     6.2709     5.9828
  231.2000   137.6412     6.0850     5.8399
  231.3000   137.8994     5.8805     5.6210
  231.4000   138.4848     5.6852     5.4804
  231.5000   139.2970     5.5034     5.3259
  231.6000   139.6970     5.3410     5.1756
  231.7000   139.6970     5.2093     5.0294
  231.8000   139.7722     5.0664     4.8871
  231.9000   140.3030     4.9437     4.7767
  232.0000   143.0670     4.8915     4.6688
  232.1000   144.4649     4.8751     4.5921
  232.2000   144.8485     4.8886     4.5398
  232.3000   144.9133     4.9092     4.4910
  232.4000   145.1612     4.9092     4.4627
  232.5000   145.4545     4.9092     4.4398
  232.6000   145.4545     4.9092     4.4144
  232.7000   145.6018     4.9092     4.4005
  232.8000   145.8497     4.9092     4.4005
  232.9000   146.0606     4.9051     4.4002
  233.0000   146.0606     4.8751     4.3750
  233.1000   146.2903     4.8493     4.3697
  233.2000   146.3636     4.8217     4.3696
  233.3000   146.4830     4.7942     4.3695
  233.4000   146.6024     4.7599     4.3695
  233.5000   146.3636     4.7067     4.3694
  233.6000   146.3636     4.6749     4.3694
  233.7000   146.1618     4.6749     4.3864
  233.8000   145.7673     4.6591     4.3999
  233.9000   145.2715     4.6326     4.3998
  234.0000   144.7394     4.6100     4.4002
  234.1000   143.9394     4.6100     4.4254
  234.2000   143.0230     4.5857     4.4305
  234.3000   141.8576     4.5779     4.4304
  234.4000   141.2121     4.5654     4.4304
  234.5000   141.2758     4.5460     4.4303
  234.6000   141.5152     4.5460     4.4302
  234.7000   141.5152     4.5460     4.4302
  234.8000   141.5152     4.5460     4.4476
  234.9000   141.5152     4.5460     4.4730
  235.0000   141.5152     4.5556     4.4923
  235.1000   141.5152     4.5779     4.4929
  235.2000   141.5152     4.5779     4.5237
  235.3000   141.5152     4.6021     4.5445
  235.4000   141.5152     4.6285     4.5857
  235.5000   141.5152     4.6550     4.6289
  235.6000   141.5152     4.6817     4.6590
  235.7000   141.5073     4.7094     4.7171
  235.8000   141.2121     4.7739     4.7668
  235.9000   140.6102     4.8184     4.8409
  236.0000   138.9939     4.8738     4.9112
  236.1000   136.9436     4.9195     4.9748
  236.2000   135.3843     4.9558     5.0599
  236.3000   134.8485     5.0484     5.1293
  236.4000   134.3928     5.0750     5.1769
  236.5000   134.2424     5.1452     5.2365
  236.6000   134.3600     5.2199     5.2966
  236.7000   134.6079     5.2876     5.3574
  236.8000   134.8704     5.3789     5.4238
  236.9000   135.7576     5.4900     5.4813
  237.0000   136.3576     5.5410     5.5668
  237.1000   137.2461     5.6047     5.6474
  237.2000   138.1479     5.6692     5.7123
  237.3000   138.8916     5.7343     5.7791
  237.4000   139.6970     5.8057     5.8977
  237.5000   140.1515     5.8670     5.9810
  237.6000   140.8194     5.9582     6.0845
  237.7000   141.5630     6.0448     6.1897
  237.8000   142.2448     6.1231     6.2857
  237.9000   142.7406     6.2278     6.3242
  238.0000   143.3333     6.3135     6.4259
  238.1000   143.1340     6.3720     6.5106
  238.2000   142.8861     6.4669     6.5854
  238.3000   142.7273     6.5651     6.6611
  238.4000   142.6254     6.6405     6.7375
  238.5000   141.8182     6.7233     6.8289
  238.6000   141.3648     6.8299     6.8610
  238.7000   141.2121     6.8930     6.9481
  238.8000   141.2121     6.9513     7.0375
  238.9000   141.2121     7.0312     7.0841
  239.0000   141.2121     7.1109     7.1708
  239.1000   141.2121     7.1598     7.2092
  239.2000   141.2121     7.2259     7.2505
  239.3000   141.2121     7.3090     7.3126
  239.4000   141.2121     7.3930     7.3966
  239.5000   141.2121     7.4779     7.4794
