~VERSION INFORMATION
 VERS.                2.0:   CWLS LOG ASCII STANDARD - VERSION 2.0
 WRAP.                 NO:   ONE LINE PER DEPTH STEP
~WELL INFORMATION
#MNEM.UNIT      DATA TYPE    INFORMATION
#----------   ------------   ------------------------------
 STRT.F           33.5000:   START DEPTH
 STOP.F          680.0000:   STOP DEPTH
 STEP.F            0.5000:   STEP LENGTH
 NULL.          -999.2500:   NO VALUE
 COMP. FENIX & SCISSON INC:   COMPANY
 WELL.       NPR 3 #66-34:   WELL
 FLD .             TEAPOT:   FIELD
 LOC .      S34 T39N R78W:   LOCATION
 CNTY.            NATRONA:   COUNTY
 STAT.            WYOMING:   STATE
 CTRY. UNITED STATES OF AMERICA:   COUNTRY
 SRVC.           BIRDWELL:   SERVICE COMPANY
 DATE.        12-AUG-1978:   LOGDATE
 API .       490251068400:   API NUMBER
~CURVE INFORMATION
#MNEM.UNIT       API CODE    CURVE DESCRIPTION
#----------   ------------   ------------------------------
 DEPT.F                  :   
 SPR .MV     05 010 01 00:   SPONTANEOUS POTENTIAL FROM RES.
 SN  .OHMM   05 040 16 00:   SHORT NORMAL 16"
 IL  .OHMM   05 120 00 00:   INDUCTION LOG
 CORR.G/C3   45 356 01 00:   DENSITY CORRECTION
 GRD .GAPI   45 310 01 00:   GAMMA RAY FROM DENSITY LOG
 RHOB.G/C3   45 350 01 00:   BULK DENSITY
 DPHI.DEC    45 890 12 00:   DENSITY POROSITY SANDSTONE
 CALD.IN     45 280 60 00:   CALIPER
~PARAMETER INFORMATION
#MNEM.UNIT          VALUE    DESCRIPTION
#----------   ------------   ------------------------------
 PD  .                 GL:   PERMANENT DATUM
 EPD .F              5078:   ELEVATION PERMANENT DATUM
 LMF .                 KB:   LOG MEASURED FROM
 DAPD.F                 4:   FEET ABOVE PERMANENT DATUM
 DMF .                 KB:   DRILLING MEASURED FROM
 EKB .F              5082:   KELLING BUSHING
 EGL .F              5078:   GROUND LEVEL
 DATE.            8-12-78:   RUN DATE
 RUN .                  1:   RUN NUMBER
 DD  .F               675:   DEPTH DRILLER
 DL  .F               686:   DEPTH LOGGER
 BLI .F               680:   BOTTOM LOG INTERVAL
 TLI .F                50:   TOP LOG INTERVAL
 CS  .IN            8.625:   CASING SIZE
 CBD .F                40:   CASING BOTTOM DRILLER
 BS  .IN            7.875:   BIT SIZE
 BSD .F               675:   BIT SIZE AT DEPTH
 DFT .                KCL:   DRILLING FLUID TYPE
 DFL .               10.4:   DRILLING FLUID LOSS
 MSS .          FLOW LINE:   MUD SAMPLE SOURCE
 RMS .OHMM            .18:   RESISTIVITY MUD SAMPLE
 MST .F                90:   MUD SAMPLE TEMPERATURE
 RMF .OHMM            .16:   RESISTIVITY MUD FILTRATE SAMPLE
 MFST.F                90:   MUD FILTRATE SAMPLE TEMPERATURE
 RMC .OHMM            .32:   RESISTIVITY MUD CAKE
 MCST.F                90:   MUD CAKE SAMPLE TEMPERATURE
 MFSS.               MEAS:   MUD FILTRATE SAMPLE SOURCE
 TCS .HRS               3:   TIME CURCULATED STOPPED
 LUN .               3006:   LOGGING UNIT NUMBER
 LUL .               CASP:   LOGGING UNIT LOCATION
 ENGI.             MILLER:   RECORDING ENGINEER
 WITN.           MCGINLEY:   WITNESSED BY
 CLNT.            A2DTECH:   CLIENT CODE
 ORIG.           5" PRINT:   ORIGIN OF DATA
 UWI .       490251068400:   UNIQUE WELL ID
 DICO. A2D Technologies, Inc.:   DIGITIZING COMPANY
~OTHER INFORMATION
~A   DEPT      SPR         SN         IL       CORR         GRD      RHOB       DPHI       CALD   
# ...
  195.5000   -55.1899     5.9993     5.5398     0.0227    95.9212     2.4708     0.1270     7.9820
  196.0000   -55.1084     5.9711     5.5297     0.0234    96.2803     2.4707     0.1251     7.9821
  196.5000   -55.0267     5.9513     5.5723     0.0246    96.1199     2.4762     0.1216     7.9824
  197.0000   -54.9450     5.9773     5.6016     0.0258    95.1635     2.4818     0.1197     7.9698
  197.5000   -54.8633     5.9974     5.6322     0.0255    93.6582     2.4844     0.1169     7.9549
  198.0000   -54.7807     6.0341     5.6992     0.0236    93.2455     2.4899     0.1138     7.9420
  198.5000   -54.7046     6.0836     5.7699     0.0217    95.8003     2.4941     0.1108     7.9539
  199.0000   -54.7849     6.1334     5.8415     0.0198    99.1858     2.4906     0.1153     7.9869
  199.5000   -54.8720     6.1837     5.9138     0.0193    99.4006     2.4851     0.1198     8.0196
  200.0000   -54.9583     6.2346     5.9666     0.0232    96.6995     2.4801     0.1232     8.0537
  200.5000   -55.0445     6.2881     5.9981     0.0265    93.9803     2.4836     0.1158     8.0763
  201.0000   -55.1309     6.2534     6.0299     0.0242    91.3803     2.4904     0.1120     8.0660
  201.5000   -55.2184     6.2311     6.0615     0.0217    91.6882     2.4919     0.1143     8.0384
  202.0000   -55.2932     6.2585     6.0333     0.0211    93.6824     2.4916     0.1134     8.0103
  202.5000   -55.1523     6.2865     6.0056     0.0240    94.5777     2.4945     0.1100     8.0082
  203.0000   -55.0066     6.2531     5.9044     0.0269    88.2989     2.4908     0.1134     8.0292
  203.5000   -54.8621     6.1826     5.8116     0.0297    88.5895     2.4851     0.1167     8.0500
  204.0000   -54.7179     6.1129     5.7201     0.0324    92.0519     2.4827     0.1182     8.0610
  204.5000   -54.5736     6.0441     5.6322     0.0304    94.4653     2.4811     0.1195     8.0385
  205.0000   -54.4293     6.0062     5.6019     0.0275    95.8779     2.4774     0.1237     8.0163
  205.5000   -54.2850     6.1175     5.5723     0.0245    97.7863     2.4691     0.1275     8.0037
  206.0000   -54.1345     6.0813     5.5297     0.0215    99.6420     2.4613     0.1313     8.0091
  206.5000   -54.1181     6.0305     5.5401     0.0204    98.8507     2.4599     0.1331     8.0143
  207.0000   -54.1428     5.9801     5.5589     0.0204    96.9550     2.4657     0.1309     8.0195
  207.5000   -54.1685     5.9513     5.5778     0.0215    95.6981     2.4709     0.1269     8.0148
  208.0000   -54.1938     6.0794     5.6492     0.0246    96.5797     2.4776     0.1193     8.0019
  208.5000   -54.2190     6.1792     5.7312     0.0277    98.8827     2.4867     0.1117     7.9891
  209.0000   -54.2442     6.2284     5.8144     0.0304   100.1042     2.4958     0.1048     7.9869
  209.5000   -54.2695     6.2780     5.8989     0.0265    98.9405     2.5020     0.1079     7.9974
  210.0000   -54.2957     6.3279     5.9846     0.0199    96.6834     2.4958     0.1115     8.0077
  210.5000   -54.2820     6.3464     6.0714     0.0129    94.5664     2.4890     0.1150     8.0183
  211.0000   -54.2591     6.3463     6.1175     0.0126    95.3809     2.4915     0.1142     8.0148
  211.5000   -54.2360     6.3464     6.0803     0.0221    97.3727     2.4961     0.1112     8.0040
  212.0000   -54.2130     6.3461     6.0552     0.0275    98.7277     2.4900     0.1164     7.9929
  212.5000   -54.1900     6.3561     6.0299     0.0244    98.4276     2.4803     0.1221     7.9826
  213.0000   -54.1670     6.3813     6.0063     0.0214    95.9079     2.4713     0.1275     7.9921
  213.5000   -54.1439     6.4067     6.0415     0.0185    94.7710     2.4701     0.1269     8.0031
  214.0000   -54.1204     6.4322     6.0763     0.0170    93.9257     2.4727     0.1255     8.0301
  214.5000   -54.1030     6.4644     6.1113     0.0188    90.7879     2.4750     0.1251     8.0564
  215.0000   -54.1652     6.4640     6.1461     0.0203    91.1069     2.4744     0.1243     8.0806
  215.5000   -54.2267     6.4640     6.1739     0.0181    92.6726     2.4746     0.1224     8.0667
  216.0000   -54.2875     6.4485     6.0733     0.0166    93.8158     2.4746     0.1207     8.0519
  216.5000   -54.3485     6.4132     5.9914     0.0179    94.8559     2.4724     0.1245     8.0466
  217.0000   -54.4091     6.3781     5.9403     0.0209    94.7975     2.4724     0.1267     8.0617
  217.5000   -54.4700     6.3432     5.9186     0.0252    94.7617     2.4759     0.1235     8.0768
  218.0000   -54.4529     6.3085     5.8969     0.0294    96.5298     2.4794     0.1195     8.0694
  218.5000   -54.3617     6.2884     5.8351     0.0321    99.7202     2.4829     0.1167     8.0513
  219.0000   -54.2697     6.3005     5.7895     0.0289    98.5461     2.4806     0.1212     8.0331
  219.5000   -54.1777     6.3091     5.8198     0.0267    97.2085     2.4782     0.1219     8.0263
  220.0000   -54.0858     6.3176     5.8439     0.0283    98.0060     2.4799     0.1192     8.0381
  220.5000   -53.9939     6.3262     5.8681     0.0257    96.8096     2.4778     0.1214     8.0498
  221.0000   -53.9019     6.3349     5.8969     0.0225    96.0181     2.4712     0.1259     8.0610
  221.5000   -53.8097     6.3460     5.8841     0.0208   101.5182     2.4673     0.1287     8.0455
  222.0000   -53.7149     6.3337     5.8686     0.0219   101.3761     2.4751     0.1230     8.0277
  222.5000   -53.7500     6.3142     5.8531     0.0223    99.8606     2.4810     0.1195     8.0311
  223.0000   -53.8126     6.2948     5.8375     0.0200   101.5010     2.4775     0.1218     8.0448
  223.5000   -53.8756     6.2754     5.8211     0.0176   104.0293     2.4742     0.1252     8.0593
  224.0000   -53.9384     6.2560     5.8048     0.0153   105.3143     2.4750     0.1248     8.0502
  224.5000   -54.0011     6.2312     5.7895     0.0154   105.6641     2.4775     0.1230     8.0352
  225.0000   -54.0631     6.2695     5.8596     0.0169   104.9671     2.4788     0.1229     8.0227
  225.5000   -54.0853     6.3271     5.9263     0.0184   102.9597     2.4783     0.1223     8.0369
  226.0000   -54.0484     6.3853     5.9938     0.0199   101.3945     2.4813     0.1163     8.0510
  226.5000   -54.0123     6.4439     6.0616     0.0172   100.1362     2.4873     0.1140     8.0658
  227.0000   -53.9759     6.5032     6.0980     0.0121    97.9359     2.4770     0.1251     8.0800
  227.5000   -53.9397     6.5236     6.1344     0.0069    96.1100     2.4646     0.1298     8.0468
  228.0000   -53.9034     6.5030     6.1739     0.0056    97.6336     2.4660     0.1296     8.0136
  228.5000   -53.8671     6.4890     6.2309     0.0074    99.4507     2.4695     0.1256     7.9809
  229.0000   -53.8308     6.4750     6.2037     0.0077    97.3895     2.4620     0.1323     7.9620
  229.5000   -53.7945     6.4640     6.1687     0.0060    96.6947     2.4536     0.1383     7.9622
  230.0000   -53.7581     6.5696     6.1335     0.0052    98.7556     2.4656     0.1304     7.9647
  230.5000   -53.7224     6.6576     6.0986     0.0112    98.4924     2.4684     0.1283     7.9732
  231.0000   -53.7136     6.7469     6.0616     0.0172    95.7186     2.4720     0.1214     7.9815
  231.5000   -53.7498     6.8374     6.0616     0.0205    95.2791     2.4795     0.1217     7.9898
  232.0000   -53.7853     6.8931     6.0616     0.0204    95.8147     2.4808     0.1224     7.9981
  232.5000   -53.8210     6.8734     6.0852     0.0214    96.0648     2.4828     0.1197     8.0003
  233.0000   -53.8568     6.8592     6.1882     0.0221    95.8819     2.4859     0.1170     7.9956
  233.5000   -53.8936     6.8450     6.2930     0.0212    96.8116     2.4861     0.1144     7.9909
  234.0000   -53.8842     6.8301     6.4049     0.0206    97.9236     2.4867     0.1157     7.9861
  234.5000   -53.8640     6.8703     6.4496     0.0233    98.9084     2.4897     0.1173     7.9831
  235.0000   -53.8435     6.9133     6.4970     0.0259    99.4983     2.4897     0.1167     7.9922
  235.5000   -53.8232     6.9565     6.5236     0.0283   102.8408     2.4873     0.1131     8.0013
