~VERSION INFORMATION
 VERS.                2.0:   CWLS LOG ASCII STANDARD - VERSION 2.0
 WRAP.                 NO:   ONE LINE PER DEPTH STEP
~WELL INFORMATION
#MNEM.UNIT      DATA TYPE    INFORMATION
#----------   ------------   ------------------------------
 STRT.F           12.0000:   START DEPTH
 STOP.F          793.0000:   STOP DEPTH
 STEP.F            0.5000:   STEP LENGTH
 NULL.          -999.2500:   NO VALUE
 COMP.   FLUOR DANIEL INC:   COMPANY
 WELL.   35-1-X-10 #35-10:   WELL
 FLD .            WILDCAT:   FIELD
 LOC .      S10 T38N R78W:   LOCATION
 CNTY.            NATRONA:   COUNTY
 STAT.            WYOMING:   STATE
 CTRY. UNITED STATES OF AMERICA:   COUNTRY
 SRVC.      Western Atlas:   SERVICE COMPANY
 DATE.        20-AUG-1996:   LOGDATE
 API .       490252282200:   API NUMBER
~CURVE INFORMATION
#MNEM.UNIT       API CODE    CURVE DESCRIPTION
#----------   ------------   ------------------------------
 DEPT.F                  :   
 RFOC.OHMM   07 220 04 00:   RESISTIVITY FOCUSED LOG
 RILD.OHMM   07 120 46 00:   INDUCTION LOG DEEP RESISTIVITY
 RILM.OHMM   07 120 44 00:   INDUCTION LOG MEDIUM RESISTIVITY
 SPR .MV     07 010 01 00:   SPONTANEOUS POTENTIAL
 CALD.IN     45 280 60 00:   CALIPER FROM DENSITY LOG
 GRD .GAPI   45 310 01 00:   GAMMA RAY FROM DENSITY LOG
 ZCOR.G/C3   45 356 01 00:   DENSITY CORRECTION
 ZDEN.G/C3   45 350 01 00:   BULK DENSITY
 PORZ.DEC    45 890 12 00:   DENSITY POROSITY SANDSTONE
 CNC .DEC    42 890 03 00:   NEUTRON POROSITY SANDSTONE
~PARAMETER INFORMATION
#MNEM.UNIT          VALUE    DESCRIPTION
#----------   ------------   ------------------------------
 PD  .                 GL:   PERMANENT DATUM
 EPD .F              5228:   ELEVATION PERMANENT DATUM
 LMF .                 KB:   LOG MEASURED FROM
 DAPD.F                10:   FEET ABOVE PERMANENT DATUM
 DMF .                 KB:   DRILLING MEASURED FROM
 EKB .F              5238:   KELLING BUSHING
 EGL .F              5228:   GROUND LEVEL
 DATE.        20-AUG-1996:   RUN DATE
 RUN .                  1:   RUN NUMBER
 DD  .F               794:   DEPTH DRILLER
 DL  .F               794:   DEPTH LOGGER
 BLI .F               793:   BOTTOM LOG INTERVAL
 TLI .F                12:   TOP LOG INTERVAL
 CS  .IN           13.375:   CASING SIZE
 CBD .F                58:   CASING BOTTOM DRILLER
 CBL .F                59:   CASING BOTTOM LOGGER
 BS  .IN            12.25:   BIT SIZE
 BSD .F               794:   BIT SIZE AT DEPTH
 DFT .           SPUD MUD:   DRILLING FLUID TYPE
 DFD .                9.2:   DRILLING FLUID DENSITY
 DFV .                 50:   DRILLING FLUID VISCOSITY
 DFPH.                  9:   DRILLING FLUID PH
 DFL .               13.8:   DRILLING FLUID LOSS
 MSS .              CIRC.:   MUD SAMPLE SOURCE
 RMS .OHMM           1.14:   RESISTIVITY MUD SAMPLE
 MST .F                77:   MUD SAMPLE TEMPERATURE
 RMF .OHMM           0.90:   RESISTIVITY MUD FILTRATE SAMPLE
 MFST.F                77:   MUD FILTRATE SAMPLE TEMPERATURE
 RMC .OHMM            1.4:   RESISTIVITY MUD CAKE
 MCST.F                77:   MUD CAKE SAMPLE TEMPERATURE
 MFSS.               CALC:   MUD FILTRATE SAMPLE SOURCE
 MCSS.               CALC:   MUD CAKE SAMPLE SOURCE
 RMB .OHMM            .84:   RESISTIVITY MUD AT BHT
 BHT .F               104:   BOTTOM HOLE TEMPERATURE
 TCS .HRS               3:   TIME CURCULATED STOPPED
 MRT .F               104:   MAXIMUM RECORDED TEMPERATURE
 LUN .            HL-6530:   LOGGING UNIT NUMBER
 LUL .             CASPER:   LOGGING UNIT LOCATION
 ENGI.           BROWNLOW:   RECORDING ENGINEER
 WITN.      SCHULTE/HARDY:   WITNESSED BY
 CLNT.            A2DTECH:   CLIENT CODE
 ORIG.           5" PRINT:   ORIGIN OF DATA
 UWI .       490252282200:   UNIQUE WELL ID
 DICO. A2D Technologies, Inc.:   DIGITIZING COMPANY
~OTHER INFORMATION
~A   DEPT     RFOC       RILD       RILM        SPR       CALD        GRD       ZCOR       ZDEN       PORZ        CNC   
# ...
  514.5000    11.7732    14.5701    14.0828   -27.6853    12.5529    59.8187     0.0817     2.3529     0.1808     0.3021
  515.0000    11.9371    14.5701    14.1784   -27.3828    12.5529    60.1208     0.0772     2.3522     0.1805     0.3009
  515.5000    12.0193    14.5701    14.2752   -27.2315    12.5680    61.0272     0.0772     2.3567     0.1780     0.3003
  516.0000    12.1025    14.5701    14.1746   -26.9289    12.5831    61.9335     0.0789     2.3613     0.1762     0.2970
  516.5000    12.2710    14.6719    13.6893   -26.9289    12.5831    63.4441     0.0818     2.3605     0.1756     0.2961
  517.0000    12.1850    14.6719    13.2210   -26.7776    12.5831    62.5378     0.0772     2.3613     0.1753     0.3045
  517.5000    11.9274    14.7744    13.3112   -26.6263    12.5831    61.3293     0.0636     2.3643     0.1744     0.3154
  518.0000    11.7675    14.7744    13.4953   -26.6173    12.5831    61.0272     0.0511     2.3673     0.1723     0.3253
  518.5000    11.9313    14.7744    13.6820   -26.4750    12.5529    61.0272     0.0380     2.3696     0.1696     0.3329
  519.0000    11.9303    14.7744    14.1625   -26.4750    12.5529    61.0272     0.0350     2.3674     0.1684     0.3353
  519.5000    11.9295    14.7744    14.2596   -26.4750    12.5529    60.1208     0.0365     2.3628     0.1735     0.3329
  520.0000    11.9288    14.6719    13.9637   -26.4750    12.5529    59.2145     0.0395     2.3591     0.1765     0.3299
  520.5000    12.0111    14.6719    13.8653   -26.4750    12.5529    58.3082     0.0426     2.3583     0.1771     0.3262
  521.0000    12.0940    14.7744    13.8635   -26.6263    12.5529    58.9124     0.0456     2.3621     0.1750     0.3232
  521.5000    12.1775    14.7744    13.9581   -26.6263    12.5529    60.4230     0.0381     2.3674     0.1714     0.3202
  522.0000    12.1765    14.8776    14.2492   -26.6263    12.5529    62.5579     0.0396     2.3765     0.1668     0.3158
  522.5000    12.0914    14.9816    14.6481   -26.7776    12.5378    63.7462     0.0426     2.3772     0.1656     0.3069
  523.0000    12.1749    15.0862    15.0581   -26.6263    12.5378    62.8399     0.0457     2.3825     0.1644     0.3028
  523.5000    12.2589    15.1916    15.3727   -26.4750    12.5529    61.3293     0.0533     2.3954     0.1611     0.3012
  524.0000    12.5160    15.1916    15.5854   -26.3238    12.5529    60.6848     0.0654     2.4180     0.1415     0.2903
  524.5000    12.7789    15.1916    15.5832   -26.0212    12.5680    61.0272     0.0608     2.4830     0.1183     0.2659
  525.0000    13.2294    15.1916    15.5807   -25.8699    12.5680    61.6314     0.0518     2.4913     0.0986     0.2448
  525.5000    14.3784    15.1916    14.9437   -25.7140    12.5529    62.8399     0.0455     2.4830     0.0959     0.2301
  526.0000    14.2727    15.0821    13.3723   -25.4160    12.5529    64.3505     0.0367     2.4553     0.1137     0.2344
  526.5000    12.5990    14.8776    13.2781   -25.4160    12.5529    66.4653     0.0337     2.4196     0.1309     0.2484
  527.0000    11.2710    14.6719    13.4618   -25.4160    12.5529    67.6737     0.0307     2.4090     0.1451     0.2538
  527.5000    11.1166    14.4691    13.5537   -25.4160    12.5529    66.4653     0.0277     2.4037     0.1484     0.2569
  528.0000    11.3499    14.3687    13.5514   -25.4160    12.5529    63.7462     0.0292     2.4007     0.1502     0.2605
  528.5000    11.5081    14.2690    13.5496   -25.4160    12.5529    62.8399     0.0307     2.4007     0.1514     0.2650
  529.0000    11.5071    14.1700    13.5478   -25.4160    12.5378    63.4441     0.0338     2.4007     0.1517     0.2698
  529.5000    11.4267    14.1700    13.5460   -25.4160    12.5378    65.2971     0.0398     2.4038     0.1502     0.2744
  530.0000    11.1903    14.1700    13.5442   -25.4160    12.5378    67.0695     0.0323     2.4053     0.1493     0.2777
  530.5000    11.1120    14.0717    13.4484   -25.4160    12.5227    65.8610     0.0278     2.3962     0.1517     0.2768
  531.0000    11.1889    13.9741    13.3537   -25.4160    12.5378    64.6526     0.0263     2.3834     0.1574     0.2765
  531.5000    11.3444    13.8682    13.1680   -25.5673    12.5378    64.0483     0.0278     2.3827     0.1632     0.2783
  532.0000    11.3437    13.6853    13.0752   -25.5673    12.5378    63.4441     0.0338     2.3932     0.1601     0.2810
  532.5000    11.1864    13.4960    12.8934   -25.5673    12.5378    63.1420     0.0399     2.4083     0.1523     0.2885
  533.0000    10.9469    13.3094    12.7137   -25.5673    12.5378    62.5378     0.0399     2.4189     0.1450     0.2937
  533.5000    10.8030    13.1254    12.6241   -25.5673    12.5378    61.6314     0.0294     2.4166     0.1405     0.2952
  534.0000    10.8023    13.0319    12.6225   -25.5673    12.5378    61.0272     0.0294     2.4152     0.1412     0.2858
  534.5000    10.8770    12.7649    12.5336   -25.5673    12.5529    61.0473     0.0294     2.4159     0.1438     0.2834
  535.0000    10.8761    12.5884    12.4453   -25.5673    12.5529    61.9335     0.0294     2.4182     0.1435     0.2864
  535.5000    10.8754    12.4144    12.3479   -25.5673    12.5529    62.8399     0.0355     2.4227     0.1417     0.2876
  536.0000    10.8636    12.3283    12.1854   -25.5673    12.5529    63.4441     0.0400     2.4273     0.1396     0.2882
  536.5000    10.5758    12.1578    12.0159   -25.5673    12.5529    64.0483     0.0431     2.4333     0.1372     0.2888
  537.0000    10.3570    11.9897    11.8488   -25.5673    12.5529    64.6526     0.0476     2.4401     0.1345     0.2892
  537.5000    10.2846    11.9065    11.7654   -25.5673    12.5529    64.3505     0.0567     2.4439     0.1317     0.2897
  538.0000    10.3556    11.9065    11.7638   -25.5673    12.5529    64.0483     0.0779     2.4326     0.1281     0.2894
  538.5000    10.3549    11.9065    11.7619   -25.5673    12.5529    64.0483     0.0915     2.4167     0.1260     0.2834
  539.0000    10.3541    11.9065    11.6790   -25.5673    12.5529    64.9547     0.1081     2.4054     0.1294     0.2759
  539.5000    10.2817    11.9065    11.6775   -25.5673    12.5529    67.0695     0.1051     2.4069     0.1416     0.2716
  540.0000    10.2099    11.8239    11.5952   -25.5673    12.5529    67.0695     0.0810     2.4198     0.1492     0.2719
  540.5000    10.0684    11.8239    11.5937   -25.4160    12.5529    66.1631     0.0689     2.4372     0.1462     0.2753
  541.0000    10.0677    11.8239    11.6728   -25.4160    12.5529    66.4653     0.0628     2.4552     0.1381     0.2765
  541.5000    10.0670    11.8239    11.6709   -25.4160    12.5529    66.7674     0.0583     2.4636     0.1254     0.2750
  542.0000    10.1365    11.7419    11.6693   -25.4160    12.5378    67.0695     0.0508     2.4614     0.1178     0.2707
  542.5000    10.1357    11.7419    11.5871   -25.4160    12.5378    67.0695     0.0462     2.4606     0.1133     0.2574
  543.0000    10.0648    11.7419    11.4260   -25.2647    12.5397    67.0695     0.0417     2.4599     0.1148     0.2553
  543.5000    10.1345    11.7419    11.4245   -25.2647    12.5529    67.0695     0.0402     2.4576     0.1151     0.2544
  544.0000    10.1336    11.8239    11.4226   -25.2647    12.5529    67.0695     0.0387     2.4569     0.1160     0.2614
  544.5000    10.1329    11.8239    11.4211   -25.2647    12.5529    67.3716     0.0356     2.4576     0.1175     0.2689
  545.0000    10.1321    11.8239    11.4196   -25.2647    12.5529    67.9758     0.0312     2.4622     0.1172     0.2713
  545.5000    10.1314    11.8239    11.4181   -25.4160    12.5529    68.8822     0.0297     2.4659     0.1139     0.2725
  546.0000    10.2016    11.8239    11.4165   -25.4160    12.5680    68.2779     0.0297     2.4667     0.1127     0.2729
  546.5000    10.2720    11.8239    11.4945   -25.4160    12.5680    68.2779     0.0275     2.4667     0.1121     0.2722
  547.0000    10.3427    11.8239    11.6531   -25.4160    12.5680    68.2779     0.0275     2.4660     0.1118     0.2698
  547.5000    10.3420    11.8239    11.7326   -25.4160    12.5680    69.4864     0.0245     2.4652     0.1112     0.2668
