~VERSION INFORMATION
 VERS.                2.0:   CWLS LOG ASCII STANDARD - VERSION 2.0
 WRAP.                 NO:   ONE LINE PER DEPTH STEP
~WELL INFORMATION
#MNEM.UNIT      DATA TYPE    INFORMATION
#----------   ------------   ------------------------------
 STRT.F            0.0000:   START DEPTH
 STOP.F          479.0000:   STOP DEPTH
 STEP.F            0.5000:   STEP LENGTH
 NULL.          -999.2500:   NO VALUE
 COMP. BROWN JOHN E&C INC:   COMPANY
 WELL.  63-3 SX-10 #63-10:   WELL
 FLD .             TEAPOT:   FIELD
 LOC .      S10 T38N R78W:   LOCATION
 CNTY.            NATRONA:   COUNTY
 STAT.            WYOMING:   STATE
 CTRY. UNITED STATES OF AMERICA:   COUNTRY
 SRVC.     Atlas Wireline:   SERVICE COMPANY
 DATE.        25-APR-1992:   LOGDATE
 API .       490252252900:   API NUMBER
~CURVE INFORMATION
#MNEM.UNIT       API CODE    CURVE DESCRIPTION
#----------   ------------   ------------------------------
 DEPT.F                  :   
 GRR .GAPI   07 310 01 00:   GAMMA RAY
 SPR .MV     07 010 01 00:   SPONTANEOUS POTENTIAL
 RILD.OHMM   07 120 46 00:   INDUCTION LOG DEEP RESISTIVITY
 RILM.OHMM   07 120 44 00:   INDUCTION LOG MEDIUM RESISTIVITY
 RFOC.OHMM   07 220 04 00:   RESISTIVITY FOCUSED LOG
 PORD.DEC    45 890 12 00:   POROSITY DENSITY SANDSTONE
 CNC .DEC    42 890 03 00:   NEUTRON POROSITY SANDSTONE
 CALD.IN     45 280 60 00:   CALIPER FROM DENSITY
 CORR.G/C3   45 356 01 00:   DENSITY CORRECTION
 DEN .G/C3   45 350 01 00:   COMPENSATED BULK DENSTIY
~PARAMETER INFORMATION
#MNEM.UNIT          VALUE    DESCRIPTION
#----------   ------------   ------------------------------
 PD  .                 GL:   PERMANENT DATUM
 EPD .F              5189:   ELEVATION PERMANENT DATUM
 LMF .                 KB:   LOG MEASURED FROM
 DAPD.F                10:   FEET ABOVE PERMANENT DATUM
 DMF .                 KB:   DRILLING MEASURED FROM
 EKB .F              5199:   KELLING BUSHING
 EGL .F              5189:   GROUND LEVEL
 DATE.        25-APR-1992:   RUN DATE
 RUN .                  1:   RUN NUMBER
 DD  .F               480:   DEPTH DRILLER
 DL  .F               482:   DEPTH LOGGER
 BLI .F               480:   BOTTOM LOG INTERVAL
 CS  .IN            8.625:   CASING SIZE
 CBD .F               130:   CASING BOTTOM DRILLER
 CBL .F               143:   CASING BOTTOM LOGGER
 BS  .IN            7.875:   BIT SIZE
 BSD .F               480:   BIT SIZE AT DEPTH
 DFT .     DISP. WEIGHTED:   DRILLING FLUID TYPE
 DFD .               15.1:   DRILLING FLUID DENSITY
 DFV .                 44:   DRILLING FLUID VISCOSITY
 DFPH.                8.4:   DRILLING FLUID PH
 DFL .                  7:   DRILLING FLUID LOSS
 MSS .           FLOWLINE:   MUD SAMPLE SOURCE
 TCS .HRS            0230:   TIME CURCULATED STOPPED
 LUN .           HL- 6272:   LOGGING UNIT NUMBER
 LUL .             CASPER:   LOGGING UNIT LOCATION
 ENGI.       P. RASMUSSEN:   RECORDING ENGINEER
 WITN.          G. STRONG:   WITNESSED BY
 CLNT.            A2DTECH:   CLIENT CODE
 ORIG.           5" PRINT:   ORIGIN OF DATA
 UWI .       490252252900:   UNIQUE WELL ID
 DICO. A2D Technologies, Inc.:   DIGITIZING COMPANY
~OTHER INFORMATION
~A    DEPT      GRR       SPR       RILD       RILM       RFOC       PORD        CNC       CALD       CORR        DEN   
# ...
  368.5000    67.5518   -61.2534    16.4428    16.3881    14.7346     0.1364     0.2745     7.6796    -0.0021     2.4302
  369.0000    66.6396   -61.2740    15.9876    16.2589    14.4248     0.1361     0.2727     7.6790    -0.0036     2.4264
  369.5000    68.1450   -61.5641    15.7605    15.9144    14.3197     0.1334     0.2712     7.6784    -0.0052     2.4294
  370.0000    70.2570   -61.7203    15.4338    15.4900    14.3148     0.1322     0.2697     7.6929    -0.0082     2.4331
  370.5000    71.7639   -61.8757    15.3234    15.0615    14.3099     0.1322     0.2691     7.6923    -0.0098     2.4361
  371.0000    73.5733   -61.8801    15.1083    14.6449    14.2056     0.1328     0.2694     7.6917    -0.0098     2.4338
  371.5000    74.4751   -62.0354    14.8955    14.5403    14.0042     0.1337     0.2703     7.7065    -0.0084     2.4300
  372.0000    72.0000   -62.3416    14.8924    14.5373    13.8057     0.1340     0.2715     7.7057    -0.0054     2.4284
  372.5000    67.7160   -62.4969    14.8893    14.6358    13.5155     0.1334     0.2745     7.7051    -0.0024     2.4314
  373.0000    65.9849   -62.6522    14.8862    14.6328    13.4170     0.1328     0.2760     7.7040    -0.0010     2.4335
  373.5000    67.1879   -62.9583    14.8832    14.5283    13.2234     0.1312     0.2751     7.7021     0.0020     2.4403
  374.0000    68.6948   -63.1136    14.6742    14.1264    13.1303     0.1264     0.2742     7.7002     0.0035     2.4448
  374.5000    66.8734   -63.1181    14.4681    13.7356    13.0347     0.1234     0.2766     7.6983     0.0050     2.4486
  375.0000    65.0520   -62.8209    14.2650    13.3556    12.8498     0.1207     0.2793     7.6963     0.0064     2.4501
  375.5000    65.6511   -62.3729    13.9670    13.0769    12.7553     0.1192     0.2808     7.6944     0.0049     2.4509
  376.0000    68.0657   -61.9237    13.6753    12.9835    12.5745     0.1189     0.2793     7.6925     0.0018     2.4516
  376.5000    67.7587   -61.3249    13.5776    12.8907    12.4829     0.1180     0.2772     7.6906    -0.0013     2.4546
  377.0000    71.0795   -60.7270    13.4805    12.7987    12.3919     0.1158     0.2763     7.6887    -0.0013     2.4576
  377.5000    75.3095   -60.1283    13.4777    12.7960    12.3016     0.1149     0.2760     7.6867     0.0001     2.4576
  378.0000    77.4215   -59.9819    13.4749    12.7934    12.2120     0.1155     0.2763     7.6848     0.0031     2.4561
  378.5000    76.2052   -59.5339    13.4722    12.7907    12.1231     0.1162     0.2762     7.6826     0.0091     2.4554
  379.0000    75.2915   -59.5384    13.3759    12.8774    12.1189     0.1168     0.2745     7.6820     0.0136     2.4538
  379.5000    74.9830   -59.5430    13.2802    12.9647    12.1147     0.1171     0.2723     7.6814     0.0151     2.4516
  380.0000    74.3722   -59.5475    13.2775    12.9739    12.1105     0.1168     0.2690     7.6808     0.0105     2.4546
  380.5000    74.3661   -59.7029    13.2748    13.0662    12.1064     0.1149     0.2666     7.6802     0.0074     2.4629
  381.0000    75.5692   -59.8591    13.3648    13.1383    12.1022     0.1113     0.2651     7.6795     0.0072     2.4667
  381.5000    77.0761   -59.8636    13.3620    12.9533    12.2678     0.1086     0.2639     7.6789     0.0134     2.4689
  382.0000    78.5829   -60.1697    13.4527    12.8608    12.3503     0.1086     0.2654     7.6937     0.0133     2.4704
  382.5000    79.7887   -60.1742    13.3564    12.6804    12.3450     0.1080     0.2660     7.6929     0.0073     2.4703
  383.0000    77.0581   -60.3295    13.2604    12.5898    12.1700     0.1077     0.2651     7.6923     0.0012     2.4704
  383.5000    73.1187   -60.1820    13.1656    12.4999    11.9975     0.1074     0.2639     7.6917    -0.0034     2.4719
  384.0000    71.2973   -60.0356    13.0715    12.4106    11.8274     0.1092     0.2630     7.6911    -0.0035     2.4696
  384.5000    76.1325   -60.0412    12.8879    12.4080    11.6597     0.1095     0.2618     7.6905    -0.0005     2.4689
  385.0000    77.3383   -60.1965    12.8853    12.4055    11.6557     0.1047     0.2608     7.6747     0.0025     2.4726
  385.5000    74.9102   -60.3518    12.7043    12.4032    11.7393     0.1002     0.2605     7.6741     0.0070     2.4794
  386.0000    76.1145   -60.5071    12.7017    12.4005    11.9768     0.0980     0.2651     7.6735     0.0100     2.4847
  386.5000    77.9240   -60.5116    12.6109    12.3978    11.8759     0.0962     0.2651     7.6729     0.0114     2.4870
  387.0000    79.7334   -60.3641    12.5208    12.3092    11.6386     0.0935     0.2648     7.6723     0.0114     2.4930
  387.5000    80.3329   -59.9172    12.5182    12.1365    11.5538     0.0884     0.2654     7.6717     0.0098     2.5006
  388.0000    79.7215   -59.4692    12.4287    11.8832    11.6316     0.0878     0.2687     7.6710     0.0083     2.5043
  388.5000    79.1103   -58.8704    12.4261    11.6352    11.5459     0.0881     0.2735     7.6704     0.0082     2.5052
  389.0000    79.7095   -58.2715    12.3373    11.7141    11.3822     0.0893     0.2762     7.6698     0.0127     2.5021
  389.5000    82.4450   -57.8235    12.3348    12.0441    11.1429     0.0905     0.2795     7.6692     0.0142     2.4998
  390.0000    85.1438   -57.8181    12.3322    12.1240    10.9850     0.0914     0.2810     7.6686     0.0111     2.4983
  390.5000    83.2194   -57.6816    12.1983    12.0373    11.1353     0.0914     0.2807     7.6680     0.0080     2.4983
  391.0000    79.5399   -57.6621    12.0574    11.9380    11.7694     0.0890     0.2744     7.6674     0.0050     2.4998
  391.5000    75.7447   -57.5397    11.9024    11.8655    11.9315     0.0857     0.2692     7.6668     0.0080     2.5028
  392.0000    72.4104   -57.6962    11.9000    11.8630    11.6797     0.0845     0.2662     7.6662     0.0155     2.5073
  392.5000    72.1033   -57.7006    11.9813    11.8606    11.5946     0.0875     0.2720     7.6504     0.0215     2.5028
  393.0000    75.4241   -57.7051    12.0619    11.8581    11.5101     0.0920     0.2753     7.6498     0.0199     2.4967
  393.5000    80.2593   -57.7096    12.1438    11.8557    11.4263     0.0953     0.2759     7.6492     0.0153     2.4922
  394.0000    84.4893   -57.8649    12.1412    11.8532    11.4223     0.0968     0.2753     7.6486     0.0092     2.4876
  394.5000    83.2731   -57.8694    12.1387    11.9342    11.4184     0.0983     0.2714     7.6480     0.0031     2.4853
  395.0000    80.2414   -58.1755    12.1362    11.9311    11.4944     0.1002     0.2668     7.6474     0.0001     2.4838
  395.5000    78.7225   -58.6324    11.9658    11.7637    11.4105     0.1008     0.2638     7.6467    -0.0030     2.4823
  396.0000    78.7165   -59.0389    11.8803    11.5987    11.2488     0.1011     0.2662     7.6461    -0.0046     2.4815
  396.5000    80.2234   -59.2942    11.7954    11.4359    11.1668     0.1023     0.2683     7.6609    -0.0046     2.4808
  397.0000    81.1252   -59.5597    11.6297    11.2755    11.1629     0.1011     0.2695     7.6601    -0.0046     2.4815
  397.5000    79.6063   -59.7135    11.5465    11.1173    11.1590     0.0977     0.2716     7.6595    -0.0032     2.4853
  398.0000    76.5746   -59.7165    11.4640    11.0379    11.0777     0.0947     0.2719     7.6589    -0.0002     2.4944
  398.5000    75.0558   -59.7195    11.4611    10.9590    10.9198     0.0950     0.2746     7.6583     0.0013     2.4868
  399.0000    75.9575   -59.7225    11.4587    10.8808    10.7650     0.0965     0.2758     7.6425     0.0027     2.4860
  399.5000    76.8735   -59.5747    11.5371    11.0310    10.6866     0.0971     0.2770     7.6419     0.0027     2.4875
  400.0000    77.1558   -59.1252    11.4259    11.1834    10.5959     0.0957     0.2768     7.6413     0.0026     2.4906
  400.5000    81.6846   -58.0644    11.0771    10.8769    10.4289     0.0945     0.2762     7.6410     0.0018     2.4928
  401.0000    86.5168   -56.8607    10.7283    10.5757    10.3164     0.0933     0.2765     7.6407     0.0011     2.4951
  401.5000    87.7180   -55.9548    10.3796    10.2844    10.1651     0.0929     0.2768     7.6404     0.0010     2.4973
