~VERSION INFORMATION
 VERS.                2.0:   CWLS LOG ASCII STANDARD - VERSION 2.0
 WRAP.                 NO:   ONE LINE PER DEPTH STEP
~WELL INFORMATION
#MNEM.UNIT      DATA TYPE    INFORMATION
#----------   ------------   ------------------------------
 STRT.F            0.0000:   START DEPTH
 STOP.F         2182.0000:   STOP DEPTH
 STEP.F            0.1000:   STEP LENGTH
 NULL.          -999.2500:   NO VALUE
 COMP.       FLUOR DANIEL:   COMPANY
 WELL.   75-1 X 29 #75-29:   WELL
 FLD .             TEAPOT:   FIELD
 LOC .      S29 T39N R78W:   LOCATION
 CNTY.            NATRONA:   COUNTY
 STAT.            WYOMING:   STATE
 CTRY. UNITED STATES OF AMERICA:   COUNTRY
 SRVC.      Western Atlas:   SERVICE COMPANY
 DATE.        10-MAY-1996:   LOGDATE
 API .       490252279100:   API NUMBER
~CURVE INFORMATION
#MNEM.UNIT       API CODE    CURVE DESCRIPTION
#----------   ------------   ------------------------------
 DEPT.F                  :   
 GRR .GAPI   07 310 01 00:   GAMMA RAY
 RFOC.OHMM   07 220 04 00:   RESISTIVITY FOCUSED LOG
 RILD.OHMM   07 120 46 00:   INDUCTION LOG DEEP RESISTIVITY
 RILM.OHMM   07 120 44 00:   INDUCTION LOG MEDIUM RESISTIVITY
~PARAMETER INFORMATION
#MNEM.UNIT          VALUE    DESCRIPTION
#----------   ------------   ------------------------------
 PD  .                 GL:   PERMANENT DATUM
 EPD .F              5031:   ELEVATION PERMANENT DATUM
 LMF .                 KB:   LOG MEASURED FROM
 DAPD.F                10:   FEET ABOVE PERMANENT DATUM
 DMF .                 KB:   DRILLING MEASURED FROM
 EKB .F              5041:   KELLING BUSHING
 EDF .F              5040:   DRILLING FLOOR
 EGL .F              5031:   GROUND LEVEL
 DATE.        10-MAY-1996:   RUN DATE
 RUN .                  1:   RUN NUMBER
 DD  .F              2188:   DEPTH DRILLER
 DL  .F              2184:   DEPTH LOGGER
 BLI .F              2182:   BOTTOM LOG INTERVAL
 TLI .F               400:   TOP LOG INTERVAL
 CS  .IN                7:   CASING SIZE
 CBD .F               400:   CASING BOTTOM DRILLER
 CBL .F               400:   CASING BOTTOM LOGGER
 BS  .IN             6.25:   BIT SIZE
 BSD .F              2188:   BIT SIZE AT DEPTH
 DFT .                AIR:   DRILLING FLUID TYPE
 MRT .F                97:   MAXIMUM RECORDED TEMPERATURE
 LUN .            HL-6530:   LOGGING UNIT NUMBER
 LUL .             CASPER:   LOGGING UNIT LOCATION
 ENGI.           BROWNLOW:   RECORDING ENGINEER
 WITN.             LEBEAU:   WITNESSED BY
 CLNT.            A2DTECH:   CLIENT CODE
 ORIG.           5" PRINT:   ORIGIN OF DATA
 UWI .       490252279100:   UNIQUE WELL ID
 DICO. A2D Technologies, Inc.:   DIGITIZING COMPANY
~OTHER INFORMATION
~A    DEPT      GRR      RFOC       RILD       RILM   
# ...
  744.6000   129.6241  -999.2500     8.3462     8.7566
  744.7000   130.1295  -999.2500     8.3121     8.7563
  744.8000   130.7418  -999.2500     8.3119     8.7559
  744.9000   131.5007  -999.2500     8.3117     8.7555
  745.0000   132.2391  -999.2500     8.2675     8.7168
  745.1000   132.5301  -999.2500     8.2539     8.6943
  745.2000   132.9590  -999.2500     8.2537     8.6940
  745.3000   133.4644  -999.2500     8.2374     8.6936
  745.4000   133.8525  -999.2500     8.1962     8.6932
  745.5000   134.0361  -999.2500     8.1960     8.6928
  745.6000   134.0361  -999.2500     8.1958     8.6925
  745.7000   134.0361  -999.2500     8.1955     8.6611
  745.8000   134.0361  -999.2500     8.1687     8.6318
  745.9000   134.0361  -999.2500     8.1385     8.6314
  746.0000   134.0361  -999.2500     8.1383     8.6311
  746.1000   134.0361  -999.2500     8.1381     8.6306
  746.2000   134.0042  -999.2500     8.0916     8.6303
  746.3000   133.7349  -999.2500     8.0815     8.5965
  746.4000   133.7349  -999.2500     8.0813     8.5700
  746.5000   133.7349  -999.2500     8.0810     8.5697
  746.6000   133.7349  -999.2500     8.0808     8.5693
  746.7000   133.7349  -999.2500     8.0806     8.5689
  746.8000   133.7774  -999.2500     8.0803     8.5686
  746.9000   134.0361  -999.2500     8.0801     8.5683
  747.0000   134.0361  -999.2500     8.0799     8.5679
  747.1000   134.0361  -999.2500     8.0797     8.5675
  747.2000   134.1863  -999.2500     8.0794     8.5671
  747.3000   134.4392  -999.2500     8.0792     8.5668
  747.4000   134.7452  -999.2500     8.0790     8.5665
  747.5000   135.2461  -999.2500     8.0788     8.5661
  747.6000   135.5422  -999.2500     8.0476     8.5658
  747.7000   135.9609  -999.2500     8.0226     8.5654
  747.8000   136.3055  -999.2500     8.0224     8.5650
  747.9000   136.7832  -999.2500     8.0222     8.5647
  748.0000   137.6063  -999.2500     8.0219     8.5643
  748.1000   138.6339  -999.2500     8.0217     8.6053
  748.2000   140.0602  -999.2500     8.0539     8.6232
  748.3000   141.1619  -999.2500     8.0770     8.6228
  748.4000   142.2539  -999.2500     8.0767     8.6224
  748.5000   143.2649  -999.2500     8.0766     8.6255
  748.6000   144.2009  -999.2500     8.0763     8.6816
  748.7000   144.9325  -999.2500     8.0761     8.6813
  748.8000   145.4819  -999.2500     8.1102     8.6810
  748.9000   145.7131  -999.2500     8.1318     8.6806
  749.0000   145.9659  -999.2500     8.1477     8.6960
  749.1000   146.2186  -999.2500     8.1879     8.7464
  749.2000   146.4714  -999.2500     8.1876     8.8006
  749.3000   146.6868  -999.2500     8.2329     8.8003
  749.4000   146.0843  -999.2500     8.2806     8.8381
  749.5000   145.1160  -999.2500     8.3286     8.8608
  749.6000   143.9114  -999.2500     8.3768     8.8791
  749.7000   142.6477  -999.2500     8.4253     8.9217
  749.8000   141.0936  -999.2500     8.4746     8.9213
  749.9000   139.2165  -999.2500     8.5232     8.9722
  750.0000   137.9518  -999.2500     8.5825     9.0584
  750.1000   137.1982  -999.2500     8.6444     9.1536
  750.2000   136.4445  -999.2500     8.7062     9.2488
  750.3000   135.6909  -999.2500     8.7681     9.3627
  750.4000   134.9372  -999.2500     8.8300     9.3624
  750.5000   134.1836  -999.2500     8.8918     9.3947
  750.6000   133.4299  -999.2500     8.9537     9.4489
  750.7000   132.5258  -999.2500     9.0156     9.5033
  750.8000   130.1159  -999.2500     9.0778     9.5578
  750.9000   128.1576  -999.2500     9.0773     9.6235
  751.0000   127.1026  -999.2500     9.1185     9.6682
  751.1000   126.4492  -999.2500     9.1707     9.7238
  751.2000   126.1976  -999.2500     9.2232     9.7798
  751.3000   126.4480  -999.2500     9.2759     9.8361
  751.4000   126.4976  -999.2500     9.3297     9.8926
  751.5000   126.4970  -999.2500     9.3826     9.9603
  751.6000   126.8980  -999.2500     9.4362    10.0069
  751.7000   127.8512  -999.2500     9.4903    10.0645
  751.8000   128.6036  -999.2500     9.5447    10.1224
  751.9000   128.6029  -999.2500     9.5994    10.1679
  752.0000   128.6024  -999.2500     9.6551    10.1684
  752.1000   128.6018  -999.2500     9.7096    10.2377
  752.2000   128.5007  -999.2500     9.7652    10.2859
  752.3000   128.2994  -999.2500     9.8212    10.3451
  752.4000   128.2988  -999.2500     9.8774    10.4046
  752.5000   127.5454  -999.2500     9.9339    10.4644
  752.6000   126.3902  -999.2500     9.9920    10.5234
  752.7000   124.3816  -999.2500    10.0481    10.5229
  752.8000   122.6739  -999.2500    10.1056    10.5727
  752.9000   122.2215  -999.2500    10.1635    10.6335
  753.0000   121.9699  -999.2500    10.1995    10.6685
  753.1000   121.9692  -999.2500    10.1989    10.6819
  753.2000   121.7678  -999.2500    10.1984    10.7418
  753.3000   121.3656  -999.2500    10.1978    10.7413
  753.4000   120.8630  -999.2500    10.1972    10.7409
  753.5000   120.4106  -999.2500    10.1967    10.7795
  753.6000   120.1589  -999.2500    10.1961    10.8147
  753.7000   119.5559  -999.2500    10.1955    10.8142
  753.8000   119.3547  -999.2500    10.1950    10.8138
  753.9000   119.1031  -999.2500    10.1944    10.8133
  754.0000   118.6507  -999.2500    10.1939    10.8129
  754.1000   117.6965  -999.2500    10.1933    10.8124
  754.2000   115.9386  -999.2500    10.1927    10.8120
  754.3000   115.1850  -999.2500    10.1922    10.8116
  754.4000   114.6322  -999.2500    10.1916    10.8111
  754.5000   114.4307  -999.2500    10.1910    10.8106
  754.6000   114.4301  -999.2500    10.1905    10.8102
  754.7000   114.4295  -999.2500    10.1899    10.7701
  754.8000   114.4289  -999.2500    10.2107    10.7346
  754.9000   114.4282  -999.2500    10.2597    10.7342
  755.0000   114.6286  -999.2500    10.2590    10.7338
  755.1000   115.3310  -999.2500    10.2584    10.7332
  755.2000   116.3343  -999.2500    10.2579    10.7329
  755.3000   117.3874  -999.2500    10.2573    10.7324
  755.4000   118.6422  -999.2500    10.2567    10.7320
  755.5000   119.3945  -999.2500    10.2562    10.7315
  755.6000   119.9462  -999.2500    10.2556    10.7311
  755.7000   120.4475  -999.2500    10.2550    10.7306
  755.8000   120.8485  -999.2500    10.2545    10.7302
  755.9000   121.0489  -999.2500    10.2539    10.7297
  756.0000   121.0482  -999.2500    10.2533    10.7293
  756.1000   121.0476  -999.2500    10.2527    10.7135
  756.2000   121.0470  -999.2500    10.2522    10.6543
  756.3000   121.0463  -999.2500    10.2516    10.6538
  756.4000   120.9453  -999.2500    10.2511    10.6534
  756.5000   120.6937  -999.2500    10.2505    10.6530
  756.6000   120.4422  -999.2500    10.2499    10.6525
  756.7000   120.4414  -999.2500    10.2493    10.6366
  756.8000   120.0394  -999.2500    10.2487    10.5781
  756.9000   119.3863  -999.2500    10.2482    10.5776
  757.0000   118.5323  -999.2500    10.2477    10.5772
  757.1000   117.4775  -999.2500    10.2471    10.5768
  757.2000   116.2217  -999.2500    10.2465    10.5763
  757.3000   115.2171  -999.2500    10.2459    10.5601
  757.4000   114.6141  -999.2500    10.2453    10.5024
  757.5000   114.4127  -999.2500    10.2448    10.5019
  757.6000   114.4121  -999.2500    10.2443    10.5015
  757.7000   114.4115  -999.2500    10.2437    10.5011
  757.8000   114.4108  -999.2500    10.2232    10.5007
  757.9000   114.4101  -999.2500    10.1718    10.5002
  758.0000   114.8113  -999.2500    10.1713    10.4959
  758.1000   115.4634  -999.2500    10.1708    10.4268
  758.2000   116.2157  -999.2500    10.1702    10.4264
  758.3000   116.9679  -999.2500    10.1696    10.4260
  758.4000   117.7205  -999.2500    10.1690    10.3975
  758.5000   118.4728  -999.2500    10.1684    10.3531
  758.6000   119.2252  -999.2500    10.1679    10.3527
  758.7000   119.9777  -999.2500    10.1674    10.3522
  758.8000   120.8305  -999.2500    10.1668    10.3518
  758.9000   121.7335  -999.2500    10.1662    10.3514
  759.0000   122.2349  -999.2500    10.1656    10.3510
  759.1000   122.8366  -999.2500    10.1651    10.3505
