~VERSION INFORMATION
 VERS.                2.0:   CWLS LOG ASCII STANDARD - VERSION 2.0
 WRAP.                 NO:   ONE LINE PER DEPTH STEP
~WELL INFORMATION
#MNEM.UNIT      DATA TYPE    INFORMATION
#----------   ------------   ------------------------------
 STRT.F           27.0000:   START DEPTH
 STOP.F          992.0000:   STOP DEPTH
 STEP.F            0.5000:   STEP LENGTH
 NULL.          -999.2500:   NO VALUE
 COMP. FENIX & SCISSON INC:   COMPANY
 WELL. NPR 3  77- S -27 #77-27:   WELL
 FLD .             TEAPOT:   FIELD
 LOC .      S27 T39N R78W:   LOCATION
 CNTY.            NATRONA:   COUNTY
 STAT.            WYOMING:   STATE
 CTRY. UNITED STATES OF AMERICA:   COUNTRY
 SRVC.            Unknown:   SERVICE COMPANY
 DATE.        09-SEP-1978:   LOGDATE
 API .       490251069700:   API NUMBER
~CURVE INFORMATION
#MNEM.UNIT       API CODE    CURVE DESCRIPTION
#----------   ------------   ------------------------------
 DEPT.F                  :   
 SPR .MV     05 010 01 00:   SPONTANEOUS POTENTIAL FROM RES.
 SN  .OHMM   05 040 16 00:   SHORT NORMAL 16"
 ILD .OHMM   05 120 46 00:   INDUCTION LOG DEEP
 CALD.IN     45 280 60 00:   CALIPER
 GRD .GAPI   45 310 01 00:   GAMMA RAY FROM DENSITY LOG
 RHOB.G/C3   45 350 01 00:   BULK DENSITY
 CORR.G/C3   45 356 01 00:   DENSITY CORRECTION
 DPHI.DEC    45 890 12 00:   DENSITY POROSITY SANDSTONE
~PARAMETER INFORMATION
#MNEM.UNIT          VALUE    DESCRIPTION
#----------   ------------   ------------------------------
 PD  .                 GL:   PERMANENT DATUM
 EPD .F              5069:   ELEVATION PERMANENT DATUM
 LMF .                 KB:   LOG MEASURED FROM
 DAPD.F                 4:   FEET ABOVE PERMANENT DATUM
 DMF .                 KB:   DRILLING MEASURED FROM
 EKB .F              5073:   KELLING BUSHING
 EGL .F              5069:   GROUND LEVEL
 DATE.           9-9-1978:   RUN DATE
 RUN .                  1:   RUN NUMBER
 DD  .F               990:   DEPTH DRILLER
 DL  .F               998:   DEPTH LOGGER
 BLI .F               992:   BOTTOM LOG INTERVAL
 TLI .F                50:   TOP LOG INTERVAL
 CS  .IN            8.625:   CASING SIZE
 CBD .F                40:   CASING BOTTOM DRILLER
 BS  .IN            7.875:   BIT SIZE
 BSD .F               990:   BIT SIZE AT DEPTH
 DFT .                KCL:   DRILLING FLUID TYPE
 DFD .                8.7:   DRILLING FLUID DENSITY
 DFV .                 34:   DRILLING FLUID VISCOSITY
 DFPH.                  9:   DRILLING FLUID PH
 DFL .                  8:   DRILLING FLUID LOSS
 MSS .          FLOW LINE:   MUD SAMPLE SOURCE
 RMS .OHMM             .4:   RESISTIVITY MUD SAMPLE
 MST .F                79:   MUD SAMPLE TEMPERATURE
 RMF .OHMM            .12:   RESISTIVITY MUD FILTRATE SAMPLE
 MFST.F                84:   MUD FILTRATE SAMPLE TEMPERATURE
 RMC .OHMM            .34:   RESISTIVITY MUD CAKE
 MCST.F                84:   MUD CAKE SAMPLE TEMPERATURE
 MFSS.               MEAS:   MUD FILTRATE SAMPLE SOURCE
 MCSS.               MEAS:   MUD CAKE SAMPLE SOURCE
 TCS .HRS               3:   TIME CURCULATED STOPPED
 LUN .               2958:   LOGGING UNIT NUMBER
 LUL .               CASP:   LOGGING UNIT LOCATION
 ENGI.             MILLER:   RECORDING ENGINEER
 WITN.              AMEND:   WITNESSED BY
 CLNT.            A2DTECH:   CLIENT CODE
 ORIG.           5" PRINT:   ORIGIN OF DATA
 UWI .       490251069700:   UNIQUE WELL ID
 DICO. A2D Technologies, Inc.:   DIGITIZING COMPANY
~OTHER INFORMATION
~A   DEPT      SPR         SN        ILD       CALD        GRD       RHOB       CORR       DPHI   
# ...
  958.5000   -39.0313     8.2230     8.7706     7.7371   134.4533     2.5299     0.0194     0.0813
  959.0000   -39.8397     8.2991     8.7370     7.7204   133.2823     2.5308     0.0188     0.0804
  959.5000   -40.4371     8.2991     8.7134     7.7037   129.4710     2.5328     0.0182     0.0816
  960.0000   -40.3561     8.2774     8.6898     7.6870   127.4873     2.5338     0.0177     0.0830
  960.5000   -40.2741     8.2565     8.6663     7.6703   127.4332     2.5289     0.0175     0.0845
  961.0000   -40.4617     8.2356     8.6428     7.6536   127.5358     2.5241     0.0195     0.0848
  961.5000   -44.2747     8.2148     8.6195     7.6369   127.9487     2.5252     0.0215     0.0809
  962.0000   -55.7409     8.1940     8.5962     7.6195   128.0884     2.5328     0.0234     0.0775
  962.5000   -50.3387     8.1733     8.5729     7.6153   127.4536     2.5392     0.0239     0.0800
  963.0000   -44.0763     8.1527     8.5497     7.6154   126.8565     2.5360     0.0243     0.0824
  963.5000   -42.3675     8.1321     8.5266     7.6291   126.3976     2.5331     0.0247     0.0755
  964.0000   -41.5486     8.1115     8.5035     7.6571   127.4093     2.5370     0.0251     0.0692
  964.5000   -40.7407     8.0910     8.4805     7.6848   128.4603     2.5502     0.0256     0.0719
  965.0000   -40.4565     8.0706     8.4576     7.7126   128.7397     2.5559     0.0219     0.0767
  965.5000   -40.7579     8.0502     8.4347     7.7405   126.5369     2.5509     0.0164     0.0814
  966.0000   -41.2151     8.0299     8.4119     7.7684   126.0734     2.5420     0.0076     0.0862
  966.5000   -41.6496     8.0096     8.3891     7.7958   126.7367     2.5330     0.0016     0.0912
  967.0000   -41.8289     7.9893     8.3665     7.8159   127.4001     2.5241    -0.0009     0.0920
  967.5000   -41.9832     7.9692     8.3438     7.8161   128.0536     2.5177    -0.0024     0.0914
  968.0000   -42.7868     7.9490     8.3213     7.7899   128.6606     2.5160    -0.0025     0.0909
  968.5000   -43.8608     7.9289     8.2988     7.7544   128.8199     2.5168    -0.0022     0.0903
  969.0000   -44.3118     7.9089     8.2763     7.7181   128.8437     2.5192    -0.0014     0.0897
  969.5000   -44.0515     7.8889     8.2539     7.6822   129.0332     2.5210    -0.0006     0.0891
  970.0000   -43.7954     7.8690     8.2316     7.6466   129.8338     2.5210     0.0003     0.0884
  970.5000   -43.5366     7.8530     8.2093     7.7217   130.6077     2.5217     0.0011     0.0858
  971.0000   -43.2789     7.8740     8.1871     7.8805   131.4021     2.5257     0.0030     0.0829
  971.5000   -43.0192     7.8918     8.1650     7.8621   131.4583     2.5311     0.0060     0.0812
  972.0000   -42.8181     7.9095     8.1480     7.8327   131.1406     2.5359     0.0091     0.0852
  972.5000   -43.0693     7.9274     8.1673     7.8029   128.7307     2.5359     0.0121     0.0897
  973.0000   -44.1239     7.9452     8.1836     7.7956   126.1483     2.5309     0.0149     0.0956
  973.5000   -48.9769     7.9631     8.2000     7.7935   123.7528     2.5203     0.0198     0.0851
  974.0000   -52.8512     7.9811     8.2164     7.7917   123.9234     2.5134     0.0455     0.0697
  974.5000   -48.9883     7.9991     8.2328     7.7899   126.5420     2.5404     0.0973     0.0584
  975.0000   -48.9704     8.0171     8.2492     7.7881   129.3333     2.5673     0.1123     0.0640
  975.5000   -48.9132     8.0352     8.2657     7.7863   132.0989     2.5741     0.0913     0.0705
  976.0000   -48.8664     8.0533     8.2822     7.7845   132.8442     2.5612     0.0656     0.0716
  976.5000   -48.7939     8.0714     8.2987     7.7827   132.7989     2.5490     0.0397     0.0720
  977.0000   -48.0135     8.0896     8.3153     7.7808   130.9551     2.5505     0.0219     0.0732
  977.5000   -47.1886     8.1079     8.3319     7.7790   129.1213     2.5505     0.0138     0.0772
  978.0000   -46.9862     8.1261     8.3485     7.7774   128.4397     2.5432     0.0050     0.0812
  978.5000   -48.6661     8.1445     8.3652     7.7741   128.4602     2.5361     0.0014     0.0795
  979.0000   -46.6114     8.1628     8.3819     7.7473   128.9981     2.5360     0.0014     0.0788
  979.5000   -46.2102     8.1812     8.3987     7.7213   129.5187     2.5377     0.0069     0.0803
  980.0000   -46.3257     8.1997     8.4154     7.6954   130.0344     2.5375     0.0154     0.0809
  980.5000   -46.4615     8.2182     8.4321     7.6695   130.5498     2.5368     0.0242     0.0806
  981.0000   -46.6134     8.2511     8.4496     7.6434   131.0616     2.5362     0.0288     0.0811
  981.5000   -45.9497     8.2895     8.4532     7.6162   131.5632     2.5356     0.0260     0.0816
  982.0000   -45.6168     8.3280     8.4524     7.6283   132.2162     2.5350     0.0224     0.0798
  982.5000   -46.3486     8.3669     8.5511     7.6433   134.9144     2.5352     0.0193     0.0772
  983.0000   -47.1756     8.4086     8.6365     7.6583   135.5200     2.5387     0.0188     0.0746
  983.5000   -46.7748     8.4516     8.7227     7.6731   133.8905     2.5421     0.0183     0.0732
  984.0000   -46.4143     8.4948     8.8099     7.6880   133.8505     2.5461     0.0177     0.0727
  984.5000   -46.4212     8.5382     8.8979     7.6943   134.6286     2.5501     0.0172     0.0718
  985.0000   -46.4233     8.5818     8.9867     7.6926   135.4597     2.5520     0.0166     0.0708
  985.5000   -46.6574     8.6257     9.0765     7.6908   135.5761     2.5511     0.0160     0.0746
  986.0000   -47.2592     8.6698     9.1671     7.6889   134.1506     2.5452     0.0155     0.0788
  986.5000   -47.8814     8.7141     9.2689     7.6870   133.4790     2.5392     0.0155     0.0782
  987.0000   -48.4691     8.7586     9.2522     7.6852   134.3466     2.5392     0.0178     0.0776
  987.5000   -46.8422     8.8033     9.1790     7.6833   136.1703     2.5408     0.0280     0.0770
  988.0000   -46.0524     8.8483     9.1063     7.6815   136.7287     2.5425     0.0377     0.0764
  988.5000   -46.5528     8.8935     9.0342     7.6796   134.2475     2.5445     0.0375     0.0748
  989.0000   -47.0535     8.9390     8.9626     7.6776   133.5635     2.5487     0.0375     0.0713
  989.5000   -47.7596     8.9846     8.8916     7.6767   133.1942     2.5529     0.0374     0.0688
  990.0000   -49.2338     9.0306     8.8212     7.6294   131.3574     2.5533     0.0325     0.0693
  990.5000   -50.6410     9.0767     8.6902     7.5655   131.9408     2.5504     0.0167     0.0719
  991.0000   -53.1164     9.1231     8.4534     7.5005   132.8572     2.5474     0.0092     0.0740
  991.5000   -54.8932     9.1697     8.3809     7.4394   132.4651     2.5460     0.0159     0.0744
  992.0000   -33.4358     9.2689     8.2937     7.3459   131.2799     2.5459     0.0155     0.0744
