~VERSION INFORMATION
 VERS.                2.0:   CWLS LOG ASCII STANDARD - VERSION 2.0
 WRAP.                 NO:   ONE LINE PER DEPTH STEP
~WELL INFORMATION
#MNEM.UNIT      DATA TYPE    INFORMATION
#----------   ------------   ------------------------------
 STRT.F           22.0000:   START DEPTH
 STOP.F          654.0000:   STOP DEPTH
 STEP.F            0.5000:   STEP LENGTH
 NULL.          -999.2500:   NO VALUE
 COMP. FENIX & SCISSON INC:   COMPANY
 WELL.     54 S 34 #54-34:   WELL
 FLD .             TEAPOT:   FIELD
 LOC .      S34 T39N R78W:   LOCATION
 CNTY.            NATRONA:   COUNTY
 STAT.            WYOMING:   STATE
 CTRY. UNITED STATES OF AMERICA:   COUNTRY
 SRVC.           BIRDWELL:   SERVICE COMPANY
 DATE.        22-AUG-1978:   LOGDATE
 API .       490251070100:   API NUMBER
~CURVE INFORMATION
#MNEM.UNIT       API CODE    CURVE DESCRIPTION
#----------   ------------   ------------------------------
 DEPT.F                  :   
 SPR .MV     05 010 01 00:   SPONTANEOUS POTENTIAL FROM RES.
 SN  .OHMM   05 040 16 00:   SHORT NORMAL 16"
 ILD .OHMM   05 120 46 00:   INDUCTION LOG DEEP
 CALD.IN     45 280 60 00:   CALIPER
 GRD .GAPI   45 310 01 00:   GAMMA RAY FROM DENSITY LOG
 DPHI.DEC    45 890 12 00:   DENSITY POROSITY SANDSTONE
 RHOB.G/C3   45 350 01 00:   BULK DENSITY
 CORR.G/C3   45 356 01 00:   DENSITY CORRECTION
~PARAMETER INFORMATION
#MNEM.UNIT          VALUE    DESCRIPTION
#----------   ------------   ------------------------------
 PD  .                 GL:   PERMANENT DATUM
 EPD .F              5085:   ELEVATION PERMANENT DATUM
 LMF .                 KB:   LOG MEASURED FROM
 DAPD.F                 4:   FEET ABOVE PERMANENT DATUM
 DMF .                 KB:   DRILLING MEASURED FROM
 EKB .F              5089:   KELLING BUSHING
 EGL .F              5085:   GROUND LEVEL
 DATE.            8-22-78:   RUN DATE
 RUN .                  1:   RUN NUMBER
 DD  .F               685:   DEPTH DRILLER
 DL  .F               653:   DEPTH LOGGER
 BLI .F               646:   BOTTOM LOG INTERVAL
 TLI .F                30:   TOP LOG INTERVAL
 CS  .IN            8.625:   CASING SIZE
 CBD .F                46:   CASING BOTTOM DRILLER
 CBL .F                46:   CASING BOTTOM LOGGER
 BS  .IN            7.875:   BIT SIZE
 BSD .F               685:   BIT SIZE AT DEPTH
 DFT .                KCL:   DRILLING FLUID TYPE
 DFD .                8.7:   DRILLING FLUID DENSITY
 DFV .                 33:   DRILLING FLUID VISCOSITY
 DFPH.                  9:   DRILLING FLUID PH
 MSS .           FLOWLINE:   MUD SAMPLE SOURCE
 RMS .OHMM            .18:   RESISTIVITY MUD SAMPLE
 MST .F                86:   MUD SAMPLE TEMPERATURE
 RMF .OHMM            .16:   RESISTIVITY MUD FILTRATE SAMPLE
 MFST.F                86:   MUD FILTRATE SAMPLE TEMPERATURE
 RMC .OHMM            .52:   RESISTIVITY MUD CAKE
 MCST.F                86:   MUD CAKE SAMPLE TEMPERATURE
 MFSS.               MEAS:   MUD FILTRATE SAMPLE SOURCE
 MCSS.               MEAS:   MUD CAKE SAMPLE SOURCE
 BHT .F                70:   BOTTOM HOLE TEMPERATURE
 TCS .HRS               2:   TIME CURCULATED STOPPED
 MRT .F                70:   MAXIMUM RECORDED TEMPERATURE
 LUN .               2958:   LOGGING UNIT NUMBER
 LUL .               CASP:   LOGGING UNIT LOCATION
 ENGI.           REYNOLDS:   RECORDING ENGINEER
 WITN.              AMEND:   WITNESSED BY
 CLNT.            A2DTECH:   CLIENT CODE
 ORIG.           5" PRINT:   ORIGIN OF DATA
 UWI .       490251070100:   UNIQUE WELL ID
 DICO. A2D Technologies, Inc.:   DIGITIZING COMPANY
~OTHER INFORMATION
~A   DEPT      SPR         SN        ILD       CALD         GRD      DPHI       RHOB       CORR   
# ...
   62.5000   -40.9794     6.6712     2.9665     7.4144    83.9102     0.1927     2.3512     0.0305
   63.0000   -40.9211     6.8296     3.1678     7.5437    84.6986     0.1812     2.3746     0.0303
   63.5000   -40.8627     6.8107     3.3551     7.6731    91.5821     0.1697     2.3977     0.0324
   64.0000   -40.8044     6.7947     3.4435     7.8026    95.7254     0.1599     2.4208     0.0349
   64.5000   -40.7460     6.7786     3.5342     7.9308    92.7180     0.1524     2.4329     0.0378
   65.0000   -40.6876     6.7626     3.6273     8.0367    89.0292     0.1485     2.4356     0.0407
   65.5000   -40.6293     6.7467     3.7229     8.0489    85.2367     0.1472     2.4369     0.0435
   66.0000   -40.5709     6.7307     3.8209     8.0505    84.3255     0.1464     2.4383     0.0463
   66.5000   -40.5125     6.7149     3.9216     8.0299    87.5810     0.1464     2.4388     0.0490
   67.0000   -40.4542     6.7063     4.0249     7.9902    88.1576     0.1464     2.4393     0.0617
   67.5000   -40.3958     6.7172     4.0841     7.8977    87.5823     0.1461     2.4397     0.0747
   68.0000   -40.3374     6.7252     4.0496     7.8090    89.7284     0.1448     2.4441     0.0884
   68.5000   -40.2791     6.7331     4.0254     7.6820    91.9138     0.1407     2.4490     0.1053
   69.0000   -40.2207     6.7411     4.0015     7.5527    92.4956     0.1368     2.4540     0.1221
   69.5000   -40.1624     6.7491     3.9777     7.4223    92.1084     0.1328     2.4591     0.1388
   70.0000   -40.1040     6.7571     3.9541     7.2921    91.1631     0.1256     2.4671     0.1483
   70.5000   -40.0456     6.7647     3.9368     7.1616    90.2181     0.1177     2.4869     0.1401
   71.0000   -39.9873     6.7939     3.9488     7.0323    89.3165     0.1098     2.5066     0.1177
   71.5000   -39.9289     6.8342     3.9603     6.9269    89.2927     0.1020     2.5090     0.0871
   72.0000   -39.8705     6.8744     3.9717     6.9481    89.3185     0.1016     2.4997     0.0568
   72.5000   -39.8122     6.9148     3.9832     7.0228    90.9356     0.1169     2.4816     0.0316
   73.0000   -39.7538     6.9555     3.9947     7.0946    94.9210     0.1297     2.4636     0.0264
   73.5000   -39.6955     6.9964     4.0062     7.1665    97.7425     0.1423     2.4457     0.0265
   74.0000   -39.6371     7.0376     4.0701     7.2385    96.2483     0.1550     2.4279     0.0278
   74.5000   -39.5786     7.0790     4.1513     7.3093    93.2097     0.1619     2.4143     0.0299
   75.0000   -39.5197     7.1207     4.2342     7.3531    90.1721     0.1650     2.4074     0.0319
   75.5000   -39.4634     7.1626     4.2760     7.3957    87.1233     0.1681     2.4017     0.0340
   76.0000   -39.4712     7.2047     4.2625     7.4384    85.5117     0.1677     2.4005     0.0363
   76.5000   -39.6806     7.2170     4.2502     7.4812    87.5985     0.1637     2.4082     0.0303
   77.0000   -39.8803     7.1603     4.2369     7.5239    89.9689     0.1593     2.4172     0.0228
   77.5000   -40.0798     7.0815     4.2369     7.5665    86.9985     0.1604     2.4194     0.0165
   78.0000   -40.2794     7.0036     4.6013     7.6105    82.2818     0.1624     2.4114     0.0145
   78.5000   -40.4790     6.9265     4.8988     7.6838    77.6035     0.1644     2.4040     0.0157
   79.0000   -40.6785     6.8503     5.0018     7.7587    77.3359     0.1640     2.4104     0.0176
   79.5000   -40.8768     6.7677     4.8198     7.8337    78.9881     0.1597     2.4150     0.0195
   80.0000   -41.0772     6.6445     4.3793     7.9086    80.6855     0.1678     2.4076     0.0214
   80.5000   -41.3751     6.2884     3.5937     7.9833    81.5874     0.1739     2.3981     0.0234
   81.0000   -42.0064     5.7005     2.4084     8.0585    81.6688     0.1766     2.3915     0.0253
   81.5000   -42.6148     5.1852     1.6141     8.0886    80.7208     0.1793     2.3856     0.0290
   82.0000   -43.2228     4.7163     1.0817     8.0869    79.6987     0.1821     2.3731     0.0357
   82.5000   -43.8567     4.2900     0.7135     8.0850    81.6609     0.2101     2.3281     0.0424
   83.0000   -44.0375     3.9019     0.5904     8.0830    89.7221     0.2390     2.2832     0.0454
   83.5000   -44.0789     3.5494     0.4845     8.0810    98.0171     0.2679     2.2383     0.0483
   84.0000   -44.1161     3.2285     0.3973     8.0791   106.2982     0.2967     2.1933     0.0512
   84.5000   -44.1563     3.1007     0.3519     8.0771   115.1781     0.3259     2.1475     0.0541
   85.0000   -44.1969     3.1007     0.4082     8.0751   112.1677     0.3501     2.1166     0.0580
   85.5000   -44.1061     3.1293     0.4772     8.0733   108.6084     0.3501     2.1032     0.0662
   86.0000   -43.1579     3.2745     0.5872     8.0715   107.1363     0.3496     2.1013     0.0739
   86.5000   -40.4915     3.5547     0.9031     8.0683   104.3277     0.3298     2.1458     0.0536
   87.0000   -39.0249     4.0819     1.3891     8.1506    98.0897     0.2788     2.2091     0.0314
   87.5000   -38.5621     4.6873     2.1372     8.2879    89.9386     0.2253     2.2762     0.0429
   88.0000   -38.1218     5.3825     3.2875     7.9748    81.7445     0.1952     2.3402     0.0653
   88.5000   -37.6858     6.1807     5.0570     7.4353    73.2171     0.1617     2.3889     0.0876
   89.0000   -37.2432     7.0974     7.7790     7.2167    73.3513     0.1553     2.4247     0.1100
   89.5000   -36.9148     7.7714    14.0911     7.0150    74.5597     0.1451     2.4416     0.1324
   90.0000   -36.6778     8.2583    13.9006     6.9529    75.0990     0.1343     2.4596     0.1448
   90.5000   -36.4386     8.7757    12.9042     6.9244    70.2550     0.1235     2.4774     0.1382
   91.0000   -36.4216     9.3255    11.5960     6.9588    62.1862     0.1126     2.4952     0.1073
   91.5000   -36.4518     9.7715     9.3371     7.0215    54.1107     0.1018     2.5133     0.0763
   92.0000   -36.9216     9.6822     7.2262     7.0861    48.4139     0.0968     2.5248     0.0450
   92.5000   -37.3720     9.3499     4.9159     7.1507    52.3650     0.1158     2.4899     0.0290
   93.0000   -38.3646     8.5847     3.3442     7.2150    64.6896     0.1368     2.4518     0.0262
   93.5000   -39.4056     7.8064     2.6770     7.2795    72.2652     0.1616     2.4139     0.0268
   94.0000   -40.4482     7.1166     2.6681     7.3350    76.1303     0.1863     2.3761     0.0285
   94.5000   -41.4920     6.4909     2.6545     7.3825    81.2144     0.2110     2.3383     0.0376
   95.0000   -42.0261     6.0009     2.6409     7.4300    95.3109     0.2358     2.3006     0.0351
   95.5000   -40.9811     6.0077     2.6193     7.4775   108.1497     0.2626     2.2495     0.0213
   96.0000   -39.5504     6.0062     2.6036     7.5251   104.1883     0.2542     2.2608     0.0186
   96.5000   -38.0970     6.3324     2.5964     7.5726    91.2449     0.2331     2.2960     0.0160
   97.0000   -36.6619     6.8531     4.0203     7.6201    78.3602     0.2101     2.3299     0.0149
   97.5000   -35.4817     7.4167     5.6509     7.6676    74.4372     0.1872     2.3638     0.0137
   98.0000   -34.9828     8.0265     7.9481     7.7151    73.8623     0.1797     2.3836     0.0125
   98.5000   -34.4842     8.4241    10.3250     7.7627    70.1395     0.1814     2.3820     0.0132
   99.0000   -33.9822     8.6543    10.0469     7.8102    69.1064     0.1839     2.3793     0.0196
   99.5000   -33.3050     8.8907     9.7715     7.8583    73.2062     0.1865     2.3778     0.0260
  100.0000   -32.6369     9.1336    10.1551     7.9079    76.9745     0.1797     2.3859     0.0324
  100.5000   -31.9716     9.3831    10.7316     7.9105    80.7265     0.1722     2.3942     0.0389
  101.0000   -31.3070     9.6394    11.3409     7.9101    84.1289     0.1679     2.4010     0.0461
  101.5000   -30.6341     9.8188    11.9848     7.9100    84.2583     0.1659     2.4046     0.0466
  102.0000   -30.4413     9.9150    12.6652     7.9100    81.7390     0.1638     2.4082     0.0466
  102.5000   -30.4385    10.0121    13.3843     7.9100    79.0595     0.1629     2.4106     0.0448
