~VERSION INFORMATION
 VERS.                2.0:   CWLS LOG ASCII STANDARD - VERSION 2.0
 WRAP.                 NO:   ONE LINE PER DEPTH STEP
~WELL INFORMATION
#MNEM.UNIT      DATA TYPE    INFORMATION
#----------   ------------   ------------------------------
 STRT.F            0.0000:   START DEPTH
 STOP.F          663.0000:   STOP DEPTH
 STEP.F            0.1000:   STEP LENGTH
 NULL.          -999.2500:   NO VALUE
 COMP.   FLUOR DANIEL INC:   COMPANY
 WELL.     62-6 X 3 #62-3:   WELL
 FLD .             TEAPOT:   FIELD
 LOC .       S3 T38N R78W:   LOCATION
 CNTY.            NATRONA:   COUNTY
 STAT.            WYOMING:   STATE
 CTRY. UNITED STATES OF AMERICA:   COUNTRY
 SRVC.      Western Atlas:   SERVICE COMPANY
 DATE.        11-APR-1995:   LOGDATE
 API .       490252270400:   API NUMBER
~CURVE INFORMATION
#MNEM.UNIT       API CODE    CURVE DESCRIPTION
#----------   ------------   ------------------------------
 DEPT.F                  :   
 GRR .GAPI   07 310 01 00:   GAMMA RAY
 RILD.OHMM   07 120 46 00:   INDUCTION LOG DEEP RESISTIVITY
 RILM.OHMM   07 120 44 00:   INDUCTION LOG MEDIUM RESISTIVITY
~PARAMETER INFORMATION
#MNEM.UNIT          VALUE    DESCRIPTION
#----------   ------------   ------------------------------
 PD  .                 GL:   PERMANENT DATUM
 EPD .F              5157:   ELEVATION PERMANENT DATUM
 LMF .                 KB:   LOG MEASURED FROM
 DAPD.F                10:   FEET ABOVE PERMANENT DATUM
 DMF .                 KB:   DRILLING MEASURED FROM
 EKB .F              5167:   KELLING BUSHING
 EDF .F              5166:   DRILLING FLOOR
 EGL .F              5157:   GROUND LEVEL
 DATE.        11-APR-1995:   RUN DATE
 RUN .                  1:   RUN NUMBER
 DD  .F               671:   DEPTH DRILLER
 DL  .F               671:   DEPTH LOGGER
 BLI .F               663:   BOTTOM LOG INTERVAL
 TLI .F                95:   TOP LOG INTERVAL
 CS  .IN            9.625:   CASING SIZE
 CBD .F                95:   CASING BOTTOM DRILLER
 CBL .F                95:   CASING BOTTOM LOGGER
 BS  .IN             8.75:   BIT SIZE
 BSD .F               671:   BIT SIZE AT DEPTH
 DFT .                AIR:   DRILLING FLUID TYPE
 MRT .F                90:   MAXIMUM RECORDED TEMPERATURE
 LUN .            HL 6530:   LOGGING UNIT NUMBER
 LUL .             CASPER:   LOGGING UNIT LOCATION
 ENGI.      PAT RASMUSSEN:   RECORDING ENGINEER
 WITN.        GARY STRONG:   WITNESSED BY
 CLNT.            A2DTECH:   CLIENT CODE
 ORIG.           5" PRINT:   ORIGIN OF DATA
 UWI .       490252270400:   UNIQUE WELL ID
 DICO. A2D Technologies, Inc.:   DIGITIZING COMPANY
~OTHER INFORMATION
~A    DEPT      GRR      RILD       RILM   
# ...
  600.6000    96.2504     8.0191     8.2140
  600.7000    96.2546     8.0669     8.2146
  600.8000    96.2588     8.0676     8.2152
  600.9000    96.2618     8.0682     8.2157
  601.0000    96.4404     8.0689     8.1875
  601.1000    96.5707     8.0695     8.0966
  601.2000    96.6637     8.0528     8.0471
  601.3000    96.9261     8.0150     7.9918
  601.4000    97.1886     8.0141     7.9540
  601.5000    97.4907     7.9611     7.8770
  601.6000    97.9330     7.9205     7.8276
  601.7000    98.2775     7.8741     7.8138
  601.8000    98.5400     7.8027     7.7611
  601.9000    98.8024     7.7458     7.6670
  602.0000    99.0166     7.7166     7.6142
  602.1000    99.0202     7.5851     7.5777
  602.2000    99.0244     7.5358     7.5038
  602.3000    98.8061     7.4177     7.4363
  602.4000    98.5508     7.3500     7.3923
  602.5000    98.2955     7.2826     7.3419
  602.6000    97.9475     7.1969     7.2540
  602.7000    97.4836     7.1220     7.2041
  602.8000    97.2069     7.0743     7.1689
  602.9000    96.1934     6.9381     7.0985
  603.0000    95.0771     6.9012     7.0352
  603.1000    95.0787     6.8305     7.0075
  603.2000    94.8939     6.7734     7.0010
  603.3000    94.6385     6.7504     6.9597
  603.4000    94.4808     6.7510     6.9603
  603.5000    94.4294     6.7515     6.9258
  603.6000    94.1827     6.7522     6.9127
  603.7000    94.1849     6.7527     6.9132
  603.8000    93.9648     6.7840     6.9137
  603.9000    93.7094     6.8008     6.9142
  604.0000    93.4539     6.8190     6.9153
  604.1000    93.2869     6.8604     6.9637
  604.2000    93.3325     6.8975     6.9641
  604.3000    93.5922     6.8981     6.9933
  604.4000    94.1976     6.8987     7.0139
  604.5000    94.6234     6.8992     7.0295
  604.6000    95.1398     6.9252     7.0804
  604.7000    95.5327     6.9484     7.1639
  604.8000    95.8706     6.9490     7.1644
  604.9000    96.3869     6.9496     7.2021
  605.0000    96.9231     6.9502     7.2156
  605.1000    97.6662     6.9507     7.2161
  605.2000    98.4398     6.9513     7.2166
  605.3000    99.2132     6.9519     7.2171
  605.4000    99.8728     6.9525     7.2211
  605.5000   100.3198     6.9530     7.3197
  605.6000   100.6039     6.9536     7.3587
  605.7000   101.1591     6.9542     7.4035
  605.8000   101.3986     7.0033     7.4979
  605.9000   101.4643     7.0723     7.5992
  606.0000   101.4661     7.1299     7.6656
  606.1000   101.3635     7.1731     7.8001
  606.2000   101.1081     7.2306     7.8529
  606.3000   100.8528     7.3108     7.9802
  606.4000   100.5685     7.3552     8.0551
  606.5000   100.5701     7.4071     8.1041
  606.6000   100.3881     7.4817     8.1729
  606.7000   100.1328     7.5418     8.2605
  606.8000    99.9722     7.6106     8.3140
  606.9000   100.0245     7.7025     8.4249
  607.0000   100.2775     7.7787     8.4711
  607.1000   100.2796     7.7814     8.5227
  607.2000   100.5000     7.9437     8.5745
  607.3000   100.9334     7.9847     8.6479
  607.4000   101.3197     8.0331     8.7400
  607.5000   101.5788     8.1328     8.7890
  607.6000   101.9198     8.2444     8.7897
  607.7000   102.7035     8.3041     8.8872
  607.8000   103.0073     8.4026     8.9547
  607.9000   103.2181     8.4603     9.0091
  608.0000   103.6420     8.5049     9.0640
  608.1000   103.9173     8.5926     9.1191
  608.2000   103.9192     8.6682     9.1746
  608.3000   103.9210     8.7405     9.2345
  608.4000   103.9229     8.8461     9.2866
  608.5000   103.6802     8.9473     9.3431
  608.6000   103.4249     8.9481     9.3999
  608.7000   103.1695     9.0921     9.4571
  608.8000   103.0250     9.1377     9.5146
  608.9000   102.9602     9.1690     9.5666
  609.0000   102.7049     9.2246     9.5673
  609.1000   102.4273     9.2934     9.5679
  609.2000   101.9591     9.3979     9.6131
  609.3000   101.6370     9.3987     9.7071
  609.4000   101.0897     9.4503     9.7725
  609.5000   100.3198     9.4657     9.7896
  609.6000    99.6071     9.4991     9.8424
  609.7000    99.0817     9.5331     9.8431
  609.8000    98.2168     9.5339     9.8437
  609.9000    98.2184     9.5396     9.8444
  610.0000    98.0392     9.6019     9.8819
  610.1000    98.0569     9.6027     9.9148
  610.2000    98.2238     9.6035     9.9329
  610.3000    98.1780     9.5703     9.9933
  610.4000    97.9258     9.5387    10.0564
  610.5000    97.9279     9.5395    10.0570
  610.6000    98.1454     9.5403    10.0577
  610.7000    98.2329     9.5411    10.0585
  610.8000    98.2347     9.4886    10.0592
  610.9000    98.2365     9.4767    10.0599
  611.0000    98.2383     9.4775    10.0606
  611.1000    98.2402     9.4783    10.0613
  611.2000    98.2423     9.4791     9.9921
  611.3000    98.2437     9.4798     9.9443
  611.4000    98.4076     9.4807     9.9238
  611.5000    98.5490     9.4274     9.8959
  611.6000    98.6240     9.4167     9.8561
  611.7000    98.8830     9.4175     9.8568
  611.8000    99.1579     9.4182     9.8575
  611.9000    99.1596     9.4021     9.7897
  612.0000    99.1614     9.3546     9.7903
  612.1000    99.3158     9.3555     9.7910
  612.2000    99.4667     9.3564     9.7916
  612.3000    99.4685     9.3570     9.7731
  612.4000    99.4703     9.3218     9.7153
  612.5000    99.4723     9.2939     9.6579
  612.6000    99.4739     9.2947     9.6587
  612.7000    99.6633     9.2868     9.6592
  612.8000    99.7792     9.2320     9.6212
  612.9000    99.8796     9.2329     9.5933
  613.0000   100.1387     9.2335     9.5940
  613.1000   100.3879     9.2343     9.5947
  613.2000   100.3900     9.2351     9.5954
  613.3000   100.6143     9.2319     9.5961
  613.4000   100.6950     9.2210     9.5967
  613.5000   100.8306     9.2101     9.5974
  613.6000   101.0896     9.1992     9.5980
  613.7000   101.3486     9.1883     9.5987
  613.8000   101.6076     9.1774     9.5994
  613.9000   101.9110     9.1665     9.6000
  614.0000   101.9125     9.1557     9.6008
  614.1000   101.9143     9.1448     9.6014
  614.2000   101.9161     9.1339     9.6021
  614.3000   101.9180     9.1230     9.6027
  614.4000   101.9198     9.1121     9.5824
  614.5000   101.9216     9.1384     9.5372
  614.6000   101.6753     9.1712     9.5379
  614.7000   101.0123     9.1715     9.5387
  614.8000   100.4017     9.1717     9.5300
  614.9000    99.8891     9.1720     9.5200
  615.0000    99.3059     9.1722     9.5101
  615.1000    98.5882     9.1725     9.5002
  615.2000    98.3145     9.1728     9.4902
  615.3000    97.6000     9.1730     9.4803
  615.4000    96.6360     9.1733     9.4703
  615.5000    95.6092     9.1735     9.4604
  615.6000    94.6873     9.1738     9.4504
  615.7000    93.9781     9.1740     9.4405
  615.8000    93.4821     9.1743     9.4306
  615.9000    93.1990     9.1745     9.4206
  616.0000    93.4299     9.1748     9.4148
  616.1000    93.5041     9.1750     9.4276
  616.2000    93.5059     9.1753     9.4821
  616.3000    93.6036     9.1756     9.4829
  616.4000    93.9140     9.1758     9.4834
  616.5000    94.4234     9.1761     9.4841
  616.6000    94.7200     9.1763     9.4848
  616.7000    94.7216     9.1766     9.4854
  616.8000    94.8987     9.1782     9.4861
  616.9000    95.1577     9.2410     9.4868
  617.0000    95.3303     9.3342     9.4876
  617.1000    95.3321     9.4077     9.4881
  617.2000    95.3340     9.4360     9.4887
  617.3000    95.6377     9.4539     9.4641
  617.4000    95.6392     9.5022     9.4240
  617.5000    95.6410     9.5025     9.4192
  617.6000    95.6428     9.5027     9.3598
  617.7000    95.5676     9.4593     9.3094
  617.8000    95.3123     9.4376     9.2550
  617.9000    95.0450     9.4379     9.2009
  618.0000    94.8014     9.4381     9.1470
  618.1000    94.7469     9.4343     9.0935
  618.2000    94.4357     9.3734     9.0382
  618.3000    93.9230     9.3244     8.9177
  618.4000    93.4781     9.2699     8.9182
  618.5000    93.1766     9.2451     8.8827
  618.6000    92.3428     9.2256     8.7779
  618.7000    92.1086     9.1816     8.6573
