~VERSION INFORMATION
 VERS.                2.0:   CWLS LOG ASCII STANDARD - VERSION 2.0
 WRAP.                 NO:   ONE LINE PER DEPTH STEP
~WELL INFORMATION
#MNEM.UNIT      DATA TYPE    INFORMATION
#----------   ------------   ------------------------------
 STRT.F            0.0000:   START DEPTH
 STOP.F          635.0000:   STOP DEPTH
 STEP.F            0.1000:   STEP LENGTH
 NULL.          -999.2500:   NO VALUE
 COMP.   FLUOR DANIEL INC:   COMPANY
 WELL. NAVAL PETROLEUM RESERVE 3 SX-3 #72-7-3:   WELL
 FLD .             TEAPOT:   FIELD
 LOC .       S3 T38N R78W:   LOCATION
 CNTY.            NATRONA:   COUNTY
 STAT.            WYOMING:   STATE
 CTRY. UNITED STATES OF AMERICA:   COUNTRY
 SRVC.      Western Atlas:   SERVICE COMPANY
 DATE.        11-JAN-1995:   LOGDATE
 API .       490252264900:   API NUMBER
~CURVE INFORMATION
#MNEM.UNIT       API CODE    CURVE DESCRIPTION
#----------   ------------   ------------------------------
 DEPT.F                  :   
 GRR .GAPI   07 310 01 00:   GAMMA RAY
 RILD.OHMM   07 120 46 00:   INDUCTION LOG DEEP RESISTIVITY
 RILM.OHMM   07 120 44 00:   RESITIVITY LONG MEDIUM
~PARAMETER INFORMATION
#MNEM.UNIT          VALUE    DESCRIPTION
#----------   ------------   ------------------------------
 PD  .                 GL:   PERMANENT DATUM
 EPD .F              5144:   ELEVATION PERMANENT DATUM
 LMF .                 KB:   LOG MEASURED FROM
 DAPD.F                10:   FEET ABOVE PERMANENT DATUM
 DMF .                 KB:   DRILLING MEASURED FROM
 EKB .F              5154:   KELLING BUSHING
 EDF .F              5153:   DRILLING FLOOR
 EGL .F              5144:   GROUND LEVEL
 DATE.        11-JAN-1995:   RUN DATE
 RUN .                  1:   RUN NUMBER
 DD  .F               641:   DEPTH DRILLER
 DL  .F               642:   DEPTH LOGGER
 BLI .F               635:   BOTTOM LOG INTERVAL
 CS  .IN            9.625:   CASING SIZE
 CBD .F                97:   CASING BOTTOM DRILLER
 CBL .F                97:   CASING BOTTOM LOGGER
 BS  .IN             8.75:   BIT SIZE
 BSD .F               641:   BIT SIZE AT DEPTH
 DFT .                AIR:   DRILLING FLUID TYPE
 MRT .F                89:   MAXIMUM RECORDED TEMPERATURE
 LUN .            HL 6530:   LOGGING UNIT NUMBER
 LUL .             CASPER:   LOGGING UNIT LOCATION
 ENGI.      PAT RASMUSSEN:   RECORDING ENGINEER
 WITN.        STEVE HARDY:   WITNESSED BY
 CLNT.            A2DTECH:   CLIENT CODE
 ORIG.           5" PRINT:   ORIGIN OF DATA
 UWI .       490252264900:   UNIQUE WELL ID
 DICO. A2D Technologies, Inc.:   DIGITIZING COMPANY
~OTHER INFORMATION
~A    DEPT      GRR      RILD       RILM   
# ...
  127.4000   103.6419     7.7896     8.0118
  127.5000   103.1621     7.7891     8.0120
  127.6000   102.8859     7.7365     8.0122
  127.7000   102.6578     7.7736     8.0125
  127.8000   102.5849     7.7909     8.0127
  127.9000   102.5855     7.7913     8.0129
  128.0000   102.5861     7.7916     8.0131
  128.1000   102.5867     7.7930     8.0133
  128.2000   102.5873     7.8466     8.0136
  128.3000   102.5879     7.8468     8.0138
  128.4000   102.9591     7.8472     8.0588
  128.5000   103.1934     7.8475     8.0700
  128.6000   103.3672     7.8582     8.0702
  128.7000   103.8733     7.9028     8.0704
  128.8000   104.4037     7.9032     8.0792
  128.9000   104.8856     7.9416     8.1271
  129.0000   105.5830     7.9588     8.1273
  129.1000   106.2000     7.9592     8.1275
  129.2000   106.7988     7.9595     8.1277
  129.3000   107.5144     7.9614     8.1280
  129.4000   108.0205     8.0157     8.1282
  129.5000   108.5267     8.0548     8.1284
  129.6000   109.0328     8.0721     8.1287
  129.7000   109.3909     8.0724     8.1678
  129.8000   109.7430     8.0839     8.1857
  129.9000   110.1998     8.1293     8.1859
  130.0000   110.4532     8.1297     8.1975
  130.1000   111.0581     8.1697     8.2433
  130.2000   111.2620     8.1870     8.2436
  130.3000   111.6695     8.2295     8.2438
  130.4000   112.3851     8.3021     8.2755
  130.5000   113.3968     8.3046     8.3016
  130.6000   114.4086     8.3607     8.3148
  130.7000   115.5935     8.3610     8.3599
  130.8000   116.0129     8.3927     8.3601
  130.9000   116.3589     8.4199     8.3603
  131.0000   116.6123     8.4203     8.3605
  131.1000   116.8042     8.4206     8.3847
  131.2000   116.8048     8.4210     8.4192
  131.3000   116.8055     8.4629     8.4194
  131.4000   116.5905     8.4485     8.4197
  131.5000   116.3384     8.4220     8.4199
  131.6000   116.0862     8.4224     8.3854
  131.7000   115.4967     8.4227     8.3875
  131.8000   113.9988     8.4231     8.4206
  131.9000   112.5795     8.4234     8.4208
  132.0000   111.9154     8.4238     8.4211
  132.1000   111.3299     8.4241     8.4213
  132.2000   110.8249     8.4371     8.4215
  132.3000   110.4671     8.4835     8.4487
  132.4000   110.4677     8.4839     8.4806
  132.5000   110.4683     8.4842     8.4809
  132.6000   110.4689     8.5171     8.4811
  132.7000   110.4695     8.5440     8.4813
  132.8000   110.5990     8.5444     8.5197
  132.9000   110.8524     8.5447     8.5408
  133.0000   111.0755     8.5451     8.5601
  133.1000   111.0762     8.5883     8.6007
  133.2000   111.3104     8.6053     8.6010
  133.3000   111.3795     8.6290     8.6012
  133.4000   111.3801     8.6660     8.6415
  133.5000   111.2951     8.6663     8.6921
  133.6000   111.0791     8.6667     8.7221
  133.7000   111.0798     8.7108     8.7223
  133.8000   110.8407     8.7617     8.7226
  133.9000   110.7789     8.7889     8.7229
  134.0000   110.7795     8.7893     8.7231
  134.1000   110.7801     8.7934     8.7555
  134.2000   110.8653     8.8513     8.7843
  134.3000   111.3855     8.8516     8.7845
  134.4000   112.1232     8.8867     8.7847
  134.5000   112.6858     8.9140     8.7850
  134.6000   113.1919     8.9144     8.8291
  134.7000   113.6981     8.9147     8.8466
  134.8000   114.2043     8.9152     8.8469
  134.9000   114.7124     8.9155     8.8471
  135.0000   114.7131     8.9159     8.8473
  135.1000   114.9160     8.9162     8.8476
  135.2000   115.1694     8.9166     8.8935
  135.3000   115.3190     8.9170     8.9097
  135.4000   115.3196     8.9174     8.9099
  135.5000   115.3203     8.9177     8.9102
  135.6000   115.3210     8.9181     8.9160
  135.7000   114.9045     8.9185     8.9727
  135.8000   114.5587     8.9188     8.9729
  135.9000   114.1968     8.9192     8.9732
  136.0000   113.7523     8.9196     8.9734
  136.1000   113.5001     8.9199     8.9737
  136.2000   113.2098     8.9203     8.9739
  136.3000   112.9958     8.9207     8.9742
  136.4000   113.0739     8.9211     8.9744
  136.5000   113.4431     8.9214     8.9747
  136.6000   113.9493     8.9218     8.9749
  136.7000   114.4383     8.9222     8.9752
  136.8000   114.7239     8.9225     8.9754
  136.9000   115.1655     8.9229     8.9757
  137.0000   115.5005     8.9386     8.9759
  137.1000   115.7539     8.9858     8.9762
  137.2000   116.0798     8.9862     8.9764
  137.3000   116.5627     8.9866     8.9767
  137.4000   116.8424     8.9869     8.9769
  137.5000   117.2960     8.9873     8.9771
  137.6000   117.8022     8.9877     8.9774
  137.7000   118.1805     8.9881     8.9776
  137.8000   118.5124     8.9885     8.9779
  137.9000   118.9601     8.9888     8.9781
  138.0000   118.9608     8.9892     8.9784
  138.1000   119.4266     8.9634     8.9772
  138.2000   119.5662     8.9278     8.9169
  138.3000   119.8347     8.9281     8.9171
  138.4000   120.2562     8.9285     8.9173
  138.5000   120.5095     8.9289     8.8946
  138.6000   120.7771     8.9660     8.8562
  138.7000   121.0163     8.9918     8.8564
  138.8000   121.2697     8.9922     8.8567
  138.9000   121.3831     8.9984     8.8569
  139.0000   121.3837     9.0556     8.8572
  139.1000   121.3843     9.0559     8.8574
  139.2000   121.3849     9.0563     8.8867
  139.3000   121.3855     9.0837     8.9861
  139.4000   121.3861     9.1368     9.0444
  139.5000   121.3867     9.1902     9.0916
  139.6000   121.4840     9.2484     9.1821
  139.7000   121.6900     9.2980     9.2624
  139.8000   121.6906     9.3524     9.3166
  139.9000   121.6912     9.4071     9.3711
  140.0000   121.6918     9.4621     9.4303
  140.1000   121.8445     9.5174     9.4811
  140.2000   121.9952     9.5774     9.5366
  140.3000   121.9958     9.6291     9.5924
  140.4000   121.9964     9.6854     9.6485
  140.5000   121.9971     9.7718     9.7050
  140.6000   121.9976     9.8486     9.7647
  140.7000   121.9982     9.8562     9.8189
  140.8000   121.7813     9.9181     9.8764
  140.9000   121.2763     9.9185     9.9668
  141.0000   120.7714     9.9189    10.0619
  141.1000   120.1880     9.9498    10.1207
  141.2000   119.3346    10.0079    10.1813
  141.3000   118.4882    10.0664    10.1815
  141.4000   117.5009    10.1293    10.2751
  141.5000   116.1722    10.2397    10.3598
  141.6000   114.6560    10.2717    10.4204
  141.7000   112.9409    10.3360    10.4813
  141.8000   111.8437    10.4364    10.5426
  141.9000   110.7507    10.4974    10.6160
  142.0000   109.7402    10.5627    10.7171
  142.1000   108.8727    10.5631    10.8036
  142.2000   108.3456    10.6088    10.8668
  142.3000   107.5064    10.6708    10.9450
  142.4000   107.0558    10.7121    11.0708
  142.5000   106.5508    10.7125    11.1459
  142.6000   106.0459    10.7130    11.1462
  142.7000   105.6961    10.7720    11.1885
  142.8000   105.6685    10.8350    11.2244
  142.9000   105.3952    10.8641    11.2416
  143.0000   105.3958    10.9081    11.3073
  143.1000   105.5787    11.0169    11.3822
  143.2000   105.8320    11.0173    11.3824
  143.3000   106.1690    11.0783    11.4275
  143.4000   106.7436    11.1431    11.4944
  143.5000   107.8158    11.2083    11.5424
  143.6000   108.7671    11.2738    11.5489
  143.7000   109.5903    11.3298    11.6234
  143.8000   110.4882    11.3303    11.6845
  143.9000   111.5894    11.3933    11.7049
  144.0000   112.7734    11.4600    11.7052
  144.1000   113.5595    11.5641    11.7270
  144.2000   113.8038    11.6512    11.7873
  144.3000   113.8628    11.6621    11.7877
  144.4000   113.8634    11.7334    11.8516
  144.5000   113.7684    11.7338    11.8704
  144.6000   113.5162    11.7859    11.9079
  144.7000   113.2610    11.8165    11.9776
  144.8000   113.2616    11.8664    12.0372
  144.9000   113.2622    11.9827    12.0375
  145.0000   113.2628    11.9832    12.1049
  145.1000   113.2634    12.0505    12.1219
  145.2000   113.2640    12.1210    12.1623
  145.3000   113.2647    12.1522    12.2070
  145.4000   113.2654    12.1784    12.2073
  145.5000   113.2659    12.2495    12.2077
