~VERSION INFORMATION
 VERS.                2.0:   CWLS LOG ASCII STANDARD - VERSION 2.0
 WRAP.                 NO:   ONE LINE PER DEPTH STEP
~WELL INFORMATION
#MNEM.UNIT      DATA TYPE    INFORMATION
#----------   ------------   ------------------------------
 STRT.F            0.0000:   START DEPTH
 STOP.F          663.0000:   STOP DEPTH
 STEP.F            0.1000:   STEP LENGTH
 NULL.          -999.2500:   NO VALUE
 COMP.   FLUOR DANIEL INC:   COMPANY
 WELL.     62-6 X 3 #62-3:   WELL
 FLD .             TEAPOT:   FIELD
 LOC .       S3 T38N R78W:   LOCATION
 CNTY.            NATRONA:   COUNTY
 STAT.            WYOMING:   STATE
 CTRY. UNITED STATES OF AMERICA:   COUNTRY
 SRVC.      Western Atlas:   SERVICE COMPANY
 DATE.        11-APR-1995:   LOGDATE
 API .       490252270400:   API NUMBER
~CURVE INFORMATION
#MNEM.UNIT       API CODE    CURVE DESCRIPTION
#----------   ------------   ------------------------------
 DEPT.F                  :   
 GRR .GAPI   07 310 01 00:   GAMMA RAY
 RILD.OHMM   07 120 46 00:   INDUCTION LOG DEEP RESISTIVITY
 RILM.OHMM   07 120 44 00:   INDUCTION LOG MEDIUM RESISTIVITY
~PARAMETER INFORMATION
#MNEM.UNIT          VALUE    DESCRIPTION
#----------   ------------   ------------------------------
 PD  .                 GL:   PERMANENT DATUM
 EPD .F              5157:   ELEVATION PERMANENT DATUM
 LMF .                 KB:   LOG MEASURED FROM
 DAPD.F                10:   FEET ABOVE PERMANENT DATUM
 DMF .                 KB:   DRILLING MEASURED FROM
 EKB .F              5167:   KELLING BUSHING
 EDF .F              5166:   DRILLING FLOOR
 EGL .F              5157:   GROUND LEVEL
 DATE.        11-APR-1995:   RUN DATE
 RUN .                  1:   RUN NUMBER
 DD  .F               671:   DEPTH DRILLER
 DL  .F               671:   DEPTH LOGGER
 BLI .F               663:   BOTTOM LOG INTERVAL
 TLI .F                95:   TOP LOG INTERVAL
 CS  .IN            9.625:   CASING SIZE
 CBD .F                95:   CASING BOTTOM DRILLER
 CBL .F                95:   CASING BOTTOM LOGGER
 BS  .IN             8.75:   BIT SIZE
 BSD .F               671:   BIT SIZE AT DEPTH
 DFT .                AIR:   DRILLING FLUID TYPE
 MRT .F                90:   MAXIMUM RECORDED TEMPERATURE
 LUN .            HL 6530:   LOGGING UNIT NUMBER
 LUL .             CASPER:   LOGGING UNIT LOCATION
 ENGI.      PAT RASMUSSEN:   RECORDING ENGINEER
 WITN.        GARY STRONG:   WITNESSED BY
 CLNT.            A2DTECH:   CLIENT CODE
 ORIG.           5" PRINT:   ORIGIN OF DATA
 UWI .       490252270400:   UNIQUE WELL ID
 DICO. A2D Technologies, Inc.:   DIGITIZING COMPANY
~OTHER INFORMATION
~A    DEPT      GRR      RILD       RILM   
# ...
  163.8000   126.5398     8.2546     8.9694
  163.9000   125.9181     8.2551     8.9270
  164.0000   125.1445     8.2557     8.9083
  164.1000   124.3928     8.2276     8.9090
  164.2000   123.8363     8.1791     8.9098
  164.3000   123.3631     8.1187     8.9029
  164.4000   123.2385     8.0311     8.8493
  164.5000   123.0883     8.0318     8.8501
  164.6000   122.9422     8.0323     8.8507
  164.7000   122.9446     8.0329     8.8515
  164.8000   122.9719     8.0334     8.8266
  164.9000   123.2508     8.0340     8.7914
  165.0000   123.2530     8.0345     8.7921
  165.1000   123.4538     8.0403     8.7928
  165.2000   123.8707     8.0918     8.7937
  165.3000   124.2771     8.1844     8.8380
  165.4000   124.4675     8.2064     8.8567
  165.5000   124.5542     8.2373     8.8574
  165.6000   125.3760     8.2649     8.8582
  165.7000   125.6225     8.2798     8.8678
  165.8000   126.0852     8.3364     8.9219
  165.9000   126.6048     8.4411     8.9851
  166.0000   127.0080     8.4904     9.0767
  166.1000   127.3429     8.5012     9.1129
  166.2000   127.8313     8.5342     9.1416
  166.3000   128.1037     8.6104     9.1973
  166.4000   128.3534     8.6824     9.2534
  166.5000   128.6145     8.6905     9.3098
  166.6000   128.8755     8.7443     9.3751
  166.7000   129.0169     8.7450     9.4237
  166.8000   128.9422     8.7884     9.4812
  166.9000   128.6860     8.8417     9.5691
  167.0000   128.4218     8.8954     9.6644
  167.1000   128.1234     8.9320     9.7461
  167.2000   128.1253     8.9412     9.9219
  167.3000   127.9623     8.9956    10.0590
  167.4000   127.8289     9.0592    10.2176
  167.5000   127.5903     9.1051    10.4041
  167.6000   126.8169     9.1604    10.5596
  167.7000   126.0290     9.2160    10.7118
  167.8000   124.8270     9.2529    10.9070
  167.9000   123.9840     9.2535    11.1002
  168.0000   122.7831     9.2550    11.1763
  168.1000   121.4924     9.3195    11.3550
  168.2000   120.0347     9.3678    11.4635
  168.3000   118.2265     9.4246    11.4956
  168.4000   116.4072     9.4521    11.5230
  168.5000   114.0004     9.4527    11.5781
  168.6000   111.2145     9.4646    11.5754
  168.7000   108.1984     9.5201    11.4996
  168.8000   105.6144     9.5208    11.5004
  168.9000   103.0289     9.5214    11.4517
  169.0000   100.1045     9.5624    11.4223
  169.1000    98.0442     9.6205    11.3696
  169.2000    97.0120     9.6789    11.2503
  169.3000    95.9799     9.7251    11.1840
  169.4000    95.2980     9.7287    11.1115
  169.5000    95.9096     9.7945    10.9932
  169.6000    97.5932     9.7951    10.9110
  169.7000    99.3479     9.7957    10.8467
  169.8000   101.4096     9.7964    10.7566
  169.9000   103.1907     9.7971    10.6445
  170.0000   104.9597     9.7978    10.5818
  170.1000   107.0313     9.7985    10.5140
  170.2000   108.9671     9.7992    10.4574
  170.3000   110.7799     9.7469    10.3494
  170.4000   112.5928     9.6895    10.2985
  170.5000   114.4219     9.6324    10.2736
  170.6000   117.0630     9.5756    10.2130
  170.7000   118.6337     9.5191    10.1528
  170.8000   120.6280     9.4581    10.0885
  170.9000   122.6996     9.3377    10.0335
  171.0000   124.6748     9.2869     9.9743
  171.1000   126.4337     9.2741     9.9156
  171.2000   127.9655     9.2418     9.8571
  171.3000   129.1280     9.1873     9.7990
  171.4000   130.0394     9.1332     9.7412
  171.5000   130.7069     9.0793     9.6802
  171.6000   131.0843     9.0226     9.5728
  171.7000   131.0466     9.0232     9.5034
  171.8000   130.4747     8.9820     9.4474
  171.9000   129.7012     8.9619     9.4167
  172.0000   128.8436     8.9146     9.3861
  172.1000   128.1542     8.8392     9.2813
  172.2000   126.8169     8.8333     9.2238
  172.3000   125.5582     8.7791     9.2245
  172.4000   124.5261     8.7797     9.1820
  172.5000   123.4940     8.7803     9.0941
  172.6000   122.4795     8.7809     9.0109
  172.7000   121.6316     8.7570     8.9735
  172.8000   121.1662     8.7212     8.9674
  172.9000   121.0337     8.7218     8.9125
  173.0000   121.3333     8.7224     8.8620
  173.1000   121.8530     8.6626     8.8098
  173.2000   122.4997     8.6211     8.7911
  173.3000   123.5157     8.6036     8.7919
  173.4000   124.3592     8.5793     8.7926
  173.5000   125.3091     8.5451     8.7933
  173.6000   126.7350     8.5457     8.7941
  173.7000   128.5928     8.5463     8.7949
  173.8000   130.4458     8.5470     8.7955
  173.9000   131.6667     8.5475     8.8305
  174.0000   131.9518     8.5481     8.8843
  174.1000   132.5086     8.5230     8.9215
  174.2000   132.5108     8.4900     8.9222
  174.3000   132.5132     8.4816     8.9230
  174.4000   132.3607     8.4322     8.9864
  174.5000   132.2169     8.4329     8.9870
  174.6000   132.1494     8.3907     8.9878
  174.7000   131.8932     8.3755     8.9885
  174.8000   131.6218     8.3761     8.9893
  174.9000   131.1373     8.3767     8.9900
  175.0000   130.8233     8.3676     8.9908
  175.1000   130.5671     8.3197     9.0547
  175.2000   130.0795     8.3204     9.0553
  175.3000   129.4491     8.3209     9.0561
  175.4000   129.1816     8.3214     9.0844
  175.5000   128.9141     8.3220     9.1210
  175.6000   128.6466     8.3226     9.1315
  175.7000   128.3792     8.3232     9.1865
  175.8000   128.1117     8.3238     9.1874
  175.9000   127.8442     8.3244     9.1748
  176.0000   127.5767     8.3691     9.1599
  176.1000   127.3093     8.3837     9.1450
  176.2000   127.1374     8.3842     9.1302
  176.3000   127.1398     8.3848     9.1153
  176.4000   127.1422     8.3970     9.1004
  176.5000   127.1449     8.4446     9.0856
  176.6000   127.1470     8.4452     9.0707
  176.7000   126.9695     8.4915     9.0290
  176.8000   126.8506     8.5053     9.0043
  176.9000   126.8530     8.5059     9.0051
  177.0000   126.8554     8.5065     9.0059
  177.1000   126.8674     8.5071     9.0066
  177.2000   127.1618     8.5120     9.0075
  177.3000   127.1639     8.5678     9.0081
  177.4000   127.5325     8.5683     9.0089
  177.5000   127.7711     8.5689     9.0096
  177.6000   127.6755     8.5695     9.0104
  177.7000   127.4193     8.5701     8.9996
  177.8000   127.1758     8.5707     8.9492
  177.9000   127.1786     8.5713     8.9500
  178.0000   127.1807     8.5720     8.9507
  178.1000   127.1831     8.5246     8.9514
  178.2000   127.1855     8.5136     8.9522
  178.3000   127.1880     8.5142     8.9529
  178.4000   127.1904     8.5148     8.9537
  178.5000   127.1928     8.5154     8.9544
  178.6000   127.1954     8.5160     8.9553
  178.7000   127.1976     8.5166     8.9559
  178.8000   127.5791     8.5172     8.8785
  178.9000   127.9518     8.4776     8.8332
  179.0000   128.2129     8.4593     8.8340
  179.1000   128.5358     8.4599     8.8347
  179.2000   129.0554     8.4453     8.8315
  179.3000   129.6219     8.4023     8.7748
  179.4000   130.0948     8.4030     8.7754
  179.5000   130.6144     8.4036     8.7762
  179.6000   131.2843     8.4041     8.7769
  179.7000   131.8474     8.3980     8.7776
  179.8000   132.2386     8.3883     8.7652
  179.9000   132.9719     8.3785     8.7179
  180.0000   133.2532     8.3688     8.7188
  180.1000   133.4940     8.3590     8.7195
  180.2000   133.9510     8.3493     8.7202
  180.3000   133.8570     8.3395     8.7209
  180.4000   133.4530     8.3297     8.7217
  180.5000   133.1968     8.3200     8.7224
  180.6000   132.8892     8.3102     8.7231
  180.7000   132.0652     8.3005     8.7239
  180.8000   131.8257     8.2948     8.7246
  180.9000   131.1711     8.2954     8.7253
  181.0000   130.2410     8.2925     8.7261
  181.1000   129.2089     8.2391     8.7499
  181.2000   128.2482     8.1509     8.7887
  181.3000   127.4747     8.1262     8.7894
  181.4000   126.6604     8.1268     8.7902
  181.5000   126.1727     8.1274     8.7909
  181.6000   126.2651     8.1279     8.7916
  181.7000   126.8458     8.1285     8.7924
  181.8000   127.5068     8.1291     8.7931
  181.9000   128.0265     8.1296     8.7938
