~VERSION INFORMATION
 VERS.                2.0:   CWLS LOG ASCII STANDARD - VERSION 2.0
 WRAP.                 NO:   ONE LINE PER DEPTH STEP
~WELL INFORMATION
#MNEM.UNIT      DATA TYPE    INFORMATION
#----------   ------------   ------------------------------
 STRT.F            2.0000:   START DEPTH
 STOP.F          560.0000:   STOP DEPTH
 STEP.F            0.1000:   STEP LENGTH
 NULL.          -999.2500:   NO VALUE
 COMP.       F D SERV INC:   COMPANY
 WELL. NAVAL PETROLEUM RESERVE 3 SX-3 #88-3:   WELL
 FLD .             NPR #3:   FIELD
 LOC .       S3 T38N R78W:   LOCATION
 CNTY.            NATRONA:   COUNTY
 STAT.            WYOMING:   STATE
 CTRY. UNITED STATES OF AMERICA:   COUNTRY
 SRVC.      Western Atlas:   SERVICE COMPANY
 DATE.        30-OCT-1992:   LOGDATE
 API .       490252254900:   API NUMBER
~CURVE INFORMATION
#MNEM.UNIT       API CODE    CURVE DESCRIPTION
#----------   ------------   ------------------------------
 DEPT.F                  :   
 GRR .GAPI   07 310 01 00:   GAMMA RAY
 RILD.OHMM   07 120 46 00:   INDUCTION LOG DEEP RESISTIVITY
 RILM.OHMM   07 120 44 00:   INDUCTION LOG MEDIUM RESISTIVITY
~PARAMETER INFORMATION
#MNEM.UNIT          VALUE    DESCRIPTION
#----------   ------------   ------------------------------
 PD  .                 GL:   PERMANENT DATUM
 EPD .F              5131:   ELEVATION PERMANENT DATUM
 LMF .                 KB:   LOG MEASURED FROM
 DAPD.F                10:   FEET ABOVE PERMANENT DATUM
 DMF .                 KB:   DRILLING MEASURED FROM
 EKB .F              5141:   KELLING BUSHING
 EDF .F              5140:   DRILLING FLOOR
 EGL .F              5131:   GROUND LEVEL
 DATE.        30-OCT-1992:   RUN DATE
 RUN .                  1:   RUN NUMBER
 DD  .F               568:   DEPTH DRILLER
 DL  .F               568:   DEPTH LOGGER
 BLI .F               560:   BOTTOM LOG INTERVAL
 CS  .IN            8.625:   CASING SIZE
 CBD .F                73:   CASING BOTTOM DRILLER
 CBL .F                73:   CASING BOTTOM LOGGER
 BS  .IN            7.875:   BIT SIZE
 BSD .F               568:   BIT SIZE AT DEPTH
 DFT .           AIR FOAM:   DRILLING FLUID TYPE
 BHT .F                63:   BOTTOM HOLE TEMPERATURE
 TCS .HRS               2:   TIME CURCULATED STOPPED
 MRT .F                63:   MAXIMUM RECORDED TEMPERATURE
 LUN .            HL-6274:   LOGGING UNIT NUMBER
 LUL .             CASPER:   LOGGING UNIT LOCATION
 ENGI.             RAUTIO:   RECORDING ENGINEER
 WITN.          BOB SYLAR:   WITNESSED BY
 CLNT.            A2DTECH:   CLIENT CODE
 ORIG.           5" PRINT:   ORIGIN OF DATA
 UWI .       490252254900:   UNIQUE WELL ID
 DICO. A2D Technologies, Inc.:   DIGITIZING COMPANY
~OTHER INFORMATION
~A    DEPT      GRR      RILD       RILM   
# ...
  256.8000   128.3228     3.2199     3.4304
  256.9000   129.2169     3.2947     3.4793
  257.0000   130.3112     3.3563     3.5803
  257.1000   131.9556     3.4340     3.7276
  257.2000   133.4980     3.5167     3.8203
  257.3000   134.7902     3.6286     3.9399
  257.4000   135.9868     3.7393     4.0780
  257.5000   136.7571     3.8360     4.2063
  257.6000   137.3494     3.9454     4.3834
  257.7000   138.2320     4.0194     4.5451
  257.8000   139.0879     4.0655     4.6462
  257.9000   139.4578     4.1729     4.7376
  258.0000   139.1806     4.2668     4.8849
  258.1000   138.3062     4.3555     4.9878
  258.2000   137.0277     4.4679     5.0846
  258.3000   136.1446     4.5956     5.1873
  258.4000   135.9221     4.6821     5.2809
  258.5000   135.6637     4.7897     5.3564
  258.6000   135.4052     4.9515     5.3932
  258.7000   135.2410     5.0931     5.4595
  258.8000   135.2924     5.2298     5.5360
  258.9000   135.5508     5.3688     5.5900
  259.0000   135.8434     5.4653     5.6572
  259.1000   136.5163     5.5686     5.7088
  259.2000   137.1100     5.6639     5.7432
  259.3000   137.3494     5.7929     5.7829
  259.4000   137.5413     5.9105     5.8535
  259.5000   138.0583     6.0659     5.9356
  259.6000   138.5752     6.2536     5.9939
  259.7000   139.1566     6.3617     6.0424
  259.8000   139.1566     6.4420     6.0788
  259.9000   139.5232     6.4786     6.1154
  260.0000   139.7590     6.5175     6.1523
  260.1000   139.7590     6.5566     6.1897
  260.2000   139.8141     6.5786     6.1902
  260.3000   140.0725     6.5790     6.2210
  260.4000   140.3615     6.5793     6.2340
  260.5000   140.3615     6.5797     6.2527
  260.6000   140.3615     6.5434     6.2781
  260.7000   140.3615     6.5350     6.2786
  260.8000   140.3615     6.5354     6.2790
  260.9000   140.4183     6.5188     6.3231
  261.0000   140.6626     6.4910     6.3235
  261.1000   140.6626     6.4874     6.3239
  261.2000   140.6626     6.4470     6.3056
  261.3000   140.4757     6.3762     6.2812
  261.4000   140.3615     6.3591     6.2690
  261.5000   140.3615     6.3368     6.1956
  261.6000   140.3615     6.2997     6.1535
  261.7000   140.3297     6.2529     6.0930
  261.8000   139.7590     6.1832     6.0215
  261.9000   139.5275     6.1446     5.9687
  262.0000   139.2691     6.0773     5.9218
  262.1000   138.8647     6.0060     5.8523
  262.2000   138.1414     5.9356     5.7831
  262.3000   137.2285     5.8660     5.6659
  262.4000   136.7116     5.7971     5.5817
  262.5000   136.1446     5.7258     5.4618
  262.6000   136.1446     5.6181     5.3501
  262.7000   136.5257     5.4962     5.2667
  262.8000   137.0425     5.3920     5.1993
  262.9000   137.6644     5.3158     5.1082
  263.0000   138.4397     5.2403     5.0395
  263.1000   139.2348     5.1560     4.9641
  263.2000   140.3615     5.0954     4.8768
  263.3000   141.3020     5.0312     4.8206
  263.4000   142.7205     4.9766     4.7823
  263.5000   144.5704     4.9183     4.7262
  263.6000   146.2104     4.8606     4.6713
  263.7000   147.2440     4.8036     4.6402
  263.8000   148.2354     4.7544     4.6169
  263.9000   148.7952     4.7240     4.5898
  264.0000   149.2691     4.6643     4.5630
  264.1000   149.9801     4.6391     4.5363
  264.2000   150.7554     4.6326     4.5097
  264.3000   151.4221     4.6008     4.4833
  264.4000   152.0706     4.5695     4.4536
  264.5000   153.0581     4.5629     4.4539
  264.6000   153.6145     4.5362     4.4542
  264.7000   154.0920     4.5074     4.4404
  264.8000   154.6089     4.4832     4.4241
  264.9000   154.9725     4.4372     4.4244
  265.0000   154.8996     4.4003     4.4247
  265.1000   154.3828     4.3745     4.4250
  265.2000   153.8410     4.3489     4.4253
  265.3000   153.0121     4.3234     4.4256
  265.4000   152.2903     4.2959     4.4259
  265.5000   151.3172     4.2962     4.4262
  265.6000   150.4385     4.2774     4.4321
  265.7000   149.6633     4.2670     4.4576
  265.8000   148.8881     4.2672     4.4579
  265.9000   147.8993     4.2675     4.4816
  266.0000   144.8795     4.2697     4.5086
  266.1000   141.2431     4.2976     4.5358
  266.2000   138.1657     4.3211     4.5631
  266.3000   135.9504     4.3279     4.5966
  266.4000   134.4835     4.3430     4.6503
  266.5000   133.6637     4.3797     4.6814
  266.6000   133.4053     4.4258     4.7314
  266.7000   133.1325     4.4543     4.7677
  266.8000   133.1325     4.5127     4.8124
  266.9000   133.1325     4.5372     4.8588
  267.0000   133.1325     4.5846     4.8947
  267.1000   133.2484     4.6395     4.9517
  267.2000   133.5068     4.6951     4.9847
  267.3000   133.7956     4.7513     5.0652
  267.4000   134.3374     4.8103     5.1120
  267.5000   134.8293     4.9053     5.1601
  267.6000   135.3462     4.9584     5.2221
  267.7000   135.7026     5.0178     5.2775
  267.8000   136.0787     5.0780     5.3114
  267.9000   136.5955     5.1388     5.3815
  268.0000   137.1445     5.2004     5.4108
  268.1000   137.9518     5.2626     5.4673
  268.2000   138.4475     5.3321     5.5330
  268.3000   138.9643     5.3895     5.6131
  268.4000   139.6434     5.4542     5.7061
  268.5000   140.4187     5.5195     5.7746
  268.6000   141.1173     5.5857     5.8503
  268.7000   141.6340     5.6526     5.9142
  268.8000   142.1687     5.7224     5.9853
  268.9000   143.3735     5.8362     6.0572
  269.0000   144.2010     5.8989     6.1300
  269.1000   145.0705     5.9438     6.2036
  269.2000   145.8457     5.9995     6.2781
  269.3000   146.4641     6.0714     6.3599
  269.4000   146.7225     6.1358     6.4299
  269.5000   146.9879     6.1726     6.4782
  269.6000   146.9879     6.2137     6.5173
  269.7000   146.9879     6.2801     6.5895
  269.8000   146.8221     6.3280     6.6879
  269.9000   146.5636     6.3660     6.7247
  270.0000   146.2250     6.4191     6.7252
  270.1000   145.7456     6.4874     6.7256
  270.2000   145.4819     6.5284     6.7564
  270.3000   145.1807     6.6155     6.7971
  270.4000   144.9703     6.6859     6.8381
  270.5000   144.7118     6.7952     6.8792
  270.6000   144.3285     6.8947     6.9207
  270.7000   143.8116     6.9773     6.9653
  270.8000   143.3735     7.0608     6.9658
  270.9000   143.3735     7.1432     6.9979
  271.0000   143.3735     7.1911     7.0401
  271.1000   143.1612     7.2292     7.0825
  271.2000   143.2418     7.3037     7.1138
  271.3000   143.3735     7.3912     7.1186
  271.4000   143.3735     7.4627     7.1643
  271.5000   143.3323     7.5075     7.2047
  271.6000   143.0723     7.5547     7.2150
  271.7000   142.7711     7.6562     7.2677
  271.8000   142.3431     7.6966     7.3357
  271.9000   142.1687     7.7428     7.3679
  272.0000   142.1687     7.7893     7.3731
  272.1000   142.1687     7.8360     7.4201
  272.2000   142.2116     7.8732     7.4206
  272.3000   142.4701     7.8756     7.4555
  272.4000   142.7711     7.9288     7.5004
  272.5000   142.9869     7.9292     7.5255
  272.6000   143.2454     7.9630     7.5261
  272.7000   143.3735     7.9851     7.5266
  272.8000   143.4611     7.9679     7.5271
  272.9000   143.6747     7.9309     7.5276
  273.0000   143.3715     7.9295     7.5281
  273.1000   143.0723     7.8771     7.5287
  273.2000   142.4193     7.8775     7.5090
  273.3000   141.6439     7.8452     7.4650
  273.4000   140.6042     7.7993     7.4267
  273.5000   139.3122     7.7705     7.4273
  273.6000   138.0200     7.7617     7.3857
  273.7000   136.7317     7.7178     7.3770
  273.8000   135.5422     7.7183     7.3775
  273.9000   134.6644     7.6791     7.3579
  274.0000   134.1606     7.6341     7.3277
  274.1000   134.4381     7.5894     7.3226
  274.2000   135.3046     7.5450     7.2782
  274.3000   136.3381     7.5008     7.2787
  274.4000   137.3662     7.4569     7.2448
  274.5000   138.2530     7.4073     7.2295
  274.6000   138.9169     7.3698     7.2100
  274.7000   139.8706     7.3267     7.1806
  274.8000   140.6329     7.2838     7.1753
  274.9000   141.1499     7.2566     7.1321
