~VERSION INFORMATION
 VERS.                2.0:   CWLS LOG ASCII STANDARD - VERSION 2.0
 WRAP.                 NO:   ONE LINE PER DEPTH STEP
~WELL INFORMATION
#MNEM.UNIT      DATA TYPE    INFORMATION
#----------   ------------   ------------------------------
 STRT.F            0.0000:   START DEPTH
 STOP.F          545.0000:   STOP DEPTH
 STEP.F            0.1000:   STEP LENGTH
 NULL.          -999.2500:   NO VALUE
 COMP.       F D SERV INC:   COMPANY
 WELL. NAVAL PETROLEUM RESERVE 3 SX-3 #88-5-3:   WELL
 FLD .             TEAPOT:   FIELD
 LOC .       S3 T38N R78W:   LOCATION
 CNTY.            NATRONA:   COUNTY
 STAT.            WYOMING:   STATE
 CTRY. UNITED STATES OF AMERICA:   COUNTRY
 SRVC.     Atlas Wireline:   SERVICE COMPANY
 DATE.        14-OCT-1992:   LOGDATE
 API .       490252255700:   API NUMBER
~CURVE INFORMATION
#MNEM.UNIT       API CODE    CURVE DESCRIPTION
#----------   ------------   ------------------------------
 DEPT.F                  :   
 GRR .GAPI   07 310 01 00:   GAMMA RAY
 RILD.OHMM   07 120 46 00:   INDUCTION LOG DEEP RESISTIVITY
 RILM.OHMM   07 120 44 00:   INDUCTION LOG MEDIUM RESISTIVITY
~PARAMETER INFORMATION
#MNEM.UNIT          VALUE    DESCRIPTION
#----------   ------------   ------------------------------
 PD  .                 GL:   PERMANENT DATUM
 EPD .F              5152:   ELEVATION PERMANENT DATUM
 LMF .                 KB:   LOG MEASURED FROM
 DAPD.F                10:   FEET ABOVE PERMANENT DATUM
 DMF .                 KB:   DRILLING MEASURED FROM
 EKB .F              5162:   KELLING BUSHING
 EDF .F              5161:   DRILLING FLOOR
 EGL .F              5152:   GROUND LEVEL
 DATE.        14-OCT-1992:   RUN DATE
 RUN .                  1:   RUN NUMBER
 DD  .F               555:   DEPTH DRILLER
 DL  .F               552:   DEPTH LOGGER
 BLI .F               546:   BOTTOM LOG INTERVAL
 CS  .IN            8.625:   CASING SIZE
 CBD .F                85:   CASING BOTTOM DRILLER
 CBL .F                96:   CASING BOTTOM LOGGER
 BS  .IN            7.875:   BIT SIZE
 BSD .F               555:   BIT SIZE AT DEPTH
 DFT .           AIR FOAM:   DRILLING FLUID TYPE
 BHT .F                72:   BOTTOM HOLE TEMPERATURE
 TCS .HRS               2:   TIME CURCULATED STOPPED
 MRT .F                72:   MAXIMUM RECORDED TEMPERATURE
 LUN .            HL-6274:   LOGGING UNIT NUMBER
 LUL .             CASPER:   LOGGING UNIT LOCATION
 ENGI.             RAUTIO:   RECORDING ENGINEER
 WITN.        GARY STRONG:   WITNESSED BY
 CLNT.            A2DTECH:   CLIENT CODE
 ORIG.           5" PRINT:   ORIGIN OF DATA
 UWI .       490252255700:   UNIQUE WELL ID
 DICO. A2D Technologies, Inc.:   DIGITIZING COMPANY
~OTHER INFORMATION
~A    DEPT      GRR      RILD       RILM   
# ...
  491.4000   122.1285    11.2863    11.4989
  491.5000   122.3724    11.4192    11.4985
  491.6000   122.2254    11.4187    11.4980
  491.7000   121.9704    11.4712    11.5199
  491.8000   121.5087    11.5376    11.5865
  491.9000   120.7483    11.6043    11.6567
  492.0000   119.9799    11.6714    11.6563
  492.1000   118.8080    11.7388    11.7597
  492.2000   118.1670    11.8177    11.8177
  492.3000   117.5720    11.8751    11.8435
  492.4000   117.1820    11.8988    11.8989
  492.5000   116.9269    11.9619    11.8983
  492.6000   116.6945    12.0636    11.9803
  492.7000   116.9920    12.0631    11.9799
  492.8000   116.9898    12.0626    12.0227
  492.9000   117.1672    12.1242    12.0923
  493.0000   117.2853    12.1454    12.1454
  493.1000   117.4517    12.1449    12.1482
  493.2000   117.9547    12.1662    12.2286
  493.3000   118.4792    12.2282    12.2282
  493.4000   118.9605    12.2276    12.2277
  493.5000   119.4634    12.2272    12.2611
  493.6000   120.1129    12.2267    12.3116
  493.7000   120.6707    12.2262    12.3111
  493.8000   120.9209    12.2507    12.3105
  493.9000   121.1676    12.3101    12.3100
  494.0000   121.1647    12.3095    12.3095
  494.1000   121.1628    12.3090    12.3090
  494.2000   120.9994    12.3085    12.3085
  494.3000   120.6310    12.3080    12.3080
  494.4000   120.1889    12.3357    12.3075
  494.5000   119.8798    12.3924    12.3070
  494.6000   118.7481    12.3919    12.3611
  494.7000   117.8539    12.3913    12.3914
  494.8000   116.6654    12.3909    12.4184
  494.9000   115.2718    12.3904    12.4765
  495.0000   113.9940    12.3899    12.4759
  495.1000   113.2986    12.3893    12.4753
  495.2000   113.0281    12.3927    12.4748
  495.3000   113.0258    12.4743    12.4743
  495.4000   113.0234    12.4738    12.5050
  495.5000   113.0210    12.4733    12.5599
  495.6000   113.3021    12.5077    12.5629
  495.7000   114.0577    12.5589    12.6460
  495.8000   114.8156    12.5583    12.6455
  495.9000   115.7137    12.5578    12.6450
  496.0000   116.7328    12.5573    12.6796
  496.1000   118.1502    12.5568    12.7318
  496.2000   119.6637    12.5945    12.7383
  496.3000   120.9321    12.6429    12.8191
  496.4000   121.4215    12.6527    12.8186
  496.5000   121.7054    12.7296    12.8180
  496.6000   121.7033    12.7291    12.8567
  496.7000   121.7009    12.7286    12.9060
  496.8000   121.5751    12.7281    12.9054
  496.9000   121.3201    12.7553    12.9049
  497.0000   121.0370    12.8155    12.9044
  497.1000   120.4899    12.8148    12.9038
  497.2000   119.7886    12.8143    12.9033
  497.3000   118.4721    12.8735    12.9028
  497.4000   117.0916    12.9022    12.9022
  497.5000   115.6459    12.9017    12.9017
  497.6000   113.7902    12.8843    12.8121
  497.7000   111.4666    12.8117    12.8117
  497.8000   109.2373    12.8110    12.8111
  497.9000   107.7603    12.8106    12.8106
  498.0000   106.6466    12.8101    12.8101
  498.1000   105.9471    12.8095    12.8095
  498.2000   105.7489    12.7891    12.8089
  498.3000   105.7466    12.7201    12.8085
  498.4000   105.7438    12.7196    12.8079
  498.5000   105.7417    12.7191    12.8074
  498.6000   105.7393    12.7186    12.8069
  498.7000   105.8559    12.7180    12.8063
  498.8000   106.1061    12.7175    12.8058
  498.9000   106.3330    12.7170    12.8053
  499.0000   106.3301    12.7164    12.8047
  499.1000   106.3279    12.7159    12.7654
  499.2000   106.6875    12.7154    12.6908
  499.3000   107.1904    12.7149    12.6272
  499.4000   107.6933    12.7143    12.6266
  499.5000   108.2722    12.7138    12.6261
  499.6000   109.3188    12.7133    12.6256
  499.7000   110.2887    12.7128    12.6251
  499.8000   111.1015    12.7122    12.6246
  499.9000   111.8570    12.6684    12.6240
  500.0000   112.5039    12.6199    12.6235
  500.1000   112.9850    12.6104    12.6142
  500.2000   113.4661    12.6009    12.6049
  500.3000   113.8819    12.5913    12.5955
  500.4000   114.1718    12.5818    12.5862
  500.5000   114.7026    12.5723    12.5769
  500.6000   115.0001    12.5627    12.5675
  500.7000   115.2072    12.5532    12.5582
  500.8000   115.2961    12.5436    12.5489
  500.9000   115.2937    12.5349    12.5395
  501.0000   115.2913    12.5347    12.5330
  501.1000   115.2889    12.5346    12.5326
  501.2000   115.2850    12.5344    12.5323
  501.3000   114.6831    12.5342    12.5319
  501.4000   114.2454    12.5340    12.5931
  501.5000   113.9019    12.5339    12.6183
  501.6000   113.7754    12.5337    12.6179
  501.7000   113.7730    12.5335    12.6176
  501.8000   113.7706    12.5333    12.6301
  501.9000   113.7777    12.5332    12.7045
  502.0000   114.0658    12.5330    12.7041
  502.1000   114.0637    12.5328    12.7038
  502.2000   114.0613    12.5326    12.7034
  502.3000   114.0589    12.5325    12.7031
  502.4000   114.1581    12.5323    12.7027
  502.5000   114.3544    12.5321    12.6878
  502.6000   114.3704    12.5320    12.6144
  502.7000   114.6496    12.5318    12.6140
  502.8000   114.6474    12.5316    12.6137
  502.9000   114.8388    12.5314    12.5606
  503.0000   114.9429    12.5197    12.5261
  503.1000   115.0510    12.4447    12.5257
  503.2000   115.2384    12.4445    12.5254
  503.3000   115.2906    12.4443    12.5250
  503.4000   115.8341    12.4442    12.5246
  503.5000   115.8318    12.4440    12.4581
  503.6000   116.0320    12.4186    12.3839
  503.7000   116.2883    12.3578    12.3515
  503.8000   116.9025    12.3577    12.3512
  503.9000   118.0901    12.3575    12.3508
  504.0000   119.6755    12.3573    12.3448
  504.1000   121.5231    12.3066    12.2649
  504.2000   123.0218    12.2718    12.1981
  504.3000   123.4426    12.2451    12.1797
  504.4000   123.7878    12.1868    12.1368
  504.5000   123.9159    12.1838    12.0645
  504.6000   124.0000    12.1024    11.9925
  504.7000   124.2118    12.0394    11.9210
  504.8000   124.2026    12.0186    11.8455
  504.9000   123.6057    11.9403    11.7793
  505.0000   123.6036    11.8259    11.7091
  505.1000   123.2440    11.7555    11.6818
  505.2000   122.8613    11.6899    11.6194
  505.3000   122.6002    11.6897    11.5206
  505.4000   122.2854    11.5653    11.5118
  505.5000   121.7898    11.5287    11.4405
  505.6000   121.7871    11.4894    11.3750
  505.7000   121.5559    11.4210    11.3610
  505.8000   121.2949    11.3698    11.3178
  505.9000   121.1796    11.3639    11.2820
  506.0000   121.1772    11.2911    11.2610
  506.1000   121.1748    11.2291    11.2036
  506.2000   121.1724    11.2129    11.2033
  506.3000   121.1698    11.1731    11.2029
  506.4000   121.1676    11.1066    11.1481
  506.5000   121.1652    11.0583    11.0816
  506.6000   121.3173    11.0440    11.0481
  506.7000   121.5736    10.9060    11.0478
  506.8000   121.8901    10.8447    11.0363
  506.9000   122.3652    10.7802    10.9710
  507.0000   122.8403    10.7557    10.9706
  507.1000   123.3155    10.6974    10.9704
  507.2000   123.7906    10.6076    10.9257
  507.3000   124.4020    10.5991    10.8941
  507.4000   125.3910    10.5341    10.8938
  507.5000   125.9458    10.4613    10.8810
  507.6000   125.9435    10.4612    10.8161
  507.7000   125.9411    10.4611    10.7432
  507.8000   125.9387    10.4015    10.7429
  507.9000   125.8226    10.3170    10.6977
  508.0000   125.6336    10.3168    10.6339
  508.1000   125.6008    10.3167    10.5944
  508.2000   125.3284    10.2454    10.5804
  508.3000   125.0787    10.2453    10.5173
  508.4000   124.8176    10.2046    10.4479
  508.5000   124.5566    10.1743    10.4476
  508.6000   124.2955    10.1742    10.4473
  508.7000   124.0344    10.1741    10.4120
  508.8000   123.7734    10.1739    10.3747
  508.9000   123.5099    10.1738    10.3744
  509.0000   123.5071    10.1222    10.3741
  509.1000   123.2905    10.1033    10.3738
  509.2000   123.2024    10.1032    10.3735
  509.3000   123.0686    10.0812    10.3270
  509.4000   122.8973    10.0333    10.3014
  509.5000   122.8949    10.0331    10.3012
