~VERSION INFORMATION
 VERS.                2.0:   CWLS LOG ASCII STANDARD - VERSION 2.0
 WRAP.                 NO:   ONE LINE PER DEPTH STEP
~WELL INFORMATION
#MNEM.UNIT      DATA TYPE    INFORMATION
#----------   ------------   ------------------------------
 STRT.F          484.0000:   START DEPTH
 STOP.F         2291.5000:   STOP DEPTH
 STEP.F            0.5000:   STEP LENGTH
 NULL.          -999.2500:   NO VALUE
 COMP. FENIX & SCISSON INC:   COMPANY
 WELL.     45 SHX 3 #45-3:   WELL
 FLD .             TEAPOT:   FIELD
 LOC .       S3 T38N R78W:   LOCATION
 CNTY.            NATRONA:   COUNTY
 STAT.            WYOMING:   STATE
 CTRY. UNITED STATES OF AMERICA:   COUNTRY
 SRVC.              Welex:   SERVICE COMPANY
 DATE.        20-APR-1980:   LOGDATE
 API .       490251080400:   API NUMBER
~CURVE INFORMATION
#MNEM.UNIT       API CODE    CURVE DESCRIPTION
#----------   ------------   ------------------------------
 DEPT.F                  :   
 CALD.IN     45 280 60 00:   CALIPER
 GRD .GAPI   45 310 01 00:   GAMMA RAY FROM DENSITY LOG
 CORR.G/C3   45 356 01 00:   DENSITY CORRECTION
 RHOB.G/C3   45 350 01 00:   BULK DENSITY
 DPHI.DEC    45 890 12 00:   DENSITY POROSITY SANDSTONE
~PARAMETER INFORMATION
#MNEM.UNIT          VALUE    DESCRIPTION
#----------   ------------   ------------------------------
 PD  .                 GL:   PERMANENT DATUM
 EPD .F              5186:   ELEVATION PERMANENT DATUM
 LMF .                 KB:   LOG MEASURED FROM
 DAPD.F                10:   FEET ABOVE PERMANENT DATUM
 DMF .                 KB:   DRILLING MEASURED FROM
 EKB .F              5196:   KELLING BUSHING
 EGL .F              5186:   GROUND LEVEL
 DATE.            4-20-80:   RUN DATE
 RUN .                  1:   RUN NUMBER
 DD  .F              2341:   DEPTH DRILLER
 DL  .F              2293:   DEPTH LOGGER
 BLI .F              2291:   BOTTOM LOG INTERVAL
 TLI .F               500:   TOP LOG INTERVAL
 CS  .IN            9.625:   CASING SIZE
 BS  .IN             8.75:   BIT SIZE
 BSD .F              2341:   BIT SIZE AT DEPTH
 DFT .                OIL:   DRILLING FLUID TYPE
 TCS .HRS               2:   TIME CURCULATED STOPPED
 MRT .F               218:   MAXIMUM RECORDED TEMPERATURE
 ENGI.            TOTHILL:   RECORDING ENGINEER
 WITN.           DINSMORE:   WITNESSED BY
 CLNT.            A2DTECH:   CLIENT CODE
 ORIG.           5" PRINT:   ORIGIN OF DATA
 UWI .       490251080400:   UNIQUE WELL ID
 DICO. A2D Technologies, Inc.:   DIGITIZING COMPANY
~OTHER INFORMATION
~A   DEPT     CALD         GRD      CORR       RHOB       DPHI   
# ...
 1643.0000     8.7729    77.2426    -0.0186     2.5315     0.0647
 1643.5000     8.7923    77.9704    -0.0139     2.5313     0.0651
 1644.0000     8.8117    78.6197    -0.0093     2.5310     0.0655
 1644.5000     8.8320    78.5692    -0.0094     2.5307     0.0659
 1645.0000     8.8146    78.4874    -0.0078     2.5261     0.0690
 1645.5000     8.8199    78.4073    -0.0153     2.5211     0.0723
 1646.0000     8.8246    78.3279    -0.0171     2.5165     0.0752
 1646.5000     8.8291    78.2484    -0.0171     2.5177     0.0734
 1647.0000     8.8173    78.1687    -0.0106     2.5212     0.0710
 1647.5000     8.7627    78.0891    -0.0093     2.5224     0.0684
 1648.0000     8.7091    78.0253    -0.0170     2.5114     0.0798
 1648.5000     8.6690    78.0895    -0.0210     2.5034     0.0742
 1649.0000     8.7603    78.1557    -0.0057     2.5239     0.0663
 1649.5000     8.8847    78.2212     0.0093     2.5432     0.0586
 1650.0000     8.9501    78.2838     0.0105     2.5470     0.0551
 1650.5000     8.8579    78.3001     0.0016     2.5361     0.0637
 1651.0000     8.7978    78.9814     0.0007     2.5310     0.0643
 1651.5000     8.8204    79.7285     0.0034     2.5382     0.0593
 1652.0000     8.8804    80.4778     0.0109     2.5451     0.0562
 1652.5000     8.9039    81.2254     0.0086     2.5433     0.0568
 1653.0000     8.8586    81.9727     0.0073     2.5456     0.0567
 1653.5000     8.8147    82.7174     0.0143     2.5511     0.0526
 1654.0000     8.7747    83.1435     0.0211     2.5589     0.0487
 1654.5000     8.7358    82.8681     0.0253     2.5653     0.0458
 1655.0000     8.7664    82.5907     0.0133     2.5500     0.0546
 1655.5000     8.7945    82.3131    -0.0054     2.5341     0.0654
 1656.0000     8.8013    82.0371    -0.0188     2.5199     0.0711
 1656.5000     8.7712    81.7587    -0.0204     2.5183     0.0710
 1657.0000     8.7600    81.6418    -0.0172     2.5229     0.0684
 1657.5000     8.8155    81.6396    -0.0132     2.5240     0.0697
 1658.0000     8.8707    81.6397    -0.0104     2.5208     0.0704
 1658.5000     8.8465    81.6421    -0.0058     2.5270     0.0662
 1659.0000     8.7963    81.6213    -0.0012     2.5333     0.0636
 1659.5000     8.7473    82.0587    -0.0029     2.5320     0.0649
 1660.0000     8.7311    82.3651    -0.0050     2.5210     0.0699
 1660.5000     8.8018    82.6926    -0.0097     2.5148     0.0750
 1661.0000     8.8716    83.0178    -0.0184     2.5085     0.0804
 1661.5000     8.8954    83.3463    -0.0181     2.5094     0.0800
 1662.0000     8.8992    83.4501    -0.0043     2.5207     0.0693
 1662.5000     8.9027    83.4511     0.0000     2.5280     0.0648
 1663.0000     8.9062    83.3991     0.0022     2.5360     0.0602
 1663.5000     8.9098    83.1429     0.0044     2.5441     0.0554
 1664.0000     8.9129    82.8189     0.0035     2.5509     0.0547
 1664.5000     8.9260    82.4993     0.0014     2.5460     0.0564
 1665.0000     8.9412    82.2334    -0.0008     2.5452     0.0561
 1665.5000     8.9490    82.5553     0.0007     2.5498     0.0539
 1666.0000     8.9197    83.0722     0.0026     2.5489     0.0513
 1666.5000     8.8913    83.5927     0.0099     2.5542     0.0484
 1667.0000     8.8725    84.1161     0.0075     2.5572     0.0478
 1667.5000     8.8829    84.6372     0.0028     2.5473     0.0554
 1668.0000     8.8958    84.5326    -0.0073     2.5366     0.0628
 1668.5000     8.9089    84.2942    -0.0184     2.5201     0.0703
 1669.0000     8.9219    84.0571    -0.0290     2.5085     0.0777
 1669.5000     8.9339    83.8058    -0.0372     2.4999     0.0843
 1670.0000     8.9335    84.0279    -0.0370     2.4928     0.0865
 1670.5000     8.9330    84.4123    -0.0335     2.4967     0.0837
 1671.0000     8.9063    84.8009    -0.0298     2.5023     0.0829
 1671.5000     8.8498    85.1893    -0.0313     2.5002     0.0839
 1672.0000     8.7939    85.5760    -0.0341     2.4909     0.0873
 1672.5000     8.7521    85.8673    -0.0371     2.4883     0.0906
 1673.0000     8.7780    85.7546    -0.0424     2.4860     0.0930
 1673.5000     8.8032    85.6466    -0.0473     2.4838     0.0931
 1674.0000     8.8287    85.5394    -0.0472     2.4880     0.0917
 1674.5000     8.8117    85.4326    -0.0472     2.4923     0.0889
 1675.0000     8.7945    85.3281    -0.0457     2.4976     0.0857
 1675.5000     8.8630    85.3433    -0.0327     2.5068     0.0787
 1676.0000     8.9277    85.5594    -0.0261     2.5100     0.0777
 1676.5000     8.7949    85.7732    -0.0346     2.5054     0.0821
 1677.0000     8.7582    85.9866    -0.0287     2.5093     0.0795
 1677.5000     8.8258    86.1550    -0.0235     2.5109     0.0781
 1678.0000     8.8394    86.0305    -0.0336     2.5029     0.0817
 1678.5000     8.7368    85.9099    -0.0326     2.4996     0.0822
 1679.0000     8.7618    85.7900    -0.0311     2.5013     0.0800
 1679.5000     8.7959    85.6722    -0.0402     2.4946     0.0873
 1680.0000     8.8126    85.5719    -0.0476     2.4883     0.0893
 1680.5000     8.8096    85.1746    -0.0372     2.4977     0.0838
 1681.0000     8.7496    84.7411    -0.0280     2.5086     0.0784
 1681.5000     8.7615    84.3061    -0.0188     2.5186     0.0730
 1682.0000     8.8035    83.8721    -0.0156     2.5265     0.0699
 1682.5000     8.8467    83.4386    -0.0054     2.5303     0.0656
 1683.0000     8.8551    83.0014    -0.0041     2.5347     0.0620
 1683.5000     8.8601    82.8010    -0.0033     2.5375     0.0593
 1684.0000     8.8650    82.7244    -0.0010     2.5410     0.0590
 1684.5000     8.8700    82.6499     0.0066     2.5490     0.0533
 1685.0000     8.8750    82.5754     0.0107     2.5573     0.0501
 1685.5000     8.8800    82.5007     0.0029     2.5533     0.0482
 1686.0000     8.8850    82.4262     0.0040     2.5531     0.0520
 1686.5000     8.8898    82.3513    -0.0047     2.5493     0.0561
 1687.0000     8.8856    82.2780    -0.0134     2.5404     0.0602
 1687.5000     8.8640    82.0215    -0.0201     2.5315     0.0643
 1688.0000     8.8425    81.6239    -0.0075     2.5373     0.0581
 1688.5000     8.8356    81.2256    -0.0051     2.5440     0.0586
 1689.0000     8.8556    80.8267    -0.0094     2.5360     0.0619
 1689.5000     8.8686    80.4300    -0.0174     2.5277     0.0675
 1690.0000     8.8277    80.0349    -0.0099     2.5329     0.0619
 1690.5000     8.7757    79.7544    -0.0151     2.5267     0.0671
 1691.0000     8.7938    79.6174    -0.0279     2.5158     0.0736
 1691.5000     8.8190    79.9559    -0.0249     2.5194     0.0726
 1692.0000     8.8326    80.2941    -0.0222     2.5203     0.0704
 1692.5000     8.8388    80.6307    -0.0131     2.5294     0.0640
 1693.0000     8.8458    80.9668    -0.0015     2.5401     0.0570
 1693.5000     8.8531    81.3031    -0.0059     2.5371     0.0606
 1694.0000     8.7982    81.6399    -0.0111     2.5353     0.0627
 1694.5000     8.7328    81.9751    -0.0085     2.5392     0.0602
 1695.0000     8.8061    82.2514    -0.0012     2.5436     0.0572
 1695.5000     8.8371    82.2814     0.0018     2.5479     0.0547
 1696.0000     8.7941    82.3182     0.0074     2.5561     0.0511
 1696.5000     8.7550    82.3555     0.0155     2.5665     0.0438
 1697.0000     8.8113    82.3929     0.0115     2.5622     0.0467
 1697.5000     8.8532    82.4302     0.0047     2.5605     0.0485
 1698.0000     8.8527    82.4674     0.0002     2.5569     0.0482
 1698.5000     8.8572    82.5040    -0.0102     2.5474     0.0587
 1699.0000     8.8900    82.5457    -0.0165     2.5405     0.0595
 1699.5000     8.9112    82.7708    -0.0229     2.5357     0.0616
 1700.0000     8.8890    83.0172    -0.0269     2.5310     0.0637
 1700.5000     8.8675    83.2637    -0.0257     2.5287     0.0649
 1701.0000     8.8594    83.5098    -0.0252     2.5284     0.0673
 1701.5000     8.9114    83.7559    -0.0323     2.5176     0.0728
 1702.0000     8.9272    84.0021    -0.0426     2.5076     0.0784
 1702.5000     8.8909    84.2482    -0.0390     2.5106     0.0783
 1703.0000     8.8545    84.4943    -0.0329     2.5136     0.0746
 1703.5000     8.8173    84.7406    -0.0191     2.5295     0.0657
