~VERSION INFORMATION
 VERS.                2.0:   CWLS LOG ASCII STANDARD - VERSION 2.0
 WRAP.                 NO:   ONE LINE PER DEPTH STEP
~WELL INFORMATION
#MNEM.UNIT      DATA TYPE    INFORMATION
#----------   ------------   ------------------------------
 STRT.F            4.0000:   START DEPTH
 STOP.F          584.0000:   STOP DEPTH
 STEP.F            0.1000:   STEP LENGTH
 NULL.          -999.2500:   NO VALUE
 COMP.       F D SERV INC:   COMPANY
 WELL. N P R 3 SX-3 #62-3:   WELL
 FLD .             TEAPOT:   FIELD
 LOC .       S3 T38N R78W:   LOCATION
 CNTY.            NATRONA:   COUNTY
 STAT.            WYOMING:   STATE
 CTRY. UNITED STATES OF AMERICA:   COUNTRY
 SRVC.     Atlas Wireline:   SERVICE COMPANY
 DATE.        17-APR-1992:   LOGDATE
 API .       490252251600:   API NUMBER
~CURVE INFORMATION
#MNEM.UNIT       API CODE    CURVE DESCRIPTION
#----------   ------------   ------------------------------
 DEPT.F                  :   
 GRR .GAPI   07 310 01 00:   GAMMA RAY
 RILD.OHMM   07 120 46 00:   INDUCTION LOG DEEP RESISTIVITY
 RILM.OHMM   07 120 44 00:   INDUCTION LOG MEDIUM RESISTIVITY
~PARAMETER INFORMATION
#MNEM.UNIT          VALUE    DESCRIPTION
#----------   ------------   ------------------------------
 PD  .                 GL:   PERMANENT DATUM
 EPD .F              5135:   ELEVATION PERMANENT DATUM
 LMF .                 KB:   LOG MEASURED FROM
 DAPD.F                 5:   FEET ABOVE PERMANENT DATUM
 DMF .                 KB:   DRILLING MEASURED FROM
 EKB .F              5140:   KELLING BUSHING
 EDF .F              5139:   DRILLING FLOOR
 EGL .F              5135:   GROUND LEVEL
 DATE.        17-APR-1992:   RUN DATE
 RUN .                  1:   RUN NUMBER
 DD  .F               589:   DEPTH DRILLER
 DL  .F               590:   DEPTH LOGGER
 BLI .F               584:   BOTTOM LOG INTERVAL
 TLI .F                48:   TOP LOG INTERVAL
 CS  .IN            8.625:   CASING SIZE
 CBD .F                48:   CASING BOTTOM DRILLER
 CBL .F                48:   CASING BOTTOM LOGGER
 BS  .IN            7.875:   BIT SIZE
 BSD .F               589:   BIT SIZE AT DEPTH
 DFT .                AIR:   DRILLING FLUID TYPE
 TCS .HRS               2:   TIME CURCULATED STOPPED
 MRT .F                85:   MAXIMUM RECORDED TEMPERATURE
 LUN .            HL-6274:   LOGGING UNIT NUMBER
 LUL .             CASPER:   LOGGING UNIT LOCATION
 ENGI.             RAUTIO:   RECORDING ENGINEER
 WITN.        GARY STRONG:   WITNESSED BY
 CLNT.            A2DTECH:   CLIENT CODE
 ORIG.           5" PRINT:   ORIGIN OF DATA
 UWI .       490252251600:   UNIQUE WELL ID
 DICO. A2D Technologies, Inc.:   DIGITIZING COMPANY
~OTHER INFORMATION
~A    DEPT      GRR      RILD       RILM   
# ...
  240.6000   123.3110     8.8107     9.0533
  240.7000   123.8019     8.8096     9.0528
  240.8000   124.0944     8.7854     9.0071
  240.9000   123.8777     8.7340     8.9887
  241.0000   123.7750     8.6841     8.9882
  241.1000   123.6723     8.6828     8.9877
  241.2000   123.2885     8.6819     8.9872
  241.3000   122.2010     8.6514     8.9372
  241.4000   121.4789     8.6193     8.8859
  241.5000   120.7093     8.6181     8.8608
  241.6000   120.0649     8.6170     8.8459
  241.7000   119.6186     8.6160     8.7981
  241.8000   119.3596     8.6149     8.7975
  241.9000   119.0531     8.5888     8.7554
  242.0000   119.0500     8.5528     8.7352
  242.1000   119.0463     8.5517     8.7347
  242.2000   119.0425     8.5505     8.7268
  242.3000   119.0752     8.5075     8.6728
  242.4000   119.3472     8.4889     8.6269
  242.5000   119.5781     8.4878     8.5774
  242.6000   119.6525     8.4766     8.5509
  242.7000   119.6487     8.4266     8.5387
  242.8000   119.7075     8.4256     8.4903
  242.9000   119.9538     8.4246     8.4898
  243.0000   119.9500     8.4235     8.4893
  243.1000   119.9462     8.4224     8.4619
  243.2000   119.9425     8.4153     8.4291
  243.3000   119.9387     8.3616     8.4237
  243.4000   119.9350     8.3606     8.3694
  243.5000   119.9309     8.3596     8.3690
  243.6000   119.9275     8.3585     8.3377
  243.7000   119.9238     8.3450     8.3097
  243.8000   119.9200     8.2962     8.3092
  243.9000   119.9736     8.2392     8.3087
  244.0000   120.2250     8.1993     8.3082
  244.1000   120.2212     8.1514     8.2729
  244.2000   120.2175     8.1220     8.2494
  244.3000   120.2137     8.1209     8.2490
  244.4000   120.2934     8.1199     8.2485
  244.5000   120.5447     8.1189     8.2479
  244.6000   120.8270     8.1179     8.2476
  244.7000   121.2717     8.1169     8.2190
  244.8000   121.6117     8.1159     8.1891
  244.9000   121.7538     8.1148     8.1818
  245.0000   121.8021     8.1137     8.1310
  245.1000   122.0587     8.1128     8.0882
  245.2000   122.0550     8.1117     8.0735
  245.3000   122.2440     8.0901     8.0518
  245.4000   122.4955     8.0533     8.0163
  245.5000   122.6687     8.0516     8.0154
  245.6000   122.6650     8.0045     7.9695
  245.7000   122.6607     7.9216     7.8887
  245.8000   122.8763     7.8822     7.8480
  245.9000   123.1277     7.8812     7.8330
  246.0000   123.2750     7.8737     7.7880
  246.1000   123.3181     7.8243     7.7375
  246.2000   123.5798     7.7404     7.6988
  246.3000   123.8211     7.6823     7.6546
  246.4000   123.8850     7.6592     7.6107
  246.5000   123.8813     7.6460     7.5670
  246.6000   123.8775     7.5985     7.5218
  246.7000   123.8738     7.4973     7.4804
  246.8000   123.8694     7.4427     7.4375
  246.9000   123.8663     7.3913     7.3947
  247.0000   123.8625     7.3559     7.3407
  247.1000   123.8587     7.2877     7.2591
  247.2000   123.8134     7.2195     7.2100
  247.3000   123.5385     7.1634     7.1425
  247.4000   123.2954     7.0342     7.0611
  247.5000   123.2187     6.9569     6.9952
  247.6000   123.0899     6.8766     6.9440
  247.7000   122.8310     6.7972     6.8156
  247.8000   122.5511     6.7186     6.7799
  247.9000   121.6406     6.6475     6.6888
  248.0000   121.0125     6.6466     6.5919
  248.1000   120.3942     6.6459     6.5167
  248.2000   119.7864     6.6202     6.4426
  248.3000   119.0169     6.5979     6.4056
  248.4000   118.1847     6.5971     6.3970
  248.5000   117.7125     6.5963     6.3768
  248.6000   117.0214     6.5955     6.3401
  248.7000   116.4915     6.5649     6.3037
  248.8000   116.1699     6.5479     6.2627
  248.9000   115.6609     6.5471     6.2316
  249.0000   115.4020     6.5411     6.2183
  249.1000   115.1431     6.4998     6.2034
  249.2000   115.0300     6.4990     6.1742
  249.3000   114.9377     6.4982     6.1739
  249.4000   114.7100     6.4974     6.1400
  249.5000   114.7059     6.4966     6.1048
  249.6000   114.9318     6.4958     6.0871
  249.7000   115.0113     6.4948     6.0867
  249.8000   115.3523     6.4941     6.0864
  249.9000   116.1165     6.5165     6.0860
  250.0000   116.8807     6.4926     6.1718
  250.1000   117.6449     6.4465     6.2355
  250.2000   118.4350     6.4457     6.2839
  250.3000   119.9171     6.4449     6.3556
  250.4000   121.0708     6.4440     6.4347
  250.5000   121.8250     6.4432     6.4344
  250.6000   122.3358     6.4424     6.4843
  250.7000   122.8468     6.4416     6.5413
  250.8000   123.4273     6.4988     6.5698
  250.9000   123.6473     6.6761     6.5694
  251.0000   123.9021     6.7619     6.5691
  251.1000   124.0488     6.7611     6.5977
  251.2000   124.0475     6.7862     6.6145
  251.3000   124.0462     6.8068     6.6260
  251.4000   124.0450     6.8152     6.6635
  251.5000   123.8490     6.8537     6.7065
  251.6000   123.5917     6.8999     6.7392
  251.7000   123.1705     6.8992     6.7529
  251.8000   122.4521     6.9218     6.7682
  251.9000   122.1636     6.9458     6.8065
  252.0000   121.4876     6.9450     6.8469
  252.1000   120.7181     6.9440     6.9213
  252.2000   120.0608     6.9811     6.9427
  252.3000   119.4364     6.9910     6.9620
  252.4000   118.4075     7.0533     7.0122
  252.5000   118.1511     7.1498     7.0904
  252.6000   117.8937     7.1938     7.1381
  252.7000   117.6364     7.2866     7.1710
  252.8000   117.4650     7.3596     7.2117
  252.9000   117.4932     7.5011     7.2674
  253.0000   117.7749     7.6548     7.3447
  253.1000   118.2317     7.7661     7.3903
  253.2000   118.5700     7.8092     7.5053
  253.3000   118.9408     7.8080     7.5755
  253.4000   119.3922     7.8072     7.6184
  253.5000   119.6469     7.8326     7.6615
  253.6000   119.9017     7.8599     7.7051
  253.7000   120.1564     7.8589     7.7127
  253.8000   120.2650     7.8579     7.7203
  253.9000   120.2638     7.8570     7.7279
  254.0000   120.2625     7.8560     7.7355
  254.1000   120.2611     7.8783     7.7432
  254.2000   120.2600     7.9091     7.7508
  254.3000   120.2588     7.9120     7.7584
  254.4000   120.2575     7.9625     7.7660
  254.5000   120.2563     7.9616     7.7749
  254.6000   120.2550     7.9606     7.8458
  254.7000   120.2535     7.9798     7.8646
  254.8000   120.2525     8.0144     7.8639
  254.9000   120.4015     8.0134     7.8633
  255.0000   120.5625     8.0124     7.8571
  255.1000   120.5986     8.0114     7.8071
  255.2000   120.8724     8.0104     7.8066
  255.3000   120.8713     7.9924     7.8059
  255.4000   120.8700     7.9525     7.7842
  255.5000   120.9927     7.9515     7.7502
  255.6000   121.3151     7.9506     7.7478
  255.7000   121.8038     7.9496     7.6949
  255.8000   121.4898     7.9486     7.6944
  255.9000   121.4888     7.9341     7.6937
  256.0000   121.1793     7.8912     7.6930
  256.1000   120.7636     7.8901     7.6924
  256.2000   120.5063     7.8892     7.6917
  256.3000   120.2337     7.8588     7.6911
  256.4000   120.2325     7.8324     7.6905
  256.5000   120.2312     7.8214     7.6668
  256.6000   120.4860     7.7759     7.6356
  256.7000   121.1395     7.7749     7.6349
  256.8000   122.1323     7.7739     7.6343
  256.9000   122.7260     7.7471     7.6337
  257.0000   123.1543     7.7178     7.6044
  257.1000   123.5069     7.7036     7.5793
  257.2000   123.8634     7.6087     7.5787
  257.3000   124.3291     7.5670     7.5777
  257.4000   124.5949     7.5539     7.5337
  257.5000   124.8384     7.5310     7.4899
  257.6000   124.7167     7.4869     7.4710
  257.7000   124.4595     7.4429     7.4704
  257.8000   123.9763     7.3933     7.4637
  257.9000   122.9505     7.3560     7.4170
  258.0000   121.7748     7.3401     7.4165
  258.1000   121.1180     7.3392     7.3559
  258.2000   120.1869     7.3291     7.2917
  258.3000   119.3727     7.2861     7.2493
  258.4000   118.9083     7.2434     7.2048
  258.5000   118.6437     7.1684     7.1088
  258.6000   118.6425     7.1324     7.0741
  258.7000   118.6413     7.1168     7.0582
