~VERSION INFORMATION
 VERS.                2.0:   CWLS LOG ASCII STANDARD - VERSION 2.0
 WRAP.                 NO:   ONE LINE PER DEPTH STEP
~WELL INFORMATION
#MNEM.UNIT      DATA TYPE    INFORMATION
#----------   ------------   ------------------------------
 STRT.F           20.0000:   START DEPTH
 STOP.F          468.0000:   STOP DEPTH
 STEP.F            0.1000:   STEP LENGTH
 NULL.          -999.2500:   NO VALUE
 COMP. LAWRENCE/ALLISON INC:   COMPANY
 WELL.    63-51 SX #10-10:   WELL
 FLD .             TEAPOT:   FIELD
 LOC .      S10 T38N R78W:   LOCATION
 CNTY.            NATRONA:   COUNTY
 STAT.            WYOMING:   STATE
 CTRY. UNITED STATES OF AMERICA:   COUNTRY
 SRVC.           Gearhart:   SERVICE COMPANY
 DATE.        01-OCT-1988:   LOGDATE
 API .       490251125100:   API NUMBER
~CURVE INFORMATION
#MNEM.UNIT       API CODE    CURVE DESCRIPTION
#----------   ------------   ------------------------------
 DEPT.F                  :   
 GRR .GAPI   07 310 01 00:   GAMMA RAY
 RILD.OHMM   07 120 46 00:   INDUCTION LOG DEEP RESISTIVITY
 RILM.OHMM   07 120 44 00:   INDUCTION LOG MEDIUM RESISTIVITY
~PARAMETER INFORMATION
#MNEM.UNIT          VALUE    DESCRIPTION
#----------   ------------   ------------------------------
 PD  .                 GL:   PERMANENT DATUM
 EPD .F              5157:   ELEVATION PERMANENT DATUM
 LMF .                 KB:   LOG MEASURED FROM
 DAPD.F                 5:   FEET ABOVE PERMANENT DATUM
 DMF .                 KB:   DRILLING MEASURED FROM
 EKB .F              5162:   KELLING BUSHING
 EGL .F              5157:   GROUND LEVEL
 DATE.        01-OCT-1988:   RUN DATE
 RUN .                  1:   RUN NUMBER
 DD  .F               475:   DEPTH DRILLER
 DL  .F               476:   DEPTH LOGGER
 BLI .F               468:   BOTTOM LOG INTERVAL
 TLI .F                20:   TOP LOG INTERVAL
 CS  .IN            9.625:   CASING SIZE
 CBD .F                45:   CASING BOTTOM DRILLER
 CBL .F                46:   CASING BOTTOM LOGGER
 BS  .IN             7.87:   BIT SIZE
 BSD .F               475:   BIT SIZE AT DEPTH
 TLAB.HRS            1630:   TIME LOGGER AT BOTTOM
 MRT .F                75:   MAXIMUM RECORDED TEMPERATURE
 LUN .               7597:   LOGGING UNIT NUMBER
 LUL .           GILLETTE:   LOGGING UNIT LOCATION
 ENGI.              BENCK:   RECORDING ENGINEER
 WITN.             STRONG:   WITNESSED BY
 CLNT.            A2DTECH:   CLIENT CODE
 ORIG.           5" PRINT:   ORIGIN OF DATA
 UWI .       490251125100:   UNIQUE WELL ID
 DICO. A2D Technologies, Inc.:   DIGITIZING COMPANY
~OTHER INFORMATION
~A   DEPT       GRR      RILD       RILM   
# ...
   74.6000   113.0096    10.2666     9.0886
   74.7000   113.2824    10.2662     9.0524
   74.8000   113.5023    10.2660     9.0522
   74.9000   113.5878    10.2657     9.0519
   75.0000   113.5878    10.2896     9.0093
   75.1000   113.5021    10.3378     8.9879
   75.2000   112.9771    10.3375     8.9876
   75.3000   112.5171    10.3372     8.9819
   75.4000   112.1955    10.3369     8.9240
   75.5000   111.8373    10.3367     8.9238
   75.6000   111.3445    10.3490     8.9235
   75.7000   110.8397    10.4092     8.9233
   75.8000   110.3591    10.4090     8.9230
   75.9000   110.0478    10.4087     8.9227
   76.0000   109.5573    10.4083     8.9225
   76.1000   108.9445    10.4080     8.8884
   76.2000   108.6939    10.4078     8.8594
   76.3000   108.2014    10.4075     8.8591
   76.4000   107.7089    10.4072     8.8588
   76.5000   107.4809    10.4069     8.8586
   76.6000   107.4077    10.3891     8.8227
   76.7000   107.1756    10.3331     8.7959
   76.8000   107.1756    10.3328     8.7956
   76.9000   107.3772    10.3325     8.7954
   77.0000   107.4809    10.3323     8.7952
   77.1000   107.6479    10.3320     8.7949
   77.2000   108.1160    10.3317     8.7947
   77.3000   108.3969    10.3313     8.7944
   77.4000   108.6087    10.3311     8.7942
   77.5000   109.1603    10.3308     8.7940
   77.6000   109.7119    10.3305     8.7937
   77.7000   110.0272    10.3302     8.7934
   77.8000   110.8397    10.3299     8.7931
   77.9000   111.2834    10.3296     8.7929
   78.0000   111.9387    10.3293     8.7926
   78.1000   112.6777    10.3291     8.7924
   78.2000   113.3720    10.3287     8.7922
   78.3000   113.8931    10.3284     8.7919
   78.4000   114.1253    10.3282     8.7917
   78.5000   114.3716    10.3279     8.7914
   78.6000   114.3898    10.3276     8.7912
   78.7000   114.1436    10.3273     8.7909
   78.8000   113.8931    10.3270     8.7907
   78.9000   113.6509    10.3267     8.7905
   79.0000   113.0382    10.3264     8.7902
   79.1000   112.5477    10.3261     8.7900
   79.2000   112.3013    10.3258     8.7897
   79.3000   112.0549    10.3255     8.7895
   79.4000   111.8087    10.3253     8.7892
   79.5000   111.7557    10.3249     8.7889
   79.6000   111.8900    10.3247     8.7887
   79.7000   112.1364    10.3244     8.7884
   79.8000   112.3889    10.3202     8.7882
   79.9000   112.7299    10.2511     8.7879
   80.0000   113.0710    10.2509     8.7877
   80.1000   113.4120    10.2506     8.7875
   80.2000   113.7531    10.2503     8.7872
   80.3000   114.0942    10.2501     8.7870
   80.4000   114.0274    10.2497     8.7867
   80.5000   113.6690    10.2494     8.7865
   80.6000   113.1765    10.2491     8.7862
   80.7000   112.6718    10.2489     8.8262
   80.8000   112.1912    10.2486     8.8479
   80.9000   111.5174    10.2483     8.8476
   81.0000   110.9007    10.2480     8.8474
   81.1000   110.3451    10.2477     8.8471
   81.2000   109.6058    10.2474     8.8469
   81.3000   108.8671    10.2471     8.8467
   81.4000   108.5109    10.2468     8.8464
   81.5000   108.2646    10.2466     8.8462
   81.6000   107.9448    10.2463     8.8458
   81.7000   107.4809    10.2186     8.8903
   81.8000   107.4809    10.1736     8.9079
   81.9000   107.8841    10.1733     8.9077
   82.0000   108.3768    10.1731     8.9075
   82.1000   108.8693    10.1728     8.9072
   82.2000   109.3618    10.1429     8.9069
   82.3000   109.9237    10.1006     8.9066
   82.4000   110.5587    10.0985     8.9064
   82.5000   111.1451    10.0409     8.9061
   82.6000   111.6376    10.0287     8.9059
   82.7000   112.0956     9.9970     8.8569
   82.8000   112.3664     9.9400     8.8065
   82.9000   112.8102     9.8832     8.7806
   83.0000   112.9771     9.8175     8.7558
   83.1000   113.0808     9.8173     8.6572
   83.2000   113.3272     9.7839     8.6570
   83.3000   113.5878     9.7281     8.5815
   83.4000   113.5878     9.6725     8.5097
   83.5000   113.5878     9.6105     8.4613
   83.6000   113.5878     9.5625     8.4130
   83.7000   113.4780     9.5079     8.3560
   83.8000   112.9771     9.4536     8.3175
   83.9000   112.4926     9.3997     8.2701
   84.0000   112.1832     9.3417     8.2230
   84.1000   112.0611     9.2928     8.1761
   84.2000   112.1262     9.2398     8.1226
   84.3000   112.3726     9.1871     8.0443
   84.4000   112.6188     9.1245     7.9807
   84.5000   113.2517     9.0165     7.9353
   84.6000   113.9907     9.0163     7.8901
   84.7000   114.8052     8.9792     7.8403
   84.8000   115.8064     8.9280     7.7611
   84.9000   117.2519     8.8770     7.7015
   85.0000   118.0662     8.8263     7.6577
   85.1000   119.0515     8.7761     7.6066
   85.2000   119.8656     8.7638     7.5147
   85.3000   120.3580     8.7377     7.5145
   85.4000   120.9160     8.6878     7.4554
   85.5000   121.5573     8.6402     7.3709
   85.6000   122.1413     8.6399     7.2961
   85.7000   122.6339     8.6397     7.2535
   85.8000   123.1268     8.6120     7.2132
   85.9000   123.6641     8.5785     7.1721
   86.0000   123.8880     8.5783     7.1514
   86.1000   124.1344     8.5780     7.1512
   86.2000   124.2748     8.5778     7.1517
   86.3000   124.1344     8.5482     7.1923
   86.4000   123.3588     8.5169     7.2011
   86.5000   122.6564     8.5167     7.2230
   86.6000   121.7424     8.5164     7.2639
   86.7000   120.4095     8.5593     7.3027
   86.8000   118.7994     8.5763     7.3025
   86.9000   117.5573     8.5761     7.3023
   87.0000   116.5802     8.5759     7.3262
   87.1000   115.7804     8.5756     7.3535
   87.2000   115.0413     8.5754     7.3574
   87.3000   114.3021     8.6087     7.4051
   87.4000   113.5715     8.6356     7.4412
   87.5000   113.0790     8.6354     7.4571
   87.6000   112.5862     8.6351     7.4730
   87.7000   112.0936     8.6349     7.5094
   87.8000   111.6011     8.6705     7.5091
   87.9000   111.1268     8.6955     7.5090
   88.0000   110.8397     8.6952     7.5370
   88.1000   110.6341     8.6950     7.5616
   88.2000   110.3878     8.6948     7.5693
   88.3000   110.1415     8.6945     7.6147
   88.4000   109.9237     8.7206     7.6145
   88.5000   109.9237     8.7556     7.6448
   88.6000   109.9237     8.7554     7.6679
   88.7000   109.9237     8.7551     7.6774
   88.8000   109.9237     8.7549     7.7217
   88.9000   109.9237     8.7547     7.7215
   89.0000   109.9237     8.7544     7.7212
   89.1000   110.1497     8.7542     7.7210
   89.2000   110.2290     8.7538     7.7325
   89.3000   110.3368     8.7536     7.7752
   89.4000   110.5831     8.7534     7.7750
   89.5000   110.8397     8.7717     7.7747
   89.6000   111.0758     8.8149     7.7987
   89.7000   111.3221     8.8146     7.8293
   89.8000   111.8045     8.8144     7.8291
   89.9000   112.4846     8.8141     7.8288
   90.0000   112.9771     8.8347     7.8655
   90.1000   113.7158     8.8761     7.8838
   90.2000   114.4550     8.8758     7.8991
   90.3000   115.1940     8.8756     7.9391
   90.4000   115.8636     8.8753     7.9388
   90.5000   116.3662     8.8751     7.9386
   90.6000   117.2519     8.8748     7.9384
   90.7000   117.6469     8.8746     7.9382
   90.8000   118.1394     8.8744     7.9380
   90.9000   118.3939     8.9114     7.9377
   91.0000   118.1475     8.9367     7.9375
   91.1000   117.8626     8.9364     7.9372
   91.2000   117.4474     8.9362     7.9370
   91.3000   116.9547     8.9360     7.9369
   91.4000   116.4619     8.9753     7.9366
   91.5000   115.9694     8.9987     7.9364
   91.6000   115.4198     8.9984     7.9042
   91.7000   114.9841     8.9982     7.8802
   91.8000   114.3327     8.9979     7.8800
   91.9000   113.7934     8.9977     7.8798
   92.0000   113.5065     9.0272     7.8352
   92.1000   112.9771     9.0609     7.8240
   92.2000   112.7491     9.0658     7.8238
   92.3000   112.5028     9.1245     7.8235
   92.4000   112.3664     9.1243     7.8218
   92.5000   112.3154     9.1241     7.7773
   92.6000   112.0611     9.1238     7.7679
   92.7000   112.0611     9.1309     7.7677
