~VERSION INFORMATION
 VERS.                2.0:   CWLS LOG ASCII STANDARD - VERSION 2.0
 WRAP.                 NO:   ONE LINE PER DEPTH STEP
~WELL INFORMATION
#MNEM.UNIT      DATA TYPE    INFORMATION
#----------   ------------   ------------------------------
 STRT.F           25.0000:   START DEPTH
 STOP.F          681.0000:   STOP DEPTH
 STEP.F            0.5000:   STEP LENGTH
 NULL.          -999.2500:   NO VALUE
 COMP. FENIX & SCISSON INC:   COMPANY
 WELL.    56-SX-34 #56-34:   WELL
 FLD .             TEAPOT:   FIELD
 LOC .      S34 T39N R78W:   LOCATION
 CNTY.            NATRONA:   COUNTY
 STAT.            WYOMING:   STATE
 CTRY. UNITED STATES OF AMERICA:   COUNTRY
 SRVC.            Unknown:   SERVICE COMPANY
 DATE.        28-JAN-1979:   LOGDATE
 API .       490251077200:   API NUMBER
~CURVE INFORMATION
#MNEM.UNIT       API CODE    CURVE DESCRIPTION
#----------   ------------   ------------------------------
 DEPT.F                  :   
 SPR .MV     05 010 01 00:   SPONTANEOUS POTENTIAL FROM RES.
 DRHO.G/C3   45 356 01 00:   DENSITY CORRECTION
 RHOB.G/C3   45 350 01 00:   BULK DENSITY
 DPHI.DEC    45 890 12 00:   DENSITY POROSITY SANDSTONE
 CALD.IN     45 280 60 00:   CALIPER
 GRD .GAPI   45 310 01 00:   GAMMA RAY FROM DENSITY LOG
 SN  .OHMM   05 040 16 00:   SHORT NORMAL 16'
 ILD .OHMM   05 120 46 00:   INDUCTION LOG DEEP RESISTIVITY
~PARAMETER INFORMATION
#MNEM.UNIT          VALUE    DESCRIPTION
#----------   ------------   ------------------------------
 PD  .                 GL:   PERMANENT DATUM
 EPD .F              5088:   ELEVATION PERMANENT DATUM
 LMF .                 KB:   LOG MEASURED FROM
 DAPD.F                 4:   FEET ABOVE PERMANENT DATUM
 DMF .                 KB:   DRILLING MEASURED FROM
 EKB .F              5092:   KELLING BUSHING
 EGL .F              5088:   GROUND LEVEL
 DATE.            1-28-79:   RUN DATE
 RUN .                  1:   RUN NUMBER
 DD  .F               680:   DEPTH DRILLER
 DL  .F               681:   DEPTH LOGGER
 BLI .F               679:   BOTTOM LOG INTERVAL
 TLI .F                40:   TOP LOG INTERVAL
 CS  .IN            8.625:   CASING SIZE
 CBD .F                40:   CASING BOTTOM DRILLER
 CBL .F                40:   CASING BOTTOM LOGGER
 BS  .IN            7.875:   BIT SIZE
 BSD .F               680:   BIT SIZE AT DEPTH
 DFT .                KCL:   DRILLING FLUID TYPE
 DFD .                8.9:   DRILLING FLUID DENSITY
 DFV .                 43:   DRILLING FLUID VISCOSITY
 DFPH.                8.5:   DRILLING FLUID PH
 DFL .                9.8:   DRILLING FLUID LOSS
 MSS .           FLOWLINE:   MUD SAMPLE SOURCE
 RMS .OHMM            1.5:   RESISTIVITY MUD SAMPLE
 MST .F                66:   MUD SAMPLE TEMPERATURE
 RMF .OHMM            1.3:   RESISTIVITY MUD FILTRATE SAMPLE
 MFST.F                76:   MUD FILTRATE SAMPLE TEMPERATURE
 RMC .OHMM            1.3:   RESISTIVITY MUD CAKE
 MCST.F                78:   MUD CAKE SAMPLE TEMPERATURE
 MFSS.           MEASURED:   MUD FILTRATE SAMPLE SOURCE
 MCSS.           MEASURED:   MUD CAKE SAMPLE SOURCE
 RMB .OHMM            1.3:   RESISTIVITY MUD AT BHT
 BHT .F                76:   BOTTOM HOLE TEMPERATURE
 TCS .HRS               3:   TIME CURCULATED STOPPED
 MRT .F                76:   MAXIMUM RECORDED TEMPERATURE
 LUN .               3006:   LOGGING UNIT NUMBER
 LUL .             CASPER:   LOGGING UNIT LOCATION
 ENGI.            ROLLINS:   RECORDING ENGINEER
 WITN.              AMEND:   WITNESSED BY
 CLNT.            A2DTECH:   CLIENT CODE
 ORIG.       2", 5" PRINT:   ORIGIN OF DATA
 UWI .       490251077200:   UNIQUE WELL ID
 DICO. A2D Technologies, Inc.:   DIGITIZING COMPANY
~OTHER INFORMATION
~A   DEPT      SPR       DRHO       RHOB       DPHI       CALD         GRD        SN        ILD   
# ...
  632.5000   -49.0547     0.0505     2.4679     0.1256     8.2229    82.9870    11.3531    12.9281
  633.0000   -49.0465     0.0501     2.4675     0.1254     8.2131    83.2379    11.3595    12.8779
  633.5000   -49.0382     0.0496     2.4669     0.1253     8.2034    87.8373    11.3659    12.8279
  634.0000   -49.0299     0.0492     2.4662     0.1251     8.1937    86.2961    11.3722    12.7780
  634.5000   -49.0217     0.0488     2.4659     0.1249     8.1838    82.4238    11.3786    12.7577
  635.0000   -49.0134     0.0483     2.4659     0.1243     8.1739    82.0962    11.3850    12.7417
  635.5000   -49.0052     0.0479     2.4655     0.1230     8.1915    83.2827    11.3914    12.7256
  636.0000   -48.9969     0.0486     2.4742     0.1217     8.2120    84.4817    11.3978    12.7095
  636.5000   -48.9887     0.0510     2.4771     0.1205     8.2326    83.8628    11.4042    12.6935
  637.0000   -48.9804     0.0533     2.4777     0.1205     8.2520    82.4818    11.4106    12.6775
  637.5000   -48.9721     0.0556     2.4785     0.1205     8.2516    80.1684    11.4167    12.6615
  638.0000   -48.9639     0.0574     2.4790     0.1204     8.2506    81.2103    11.4239    12.6133
  638.5000   -48.9556     0.0557     2.4789     0.1206     8.2496    83.0695    11.4315    12.5382
  639.0000   -48.9474     0.0556     2.4789     0.1212     8.2486    84.7069    11.4317    12.4635
  639.5000   -48.9391     0.0542     2.4789     0.1226     8.2477    83.9512    11.2081    12.3893
  640.0000   -48.9309     0.0483     2.4766     0.1258     8.2467    83.1842    11.0391    12.3155
  640.5000   -48.9226     0.0426     2.4689     0.1290     8.2457    84.4381    10.9700    12.2421
  641.0000   -48.9143     0.0396     2.4578     0.1321     8.2448    86.8981    10.9177    12.1692
  641.5000   -48.9061     0.0376     2.4546     0.1323     8.2438    90.4911    10.8656    12.0967
  642.0000   -48.8978     0.0380     2.4524     0.1326     8.2429    89.7373    10.8134    11.9883
  642.5000   -48.8896     0.0401     2.4503     0.1328     8.2419    90.0750    10.6529    11.8327
  643.0000   -48.8813     0.0422     2.4509     0.1308     8.2409    88.2573    10.4929    11.6792
  643.5000   -48.8731     0.0442     2.4625     0.1270     8.2400    86.3042    10.3353    11.5276
  644.0000   -48.8648     0.0457     2.4722     0.1233     8.2390    91.7258    10.1213    11.3780
  644.5000   -48.8565     0.0454     2.4750     0.1233     8.2381    94.0411     9.9730    11.2304
  645.0000   -48.8483     0.0452     2.4747     0.1235     8.2371    90.6024     9.8265    11.0847
  645.5000   -48.8400     0.0449     2.4711     0.1238     8.2361    85.7534     9.6831    10.9408
  646.0000   -48.8318     0.0446     2.4680     0.1240     8.2352    82.8827     9.5423    10.7989
  646.5000   -48.8238     0.0444     2.4684     0.1241     8.2342    86.5689     9.4036    10.6587
  647.0000   -48.8155     0.0441     2.4709     0.1237     8.2332    89.4709     9.2669    10.5204
  647.5000   -48.8498     0.0439     2.4716     0.1234     8.2319    92.4005     9.0318    10.3839
  648.0000   -48.9120     0.0437     2.4709     0.1231     8.2280    92.6617     8.7791    10.2491
  648.5000   -48.9746     0.0468     2.4714     0.1225     8.2241    89.8846     8.5335    10.1161
  649.0000   -49.0375     0.0501     2.4732     0.1156     8.2202    89.5109     8.2947     9.9849
  649.5000   -49.1003     0.0535     2.4822     0.1156     8.2163    92.1609     8.0451     9.3724
  650.0000   -49.1629     0.0520     2.4904     0.1164     8.2131    95.3166     7.5574     8.6364
  650.5000   -49.2125     0.0487     2.4810     0.1253     8.2345    94.9462     7.0587     7.9583
  651.0000   -49.2253     0.0456     2.4684     0.1312     8.2586    95.0985     6.5929     7.3401
  651.5000   -49.2388     0.0484     2.4520     0.1455     8.2830    97.3944     6.1584     6.7727
  652.0000   -49.2523     0.0516     2.4205     0.1613     8.2837    99.7487     5.7525     6.2663
  652.5000   -49.2658     0.0538     2.3896     0.1646     8.2705   105.0220     5.3055     6.3590
  653.0000   -49.2794     0.0502     2.3900     0.1565     8.2573   112.3154     5.4170     6.4725
  653.5000   -49.2929     0.0459     2.4227     0.1400     8.2440   113.9665     5.5574     6.5879
  654.0000   -49.3064     0.0445     2.4581     0.1235     8.2306   105.5923     5.7013     6.6854
  654.5000   -49.3199     0.0479     2.4932     0.1127     8.2169    96.9508     6.2760     7.2077
  655.0000   -49.3334     0.0512     2.5004     0.1066     8.2084    91.9707     7.3030     8.1679
  655.5000   -49.3469     0.0554     2.5033     0.1052     8.2013    91.1158     8.1849     9.2563
  656.0000   -49.3604     0.0541     2.5059     0.1057     8.1940    90.0523     9.0459     9.9755
  656.5000   -49.3739     0.0521     2.5048     0.1063     8.2065    88.4706     9.5822    10.6113
  657.0000   -49.3875     0.0502     2.5035     0.1069     8.2232    90.6540     9.9499    10.5887
  657.5000   -49.4005     0.0481     2.5022     0.1070     8.2400    93.5361    10.0423    10.5586
  658.0000   -49.4479     0.0505     2.5010     0.1053     8.2568    96.1049     9.9499    10.5212
  658.5000   -49.5140     0.0545     2.5010     0.1035     8.2726    95.9380    10.1555    10.5928
  659.0000   -49.5802     0.0585     2.5052     0.1018     8.2400    95.1412    10.4087    10.8016
  659.5000   -49.6466     0.0618     2.5101     0.1004     8.1917    93.1028    10.6682    11.0352
  660.0000   -49.7129     0.0612     2.5150     0.1004     8.1883    90.9601    10.9342    11.2738
  660.5000   -49.7792     0.0606     2.5160     0.1005     8.2251    89.5524    11.2209    11.5177
  661.0000   -49.8452     0.0601     2.5146     0.1006     8.2296    89.1768    11.4282    11.7668
  661.5000   -49.9115     0.0593     2.5131     0.1008     8.2262    90.0628    11.6508    12.0212
  662.0000   -49.9839     0.0561     2.5130     0.1009     8.2224    91.1997    11.8777    12.2813
  662.5000   -49.8167     0.0528     2.5130     0.1010     8.2187    92.8203    12.1090    12.5468
  663.0000   -49.5495     0.0517     2.5130     0.1011     8.2150    94.9467    12.3448    12.8175
  663.5000   -49.2826     0.0517     2.5130     0.1012     8.2113    97.0415    12.5852    13.0940
  664.0000   -48.9913     0.0503     2.5122     0.1010     8.2075    98.4432    12.8904    13.2812
  664.5000   -48.1857     0.0487     2.5114     0.1008     8.2038    94.4046    12.8904    13.3493
  665.0000   -47.8155     0.0476     2.5125     0.1006     8.2001    91.7796    12.8904    13.4175
  665.5000   -47.4489     0.0476     2.5150     0.1004     8.1965    88.3728    12.8904    13.4855
  666.0000   -46.8987     0.0476     2.5140     0.1072     8.1932    83.8419    12.8904    13.5537
  666.5000   -45.7969     0.0483     2.5012     0.1116     8.2065    83.2665    12.8904    13.6223
  667.0000   -45.0317     0.0498     2.4940     0.1112     8.2344    89.9566    12.8906    13.6913
  667.5000  -999.2500     0.0558     2.4955     0.1094     8.2629    91.4992    12.8909    13.7524
  668.0000  -999.2500     0.0618     2.4979     0.1076     8.2662    92.8590    12.8911    13.6854
  668.5000  -999.2500     0.0657     2.5003     0.1075     8.1929    93.2699    12.7783    13.6125
  669.0000  -999.2500     0.0640     2.5021     0.1091     8.1700    89.3432    12.6174    13.5400
  669.5000  -999.2500     0.0622     2.4988     0.1108     8.1308    89.7937    12.4591    13.5007
  670.0000  -999.2500     0.0618     2.4943     0.1116     8.6310    91.6503    12.3080    13.5006
  670.5000  -999.2500     0.0636     2.4907     0.1107     6.7847    93.4519    12.2873    13.5003
  671.0000  -999.2500     0.0655     2.4951     0.1094     4.8111    95.3206    12.2674    13.5005
  671.5000  -999.2500     0.0673     2.4999     0.1080     5.2405    88.6921    12.2474    13.5004
  672.0000  -999.2500     0.0654     2.5048     0.1093     6.6590    96.8323    12.2276    13.4705
  672.5000  -999.2500     0.0591     2.5007     0.1114     6.2123    84.1625    12.2077    13.4323
