~VERSION INFORMATION
 VERS.                2.0:   CWLS LOG ASCII STANDARD - VERSION 2.0
 WRAP.                 NO:   ONE LINE PER DEPTH STEP
~WELL INFORMATION
#MNEM.UNIT      DATA TYPE    INFORMATION
#----------   ------------   ------------------------------
 STRT.F           40.0000:   START DEPTH
 STOP.F          950.5000:   STOP DEPTH
 STEP.F            0.5000:   STEP LENGTH
 NULL.          -999.2500:   NO VALUE
 COMP. FENIX & SCISSON INC:   COMPANY
 WELL.       NPR 3 #44-14:   WELL
 FLD .             TEAPOT:   FIELD
 LOC .      S14 T38N R78W:   LOCATION
 CNTY.            NATRONA:   COUNTY
 STAT.            WYOMING:   STATE
 CTRY. UNITED STATES OF AMERICA:   COUNTRY
 SRVC.            Unknown:   SERVICE COMPANY
 DATE.        05-JAN-1979:   LOGDATE
 API .       490251076100:   API NUMBER
~CURVE INFORMATION
#MNEM.UNIT       API CODE    CURVE DESCRIPTION
#----------   ------------   ------------------------------
 DEPT.F                  :   
 SPR .MV     05 010 01 00:   SPONTANEOUS POTENTIAL FROM RES.
 SN  .OHMM   05 040 16 00:   SHORT NORMAL 16"
 IL  .OHMM   05 120 00 00:   INDUCTION LOG
 CALD.IN     45 280 60 00:   CALIPER
 GRD .GAPI   45 310 01 00:   GAMMA RAY FROM DENSITY LOG
 RHOB.G/C3   45 350 01 00:   BULK DENSITY
 DPHI.DEC    45 890 12 00:   DENSITY POROSITY SANDSTONE
 CORR.G/C3   45 356 01 00:   DENSITY CORRECTION
~PARAMETER INFORMATION
#MNEM.UNIT          VALUE    DESCRIPTION
#----------   ------------   ------------------------------
 PD  .                 GL:   PERMANENT DATUM
 EPD .F              5266:   ELEVATION PERMANENT DATUM
 LMF .                 KB:   LOG MEASURED FROM
 DAPD.F                 4:   FEET ABOVE PERMANENT DATUM
 DMF .                 KB:   DRILLING MEASURED FROM
 EKB .F              5270:   KELLING BUSHING
 EGL .F              5266:   GROUND LEVEL
 DATE.             1-5-79:   RUN DATE
 RUN .                  1:   RUN NUMBER
 DD  .F               950:   DEPTH DRILLER
 DL  .F               943:   DEPTH LOGGER
 BLI .F               937:   BOTTOM LOG INTERVAL
 TLI .F                40:   TOP LOG INTERVAL
 CS  .IN            8.625:   CASING SIZE
 CBL .F                40:   CASING BOTTOM LOGGER
 BS  .IN            7.875:   BIT SIZE
 BSD .F               950:   BIT SIZE AT DEPTH
 DFT .                KCL:   DRILLING FLUID TYPE
 DFV .                 42:   DRILLING FLUID VISCOSITY
 DFL .               10.5:   DRILLING FLUID LOSS
 MSS .           FLOWLINE:   MUD SAMPLE SOURCE
 RMS .OHMM            .23:   RESISTIVITY MUD SAMPLE
 RMF .OHMM            .23:   RESISTIVITY MUD FILTRATE SAMPLE
 RMC .OHMM             .2:   RESISTIVITY MUD CAKE
 MFSS.           MEASURED:   MUD FILTRATE SAMPLE SOURCE
 MCSS.           MEASURED:   MUD CAKE SAMPLE SOURCE
 RMB .OHMM             .2:   RESISTIVITY MUD AT BHT
 BHT .F                70:   BOTTOM HOLE TEMPERATURE
 TCS .HRS               5:   TIME CURCULATED STOPPED
 MRT .F                70:   MAXIMUM RECORDED TEMPERATURE
 LUL .             CASPER:   LOGGING UNIT LOCATION
 ENGI.             MILLER:   RECORDING ENGINEER
 WITN.           DINSMORE:   WITNESSED BY
 CLNT.            A2DTECH:   CLIENT CODE
 ORIG.           5" PRINT:   ORIGIN OF DATA
 UWI .       490251076100:   UNIQUE WELL ID
 DICO. A2D Technologies, Inc.:   DIGITIZING COMPANY
~OTHER INFORMATION
~A   DEPT      SPR           SN         IL     CALD        GRD       RHOB       DPHI       CORR   
# ...
  202.0000   -40.5830     5.5070     5.8310     7.8610   100.8940     2.4360     0.1550     0.0900
  202.5000   -40.5940     5.5380     5.8800     7.8180   109.0810     2.4320     0.1570     0.0720
  203.0000   -40.6040     5.5690     5.9290     7.7670   114.5890     2.4270     0.1590     0.0620
  203.5000   -40.6150     5.6010     5.9780     7.7100   109.2410     2.4240     0.1620     0.0560
  204.0000   -40.6260     5.6320     6.0270     7.6540   104.4250     2.4240     0.1650     0.0550
  204.5000   -40.6370     5.6630     6.0750     7.5970   102.9110     2.4240     0.1670     0.0540
  205.0000   -40.6470     5.6630     6.0960     7.5410   103.4510     2.4120     0.1730     0.0480
  205.5000   -40.6580     5.5890     6.0310     7.4840   100.7210     2.3990     0.1810     0.0400
  206.0000   -40.6690     5.5270     5.9760     7.4260    97.5030     2.3840     0.1880     0.0380
  206.5000   -40.6790     5.4640     5.9210     7.3910    88.9630     2.3810     0.1900     0.0380
  207.0000   -40.6900     5.4010     5.8660     7.3570    89.5720     2.3810     0.1910     0.0340
  207.5000   -40.7010     5.3390     5.8120     7.3230    90.7330     2.3740     0.1950     0.0270
  208.0000   -40.7120     5.2760     5.7570     7.3270    93.8710     2.3640     0.2010     0.0190
  208.5000   -40.7260     5.2130     5.7020     7.3730    97.8240     2.3560     0.2050     0.0130
  209.0000   -40.8050     5.1510     5.6220     7.4180   101.7260     2.3540     0.2040     0.0080
  209.5000   -41.1010     5.0720     5.4810     7.4640   104.5560     2.3570     0.2020     0.0090
  210.0000   -41.3890     4.9020     5.3390     7.5100    98.8690     2.3600     0.2000     0.0100
  210.5000   -41.6760     4.7320     5.1970     7.5560    94.0010     2.3620     0.1980     0.0100
  211.0000   -41.9640     4.5630     5.0060     7.6300    89.3660     2.3880     0.1860     0.0110
  211.5000   -42.2520     4.3930     4.7530     7.7530    90.7050     2.4160     0.1710     0.0120
  212.0000   -42.5390     4.2240     4.4990     7.8740    96.6390     2.4440     0.1560     0.0040
  212.5000   -42.8270     4.0540     4.2460     7.9970   101.4610     2.4760     0.1320    -0.0080
  213.0000   -43.1130     3.8850     3.9920     8.0410   106.5680     2.4430     0.1460    -0.0200
  213.5000   -43.2940     3.8480     3.7390     8.0830   111.4450     2.3980     0.1800    -0.0080
  214.0000   -43.2870     3.8480     3.4850     8.1200   118.6100     2.3530     0.2090     0.0150
  214.5000   -43.1850     3.9560     3.3220     8.1310   117.0460     2.3050     0.2360     0.0380
  215.0000   -42.8270     4.1600     3.5460     8.1420   113.3390     2.3180     0.2360     0.0530
  215.5000   -42.4820     4.3630     3.7810     8.1530   102.1540     2.3410     0.2170     0.0590
  216.0000   -42.1390     4.5670     4.0170     8.1650    96.6090     2.3640     0.2030     0.0620
  216.5000   -41.7970     4.7700     4.2520     8.1770    97.6040     2.3870     0.1880     0.0640
  217.0000   -41.4540     4.9740     4.4790     8.1400    99.2530     2.3950     0.1800     0.0730
  217.5000   -41.1110     5.1770     4.6860     8.0790   102.5930     2.3990     0.1780     0.0960
  218.0000   -40.9480     5.3810     4.8930     8.0170   105.8810     2.4100     0.1720     0.1330
  218.5000   -40.9890     5.5840     5.0990     7.9570   102.1620     2.4290     0.1640     0.1710
  219.0000   -41.0280     5.7880     5.3110     7.8580    98.2240     2.4460     0.1480     0.2220
  219.5000   -41.0680     5.9840     5.5290     7.7520    93.1530     2.4860     0.1240     0.2720
  220.0000   -41.1090     6.0430     5.7470     7.6570    94.6730     2.5280     0.1030     0.3220
  220.5000   -41.0590     6.1000     5.9650     7.5760    98.2300     2.5700     0.0800     0.3400
  221.0000   -40.9570     6.1560     6.1420     7.4960    96.4920     2.5400     0.0970     0.2840
  221.5000   -40.8540     6.2130     6.2580     7.4170    95.4470     2.4960     0.1260     0.2150
  222.0000   -40.7510     6.2700     6.3740     7.3430    99.9350     2.4520     0.1540     0.1430
  222.5000   -40.6470     6.3260     6.4900     7.2960    98.2870     2.4080     0.1820     0.0880
  223.0000   -40.5440     6.3830     6.6060     7.3510    96.2970     2.3710     0.1940     0.0670
  223.5000   -40.4410     6.4400     6.7210     7.4480    95.2260     2.3760     0.1890     0.0570
  224.0000   -40.3370     6.5010     6.8370     7.5460    96.4330     2.3810     0.1880     0.0430
  224.5000   -40.2340     6.4550     6.8700     7.6790   105.3350     2.3850     0.1870     0.0350
  225.0000   -40.1310     6.4050     6.7470     7.8120   109.8080     2.3910     0.1830     0.0370
  225.5000   -40.0280     6.3550     6.6540     7.9460   109.9300     2.3970     0.1760     0.0330
  226.0000   -39.9250     6.3060     6.5600     8.0150   102.5880     2.3940     0.1850     0.0200
  226.5000   -39.8270     6.2560     6.4670     8.0390    97.6010     2.3870     0.1860     0.0080
  227.0000   -39.8490     6.2090     6.3740     8.0640    98.5120     2.3860     0.1860     0.0090
  227.5000   -40.3140     6.0130     6.2800     8.0890    99.5800     2.3860     0.1900     0.0090
  228.0000   -40.7650     5.8280     6.1870     8.1140    99.7000     2.3780     0.1920     0.0100
  228.5000   -41.1430     5.6420     6.0280     8.1390    99.0020     2.3740     0.1920     0.0110
  229.0000   -41.3530     5.4570     5.8300     8.1270    98.8690     2.3780     0.1920     0.0140
  229.5000   -41.5770     5.2710     5.6320     8.1120   100.2560     2.3820     0.1860     0.0240
  230.0000   -41.8580     5.0850     5.4340     8.0980    98.0350     2.3860     0.1870     0.0440
  230.5000   -42.2350     4.9000     5.2360     8.0850    96.4510     2.3780     0.1900     0.0640
  231.0000   -42.6160     4.7140     5.0380     8.0350   103.5540     2.3670     0.1920     0.0990
  231.5000   -42.6990     4.6680     4.8400     7.9820   110.1200     2.3840     0.1940     0.1350
  232.0000   -42.6930     4.8150     4.6260     7.9290   108.4720     2.4160     0.1700     0.1710
  232.5000   -42.3380     4.9700     4.7250     7.8750   105.4180     2.4490     0.1460     0.1970
  233.0000   -41.9500     5.1250     4.8310     7.8260   102.3250     2.4840     0.1250     0.1820
  233.5000   -41.5600     5.2810     4.9380     7.7860    99.1760     2.4840     0.1360     0.1360
  234.0000   -41.1700     5.4360     5.0450     7.7460    98.5730     2.4550     0.1560     0.0910
  234.5000   -40.7830     5.5910     5.1650     7.7060   100.8970     2.4280     0.1720     0.0450
  235.0000   -40.7320     5.6110     5.1600     7.6650   102.0640     2.4060     0.1750     0.0260
  235.5000   -40.7300     5.5870     5.1540     7.6250   104.1350     2.4020     0.1780     0.0160
  236.0000   -40.7300     5.5600     5.1480     7.5850   106.9070     2.3980     0.1820     0.0120
  236.5000   -40.7300     5.5320     5.1420     7.5450   105.9860     2.3940     0.1830     0.0180
  237.0000   -40.7300     5.5040     5.1360     7.5240   105.1000     2.3930     0.1800     0.0250
  237.5000   -40.7310     5.4760     5.1290     7.5430   106.6370     2.4080     0.1750     0.0300
  238.0000   -40.7310     5.4480     5.1230     7.5610   110.0700     2.3990     0.1780     0.0220
  238.5000   -40.8030     5.4210     5.1020     7.5800   113.1480     2.3870     0.1920     0.0140
  239.0000   -40.9990     5.3050     5.0110     7.5980   112.1520     2.3750     0.1930     0.0100
  239.5000   -41.1940     5.1250     4.8910     7.6160   110.1320     2.3750     0.1940     0.0100
  240.0000   -41.3890     4.9330     4.6140     7.6350   108.3820     2.3760     0.1950     0.0100
  240.5000   -41.5800     4.6890     4.3380     7.6530   109.3830     2.3770     0.1960     0.0100
  241.0000   -41.7640     4.4280     4.0620     7.6720   111.4490     2.3650     0.2050     0.0100
  241.5000   -41.8170     4.1680     3.7860     7.6910   112.8530     2.3510     0.2180     0.0100
  242.0000   -42.8600     3.9080     3.5090     7.7210   112.0370     2.3070     0.2300     0.0110
