~VERSION INFORMATION
 VERS.                2.0:   CWLS LOG ASCII STANDARD - VERSION 2.0
 WRAP.                 NO:   ONE LINE PER DEPTH STEP
~WELL INFORMATION
#MNEM.UNIT      DATA TYPE    INFORMATION
#----------   ------------   ------------------------------
 STRT.F           33.5000:   START DEPTH
 STOP.F          680.0000:   STOP DEPTH
 STEP.F            0.5000:   STEP LENGTH
 NULL.          -999.2500:   NO VALUE
 COMP. FENIX & SCISSON INC:   COMPANY
 WELL.       NPR 3 #66-34:   WELL
 FLD .             TEAPOT:   FIELD
 LOC .      S34 T39N R78W:   LOCATION
 CNTY.            NATRONA:   COUNTY
 STAT.            WYOMING:   STATE
 CTRY. UNITED STATES OF AMERICA:   COUNTRY
 SRVC.           BIRDWELL:   SERVICE COMPANY
 DATE.        12-AUG-1978:   LOGDATE
 API .       490251068400:   API NUMBER
~CURVE INFORMATION
#MNEM.UNIT       API CODE    CURVE DESCRIPTION
#----------   ------------   ------------------------------
 DEPT.F                  :   
 SPR .MV     05 010 01 00:   SPONTANEOUS POTENTIAL FROM RES.
 SN  .OHMM   05 040 16 00:   SHORT NORMAL 16"
 IL  .OHMM   05 120 00 00:   INDUCTION LOG
 CORR.G/C3   45 356 01 00:   DENSITY CORRECTION
 GRD .GAPI   45 310 01 00:   GAMMA RAY FROM DENSITY LOG
 RHOB.G/C3   45 350 01 00:   BULK DENSITY
 DPHI.DEC    45 890 12 00:   DENSITY POROSITY SANDSTONE
 CALD.IN     45 280 60 00:   CALIPER
~PARAMETER INFORMATION
#MNEM.UNIT          VALUE    DESCRIPTION
#----------   ------------   ------------------------------
 PD  .                 GL:   PERMANENT DATUM
 EPD .F              5078:   ELEVATION PERMANENT DATUM
 LMF .                 KB:   LOG MEASURED FROM
 DAPD.F                 4:   FEET ABOVE PERMANENT DATUM
 DMF .                 KB:   DRILLING MEASURED FROM
 EKB .F              5082:   KELLING BUSHING
 EGL .F              5078:   GROUND LEVEL
 DATE.            8-12-78:   RUN DATE
 RUN .                  1:   RUN NUMBER
 DD  .F               675:   DEPTH DRILLER
 DL  .F               686:   DEPTH LOGGER
 BLI .F               680:   BOTTOM LOG INTERVAL
 TLI .F                50:   TOP LOG INTERVAL
 CS  .IN            8.625:   CASING SIZE
 CBD .F                40:   CASING BOTTOM DRILLER
 BS  .IN            7.875:   BIT SIZE
 BSD .F               675:   BIT SIZE AT DEPTH
 DFT .                KCL:   DRILLING FLUID TYPE
 DFL .               10.4:   DRILLING FLUID LOSS
 MSS .          FLOW LINE:   MUD SAMPLE SOURCE
 RMS .OHMM            .18:   RESISTIVITY MUD SAMPLE
 MST .F                90:   MUD SAMPLE TEMPERATURE
 RMF .OHMM            .16:   RESISTIVITY MUD FILTRATE SAMPLE
 MFST.F                90:   MUD FILTRATE SAMPLE TEMPERATURE
 RMC .OHMM            .32:   RESISTIVITY MUD CAKE
 MCST.F                90:   MUD CAKE SAMPLE TEMPERATURE
 MFSS.               MEAS:   MUD FILTRATE SAMPLE SOURCE
 TCS .HRS               3:   TIME CURCULATED STOPPED
 LUN .               3006:   LOGGING UNIT NUMBER
 LUL .               CASP:   LOGGING UNIT LOCATION
 ENGI.             MILLER:   RECORDING ENGINEER
 WITN.           MCGINLEY:   WITNESSED BY
 CLNT.            A2DTECH:   CLIENT CODE
 ORIG.           5" PRINT:   ORIGIN OF DATA
 UWI .       490251068400:   UNIQUE WELL ID
 DICO. A2D Technologies, Inc.:   DIGITIZING COMPANY
~OTHER INFORMATION
~A   DEPT      SPR         SN         IL       CORR         GRD      RHOB       DPHI       CALD   
# ...
  641.0000   -45.2767     8.3588     7.7672     0.0369    69.1762     2.4592     0.1391     7.8804
  641.5000   -45.1927     8.3228     7.8046     0.0371    65.8835     2.4562     0.1387     7.8660
  642.0000   -45.1042     8.2979     7.8609     0.0392    63.6794     2.4645     0.1271     7.8449
  642.5000   -45.3888     8.2725     7.9171     0.0413    69.6272     2.4700     0.1244     7.8626
  643.0000   -45.7388     8.2460     7.9738     0.0420    72.6493     2.4722     0.1235     7.8784
  643.5000   -46.0868     8.2196     8.0575     0.0409    72.2722     2.4694     0.1262     7.8437
  644.0000   -46.1026     8.1934     8.0391     0.0397    71.8833     2.4657     0.1289     7.8290
  644.5000   -46.1001     8.1672     8.0018     0.0385    72.1879     2.4622     0.1303     7.8454
  645.0000   -46.1001     8.1325     7.9653     0.0395    74.2348     2.4622     0.1311     7.8642
  645.5000   -46.1380     8.1430     7.9111     0.0403    76.4619     2.4637     0.1295     7.7373
  646.0000   -46.2647     8.1602     7.9176     0.0465    77.7875     2.4716     0.1194     7.5609
  646.5000   -46.6791     8.1773     7.9303     0.0549    74.9376     2.4846     0.1161     7.4071
  647.0000   -47.1681     8.1944     7.9430     0.0587    71.2109     2.4862     0.1146     7.5133
  647.5000   -47.6605     8.2115     7.9557     0.0617    70.8053     2.4838     0.1166     7.8433
  648.0000   -48.0692     8.2287     7.9685     0.0651    72.1171     2.4811     0.1174     7.8365
  648.5000   -48.2299     8.2458     7.9834     0.0706    73.3849     2.4868     0.1136     7.8140
  649.0000   -48.0190     8.2631     7.9307     0.0765    74.6512     2.4971     0.1085     7.7919
  649.5000   -47.9901     8.2826     7.8623     0.0868    74.7072     2.5077     0.1012     7.7698
  650.0000   -48.1998     8.2406     7.7940     0.0976    72.9176     2.5109     0.0992     7.7630
  650.5000   -48.2349     8.1923     7.6962     0.1000    71.6785     2.5105     0.1009     7.7718
  651.0000   -48.1148     8.1438     7.7318     0.0982    71.4237     2.5099     0.1020     7.7890
  651.5000   -47.9938     8.0960     7.7983     0.0963    70.6112     2.5093     0.1008     7.8040
  652.0000   -47.9625     8.0579     7.8388     0.0943    70.7381     2.5089     0.1031     7.8256
  652.5000   -48.2996     8.0929     7.7483     0.0985    71.7647     2.5109     0.1007     7.6756
  653.0000   -48.6258     8.1223     7.6841     0.1078    72.3406     2.5137     0.0974     7.5832
  653.5000   -48.9530     8.1518     7.6258     0.1135    71.5968     2.5166     0.0944     7.6486
  654.0000   -49.1645     8.1814     7.7083     0.1110    70.9593     2.5168     0.0959     7.6830
  654.5000   -49.2884     8.2071     7.7852     0.1086    72.4963     2.5077     0.1075     7.5035
  655.0000   -49.4098     8.1524     7.8628     0.1109    74.0584     2.4970     0.1136     7.6783
  655.5000   -49.5357     8.1248     7.9119     0.1150    73.7496     2.4864     0.1187     7.6374
  656.0000   -49.6932     8.1056     7.8909     0.1306    72.9166     2.4864     0.1117     7.5762
  656.5000   -49.8280     8.0865     7.8700     0.1472    72.7027     2.4967     0.1068     7.6589
  657.0000   -49.9676     8.0675     7.8496     0.1434    73.3151     2.4987     0.1064     7.7942
  657.5000   -50.1100     8.0505     7.8215     0.1382    73.7172     2.4744     0.1292     7.8347
  658.0000   -50.2450     8.0361     7.7868     0.1577    73.0736     2.4681     0.1153     7.7935
  658.5000   -50.7766     8.0215     7.7518     0.1862    72.5033     2.5257     0.0981     7.7648
  659.0000   -51.5005     8.0070     7.7171     0.2117    72.8577     2.5335     0.0866     7.8176
  659.5000   -52.2233     7.9925     7.6675     0.2027    73.1743     2.5372     0.0817     7.8602
  660.0000   -52.6940     7.9697     7.5100     0.1939    75.5325     2.5461     0.0591     7.8288
  660.5000   -52.6076     7.9357     7.2426     0.1860    78.5541     2.5905     0.0414     7.8347
  661.0000   -52.5244     7.9017     6.9567     0.1712    79.9251     2.5772     0.0624     7.8556
  661.5000   -52.8060     7.8680     6.9750     0.1265    77.5758     2.5612     0.0800     7.8285
  662.0000   -53.2718     7.8274     6.9956     0.0940    74.0527     2.5457     0.0883     7.7833
  662.5000   -53.5493     7.7440     7.0209     0.0730    72.3724     2.5328     0.0952     7.8761
  663.0000   -53.7299     7.6614     6.9056     0.0655    75.2440     2.5175     0.1020     7.8995
  663.5000   -53.8990     7.5798     6.7592     0.0628    78.4397     2.5065     0.1052     7.7864
  664.0000   -53.7622     7.4990     6.7059     0.0639    80.3514     2.5099     0.1037     7.7897
  664.5000   -53.5914     7.4230     6.8417     0.0665    81.9766     2.5126     0.1022     7.7974
  665.0000   -53.5999     7.3484     7.0048     0.0690    79.5255     2.5136     0.1007     7.7902
  665.5000   -53.8071     7.2836     7.0857     0.0718    78.0983     2.5176     0.1000     7.7712
  666.0000   -54.0129     7.1177     6.6631     0.0706    78.4416     2.5227     0.0998     7.8299
  666.5000   -54.2217     6.9433     6.1275     0.0682    80.6885     2.5190     0.0995     7.9162
  667.0000   -54.3018     6.7732     5.6349     0.0637    85.4259     2.5105     0.1048     8.0002
  667.5000   -54.3003     6.5943     5.1820     0.0590    90.0892     2.4981     0.1151     7.9507
  668.0000   -54.0908     6.3778     4.7637     0.0544    90.5983     2.4805     0.1255     7.8889
  668.5000   -53.2088     6.1683     4.5571     0.0502    87.6264     2.4631     0.1360     7.9065
  669.0000   -52.3632     5.9658     4.6632     0.0528    86.9400     2.4454     0.1467     7.9530
  669.5000   -51.5201     5.7699     4.8626     0.0617    93.8701     2.4361     0.1479     7.9796
  670.0000   -50.6807     5.5800     4.8413     0.0712   102.2518     2.4394     0.1426     7.9632
  670.5000   -49.9667     5.6827     4.8182     0.0783  -999.2500     2.4767     0.1268     7.9471
  671.0000   -49.6708     5.9933     4.8749     0.0746  -999.2500     2.5144     0.1089     7.9470
  671.5000   -49.3633     6.3230     4.9447     0.0805  -999.2500     2.5478     0.0910     7.9538
  672.0000   -49.3904     6.6700     5.2821     0.0860  -999.2500     2.5425     0.0838     7.9617
  672.5000   -49.5117     7.0360     6.2787     0.0842  -999.2500     2.5375     0.0870     7.9222
  673.0000   -49.6294     7.4210     6.8301     0.0870  -999.2500     2.5330     0.0900     7.8699
  673.5000   -49.5908     7.7710     6.8056     0.0875  -999.2500     2.5314     0.0928     7.8839
  674.0000   -48.8780     7.7169     6.7347     0.0870  -999.2500     2.5297     0.0920     7.9097
  674.5000   -47.9864     7.6662     6.7059     0.0947  -999.2500     2.5280     0.0914     7.8900
  675.0000   -47.0756     7.6265     6.7947     0.0969  -999.2500     2.5279     0.0925     7.8283
  675.5000   -46.7066     7.7977     6.8591     0.0945  -999.2500     2.5285     0.0936     7.8169
  676.0000   -46.6941     7.9401     6.9240     0.0982  -999.2500     2.5295     0.0912     7.8945
  676.5000   -46.5722     7.9841     7.0600     0.1031  -999.2500     2.5305     0.0887     7.9742
  677.0000   -46.4481     7.9142     7.2822     0.1081  -999.2500     2.5315     0.0863     7.8765
  677.5000   -46.3236     7.8390     7.2309     0.1131  -999.2500     2.5324     0.0837     7.8105
  678.0000   -46.1980     7.9237     7.1494     0.1180  -999.2500     2.5331     0.0839     7.8210
  678.5000   -46.1052     8.1059     7.2602     0.1166  -999.2500     2.5272     0.0858     7.6671
  679.0000   -46.2992     8.3126     7.5342     0.1122  -999.2500     2.5214     0.0877     7.6235
  679.5000   -46.2995     8.5243     7.8184     0.1038  -999.2500     2.5157     0.0895     7.6228
  680.0000   -46.3003     8.5927     7.9111     0.1064  -999.2500     2.5121     0.0918     7.6159
