~VERSION INFORMATION
 VERS.                2.0:   CWLS LOG ASCII STANDARD - VERSION 2.0
 WRAP.                 NO:   ONE LINE PER DEPTH STEP
~WELL INFORMATION
#MNEM.UNIT      DATA TYPE    INFORMATION
#----------   ------------   ------------------------------
 STRT.F            0.0000:   START DEPTH
 STOP.F          448.0000:   STOP DEPTH
 STEP.F            0.5000:   STEP LENGTH
 NULL.          -999.2500:   NO VALUE
 COMP.       F D SERV INC:   COMPANY
 WELL.  65-1 SX-10 #65-10:   WELL
 FLD .             TEAPOT:   FIELD
 LOC .      S10 T38N R78W:   LOCATION
 CNTY.            NATRONA:   COUNTY
 STAT.            WYOMING:   STATE
 CTRY. UNITED STATES OF AMERICA:   COUNTRY
 SRVC.     Atlas Wireline:   SERVICE COMPANY
 DATE.        09-APR-1992:   LOGDATE
 API .       490252252700:   API NUMBER
~CURVE INFORMATION
#MNEM.UNIT       API CODE    CURVE DESCRIPTION
#----------   ------------   ------------------------------
 DEPT.F                  :   
 GRR .GAPI   07 310 01 00:   GAMMA RAY
 SPR .MV     07 010 01 00:   SPONTANEOUS POTENTIAL
 RILD.OHMM   07 120 46 00:   INDUCTION LOG DEEP RESISTIVITY
 RILM.OHMM   07 120 44 00:   INDUCTION LOG MEDIUM RESISTIVITY
 RFOC.OHMM   07 220 04 00:   RESISTIVITY FOCUSED LOG
~PARAMETER INFORMATION
#MNEM.UNIT          VALUE    DESCRIPTION
#----------   ------------   ------------------------------
 PD  .                 GL:   PERMANENT DATUM
 EPD .F              5192:   ELEVATION PERMANENT DATUM
 LMF .                 KB:   LOG MEASURED FROM
 DAPD.F                10:   FEET ABOVE PERMANENT DATUM
 DMF .                 KB:   DRILLING MEASURED FROM
 EKB .F              5202:   KELLING BUSHING
 EDF .F              5201:   DRILLING FLOOR
 EGL .F              5192:   GROUND LEVEL
 DATE.        09-APR-1992:   RUN DATE
 RUN .                  1:   RUN NUMBER
 DD  .F               450:   DEPTH DRILLER
 DL  .F               450:   DEPTH LOGGER
 BLI .F               448:   BOTTOM LOG INTERVAL
 CS  .IN            8.625:   CASING SIZE
 CBD .F               133:   CASING BOTTOM DRILLER
 CBL .F               135:   CASING BOTTOM LOGGER
 BS  .IN            7.875:   BIT SIZE
 BSD .F               450:   BIT SIZE AT DEPTH
 DFT .          CHEM. GEL:   DRILLING FLUID TYPE
 DFD .               12.7:   DRILLING FLUID DENSITY
 DFV .                 47:   DRILLING FLUID VISCOSITY
 DFPH.                  9:   DRILLING FLUID PH
 DFL .                9.2:   DRILLING FLUID LOSS
 MSS .            MUDTANK:   MUD SAMPLE SOURCE
 RMS .OHMM           3.14:   RESISTIVITY MUD SAMPLE
 MST .F                75:   MUD SAMPLE TEMPERATURE
 RMF .OHMM           1.79:   RESISTIVITY MUD FILTRATE SAMPLE
 MFST.F                75:   MUD FILTRATE SAMPLE TEMPERATURE
 RMC .OHMM           4.47:   RESISTIVITY MUD CAKE
 MCST.F                75:   MUD CAKE SAMPLE TEMPERATURE
 MFSS.               MEAS:   MUD FILTRATE SAMPLE SOURCE
 MCSS.               MEAS:   MUD CAKE SAMPLE SOURCE
 RMB .OHMM           2.14:   RESISTIVITY MUD AT BHT
 BHT .F               110:   BOTTOM HOLE TEMPERATURE
 TCS .HRS               2:   TIME CURCULATED STOPPED
 MRT .F               110:   MAXIMUM RECORDED TEMPERATURE
 LUN .            HL-6274:   LOGGING UNIT NUMBER
 LUL .             CASPER:   LOGGING UNIT LOCATION
 ENGI.             RAUTIO:   RECORDING ENGINEER
 WITN.        GARY STRONG:   WITNESSED BY
 CLNT.            A2DTECH:   CLIENT CODE
 ORIG.           5" PRINT:   ORIGIN OF DATA
 UWI .       490252252700:   UNIQUE WELL ID
 DICO. A2D Technologies, Inc.:   DIGITIZING COMPANY
~OTHER INFORMATION
~A    DEPT     GRR        SPR       RILD       RILM       RFOC   
# ...
  305.0000    73.0715   -51.5236    14.3395    13.1542    11.9925
  305.5000    73.0597   -51.3890    14.1347    12.9673    12.2373
  306.0000    73.3494   -51.1074    14.0305    12.9629    12.6583
  306.5000    74.5420   -51.1238    13.8301    12.8683    12.5563
  307.0000    75.4338   -51.1402    13.7282    12.7719    12.1151
  307.5000    73.5542   -51.3077    13.7225    12.5927    11.6081
  308.0000    72.0964   -51.1730    13.6214    12.5883    11.5978
  308.5000    72.0821   -51.0378    13.6158    12.5831    11.5875
  309.0000    72.3715   -50.6016    13.7057    12.5788    11.5772
  309.5000    73.8657   -50.4668    13.7001    12.7514    11.7321
  310.0000    76.5647   -50.0302    13.9846    12.8374    11.8838
  310.5000    78.0589   -49.7445    14.0769    12.9229    11.8733
  311.0000    77.7458   -49.9124    14.3677    13.1908    12.1137
  311.5000    74.7220   -50.4048    14.4640    13.2799    12.1998
  312.0000    71.3969   -51.1574    14.4566    13.4609    12.5216
  312.5000    68.0718   -50.9063    14.4507    13.4562    12.3344
  313.0000    65.9515   -50.4655    14.4448    13.5460    12.4097
  313.5000    68.9517   -50.3262    14.3383    13.4470    12.3987
  314.0000    68.3213   -50.1672    14.0351    13.3438    12.4773
  314.5000    68.0241   -49.7455    13.7383    13.2513    12.2907
  315.0000    70.7205   -49.9113    13.6370    12.9712    12.1097
  315.5000    72.8171   -50.3763    13.5131    12.7869    11.9313
  316.0000    72.8053   -50.5362    13.0650    12.5175    11.7555
  316.5000    71.5886   -50.3969    12.8784    12.4262    11.6567
  317.0000    70.3720   -49.9585    12.3445    12.1644    11.4112
  317.5000    69.4566   -49.5171    12.0834    12.1602    11.3990
  318.0000    70.3483   -49.2266    12.0785    12.0715    11.3889
  318.5000    71.8425   -48.7854    12.0735    11.9833    11.3789
  319.0000    73.3367   -49.2709    12.1532    11.8959    11.6093
  319.5000    74.2289   -49.5672    12.1482    11.8918    11.6828
  320.0000    71.5058   -49.2739    12.4875    12.0550    11.8365
  320.5000    67.2771   -48.2313    12.8383    12.1358    11.8234
  321.0000    67.8915   -47.7899    13.5173    12.4886    11.8958
  321.5000    68.1571   -48.1038    15.5960    13.1232    12.2225
  322.0000    64.5278   -49.4751    16.9533    14.3333    13.4306
  322.5000    60.9015   -50.5443    18.6880    15.5808    16.8132
  323.0000    56.9741   -51.3114    20.7448    17.2953    19.7225
  323.5000    53.6490   -52.5469    22.8676    19.1986    21.5760
  324.0000    50.9263   -53.7724    24.3420    20.8694    23.7690
  324.5000    50.0108   -54.3708    26.8328    23.4918    24.4255
  325.0000    51.2038   -54.6847    29.7860    25.5363    24.3984
  325.5000    55.4089   -54.8476    31.4857    26.0680    25.2423
  326.0000    59.3127   -54.8594    31.9157    26.4278    26.6677
  326.5000    61.7105   -54.8712    31.9023    26.6016    26.6441
  327.0000    61.6987   -54.8830    31.8863    26.7789    25.1750
  327.5000    59.5582   -55.4990    31.6513    26.9572    24.8036
  328.0000    55.9511   -55.6618    31.1992    26.9477    24.9559
  328.5000    54.4333   -56.7311    30.9692    26.7509    24.9283
  329.0000    54.7229   -56.8943    30.7409    26.7398    25.0861
  329.5000    55.6145   -56.7575    30.3019    26.5446    26.1297
  330.0000    55.9058   -56.3162    30.0785    26.3509    26.2951
  330.5000    55.5898   -55.8748    29.4424    25.6163    25.0140
  331.0000    56.1804   -56.1887    28.6191    24.7289    23.4706
  331.5000    57.0722   -56.2005    27.6237    23.5411    20.5383
  332.0000    58.2893   -56.2123    26.8348    22.7256    20.0914
  332.5000    61.6566   -56.8283    25.9172    21.6341    20.0769
  333.0000    66.4257   -56.8401    25.1925    20.8846    20.0587
  333.5000    67.2658   -56.8520    24.1481    20.3024    19.8979
  334.0000    60.6245   -56.2196    23.6374    19.7364    19.7420
  334.5000    59.1066   -55.6670    23.4632    19.1861    18.9158
  335.0000    58.7966   -55.6817    22.8071    18.7818    18.2511
  335.5000    60.5890   -55.5395    22.1693    18.6433    17.7330
  336.0000    62.9868   -55.7053    21.5494    18.5072    17.2296
  336.5000    64.1828   -55.8681    20.9468    18.2443    17.2144
  337.0000    62.9631   -55.7289    20.6476    18.2380    17.0795
  337.5000    60.5417   -55.7407    19.9187    18.1049    16.7109
  338.0000    65.0479   -55.2991    19.7832    18.0987    16.5797
  338.5000    68.9517   -54.7019    19.9141    17.9666    16.5616
  339.0000    67.9557   -54.5676    20.0455    17.7114    16.6665
  339.5000    61.5460   -54.8844    20.0352    17.7053    16.6481
  340.0000    57.7687   -55.9536    20.0270    17.6992    16.2887
  340.5000    59.2629   -55.9654    20.0188    17.6932    15.8264
  341.0000    61.9619   -55.8232    20.0106    17.5624    15.7024
  341.5000    64.0585   -55.8379    19.8631    17.1939    15.6885
  342.0000    64.9533   -55.8497    19.8550    17.0683    15.5656
  342.5000    62.8300   -55.4083    19.7086    17.0612    15.5518
  343.0000    60.7098   -55.2689    19.6903    17.0554    15.6468
  343.5000    59.1919   -55.7392    19.1493    16.8131    16.0754
  344.0000    57.9753   -56.2397    19.0065    16.5742    15.9460
  344.5000    57.9634   -57.1201    18.8664    16.2250    15.4933
  345.0000    58.2528   -57.2829    18.7274    15.8832    14.5374
  345.5000    59.1466   -57.2947    18.5893    15.7673    14.6295
  346.0000    60.3854   -57.3065    18.5817    15.7619    14.7189
  346.5000    61.6225   -57.1643    18.0621    15.7565    14.9092
  347.0000    62.7236   -56.7229    17.8041    15.7511    15.1053
  347.5000    63.6124   -56.1329    17.9216    15.7457    15.3040
  348.0000    63.6006   -55.6920    17.9143    15.7403    15.6139
  348.5000    63.8929   -55.3918    17.9069    15.8576    15.5941
  349.0000    63.5769   -54.7694    18.0251    16.1751    14.9013
  349.5000    63.8692   -53.9177    18.5265    16.7426    13.4469
  350.0000    68.9759   -53.2335    19.0459    17.4152    13.6969
  350.5000    68.6627   -52.1418    18.9008    18.5801    14.5572
  351.0000    68.0080   -51.0501    20.5681    19.5054    16.4235
  351.5000    64.9037   -49.9583    21.5785    20.1942    19.8132
  352.0000    60.9760   -48.6244    21.8476    20.7605    20.7891
  352.5000    58.9759   -48.0963    21.5276    20.7533    21.0693
  353.0000    58.6603   -48.4109    20.6308    20.7475    20.4699
  353.5000    60.1543   -48.7533    20.1903    19.7523    18.8115
  354.0000    61.9496   -50.2501    19.8977    18.4150    16.8115
  354.5000    63.1425   -50.5642    18.9360    17.0487    14.8160
  355.0000    63.7359   -50.4252    17.4020    16.3447    13.7110
  355.5000    64.0252   -50.4372    16.6771    16.0014    13.4168
  356.0000    63.7091   -51.2045    16.3209    15.6653    13.4066
  356.5000    63.3959   -52.1228    15.9724    15.5520    13.3032
  357.0000    62.4803   -52.7390    15.8513    15.2254    13.2931
  357.5000    61.5648   -53.0532    15.5128    15.1152    13.2830
  358.0000    62.1552   -52.9111    15.5032    14.9015    13.2729
  358.5000    63.6523   -52.7721    15.4936    14.7937    13.3557
  359.0000    63.3362   -52.1798    15.4839    14.6867    13.3405
  359.5000    62.4206   -51.5906    15.4743    14.3782    12.9598
  360.0000    61.2038   -50.6963    15.2501    14.2742    12.7786
  360.5000    63.6015   -49.8019    15.0290    14.0723    12.8587
  361.0000    65.9992   -49.6629    14.9123    13.9705    12.8465
  361.5000    66.5927   -49.2217    14.5964    13.8695    12.7474
  362.0000    66.2765   -48.9316    14.4736    13.6733    12.5612
  362.5000    66.8675   -48.7895    14.1598    13.5744    12.5517
  363.0000    69.2647   -48.8045    13.7751    13.4762    12.5422
  363.5000    71.3611   -48.8166    13.7666    13.3737    12.4455
  364.0000    70.4456   -48.8286    13.7580    13.1894    12.3496
  364.5000    65.6144   -48.9916    13.6537    13.1760    12.1692
  365.0000    63.4940   -49.3057    13.6452    13.0782    12.0754
  365.5000    65.9218   -49.3177    13.5418    12.8154    12.1507
