~VERSION INFORMATION
 VERS.                2.0:   CWLS LOG ASCII STANDARD - VERSION 2.0
 WRAP.                 NO:   ONE LINE PER DEPTH STEP
~WELL INFORMATION
#MNEM.UNIT      DATA TYPE    INFORMATION
#----------   ------------   ------------------------------
 STRT.F            0.0000:   START DEPTH
 STOP.F          596.0000:   STOP DEPTH
 STEP.F            0.1000:   STEP LENGTH
 NULL.          -999.2500:   NO VALUE
 COMP. BROWN JOHN E&C INC:   COMPANY
 WELL.    72-5 SX-3 #72-3:   WELL
 FLD .             TEAPOT:   FIELD
 LOC .       S3 T38N R78W:   LOCATION
 CNTY.            NATRONA:   COUNTY
 STAT.            WYOMING:   STATE
 CTRY. UNITED STATES OF AMERICA:   COUNTRY
 SRVC.      Western Atlas:   SERVICE COMPANY
 DATE.        15-APR-1992:   LOGDATE
 API .       490252250900:   API NUMBER
~CURVE INFORMATION
#MNEM.UNIT       API CODE    CURVE DESCRIPTION
#----------   ------------   ------------------------------
 DEPT.F                  :   
 GRR .GAPI   07 310 01 00:   GAMMA RAY
 RILD.OHMM   07 120 46 00:   INDUCTION LOG DEEP RESISTIVITY
 RILM.OHMM   07 120 44 00:   INDUCTION LOG MEDIUM RESISTIVITY
~PARAMETER INFORMATION
#MNEM.UNIT          VALUE    DESCRIPTION
#----------   ------------   ------------------------------
 PD  .                 GL:   PERMANENT DATUM
 EPD .F              5132:   ELEVATION PERMANENT DATUM
 LMF .                 KB:   LOG MEASURED FROM
 DAPD.F                 5:   FEET ABOVE PERMANENT DATUM
 DMF .                 KB:   DRILLING MEASURED FROM
 EKB .F              5137:   KELLING BUSHING
 EDF .F              5136:   DRILLING FLOOR
 EGL .F              5132:   GROUND LEVEL
 DATE.        15-APR-1992:   RUN DATE
 RUN .                  1:   RUN NUMBER
 DD  .F               605:   DEPTH DRILLER
 DL  .F               599:   DEPTH LOGGER
 BLI .F               596:   BOTTOM LOG INTERVAL
 TLI .F                46:   TOP LOG INTERVAL
 CS  .IN            8.625:   CASING SIZE
 CBD .F                48:   CASING BOTTOM DRILLER
 CBL .F                46:   CASING BOTTOM LOGGER
 BS  .IN            7.875:   BIT SIZE
 BSD .F               605:   BIT SIZE AT DEPTH
 DFT .                AIR:   DRILLING FLUID TYPE
 LUN .            HL-6321:   LOGGING UNIT NUMBER
 LUL .        RK. SPRINGS:   LOGGING UNIT LOCATION
 ENGI.            TRIBBLE:   RECORDING ENGINEER
 WITN.             STRONG:   WITNESSED BY
 CLNT.            A2DTECH:   CLIENT CODE
 ORIG.           5" PRINT:   ORIGIN OF DATA
 UWI .       490252250900:   UNIQUE WELL ID
 DICO. A2D Technologies, Inc.:   DIGITIZING COMPANY
~OTHER INFORMATION
~A    DEPT     GRR       RILD       RILM   
# ...
  473.2000    90.0121    10.5257    10.4697
  473.3000    90.2555    10.4860    10.4546
  473.4000    90.4990    10.4783    10.4542
  473.5000    90.7424    10.4121    10.4537
  473.6000    91.0378    10.4117    10.4484
  473.7000    91.8650    10.3714    10.3801
  473.8000    92.7296    10.3383    10.3797
  473.9000    93.7143    10.3379    10.3792
  474.0000    94.6990    10.3375    10.3547
  474.1000    95.6347    10.3370    10.3062
  474.2000    96.3926    10.2910    10.3057
  474.3000    96.8694    10.2642    10.3053
  474.4000    97.3600    10.2638    10.2618
  474.5000    97.7223    10.2574    10.2327
  474.6000    97.8933    10.1914    10.2323
  474.7000    97.8734    10.1910    10.2283
  474.8000    97.5825    10.1906    10.1602
  474.9000    97.3719    10.1653    10.1598
  475.0000    97.1212    10.1188    10.1594
  475.1000    96.8705    10.1183    10.1590
  475.2000    96.6198    10.1179    10.1491
  475.3000    96.3525    10.1175    10.0874
  475.4000    95.8876    10.1171    10.0870
  475.5000    95.5647    10.1166    10.0866
  475.6000    95.4327    10.1115    10.0862
  475.7000    95.3663    10.0453    10.0857
  475.8000    95.1155    10.0449    10.0853
  475.9000    94.8150    10.0445    10.0848
  476.0000    94.6142    10.0441    10.0845
  476.1000    94.3635    10.0437    10.0841
  476.2000    94.1988    10.0432    10.0836
  476.3000    94.1952    10.0428    10.0832
  476.4000    94.1911    10.0004    10.0827
  476.5000    94.1879     9.9720    10.0824
  476.6000    94.1842     9.9716    10.0819
  476.7000    94.1806     9.9712    10.0815
  476.8000    94.2303     9.9707    10.0811
  476.9000    94.4763    10.0181    10.0819
  477.0000    94.4727    10.0399    10.1391
  477.1000    94.6576    10.0394    10.1505
  477.2000    94.7685    10.0390    10.1832
  477.3000    94.8414    10.0386    10.2410
  477.4000    95.0645    10.0922    10.3064
  477.5000    95.0601    10.1495    10.4362
  477.6000    95.2687    10.2359    10.4894
  477.7000    95.3564    10.3371    10.5490
  477.8000    95.5523    10.3958    10.6362
  477.9000    95.9990    10.4657    10.7438
  478.0000    96.2544    10.5636    10.8048
  478.1000    96.7208    10.7209    10.9911
  478.2000    97.3904    10.8824    11.0815
  478.3000    98.0050    11.0067    11.1797
  478.4000    98.4954    11.1428    11.3074
  478.5000    98.9858    11.2600    11.4365
  478.6000    99.5654    11.3888    11.5832
  478.7000    99.7647    11.5191    11.6995
  478.8000   100.0081    11.6673    11.8778
  478.9000   100.0709    11.8665    12.0822
  479.0000    99.7516    12.0023    12.2754
  479.1000    98.9415    12.1953    12.4184
  479.2000    98.2617    12.4055    12.6282
  479.3000    97.6865    12.6445    12.8458
  479.4000    97.0753    12.9353    13.0271
  479.5000    96.2729    13.2638    13.1992
  479.6000    95.2774    13.5390    13.4260
  479.7000    93.7914    13.8513    13.6903
  479.8000    92.1129    14.1705    13.8927
  479.9000    90.3797    14.4966    14.1319
  480.0000    88.5655    14.8298    14.4091
  480.1000    86.5107    15.1725    14.7404
  480.2000    83.4468    15.5228    15.0931
  480.3000    81.5004    15.9314    15.4274
  480.4000    79.7529    16.3601    15.7830
  480.5000    78.3707    16.7364    16.2427
  480.6000    77.1317    17.1695    16.7503
  480.7000    75.8532    17.6063    17.1414
  480.8000    74.1753    18.1157    17.7181
  480.9000    71.8925    18.6391    18.4130
  481.0000    70.0545    19.1768    19.2039
  481.1000    68.8869    19.7409    20.1696
  481.2000    67.8950    20.5318    21.4467
  481.3000    66.7400    21.1833    22.7773
  481.4000    65.7047    21.8632    23.9091
  481.5000    64.4657    22.5822    24.9614
  481.6000    63.6994    23.2444    25.8285
  481.7000    63.7730    24.1695    26.5733
  481.8000    64.2979    24.6482    27.3253
  481.9000    64.9836    25.3093    27.8828
  482.0000    65.8949    26.0404    28.2754
  482.1000    67.1150    26.7626    28.6644
  482.2000    68.4702    27.4035    28.9919
  482.3000    69.4549    28.1658    29.3229
  482.4000    70.4395    28.8583    29.6852
  482.5000    71.4243    29.4363    29.9972
  482.6000    72.1269    29.8935    30.3402
  482.7000    72.7023    30.2350    30.6043
  482.8000    73.3818    30.6375    30.7780
  482.9000    73.6517    30.7832    30.9526
  483.0000    73.8687    31.0670    31.1284
  483.1000    73.9479    31.3523    31.3051
  483.2000    73.7278    31.5303    31.5862
  483.3000    73.1777    31.7204    31.8203
  483.4000    72.4218    31.8896    31.8412
  483.5000    71.4443    31.9402    32.0404
  483.6000    70.8275    31.9389    32.0392
  483.7000    70.1982    31.8894    31.9153
  483.8000    69.5288    31.7065    31.7324
  483.9000    69.0507    31.4914    31.5506
  484.0000    68.7631    31.3442    31.3698
  484.1000    68.5493    31.0600    31.0132
  484.2000    68.4533    30.7061    30.7958
  484.3000    68.4497    30.3316    30.6194
  484.4000    68.4461    29.7731    30.3878
  484.5000    68.4422    29.3087    30.0416
  484.6000    68.4388    28.9237    29.6578
  484.7000    68.7911    28.5186    29.3619
  484.8000    69.2816    28.1105    29.0279
  484.9000    69.8382    27.9427    28.6282
  485.0000    70.5657    27.4680    28.1408
  485.1000    71.1472    27.2464    27.6518
  485.2000    71.7479    27.0025    27.0414
  485.3000    72.3402    26.7473    26.5442
  485.4000    72.8307    26.5755    26.0151
  485.5000    73.3213    26.2419    25.3834
  485.6000    73.8566    25.9738    24.6783
  485.7000    74.3022    25.6781    24.0415
  485.8000    74.7927    25.3856    23.5771
  485.9000    75.2832    25.0962    23.0448
  486.0000    75.6606    24.8100    22.6275
  486.1000    75.6570    24.5278    22.3697
  486.2000    75.9010    24.1422    22.1045
  486.3000    76.1445    23.8054    21.9831
  486.4000    76.3879    23.4909    21.8572
  486.5000    76.6313    23.1038    21.7320
  486.6000    76.8747    22.8085    21.6075
  486.7000    77.1498    22.5807    21.4837
  486.8000    77.5766    22.3237    21.3406
  486.9000    77.9081    22.1230    21.2383
  487.0000    78.3575    21.9708    21.1167
  487.1000    79.0480    21.7151    20.9957
  487.2000    79.5562    21.5933    20.8948
  487.3000    80.2674    21.3776    20.8939
  487.4000    80.8226    21.2620    20.7816
  487.5000    81.1868    21.2241    20.6626
  487.6000    81.4303    21.1023    20.6016
  487.7000    81.6596    20.9641    20.5696
  487.8000    81.6551    20.9634    20.4517
  487.9000    81.6521    20.8871    20.3131
  488.0000    81.6485    20.7673    20.3125
  488.1000    81.6449    20.6698    20.3116
  488.2000    81.6788    20.6689    20.2684
  488.3000    81.9403    20.5553    20.1522
  488.4000    82.1657    20.5233    20.0273
  488.5000    82.2364    20.4629    20.0266
  488.6000    82.3495    20.3787    19.9468
  488.7000    82.5929    20.3778    19.8325
  488.8000    82.8316    20.3768    19.7463
  488.9000    82.8279    20.2792    19.7455
  489.0000    83.2162    20.2334    19.7447
  489.1000    83.5667    20.2325    19.7438
  489.2000    83.8101    20.2317    19.7430
  489.3000    84.0535    20.2308    19.7422
  489.4000    84.3244    20.2300    19.7414
  489.5000    84.3212    20.2291    19.7405
  489.6000    84.1544    20.2850    19.7397
  489.7000    83.7964    20.3693    19.7389
  489.8000    83.2986    20.3684    19.7381
  489.9000    82.7914    20.3674    19.7626
  490.0000    82.5455    20.3667    19.8747
  490.1000    82.1082    20.3659    19.8739
  490.2000    81.7410    20.3650    19.9612
  490.3000    81.4158    20.3641    20.0115
  490.4000    80.9366    20.3632    20.0480
  490.5000    80.6479    20.3624    20.1501
  490.6000    80.6449    20.3616    20.1490
  490.7000    80.6412    20.3607    20.1483
  490.8000    80.6376    20.3599    20.2228
  490.9000    80.6757    20.3590    20.2878
  491.0000    80.9331    20.3582    20.2869
  491.1000    81.3956    20.3573    20.2861
  491.2000    81.7091    20.3565    20.2852
  491.3000    82.0735    20.3556    20.2844
