~VERSION INFORMATION
 VERS.                2.0:   CWLS LOG ASCII STANDARD - VERSION 2.0
 WRAP.                 NO:   ONE LINE PER DEPTH STEP
~WELL INFORMATION
#MNEM.UNIT      DATA TYPE    INFORMATION
#----------   ------------   ------------------------------
 STRT.F            4.0000:   START DEPTH
 STOP.F          572.0000:   STOP DEPTH
 STEP.F            0.5000:   STEP LENGTH
 NULL.          -999.2500:   NO VALUE
 COMP. FENIX & SCISSON INC:   COMPANY
 WELL.       NPR#3 #33-10:   WELL
 FLD .             TEAPOT:   FIELD
 LOC .      S10 T38N R78W:   LOCATION
 CNTY.            NATRONA:   COUNTY
 STAT.            WYOMING:   STATE
 CTRY. UNITED STATES OF AMERICA:   COUNTRY
 SRVC.              Welex:   SERVICE COMPANY
 DATE.        05-MAY-1980:   LOGDATE
 API .       490251080800:   API NUMBER
~CURVE INFORMATION
#MNEM.UNIT       API CODE    CURVE DESCRIPTION
#----------   ------------   ------------------------------
 DEPT.F                  :   
 SGRD.OHMM   07 220 05 00:   SHALLOW GUARD RESISTIVITY
 ILD .OHMM   07 120 46 00:   INDUCTION LOG DEEP RESISTIVITY
 ILM .OHMM   07 120 44 00:   INDUCTION LOG MEDIUM
 SPR .MV     07 010 01 00:   SPONTANEOUS POTENTIAL
 CALD.IN     45 280 60 00:   CALIPER
 GRD .GAPI   45 310 01 00:   GAMMA RAY FROM DENSITY LOG
 RHOB.G/C3   45 350 01 00:   BULK DENSITY
 CORR.G/C3   45 356 01 00:   DENSITY CORRECTION
 DPHI.DEC    45 890 12 00:   DENSITY POROSITY SANDSTONE
~PARAMETER INFORMATION
#MNEM.UNIT          VALUE    DESCRIPTION
#----------   ------------   ------------------------------
 PD  .                 GL:   PERMANENT DATUM
 EPD .F              5228:   ELEVATION PERMANENT DATUM
 LMF .                 KB:   LOG MEASURED FROM
 DAPD.F                 5:   FEET ABOVE PERMANENT DATUM
 DMF .                 KB:   DRILLING MEASURED FROM
 EKB .F              5233:   KELLING BUSHING
 EGL .F              5228:   GROUND LEVEL
 DATE.             5-5-80:   RUN DATE
 RUN .                  1:   RUN NUMBER
 DD  .F               572:   DEPTH DRILLER
 DL  .F               572:   DEPTH LOGGER
 BLI .F               570:   BOTTOM LOG INTERVAL
 TLI .F                30:   TOP LOG INTERVAL
 BS  .IN            7.875:   BIT SIZE
 BSD .F               572:   BIT SIZE AT DEPTH
 DFT .            KCL MUD:   DRILLING FLUID TYPE
 DFD .                8.9:   DRILLING FLUID DENSITY
 DFV .                 36:   DRILLING FLUID VISCOSITY
 DFL .               12.6:   DRILLING FLUID LOSS
 MSS .           FLOWLINE:   MUD SAMPLE SOURCE
 RMS .OHMM           1.08:   RESISTIVITY MUD SAMPLE
 MST .F                60:   MUD SAMPLE TEMPERATURE
 RMF .OHMM            .86:   RESISTIVITY MUD FILTRATE SAMPLE
 MFST.F                60:   MUD FILTRATE SAMPLE TEMPERATURE
 RMC .OHMM           1.29:   RESISTIVITY MUD CAKE
 MCST.F                60:   MUD CAKE SAMPLE TEMPERATURE
 MFSS.           MEASURED:   MUD FILTRATE SAMPLE SOURCE
 MCSS.           MEASURED:   MUD CAKE SAMPLE SOURCE
 TCS .HRS               2:   TIME CURCULATED STOPPED
 MRT .F               100:   MAXIMUM RECORDED TEMPERATURE
 LUN .               1892:   LOGGING UNIT NUMBER
 LUL .             CASPER:   LOGGING UNIT LOCATION
 ENGI.               REIN:   RECORDING ENGINEER
 WITN.              AMEND:   WITNESSED BY
 CLNT.            A2DTECH:   CLIENT CODE
 ORIG.           5" PRINT:   ORIGIN OF DATA
 UWI .       490251080800:   UNIQUE WELL ID
 DICO. A2D Technologies, Inc.:   DIGITIZING COMPANY
~OTHER INFORMATION
~A    DEPT    SGRD        ILD        ILM        SPR       CALD         GRD        RHOB       CORR     DPHI   
    4.0000  -999.2500  -999.2500  -999.2500  -999.2500  -999.2500    68.1818     1.9715     0.0415  -999.2500
    4.5000  -999.2500  -999.2500  -999.2500  -999.2500  -999.2500    69.3676     1.9525     0.0275  -999.2500
    5.0000  -999.2500  -999.2500  -999.2500  -999.2500  -999.2500    70.6192     1.9393     0.0185  -999.2500
    5.5000  -999.2500  -999.2500  -999.2500  -999.2500  -999.2500    72.1344     1.9289     0.0094  -999.2500
    6.0000  -999.2500  -999.2500  -999.2500  -999.2500  -999.2500    72.3638     1.9318     0.0032  -999.2500
    6.5000  -999.2500  -999.2500  -999.2500  -999.2500  -999.2500    72.7024     1.9268     0.0038  -999.2500
    7.0000  -999.2500  -999.2500  -999.2500  -999.2500  -999.2500    73.0383     1.9287     0.0063  -999.2500
    7.5000  -999.2500  -999.2500  -999.2500  -999.2500  -999.2500    73.2637     1.9298     0.0071  -999.2500
    8.0000  -999.2500  -999.2500  -999.2500  -999.2500  -999.2500    71.9761     1.9243    -0.0002  -999.2500
    8.5000  -999.2500  -999.2500  -999.2500  -999.2500  -999.2500    70.5684     1.9182    -0.0002  -999.2500
    9.0000  -999.2500  -999.2500  -999.2500  -999.2500  -999.2500    69.0157     1.9155     0.0032  -999.2500
    9.5000  -999.2500  -999.2500  -999.2500  -999.2500  -999.2500    67.4594     1.9189     0.0058  -999.2500
   10.0000  -999.2500  -999.2500  -999.2500  -999.2500  -999.2500    65.0840     1.9265     0.0082  -999.2500
   10.5000  -999.2500  -999.2500  -999.2500  -999.2500  -999.2500    62.3546     1.9329     0.0106  -999.2500
   11.0000  -999.2500  -999.2500  -999.2500  -999.2500  -999.2500    59.6299     1.9334     0.0112  -999.2500
   11.5000  -999.2500  -999.2500  -999.2500  -999.2500  -999.2500    56.8935     1.9272     0.0092  -999.2500
   12.0000  -999.2500  -999.2500  -999.2500  -999.2500  -999.2500    55.1829     1.9210     0.0074  -999.2500
   12.5000  -999.2500  -999.2500  -999.2500  -999.2500  -999.2500    56.2428     1.9182     0.0060  -999.2500
   13.0000  -999.2500  -999.2500  -999.2500  -999.2500  -999.2500    57.4788     1.9225     0.0040  -999.2500
   13.5000  -999.2500  -999.2500  -999.2500  -999.2500  -999.2500    58.7186     1.9273     0.0091  -999.2500
   14.0000  -999.2500  -999.2500  -999.2500  -999.2500  -999.2500    59.9544     1.9286     0.0084  -999.2500
   14.5000  -999.2500  -999.2500  -999.2500  -999.2500  -999.2500    61.1921     1.9296     0.0057  -999.2500
   15.0000  -999.2500  -999.2500  -999.2500  -999.2500  -999.2500    62.4297     1.9336     0.0065  -999.2500
   15.5000  -999.2500  -999.2500  -999.2500  -999.2500  -999.2500    64.1452     1.9376     0.0124  -999.2500
   16.0000  -999.2500  -999.2500  -999.2500  -999.2500  -999.2500    66.3387     1.9349     0.0095  -999.2500
   16.5000  -999.2500  -999.2500  -999.2500  -999.2500  -999.2500    68.5320     1.9309     0.0067  -999.2500
   17.0000  -999.2500  -999.2500  -999.2500  -999.2500  -999.2500    70.7288     1.9381     0.0191  -999.2500
   17.5000  -999.2500  -999.2500  -999.2500  -999.2500  -999.2500    72.9276     1.9452     0.0311  -999.2500
   18.0000  -999.2500  -999.2500  -999.2500  -999.2500  -999.2500    75.1266     1.9521     0.0409  -999.2500
   18.5000  -999.2500  -999.2500  -999.2500  -999.2500  -999.2500    77.3079     1.9591     0.0456  -999.2500
   19.0000  -999.2500  -999.2500  -999.2500  -999.2500  -999.2500    78.8868     1.9636     0.0504  -999.2500
   19.5000  -999.2500  -999.2500  -999.2500  -999.2500  -999.2500    78.3562     1.9627     0.0550  -999.2500
   20.0000  -999.2500  -999.2500  -999.2500  -999.2500  -999.2500    77.3699     1.9598     0.0559  -999.2500
   20.5000  -999.2500  -999.2500  -999.2500  -999.2500  -999.2500    76.3832     1.9568     0.0501  -999.2500
   21.0000  -999.2500  -999.2500  -999.2500  -999.2500  -999.2500    75.3902     1.9534     0.0445  -999.2500
   21.5000  -999.2500  -999.2500  -999.2500  -999.2500  -999.2500    74.4156     1.9563     0.0394  -999.2500
   22.0000  -999.2500  -999.2500  -999.2500  -999.2500  -999.2500    73.9642     1.9617     0.0422  -999.2500
   22.5000  -999.2500  -999.2500  -999.2500  -999.2500  -999.2500    75.0004     1.9672     0.0465  -999.2500
   23.0000  -999.2500  -999.2500  -999.2500  -999.2500  -999.2500    75.9887     1.9614     0.0429  -999.2500
   23.5000  -999.2500  -999.2500  -999.2500  -999.2500  -999.2500    76.9493     1.9561     0.0365  -999.2500
   24.0000  -999.2500  -999.2500  -999.2500  -999.2500  -999.2500    77.8847     1.9721     0.0296  -999.2500
   24.5000  -999.2500  -999.2500  -999.2500  -999.2500  -999.2500    78.8232     1.9905     0.0356  -999.2500
   25.0000  -999.2500  -999.2500  -999.2500  -999.2500  -999.2500    79.7916     2.0072     0.0444  -999.2500
   25.5000  -999.2500  -999.2500  -999.2500  -999.2500  -999.2500    80.4715     2.0123     0.0531  -999.2500
   26.0000  -999.2500  -999.2500  -999.2500  -999.2500     8.2212    81.3441     2.0079     0.0600  -999.2500
   26.5000  -999.2500  -999.2500  -999.2500  -999.2500     7.9269    82.2066     2.0036     0.0690  -999.2500
   27.0000  -999.2500  -999.2500  -999.2500  -999.2500     7.8478    83.0730     2.0100     0.0771  -999.2500
   27.5000  -999.2500  -999.2500  -999.2500  -999.2500     7.8271    83.9401     2.0400     0.0816  -999.2500
   28.0000    10.9842     2.2703     4.4914    -7.5612     7.8274    84.8069     2.1049     0.0117     0.2982
   28.5000    10.5865     2.1881     4.3664   -12.4001     7.8276    85.6737     2.2677     0.0335     0.2590
   29.0000     8.8039     2.1338     4.2120   -10.8405     7.8383    86.5405     2.2886     0.0496     0.2474
   29.5000     8.9044     2.1163     4.1771   -10.1710     7.8652    87.4087     2.2813     0.0397     0.2455
   30.0000     9.3046     2.0627     4.0388   -10.5295     7.9303    88.2679     2.2638     0.0206     0.2496
   30.5000     7.7378     2.0275     3.9343   -12.9808     7.9938    89.1120     2.2557     0.0009     0.2558
   31.0000     7.2648     1.9950     3.8325   -16.0006     8.0281    90.1316     2.2692    -0.0062     0.2471
   31.5000     6.9279     1.9950     3.7333   -17.9770     8.0385    91.3648     2.2932    -0.0018     0.2374
   32.0000     7.0607     2.0451     3.7008   -20.9674     8.0485    90.9520     2.3182     0.0025     0.2183
   32.5000     6.6098     2.0903     3.7008   -19.9502     8.0583    90.1655     2.3236     0.0055     0.2149
   33.0000     6.7384     2.1726     3.7008   -21.9054     8.0655    89.3352     2.3281    -0.0086     0.2111
   33.5000     6.5546     2.2573     3.7216   -24.1800     8.0592    89.5004     2.3345    -0.0249     0.2073
   34.0000     6.9274     2.3932     3.7461   -24.3885     8.0507    90.0113     2.3614    -0.0410     0.1981
   34.5000     6.4348     2.5465     3.7697   -25.3255     8.0422    90.5400     2.3905    -0.0495     0.1761
   35.0000     7.1876     2.7096     3.8611   -27.2385     8.0336    91.0826     2.4196    -0.0367     0.1541
   35.5000     7.2649     2.9027     3.9729   -26.9828     8.0251    90.9202     2.4428    -0.0246     0.1428
   36.0000     7.0535     3.1371     4.0878   -25.5501     8.0165    90.7023     2.4587    -0.0126     0.1364
   36.5000     7.1898     3.3905     4.2061   -26.4631     8.0080    90.4873     2.4752    -0.0037     0.1287
   37.0000     6.9472     3.5867     4.3278   -26.2136     7.9995    90.2734     2.4916     0.0037     0.1189
   37.5000     6.7993     3.7769     4.4530   -25.8218     7.9909    90.0596     2.5082     0.0126     0.1092
   38.0000     7.0565     3.9780     4.5819   -26.8336     7.9824    89.8451     2.5250     0.0217     0.0996
   38.5000     6.8625     4.0976     4.7038   -27.2697     7.9738    89.6294     2.5168     0.0312     0.1017
   39.0000     7.2542     4.1978     4.7469   -26.2285     7.9653    89.5326     2.5064     0.0264     0.1040
   39.5000     7.1876     4.3288     4.7469   -26.2925     7.9568    89.8379     2.5013     0.0217     0.1056
   40.0000     7.5267     4.3508     4.7469   -27.6560     7.9482    91.0380     2.5197     0.0304     0.0989
