~VERSION INFORMATION
 VERS.                2.0:   CWLS LOG ASCII STANDARD - VERSION 2.0
 WRAP.                 NO:   ONE LINE PER DEPTH STEP
~WELL INFORMATION
#MNEM.UNIT      DATA TYPE    INFORMATION
#----------   ------------   ------------------------------
 STRT.F            3.0000:   START DEPTH
 STOP.F          423.0000:   STOP DEPTH
 STEP.F            0.5000:   STEP LENGTH
 NULL.          -999.2500:   NO VALUE
 COMP. LAWRENCE/ALLISON INC:   COMPANY
 WELL.    53-62 STX #3-10:   WELL
 FLD .             TEAPOT:   FIELD
 LOC .      S10 T38N R78W:   LOCATION
 CNTY.            NATRONA:   COUNTY
 STAT.            WYOMING:   STATE
 CTRY. UNITED STATES OF AMERICA:   COUNTRY
 SRVC.           Gearhart:   SERVICE COMPANY
 DATE.        31-MAY-1988:   LOGDATE
 API .       490251122700:   API NUMBER
~CURVE INFORMATION
#MNEM.UNIT       API CODE    CURVE DESCRIPTION
#----------   ------------   ------------------------------
 DEPT.F                  :   
 GRR .GAPI   07 310 01 00:   GAMMA RAY
 RILD.OHMM   07 120 46 00:   INDUCTION LOG DEEP RESISTIVITY
 RILM.OHMM   07 120 44 00:   INDUCTION LOG MEDIUM RESISTIVITY
~PARAMETER INFORMATION
#MNEM.UNIT          VALUE    DESCRIPTION
#----------   ------------   ------------------------------
 PD  .                 GL:   PERMANENT DATUM
 EPD .F              5164:   ELEVATION PERMANENT DATUM
 LMF .                 KB:   LOG MEASURED FROM
 DAPD.F                10:   FEET ABOVE PERMANENT DATUM
 DMF .                 KB:   DRILLING MEASURED FROM
 EKB .F              5174:   KELLING BUSHING
 EGL .F              5164:   GROUND LEVEL
 DATE.        31-MAY-1988:   RUN DATE
 RUN .                  1:   RUN NUMBER
 DD  .F               435:   DEPTH DRILLER
 DL  .F             431.5:   DEPTH LOGGER
 BLI .F               423:   BOTTOM LOG INTERVAL
 CS  .IN            8.625:   CASING SIZE
 CBD .F                49:   CASING BOTTOM DRILLER
 CBL .F                49:   CASING BOTTOM LOGGER
 BS  .IN            7.875:   BIT SIZE
 BSD .F               435:   BIT SIZE AT DEPTH
 DFT .                AIR:   DRILLING FLUID TYPE
 TLAB.HRS            0330:   TIME LOGGER AT BOTTOM
 MRT .F                70:   MAXIMUM RECORDED TEMPERATURE
 LUN .               7597:   LOGGING UNIT NUMBER
 LUL .           GILLETTE:   LOGGING UNIT LOCATION
 ENGI.          HUCKFELDT:   RECORDING ENGINEER
 WITN.             STRONG:   WITNESSED BY
 CLNT.            A2DTECH:   CLIENT CODE
 ORIG.           5" PRINT:   ORIGIN OF DATA
 UWI .       490251122700:   UNIQUE WELL ID
 DICO. A2D Technologies, Inc.:   DIGITIZING COMPANY
~OTHER INFORMATION
~A    DEPT      GRR      RILD       RILM   
# ...
  367.0000    91.1233    14.3989    14.0898
  367.5000    90.2131    14.1949    13.8881
  368.0000    90.8250    13.9906    13.7856
  368.5000    91.7413    13.7716    13.6837
  369.0000    93.2745    13.4946    13.6780
  369.5000    95.4491    13.4881    13.6723
  370.0000    97.9601    13.4816    13.6667
  370.5000   100.3906    13.5714    13.6610
  371.0000   102.1071    13.5632    13.8478
  371.5000   102.7182    13.5566    13.8420
  372.0000   100.5910    13.6469    13.9335
  372.5000    99.6801    13.4490    13.9277
  373.0000    98.4662    13.4424    13.9219
  373.5000    98.7736    13.4359    13.9161
  374.0000    99.0810    13.3373    13.9103
  374.5000    99.3884    13.3292    13.8075
  375.0000   100.3047    13.3228    13.8018
  375.5000   100.9165    13.3163    13.6997
  376.0000    98.4842    13.3099    13.5985
  376.5000    95.4431    13.3035    13.5928
  377.0000    95.1415    13.2011    13.4924
  377.5000    96.3623    13.1056    13.3915
  378.0000    98.8006    13.0992    13.2926
  378.5000    99.4125    13.0013    13.1944
  379.0000    97.8651    12.9031    13.0969
  379.5000    96.6787    12.8968    13.0002
  380.0000    96.6825    12.8906    12.9041
  380.5000    97.9032    12.7051    12.6308
  381.0000    99.7326    12.4349    12.1914
  381.5000   101.5621    12.2560    11.9331
  382.0000   103.0872    12.0797    11.8449
  382.5000   104.6123    11.9059    11.7574
  383.0000   105.8329    11.6527    11.6706
  383.5000   106.1404    11.4048    11.5036
  384.0000   103.0992    11.1623    11.3390
  384.5000   100.6669    10.8487    11.0214
  385.0000   100.3647    10.3246    10.7879
  385.5000   100.9773     9.6892    10.2678
  386.0000   106.4598     9.1567     9.5031
  386.5000   109.2025     8.5932     8.8570
  387.0000   111.0320     8.1743     8.1402
  387.5000   113.4703     7.4978     7.6401
  388.0000   118.7135     6.5573     7.3207
  388.5000   122.9785     6.1550     7.1676
  389.0000   126.4595     5.7500     7.1147
  389.5000   133.5744     5.6679     7.1197
  390.0000   131.7509     6.0755     7.2090
  390.5000   123.2303     6.6514     7.2567
  391.0000   117.7539     7.4888     7.4068
  391.5000   106.4936     8.0283     8.1659
  392.0000    99.7995     8.4869     9.3888
  392.5000   104.6731     9.2914    10.1360
  393.0000   105.8938     9.8221    10.4926
  393.5000   104.6791    10.0258    10.7108
  394.0000   100.7240    10.5245    10.4839
  394.5000   104.9895    10.8943    10.4064
  395.0000   107.4279    11.0427    10.4021
  395.5000   108.6485    11.1932    10.4719
  396.0000   106.8250    11.5055    10.9920
  396.5000   104.3927    11.7441    11.7840
  397.0000   105.9256    12.0747    12.2842
  397.5000   108.0923    12.4089    12.3666
  398.0000   108.9679    12.5779    12.4472
  398.5000   105.2653    12.7491    12.5294
  399.0000   103.7997    12.9227    12.6121
  399.5000   103.4975    13.1891    12.7845
  400.0000   108.6763    13.2048    12.9593
  400.5000   110.5058    13.4638    13.1401
  401.0000   111.1169    13.7497    13.3235
  401.5000   107.1632    14.0416    13.6042
  402.0000   105.0353    13.9436    13.7942
  402.5000   105.6472    14.0416    13.9673
  403.0000   105.3458    14.1403    14.0595
  403.5000   104.7399    14.2397    14.1524
  404.0000   103.2209    14.2397    14.2459
  404.5000   102.6150    14.2397    14.1392
  405.0000   102.6181    14.3398    14.1333
  405.5000   102.6211    14.3398    14.1274
  406.0000    99.8843    14.3398    14.1215
  406.5000    92.2038    14.2397    14.0172
  407.0000    84.6209    14.3398    14.0114
  407.5000    95.7318    14.3398    14.0056
  408.0000   108.4207    14.2397    14.0995
  408.5000  -999.2500    14.2397    14.1927
  409.0000  -999.2500    14.3398    14.1853
  409.5000  -999.2500    14.4406    14.1794
  410.0000  -999.2500    14.3398    14.1735
  410.5000  -999.2500    14.4406    14.1676
  411.0000  -999.2500    14.4406    14.1617
  411.5000  -999.2500    14.4406    14.1558
  412.0000  -999.2500    14.4406    14.1499
  412.5000  -999.2500    14.2397    14.1441
  413.0000  -999.2500    13.9436    13.9416
  413.5000  -999.2500    13.5584    13.5434
  414.0000  -999.2500    13.3698    13.0578
  414.5000  -999.2500    13.0918    12.7131
  415.0000  -999.2500    12.5530    12.7067
  415.5000  -999.2500    11.8690    12.6129
  416.0000  -999.2500    11.4605    12.4324
  416.5000  -999.2500    11.0661    11.7505
  417.0000  -999.2500    10.9122    11.6637
  417.5000  -999.2500    11.2222    11.8244
  418.0000  -999.2500    11.2222    11.2533
  418.5000  -999.2500    10.8360    10.7108
  419.0000  -999.2500     8.6603    10.7815
  419.5000  -999.2500  -999.2500    10.7019
  420.0000  -999.2500  -999.2500    10.6974
  420.5000  -999.2500  -999.2500    10.6930
  421.0000  -999.2500  -999.2500    10.6885
  421.5000  -999.2500  -999.2500    10.6096
  422.0000  -999.2500  -999.2500    10.4578
  422.5000  -999.2500  -999.2500    10.0235
  423.0000  -999.2500  -999.2500     8.5896
