~VERSION INFORMATION
 VERS.                2.0:   CWLS LOG ASCII STANDARD - VERSION 2.0
 WRAP.                 NO:   ONE LINE PER DEPTH STEP
~WELL INFORMATION
#MNEM.UNIT      DATA TYPE    INFORMATION
#----------   ------------   ------------------------------
 STRT.F            0.0000:   START DEPTH
 STOP.F          547.0000:   STOP DEPTH
 STEP.F            0.1000:   STEP LENGTH
 NULL.          -999.2500:   NO VALUE
 COMP.     BROWN JOHN E&C:   COMPANY
 WELL.    NPR 3 #86-1-X-3:   WELL
 FLD .             TEAPOT:   FIELD
 LOC .       S3 T38N R78W:   LOCATION
 CNTY.            NATRONA:   COUNTY
 STAT.            WYOMING:   STATE
 CTRY. UNITED STATES OF AMERICA:   COUNTRY
 SRVC.     Atlas Wireline:   SERVICE COMPANY
 DATE.        09-FEB-1992:   LOGDATE
 API .       490252249800:   API NUMBER
~CURVE INFORMATION
#MNEM.UNIT       API CODE    CURVE DESCRIPTION
#----------   ------------   ------------------------------
 DEPT.F                  :   
 GRR .GAPI   07 310 01 00:   GAMMA RAY
 RFOC.OHMM   07 220 04 00:   RESISTIVITY FOCUSED LOG
 RILD.OHMM   07 120 46 00:   INDUCTION LOG DEEP RESISTIVITY
 RILM.OHMM   07 120 44 00:   INDUCTION LOG MEDIUM RESISTIVITY
 SPR .MV     07 010 01 00:   SPONTANEOUS POTENTIAL
~PARAMETER INFORMATION
#MNEM.UNIT          VALUE    DESCRIPTION
#----------   ------------   ------------------------------
 PD  .                 GL:   PERMANENT DATUM
 EPD .F              5145:   ELEVATION PERMANENT DATUM
 LMF .                 KB:   LOG MEASURED FROM
 DAPD.F                10:   FEET ABOVE PERMANENT DATUM
 DMF .                 KB:   DRILLING MEASURED FROM
 EKB .F              5155:   KELLING BUSHING
 EDF .F              5154:   DRILLING FLOOR
 EGL .F              5145:   GROUND LEVEL
 DATE.        09-FEB-1992:   RUN DATE
 RUN .                  1:   RUN NUMBER
 DD  .F               562:   DEPTH DRILLER
 DL  .F               550:   DEPTH LOGGER
 BLI .F               547:   BOTTOM LOG INTERVAL
 CS  .IN            8.625:   CASING SIZE
 CBD .F               183:   CASING BOTTOM DRILLER
 CBL .F               181:   CASING BOTTOM LOGGER
 BS  .IN            7.875:   BIT SIZE
 BSD .F               562:   BIT SIZE AT DEPTH
 DFT .            GEL BAR:   DRILLING FLUID TYPE
 DFD .               17.8:   DRILLING FLUID DENSITY
 DFV .                 52:   DRILLING FLUID VISCOSITY
 DFPH.                  9:   DRILLING FLUID PH
 DFL .                5.2:   DRILLING FLUID LOSS
 MSS .           FLOWLINE:   MUD SAMPLE SOURCE
 RMS .OHMM           1.78:   RESISTIVITY MUD SAMPLE
 MST .F                68:   MUD SAMPLE TEMPERATURE
 RMF .OHMM          1.335:   RESISTIVITY MUD FILTRATE SAMPLE
 MFST.F                68:   MUD FILTRATE SAMPLE TEMPERATURE
 RMC .OHMM          2.225:   RESISTIVITY MUD CAKE
 MCST.F                68:   MUD CAKE SAMPLE TEMPERATURE
 MFSS.               MEAS:   MUD FILTRATE SAMPLE SOURCE
 MCSS.               MEAS:   MUD CAKE SAMPLE SOURCE
 TCS .HRS               3:   TIME CURCULATED STOPPED
 LUN .            HL 6274:   LOGGING UNIT NUMBER
 LUL .             CASPER:   LOGGING UNIT LOCATION
 ENGI.       P. RASMUSSEN:   RECORDING ENGINEER
 WITN.          G. STRONG:   WITNESSED BY
 CLNT.            A2DTECH:   CLIENT CODE
 ORIG.           5" PRINT:   ORIGIN OF DATA
 UWI .       490252249800:   UNIQUE WELL ID
 DICO. A2D Technologies, Inc.:   DIGITIZING COMPANY
~OTHER INFORMATION
~A    DEPT      GRR      RFOC       RILD       RILM        SPR   
# ...
  280.6000   104.0195     5.9227     6.1556     5.8117   -14.7447
  280.7000   104.0945     5.9499     6.2358     5.8900   -14.8936
  280.8000   104.3258     6.0055     6.2685     5.9595   -14.8936
  280.9000   104.3272     6.0762     6.2799     6.0415   -14.8936
  281.0000   104.1013     6.1476     6.2983     6.1436   -14.8936
  281.1000   103.8488     6.2203     6.3353     6.2203   -14.8936
  281.2000   103.5963     6.2932     6.3725     6.3244   -14.8875
  281.3000   103.3438     6.3973     6.4137     6.4083   -14.7416
  281.4000   103.0914     6.4646     6.4817     6.4840   -14.7416
  281.5000   102.8147     6.5182     6.5580     6.5465   -14.6581
  281.6000   102.5864     6.5948     6.6155     6.5916   -14.5897
  281.7000   102.3340     6.6724     6.6664     6.6713   -14.5897
  281.8000   102.2103     6.7653     6.7447     6.7097   -14.5805
  281.9000   102.1329     6.8305     6.8312     6.7184   -14.4377
  282.0000   101.8805     6.8858     6.9044     6.7418   -14.4377
  282.1000   101.6062     6.9263     6.9857     6.7658   -14.4377
  282.2000   101.6073     6.9670     7.0254     6.7660   -14.4377
  282.3000   101.2454     7.0080     7.0386     6.7662   -14.4377
  282.4000   100.7392     7.0560     7.0750     6.7664   -14.4377
  282.5000   100.2330     7.0561     7.0752     6.7666   -14.4377
  282.6000    99.7269     7.0828     7.0754     6.7668   -14.4377
  282.7000    99.1819     7.1245     7.0756     6.7670   -14.5274
  282.8000    98.9487     7.1664     7.0975     6.7672   -14.6545
  282.9000    98.6962     7.2108     7.1256     6.7674   -14.7817
  283.0000    98.4438     7.3079     7.1312     6.7676   -14.9088
  283.1000    98.1913     7.3447     7.1760     6.7677   -15.0456
  283.2000    97.9719     7.3879     7.2153     6.7679   -15.1631
  283.3000    97.9733     7.4517     7.2577     6.7681   -15.1976
  283.4000    98.4478     7.5275     7.3003     6.7683   -15.2654
  283.5000    99.1429     7.5749     7.3432     6.7685   -15.3926
  283.6000    99.9052     7.6752     7.3864     6.7687   -15.5198
  283.7000   100.5816     7.7148     7.4324     6.7689   -15.6535
  283.8000   101.0546     7.7602     7.4326     6.7691   -15.7741
  283.9000   101.3241     7.8058     7.4328     6.7497   -15.9969
  284.0000   102.0426     7.8518     7.4330     6.7223   -16.1803
  284.1000   102.0495     7.8979     7.4183     6.7225   -16.3075
  284.2000   101.6584     7.9493     7.3817     6.7227   -16.4134
  284.3000   101.2405     7.9081     7.3819     6.7229   -16.4134
  284.4000   100.9499     7.8623     7.3821     6.7231   -16.5370
  284.5000   100.4195     7.8168     7.3823     6.7025   -16.5653
  284.6000    99.9376     7.7853     7.3825     6.6767   -16.5653
  284.7000    99.2402     7.7806     7.3827     6.6769   -16.5653
  284.8000    98.7623     7.7316     7.3829     6.6771   -16.5653
  284.9000    98.5098     7.6907     7.3831     6.6772   -16.5653
  285.0000    98.2977     7.6782     7.3422     6.6774   -16.5653
  285.1000    98.2991     7.6551     7.3321     6.6776   -16.5653
  285.2000    98.3003     7.6108     7.3084     6.6778   -16.5653
  285.3000    98.4953     7.5723     7.2815     6.6780   -16.5653
  285.4000    98.6067     7.5726     7.2747     6.6782   -16.5653
  285.5000    98.7943     7.4909     7.2312     6.6401   -16.5628
  285.6000    99.3029     7.4680     7.2314     6.6321   -16.4134
  285.7000    99.8262     7.4447     7.1992     6.6322   -16.4134
  285.8000   100.8129     7.3868     7.1814     6.6169   -16.4134
  285.9000   102.0252     7.3075     7.1660     6.5865   -16.3582
  286.0000   103.1489     7.2631     7.1245     6.5860   -16.2614
  286.1000   104.4517     7.2231     7.0824     6.5410   -16.2614
  286.2000   106.0021     7.1497     7.0825     6.5098   -16.2614
  286.3000   106.5204     7.0899     7.0827     6.4958   -16.2614
  286.4000   107.5168     7.0489     7.0590     6.4795   -16.1783
  286.5000   108.5329     7.0012     7.0181     6.4419   -16.1094
  286.6000   109.2523     6.9178     6.9850     6.4026   -16.0760
  286.7000   109.6628     6.8789     6.9852     6.3177   -15.9574
  286.8000   109.9177     6.8390     6.9055     6.2863   -15.9574
  286.9000   110.1751     6.8224     6.8887     6.2498   -15.8465
  287.0000   110.1763     6.8074     6.8652     6.2135   -15.8055
  287.1000   110.1775     6.7753     6.8411     6.1873   -15.8055
  287.2000   110.0280     6.7755     6.8335     6.1845   -15.8055
  287.3000   109.7755     6.7366     6.7938     6.1447   -15.8055
  287.4000   109.5230     6.6976     6.7940     6.1448   -15.8055
  287.5000   109.2705     6.6821     6.7942     6.1450   -15.8055
  287.6000   108.6641     6.6666     6.7707     6.1271   -15.8055
  287.7000   108.2582     6.6360     6.7473     6.0916   -15.8055
  287.8000   107.7520     6.6358     6.7555     6.0562   -15.7660
  287.9000   107.2459     6.5902     6.7949     6.0183   -15.6535
  288.0000   106.6870     6.5903     6.7479     6.0184   -15.6535
  288.1000   105.9270     6.5668     6.7480     5.9676   -15.6535
  288.2000   105.0239     6.5448     6.7243     5.9167   -15.6535
  288.3000   104.8191     6.5365     6.6853     5.8824   -15.6535
  288.4000   103.6328     6.4986     6.6466     5.8533   -15.6535
  288.5000   102.2796     6.4546     6.6081     5.8535   -15.6358
  288.6000   101.5749     6.4548     6.5629     5.8210   -15.5015
  288.7000   101.0736     6.4311     6.5319     5.7615   -15.5015
  288.8000   100.7759     6.4102     6.4941     5.7136   -15.5015
  288.9000   100.5686     6.4013     6.4408     5.6804   -15.5015
  289.0000   100.4742     6.3642     6.3580     5.6474   -15.5015
  289.1000   100.4754     6.3219     6.2450     5.6142   -15.4808
  289.2000   100.4766     6.3220     5.9940     5.5498   -15.3495
  289.3000   100.4778     6.2981     5.7965     5.5110   -15.3495
  289.4000   100.4792     6.2784     5.6052     5.4598   -15.3495
  289.5000   100.4802     6.2690     5.4308     5.4093   -15.3495
  289.6000   100.6419     6.2326     5.2508     5.3644   -15.3495
  289.7000   100.8968     6.1919     5.0996     5.2697   -15.3495
  289.8000   101.2117     6.1607     4.9296     5.0924   -15.3495
  289.9000   101.7688     6.1250     4.8348     5.0191   -15.3495
  290.0000   103.8300     6.0895     4.7235     4.8958   -15.4508
  290.1000   105.3234     6.0542     4.6031     4.7913   -15.5015
  290.2000   106.9375     6.0161     4.4707     4.7288   -15.5015
  290.3000   108.2355     5.9388     4.3431     4.6480   -15.5015
  290.4000   109.1891     5.9082     4.2278     4.5867   -15.5015
  290.5000   109.9392     5.8503     4.1052     4.5408   -15.5015
  290.6000   110.5242     5.7826     3.9939     4.4882   -15.5015
  290.7000   110.7408     5.7057     3.9222     4.4484   -15.5811
  290.8000   110.6650     5.6066     3.8825     4.4298   -15.6535
  290.9000   110.4125     5.5006     3.8612     4.4300   -15.6834
  291.0000   110.0953     5.3856     3.8613     4.4301   -15.8105
  291.1000   109.6036     5.2833     3.8422     4.4071   -15.9574
  291.2000   109.3157     5.1763     3.8346     4.4177   -16.0649
  291.3000   109.0987     5.0662     3.8348     4.4305   -16.1920
  291.4000   108.8462     4.9609     3.8467     4.4306   -16.3191
  291.5000   108.5937     4.7181     3.8904     4.4307   -16.4463
  291.6000   108.3412     4.4475     3.9163     4.4308   -16.5735
  291.7000   108.0888     4.3324     3.9363     4.4552   -16.7173
  291.8000   107.8032     4.2956     3.9749     4.4621   -16.8278
  291.9000   107.8043     4.2877     4.0217     4.4765   -16.9549
  292.0000   107.8055     4.3129     4.0755     4.4937   -17.0821
  292.1000   107.8067     4.3396     4.1475     4.4979   -17.2452
  292.2000   107.7382     4.3397     4.2300     4.5254   -17.4884
  292.3000   107.5051     4.3589     4.2956     4.5255   -17.6292
  292.4000   107.5065     4.3989     4.3715     4.5256   -17.8561
  292.5000   107.2847     4.4506     4.4615     4.5411   -18.0218
  292.6000   106.8596     4.5073     4.5668     4.5576   -18.1489
  292.7000   106.1086     4.5897     4.6699     4.5628   -18.3151
