~VERSION INFORMATION
 VERS.                2.0:   CWLS LOG ASCII STANDARD - VERSION 2.0
 WRAP.                 NO:   ONE LINE PER DEPTH STEP
~WELL INFORMATION
#MNEM.UNIT      DATA TYPE    INFORMATION
#----------   ------------   ------------------------------
 STRT.F           67.0000:   START DEPTH
 STOP.F          510.0000:   STOP DEPTH
 STEP.F            0.5000:   STEP LENGTH
 NULL.          -999.2500:   NO VALUE
 COMP.       F D SERV INC:   COMPANY
 WELL.    77-5 SX 3 #77-3:   WELL
 FLD .             TEAPOT:   FIELD
 LOC .       S3 T38N R78W:   LOCATION
 CNTY.            NATRONA:   COUNTY
 STAT.            WYOMING:   STATE
 CTRY. UNITED STATES OF AMERICA:   COUNTRY
 SRVC.     Atlas Wireline:   SERVICE COMPANY
 DATE.        24-NOV-1992:   LOGDATE
 API .       490252254400:   API NUMBER
~CURVE INFORMATION
#MNEM.UNIT       API CODE    CURVE DESCRIPTION
#----------   ------------   ------------------------------
 DEPT.F                  :   
 PORZ.DEC    45 890 12 00:   DENSITY POROSITY
 NPOR.DEC    42 890 03 00:   NEUTRON POROSITY SANDSTONE
 C13 .IN     45 280 13 00:   CALIPER 1 - 3
 GRD .GAPI   45 310 01 00:   GAMMA RAY FROM DENSITY LOG
 ZCOR.G/C3   45 356 01 00:   DENSITY CORRECTION
 ZDEN.G/C3   45 350 01 00:   BULK DENSITY
~PARAMETER INFORMATION
#MNEM.UNIT          VALUE    DESCRIPTION
#----------   ------------   ------------------------------
 PD  .                 GL:   PERMANENT DATUM
 EPD .F              5137:   ELEVATION PERMANENT DATUM
 LMF .                 KB:   LOG MEASURED FROM
 DAPD.F                10:   FEET ABOVE PERMANENT DATUM
 DMF .                 KB:   DRILLING MEASURED FROM
 EKB .F              5147:   KELLING BUSHING
 EDF .F              5146:   DRILLING FLOOR
 EGL .F              5137:   GROUND LEVEL
 DATE.        24-NOV-1992:   RUN DATE
 RUN .                  1:   RUN NUMBER
 DD  .F               510:   DEPTH DRILLER
 DL  .F               512:   DEPTH LOGGER
 BLI .F               510:   BOTTOM LOG INTERVAL
 TLI .F                99:   TOP LOG INTERVAL
 CS  .IN            8.625:   CASING SIZE
 CBD .F                97:   CASING BOTTOM DRILLER
 CBL .F                99:   CASING BOTTOM LOGGER
 BS  .IN            7.875:   BIT SIZE
 BSD .F               510:   BIT SIZE AT DEPTH
 DFT .           AIR FOAM:   DRILLING FLUID TYPE
 MRT .F                70:   MAXIMUM RECORDED TEMPERATURE
 LUN .            HL-6274:   LOGGING UNIT NUMBER
 LUL .             CASPER:   LOGGING UNIT LOCATION
 WITN.           G.STRONG:   WITNESSED BY
 CLNT.            A2DTECH:   CLIENT CODE
 ORIG.           5" PRINT:   ORIGIN OF DATA
 UWI .       490252254400:   UNIQUE WELL ID
 DICO. A2D Technologies, Inc.:   DIGITIZING COMPANY
~OTHER INFORMATION
~A   DEPT     PORZ       NPOR        C13        GRD       ZCOR       ZDEN   
   67.0000  -999.2500  -999.2500  -999.2500   118.1548  -999.2500  -999.2500
   67.5000  -999.2500  -999.2500  -999.2500   117.8424  -999.2500  -999.2500
   68.0000  -999.2500  -999.2500  -999.2500   115.3959  -999.2500  -999.2500
   68.5000  -999.2500  -999.2500  -999.2500   114.7786  -999.2500  -999.2500
   69.0000  -999.2500  -999.2500  -999.2500   114.7711  -999.2500  -999.2500
   69.5000  -999.2500  -999.2500  -999.2500   114.7636  -999.2500  -999.2500
   70.0000  -999.2500  -999.2500  -999.2500   114.7561  -999.2500  -999.2500
   70.5000  -999.2500  -999.2500  -999.2500   115.0724  -999.2500  -999.2500
   71.0000  -999.2500  -999.2500  -999.2500   115.3508  -999.2500  -999.2500
   71.5000  -999.2500  -999.2500  -999.2500   115.3415  -999.2500  -999.2500
   72.0000  -999.2500  -999.2500  -999.2500   114.7242  -999.2500  -999.2500
   72.5000  -999.2500  -999.2500  -999.2500   114.1069  -999.2500  -999.2500
   73.0000  -999.2500  -999.2500  -999.2500   113.4897  -999.2500  -999.2500
   73.5000  -999.2500  -999.2500  -999.2500   112.8724  -999.2500  -999.2500
   74.0000  -999.2500     0.5045  -999.2500   112.2552  -999.2500  -999.2500
   74.5000  -999.2500     0.5063  -999.2500   111.6379  -999.2500  -999.2500
   75.0000  -999.2500     0.5090  -999.2500   113.1548  -999.2500  -999.2500
   75.5000  -999.2500     0.5118  -999.2500   115.2833  -999.2500  -999.2500
   76.0000  -999.2500     0.5151  -999.2500   115.5807  -999.2500  -999.2500
   76.5000  -999.2500     0.5176  -999.2500   113.7420  -999.2500  -999.2500
   77.0000  -999.2500     0.5179  -999.2500   113.1248  -999.2500  -999.2500
   77.5000  -999.2500     0.5182  -999.2500   113.1173  -999.2500  -999.2500
   78.0000  -999.2500     0.5200  -999.2500   112.8049  -999.2500  -999.2500
   78.5000  -999.2500     0.5215  -999.2500   109.1387  -999.2500  -999.2500
   79.0000  -999.2500     0.5227  -999.2500   109.4741  -999.2500  -999.2500
   79.5000  -999.2500     0.5237  -999.2500   112.7805  -999.2500  -999.2500
   80.0000  -999.2500     0.5246  -999.2500   113.0797  -999.2500  -999.2500
   80.5000  -999.2500     0.5240  -999.2500   112.4625  -999.2500  -999.2500
   81.0000  -999.2500     0.5210  -999.2500   114.5872  -999.2500  -999.2500
   81.5000  -999.2500     0.5216  -999.2500   117.0188  -999.2500  -999.2500
   82.0000  -999.2500     0.5219  -999.2500   115.4869  -999.2500  -999.2500
   82.5000  -999.2500     0.5219  -999.2500   115.7842  -999.2500  -999.2500
   83.0000  -999.2500     0.5216  -999.2500   116.0816  -999.2500  -999.2500
   83.5000  -999.2500     0.5198  -999.2500   116.3809  -999.2500  -999.2500
   84.0000  -999.2500     0.5177  -999.2500   114.8471  -999.2500  -999.2500
   84.5000  -999.2500     0.5180  -999.2500   112.0957  -999.2500  -999.2500
   85.0000  -999.2500     0.5180  -999.2500   112.3931  -999.2500  -999.2500
   85.5000  -999.2500     0.5159  -999.2500   113.9099  -999.2500  -999.2500
   86.0000  -999.2500     0.5164  -999.2500   114.5122  -999.2500  -999.2500
   86.5000  -999.2500     0.5168  -999.2500   112.6753  -999.2500  -999.2500
   87.0000  -999.2500     0.5165  -999.2500   112.3628  -999.2500  -999.2500
   87.5000  -999.2500     0.5156  -999.2500   112.3537  -999.2500  -999.2500
   88.0000  -999.2500     0.5141  -999.2500   109.9071  -999.2500  -999.2500
   88.5000  -999.2500     0.5132  -999.2500   112.0338  -999.2500  -999.2500
   89.0000  -999.2500     0.5141  -999.2500   116.2946  -999.2500  -999.2500
   89.5000  -999.2500     0.5170  -999.2500   119.3358  -999.2500  -999.2500
   90.0000  -999.2500     0.5213  -999.2500   119.0235  -999.2500  -999.2500
   90.5000  -999.2500     0.5223  -999.2500   116.2739  -999.2500  -999.2500
   91.0000  -999.2500     0.5205  -999.2500   117.4841  -999.2500  -999.2500
   91.5000  -999.2500     0.5108  -999.2500   117.4765  -999.2500  -999.2500
   92.0000  -999.2500     0.5011  -999.2500   115.9440  -999.2500  -999.2500
   92.5000  -999.2500     0.4947  -999.2500   116.5463  -999.2500  -999.2500
   93.0000  -999.2500     0.4914  -999.2500   117.7583  -999.2500  -999.2500
   93.5000  -999.2500     0.4911  -999.2500   118.0575  -999.2500  -999.2500
   94.0000  -999.2500     0.4911  -999.2500   117.7433  -999.2500  -999.2500
   94.5000  -999.2500     0.4917  -999.2500   118.0406  -999.2500  -999.2500
   95.0000  -999.2500     0.4926  -999.2500   119.8624  -999.2500  -999.2500
   95.5000  -999.2500     0.4926  -999.2500   121.0744  -999.2500  -999.2500
   96.0000  -999.2500     0.4908  -999.2500   119.8474  -999.2500  -999.2500
   96.5000  -999.2500     0.4817  -999.2500   115.5716  -999.2500  -999.2500
   97.0000  -999.2500     0.4704  -999.2500   110.3559  -999.2500  -999.2500
   97.5000  -999.2500     0.4526  -999.2500   107.6298  -999.2500  -999.2500
   98.0000  -999.2500     0.4288  -999.2500   115.5408  -999.2500  -999.2500
   98.5000  -999.2500     0.3823  -999.2500   130.2104  -999.2500  -999.2500
   99.0000     0.0860     0.3539     8.0030   143.4680     0.1152     2.5057
   99.5000     0.0948     0.3259     8.0030   154.8540     0.1560     2.4913
  100.0000     0.1043     0.3106     8.0030   156.9825     0.1003     2.4761
  100.5000     0.0950     0.3082     8.0033   155.4487     0.0491     2.4958
  101.0000     0.0891     0.3082     8.0043   153.9168     0.0296     2.5011
  101.5000     0.0912     0.3076     8.0053   151.7752     0.0266     2.4958
  102.0000     0.0891     0.3076     8.0063   149.3286     0.0282     2.5027
  102.5000     0.0873     0.3085     8.0073   147.7967     0.0313     2.5034
  103.0000     0.0886     0.3104     8.0082   147.7892     0.0314     2.5004
  103.5000     0.0915     0.3122     8.0092   147.4769     0.0330     2.4920
  104.0000     0.0971     0.3134     8.0102   147.4694     0.0300     2.4881
  104.5000     0.0959     0.3140     8.0112   149.9009     0.0256     2.4913
  105.0000     0.0950     0.3168     8.0122   153.5771     0.0181     2.4920
  105.5000     0.0968     0.3189     8.0132   155.3737     0.0091     2.4889
  106.0000     0.0999     0.3186     8.0141   154.7053     0.0047     2.4851
  106.5000     0.0993     0.3186     8.0151   152.9178     0.0048     2.4822
  107.0000     0.0941     0.3192     8.0161   152.6054     0.0094     2.5027
  107.5000     0.0908     0.3208     8.0171   155.0369     0.0185     2.5004
  108.0000     0.0911     0.3235     8.0182   158.3849     0.0261     2.4973
  108.5000     0.0921     0.3247     8.0182   157.1716     0.0322     2.4966
  109.0000     0.0927     0.3250     8.0182   155.3199     0.0383     2.4966
  109.5000     0.0927     0.3250     8.0182   153.7880     0.0414     2.4966
  110.0000     0.0924     0.3253     8.0182   153.1707     0.0445     2.4966
  110.5000     0.0915     0.3229     8.0182   154.4207     0.0431     2.4973
  111.0000     0.0912     0.3214     8.0182   154.8323     0.0385     2.4973
  111.5000     0.0913     0.3211     8.0182   151.6220     0.0327     2.4973
  112.0000     0.0932     0.3220     8.0030   149.4803     0.0266     2.4973
  112.5000     0.0961     0.3220     8.0030   150.6923     0.0213     2.4932
  113.0000     0.0974     0.3220     8.0030   152.8190     0.0161     2.4886
  113.5000     0.0949     0.3218     8.0037   154.9456     0.0099     2.4879
  114.0000     0.0925     0.3205     8.0049   156.2971     0.0039     2.4886
  114.5000     0.0929     0.3175     8.0061   157.4154     0.0074     2.4966
  115.0000     0.0950     0.3151     8.0061   158.5338     0.0129     2.4951
  115.5000     0.0974     0.3123     8.0081   160.0985     0.0188     2.4875
  116.0000     0.0950     0.3092     8.0213   154.3039     0.0247     2.4920
  116.5000     0.0899     0.3057     8.0061   149.3420     0.0307     2.4995
  117.0000     0.0866     0.3005     7.9757   145.3866     0.0366     2.5048
  117.5000     0.0844     0.2971     7.9605   145.6801     0.0334     2.5116
  118.0000     0.0854     0.2941     7.9605   147.4909     0.0268     2.5085
  118.5000     0.0879     0.2913     7.9453   148.6948     0.0206     2.5039
