~VERSION INFORMATION
 VERS.                2.0:   CWLS LOG ASCII STANDARD - VERSION 2.0
 WRAP.                 NO:   ONE LINE PER DEPTH STEP
~WELL INFORMATION
#MNEM.UNIT      DATA TYPE    INFORMATION
#----------   ------------   ------------------------------
 STRT.F           14.0000:   START DEPTH
 STOP.F          513.0000:   STOP DEPTH
 STEP.F            0.1000:   STEP LENGTH
 NULL.          -999.2500:   NO VALUE
 COMP.       F D SERV INC:   COMPANY
 WELL.    52-1 SX-3 #52-3:   WELL
 FLD .             TEAPOT:   FIELD
 LOC .       S3 T38N R78W:   LOCATION
 CNTY.            NATRONA:   COUNTY
 STAT.            WYOMING:   STATE
 CTRY. UNITED STATES OF AMERICA:   COUNTRY
 SRVC.     Atlas Wireline:   SERVICE COMPANY
 DATE.        21-APR-1992:   LOGDATE
 API .       490252251400:   API NUMBER
~CURVE INFORMATION
#MNEM.UNIT       API CODE    CURVE DESCRIPTION
#----------   ------------   ------------------------------
 DEPT.F                  :   
 GRR .GAPI   07 310 01 00:   GAMMA RAY
 RILD.OHMM   07 120 46 00:   INDUCTION LOG DEEP RESISTIVITY
 RILM.OHMM   07 120 44 00:   INDUCTION LOG MEDIUM RESISTIVITY
~PARAMETER INFORMATION
#MNEM.UNIT          VALUE    DESCRIPTION
#----------   ------------   ------------------------------
 PD  .                 GL:   PERMANENT DATUM
 EPD .F              5115:   ELEVATION PERMANENT DATUM
 LMF .                 KB:   LOG MEASURED FROM
 DAPD.F                 5:   FEET ABOVE PERMANENT DATUM
 DMF .                 KB:   DRILLING MEASURED FROM
 EKB .F              5120:   KELLING BUSHING
 EDF .F              5119:   DRILLING FLOOR
 EGL .F              5115:   GROUND LEVEL
 DATE.        21-APR-1992:   RUN DATE
 RUN .                  1:   RUN NUMBER
 DD  .F               515:   DEPTH DRILLER
 DL  .F               520:   DEPTH LOGGER
 BLI .F               517:   BOTTOM LOG INTERVAL
 TLI .F                50:   TOP LOG INTERVAL
 CS  .IN            9.625:   CASING SIZE
 CBD .F                45:   CASING BOTTOM DRILLER
 CBL .F                50:   CASING BOTTOM LOGGER
 BS  .IN            7.875:   BIT SIZE
 BSD .F               515:   BIT SIZE AT DEPTH
 DFT .                AIR:   DRILLING FLUID TYPE
 LUN .            HL-6272:   LOGGING UNIT NUMBER
 LUL .             CASPER:   LOGGING UNIT LOCATION
 ENGI.       P. RASMUSSEN:   RECORDING ENGINEER
 WITN.          G. STRONG:   WITNESSED BY
 CLNT.            A2DTECH:   CLIENT CODE
 ORIG.           5" PRINT:   ORIGIN OF DATA
 UWI .       490252251400:   UNIQUE WELL ID
 DICO. A2D Technologies, Inc.:   DIGITIZING COMPANY
~OTHER INFORMATION
~A   DEPT      GRR       RILD       RILM   
# ...
  141.4000   120.0145    10.8955    10.5293
  141.5000   119.5207    10.8551    10.5283
  141.6000   119.0268    10.8188    10.5272
  141.7000   118.5293    10.8182    10.5263
  141.8000   118.0390    10.8176    10.5252
  141.9000   118.4889    10.8170    10.4944
  142.0000   119.4925    10.7704    10.4503
  142.1000   120.4914    10.7408    10.4493
  142.2000   120.9828    10.7402    10.4481
  142.3000   121.5430    10.7347    10.4472
  142.4000   121.5420    10.6645    10.4462
  142.5000   121.5408    10.6640    10.4223
  142.6000   121.4393    10.6251    10.3718
  142.7000   121.1917    10.5888    10.3708
  142.8000   120.9329    10.5883    10.3698
  142.9000   120.4616    10.5876    10.3265
  143.0000   119.6092    10.5871    10.2960
  143.1000   118.6227    10.5865    10.2950
  143.2000   117.6363    10.5859    10.2940
  143.3000   116.6498    10.5853    10.2928
  143.4000   115.4874    10.5806    10.2436
  143.5000   114.5750    10.5107    10.2197
  143.6000   113.3422    10.5102    10.2187
  143.7000   111.7263    10.5096    10.2177
  143.8000   110.8153    10.4853    10.2166
  143.9000   110.6477    10.4356    10.2157
  144.0000   110.6707    10.4350    10.2147
  144.1000   110.9473    10.3782    10.2137
  144.2000   111.1609    10.3615    10.2127
  144.3000   111.7238    10.3609    10.2089
  144.4000   112.4616    10.3603    10.1398
  144.5000   113.2468    10.3564    10.1390
  144.6000   114.2646    10.2873    10.1380
  144.7000   115.2149    10.2868    10.1370
  144.8000   116.3810    10.2862    10.1269
  144.9000   116.9801    10.2857    10.0648
  145.0000   116.9084    10.2851    10.0639
  145.1000   116.6608    10.2845    10.0629
  145.2000   116.3720    10.2292    10.0339
  145.3000   116.1657    10.2121     9.9913
  145.4000   115.9182    10.2115     9.9903
  145.5000   115.5770    10.1954     9.9891
  145.6000   115.0832    10.1396     9.9883
  145.7000   114.5534    10.1389     9.9533
  145.8000   114.3239    10.1385     9.9172
  145.9000   114.0763    10.1035     9.9163
  146.0000   113.9456    10.0671     9.9152
  146.1000   113.9444    10.0665     9.9143
  146.2000   113.9484    10.0659     9.9134
  146.3000   114.1936    10.0125     9.8849
  146.4000   114.8303     9.9951     9.8428
  146.5000   115.4280     9.9945     9.8393
  146.6000   116.0037     9.9939     9.7725
  146.7000   116.7130     9.9915     9.7717
  146.8000   117.2591     9.9235     9.7376
  146.9000   117.6958     9.9230     9.7022
  147.0000   117.8610     9.9225     9.6927
  147.1000   117.8598     9.9015     9.6330
  147.2000   117.8586     9.8526     9.6321
  147.3000   117.8574     9.8520     9.6312
  147.4000   117.8562     9.8003     9.6303
  147.5000   117.8550     9.7826     9.6149
  147.6000   117.8538     9.7561     9.5617
  147.7000   117.8526     9.7137     9.5606
  147.8000   117.8514     9.7132     9.5154
  147.9000   117.8500     9.7127     9.4927
  148.0000   117.8489     9.6681     9.4716
  148.1000   117.6941     9.6443     9.4251
  148.2000   117.5444     9.6437     9.4241
  148.3000   117.5432     9.6361     9.3736
  148.4000   117.5419     9.5757     9.3571
  148.5000   117.5408     9.5261     9.3562
  148.6000   117.3627     9.5084     9.3413
  148.7000   117.1152     9.5078     9.2895
  148.8000   116.8677     9.4946     9.2885
  148.9000   116.6296     9.4409     9.2877
  149.0000   116.6282     9.4403     9.2868
  149.1000   116.0271     9.4398     9.2663
  149.2000   115.4312     9.4393     9.2207
  149.3000   114.8489     9.4388     9.2197
  149.4000   114.1740     9.4382     9.2189
  149.5000   113.9032     9.4377     9.2180
  149.6000   113.2326     9.4372     9.2171
  149.7000   112.8272     9.4367     9.2162
  149.8000   112.4681     9.4361     9.2153
  149.9000   112.3648     9.4356     9.2143
  150.0000   113.5952     9.4351     9.2135
  150.1000   116.8936     9.3692     9.2125
  150.2000   117.8760     9.3686     9.2115
  150.3000   118.8242     9.3681     9.2105
  150.4000   119.6251     9.3676     9.2094
  150.5000   120.2961     9.3671     9.2084
  150.6000   120.8632     9.3666     9.2073
  150.7000   121.2399     9.3660     9.2064
  150.8000   121.3688     9.3655     9.2053
  150.9000   121.1194     9.3650     9.2043
  151.0000   120.8701     9.3644     9.2033
  151.1000   120.2369     9.3639     9.2023
  151.2000   119.3587     9.3634     9.2011
  151.3000   118.2097     9.3629     9.2002
  151.4000   116.6796     9.3624     9.1992
  151.5000   114.4558     9.3618     9.1982
  151.6000   112.9473     9.3613     9.1972
  151.7000   111.0608     9.3608     9.1961
  151.8000   109.0874     9.3603     9.1951
  151.9000   107.1615     9.3598     9.1941
  152.0000   105.3775     9.3593     9.1931
  152.1000   104.1833     9.3586     9.1920
  152.2000   103.8610     9.3582     9.1910
  152.3000   103.9847     9.3577     9.1899
  152.4000   104.2989     9.3572     9.1890
  152.5000   104.7885     9.3567     9.1880
  152.6000   105.3590     9.3561     9.1869
  152.7000   105.9734     9.3556     9.1859
  152.8000   106.8592     9.3551     9.1849
  152.9000   108.0296     9.3812     9.1837
  153.0000   109.6576     9.4193     9.1828
  153.1000   112.2928     9.4188     9.1818
  153.2000   114.3492     9.4182     9.1808
  153.3000   116.2172     9.4178     9.1798
  153.4000   117.2351     9.4173     9.1788
  153.5000   117.4169     9.4167     9.1777
  153.6000   117.4139     9.4253     9.1767
  153.7000   117.4109     9.4814     9.1462
  153.8000   117.0155     9.4809     9.1111
  153.9000   116.2392     9.4804     9.1101
  154.0000   115.2508     9.4798     9.1090
  154.1000   114.2336     9.4793     9.1081
  154.2000   112.8637     9.4788     9.1071
  154.3000   111.9837     9.4782     9.1061
  154.4000   110.9953     9.4777     9.1050
  154.5000   110.0070     9.4439     9.1040
  154.6000   109.0707     9.4110     9.1029
  154.7000   108.3172     9.4104     9.1020
  154.8000   108.0717     9.4099     9.1010
  154.9000   108.3825     9.4094     9.1000
  155.0000   108.7412     9.3697     9.0990
  155.1000   109.1347     9.3431     9.0979
  155.2000   109.8707     9.3426     9.0969
  155.3000   110.7156     9.3421     9.0959
  155.4000   111.3427     9.3415     9.0949
  155.5000   112.0786     9.3410     9.0939
  155.6000   112.8145     9.3074     9.0862
  155.7000   113.4654     9.2753     9.0288
  155.8000   113.7219     9.2651     9.0279
  155.9000   113.7190     9.2099     9.0269
  156.0000   113.7160     9.2094     9.0259
  156.1000   113.7130     9.1703     9.0249
  156.2000   113.6443     9.1446     9.0239
  156.3000   113.3950     9.1287     9.0227
  156.4000   113.0991     9.0802     8.9786
  156.5000   112.8963     9.0796     8.9584
  156.6000   112.5023     9.0791     8.9574
  156.7000   112.0955     9.0461     8.9564
  156.8000   111.8131     8.9942     8.9554
  156.9000   111.2716     8.9426     8.9042
  157.0000   110.8218     8.8896     8.8524
  157.1000   110.3261     8.8892     8.8288
  157.2000   109.8304     8.8510     8.8107
  157.3000   109.3347     8.8266     8.7594
  157.4000   108.8390     8.8109     8.7039
  157.5000   108.3434     8.7563     8.6129
  157.6000   108.0387     8.6428     8.5479
  157.7000   107.6542     8.6002     8.4981
  157.8000   107.3172     8.5819     8.4359
  157.9000   107.3142     8.5410     8.3388
  158.0000   107.3108     8.4530     8.2276
  158.1000   107.3082     8.4033     8.1875
  158.2000   107.3051     8.3564     8.1110
  158.3000   107.5071     8.3085     8.0364
  158.4000   107.9967     8.2858     7.9897
  158.5000   108.5044     8.2708     7.9422
  158.6000   109.2133     8.2233     7.8529
  158.7000   110.1307     8.1699     7.8308
  158.8000   111.8671     8.1293     7.7810
  158.9000   114.3273     8.1124     7.7062
  159.0000   116.7452     8.1120     7.6614
  159.1000   118.7578     8.1022     7.6126
  159.2000   119.5739     8.0548     7.6119
  159.3000   120.1096     8.0544     7.5810
  159.4000   120.3529     8.0193     7.5575
  159.5000   120.5962     7.9733     7.5566
