~VERSION INFORMATION
 VERS.                2.0:   CWLS LOG ASCII STANDARD - VERSION 2.0
 WRAP.                 NO:   ONE LINE PER DEPTH STEP
~WELL INFORMATION
#MNEM.UNIT      DATA TYPE    INFORMATION
#----------   ------------   ------------------------------
 STRT.F            0.0000:   START DEPTH
 STOP.F          524.0000:   STOP DEPTH
 STEP.F            0.5000:   STEP LENGTH
 NULL.          -999.2500:   NO VALUE
 COMP.       F D SERV INC:   COMPANY
 WELL. NAVAL PETROLEUM RESERVE 3 SX-1 #83-2-10:   WELL
 FLD .             TEAPOT:   FIELD
 LOC .      S10 T38N R78W:   LOCATION
 CNTY.            NATRONA:   COUNTY
 STAT.            WYOMING:   STATE
 CTRY. UNITED STATES OF AMERICA:   COUNTRY
 SRVC.     Atlas Wireline:   SERVICE COMPANY
 DATE.        10-FEB-1993:   LOGDATE
 API .       490252258100:   API NUMBER
~CURVE INFORMATION
#MNEM.UNIT       API CODE    CURVE DESCRIPTION
#----------   ------------   ------------------------------
 DEPT.F                  :   
 RILM.OHMM   07 120 44 00:   RESITIVITY LONG MEDIUM
 RILD.OHMM   07 120 46 00:   INDUCTION LOG DEEP RESISTIVITY
 GRR .GAPI   07 310 01 00:   GAMMA RAY
 PORZ.DEC    45 890 12 00:   DENSITY POROSITY
 ZCOR.G/C3   45 356 01 00:   DENSITY CORRECTION
 ZDEN.G/C3   45 350 01 00:   BULK DENSITY
 NPHI.DEC    42 890 03 00:   NEUTRON POROSITY SANDSTONE
 C13 .IN     45 280 13 00:   CALIPER X
~PARAMETER INFORMATION
#MNEM.UNIT          VALUE    DESCRIPTION
#----------   ------------   ------------------------------
 PD  .                 GL:   PERMANENT DATUM
 EPD .F              5156:   ELEVATION PERMANENT DATUM
 LMF .                 KB:   LOG MEASURED FROM
 DAPD.F                10:   FEET ABOVE PERMANENT DATUM
 DMF .                 KB:   DRILLING MEASURED FROM
 EKB .F              5166:   KELLING BUSHING
 EDF .F              5165:   DRILLING FLOOR
 EGL .F              5156:   GROUND LEVEL
 DATE.        10-FEB-1993:   RUN DATE
 RUN .                  1:   RUN NUMBER
 DD  .F               525:   DEPTH DRILLER
 DL  .F               526:   DEPTH LOGGER
 BLI .F               518:   BOTTOM LOG INTERVAL
 CS  .IN            8.625:   CASING SIZE
 CBD .F                80:   CASING BOTTOM DRILLER
 CBL .F                81:   CASING BOTTOM LOGGER
 BS  .IN            7.875:   BIT SIZE
 BSD .F               525:   BIT SIZE AT DEPTH
 DFT .                AIR:   DRILLING FLUID TYPE
 MRT .F                70:   MAXIMUM RECORDED TEMPERATURE
 LUN .            HL 6274:   LOGGING UNIT NUMBER
 LUL .             CASPER:   LOGGING UNIT LOCATION
 ENGI.          V. RAUTIO:   RECORDING ENGINEER
 WITN.          G. STRONG:   WITNESSED BY
 CLNT.            A2DTECH:   CLIENT CODE
 ORIG.           5" PRINT:   ORIGIN OF DATA
 UWI .       490252258100:   UNIQUE WELL ID
 DICO. A2D Technologies, Inc.:   DIGITIZING COMPANY
~OTHER INFORMATION
~A    DEPT    RILM       RILD         GRR      PORZ       ZCOR       ZDEN       NPHI        C13   
# ...
  162.0000     9.0928     9.1297   131.4389     0.1093     0.0000     2.4718     0.2862     8.1089
  162.5000     9.0922     9.1290   128.7307     0.0988     0.0015     2.4904     0.2811     8.1236
  163.0000     9.0914     9.1284   126.6050     0.0915    -0.0075     2.5039     0.2778     8.1078
  163.5000     9.0909     9.1278   125.3843     0.0936    -0.0165     2.5001     0.2785     8.1223
  164.0000     9.0903     9.1271   126.2753     0.0990    -0.0117     2.4745     0.2827     8.1368
  164.5000     9.0895     9.1265   126.8610     0.1102     0.0015     2.4586     0.2869     8.1361
  165.0000     8.9019     9.0630   130.1652     0.1168     0.0090     2.4564     0.2893     8.1205
  165.5000     8.7182     8.9376   134.4585     0.1165     0.0090     2.4586     0.2881     8.1048
  166.0000     8.5975     8.7533   135.8651     0.1150     0.0030     2.4615     0.2863     8.0891
  166.5000     8.4201     8.5136   135.5494     0.1144    -0.0045     2.4593     0.2860     8.0885
  167.0000     8.2463     8.2755   134.6304     0.1162    -0.0060     2.4562     0.2867     8.0879
  167.5000     8.0202     8.0536   132.5012     0.1177    -0.0075     2.4547     0.2900     8.1024
  168.0000     7.9093     7.9975   130.0739     0.1183    -0.0060     2.4561     0.2924     8.1017
  168.5000     7.8542     7.9418   128.2499     0.1171    -0.0030     2.4591     0.2954     8.1012
  169.0000     7.7994     7.8863   127.3273     0.1153     0.0015     2.4643     0.2985     8.1156
  169.5000     7.7449     7.8858   127.0151     0.1126     0.0075     2.4651     0.2997     8.1172
  170.0000     7.7444     7.8309   128.2042     0.1117     0.0135     2.4597     0.2949     8.1315
  170.5000     7.7439     7.7762   128.4918     0.1138     0.0180     2.4582     0.2895     8.1441
  171.0000     7.7433     7.7757   128.4742     0.1165     0.0195     2.4619     0.2883     8.1434
  171.5000     7.7968     7.7752   129.3651     0.1144     0.0165     2.4679     0.2901     8.1427
  172.0000     7.8504     7.7747   131.1611     0.1123     0.0120     2.4716     0.2934     8.1421
  172.5000     7.9045     7.7741   131.7503     0.1096     0.0090     2.4701     0.2938     8.1415
  173.0000     7.9038     7.8277   132.9394     0.1081     0.0075     2.4685     0.2931     8.1259
  173.5000     7.9033     7.8271   134.7353     0.1078     0.0105     2.4670     0.2920     8.1252
  174.0000     7.9578     7.8810   135.6262     0.1099     0.0135     2.4640     0.2902     8.1096
  174.5000     8.0126     7.9903   132.8937     0.1120     0.0150     2.4692     0.2899     8.0939
  175.0000     8.0678     8.0454   132.5815     0.1114     0.0150     2.4729     0.2932     8.0934
  175.5000     8.1796     8.1079   134.3739     0.1087     0.0105     2.4729     0.2972     8.0927
  176.0000     8.2361     8.2700   136.4680     0.1069     0.0059     2.4728     0.2996     8.1073
  176.5000     8.3505     8.2695   137.9657     0.1069     0.0015     2.4788     0.2972     8.1218
  177.0000     8.5296     8.3843   137.0432     0.1054     0.0015     2.4848     0.2930     8.1362
  177.5000     8.7038     8.5007   133.8109     0.1024     0.0015     2.4878     0.2912     8.1354
  178.0000     8.8247     8.6185   130.3751     0.0991     0.0015     2.4855     0.2927     8.1349
  178.5000     8.8854     8.7989   132.7743     0.0994     0.0015     2.4817     0.2945     8.1343
  179.0000     8.8233     8.8595   136.0865     0.1015     0.0045     2.4786     0.2955     8.1337
  179.5000     8.7618     8.7369   139.3792     0.1045     0.0060     2.4763     0.2970     8.1330
  180.0000     8.6406     8.6760   140.5717     0.1045     0.0045     2.4763     0.2988     8.1325
  180.5000     8.5803     8.5504   140.8597     0.1048     0.0000     2.4748     0.3008     8.1319
  181.0000     8.4616     8.4378   139.9368     0.1064    -0.0030     2.4747     0.3030     8.1313
  181.5000     8.3446     8.3212   137.2078     0.1058    -0.0060     2.4769     0.3052     8.1306
  182.0000     8.2291     8.2632   133.5739     0.1042    -0.0045     2.4822     0.3055     8.1301
  182.5000     8.1153     8.2056   132.6548     0.0997    -0.0015     2.4851     0.3037     8.1144
  183.0000     8.1713     8.2622   139.8771     0.1016     0.0015     2.4843     0.3019     8.0987
  183.5000     8.2847     8.2615   143.1813     0.1070     0.0030     2.4775     0.2998     8.0981
  184.0000     8.3998     8.3762   143.1672     0.1122     0.0000     2.4662     0.2989     8.0975
  184.5000     8.5163     8.4338   139.8314     0.1136    -0.0015     2.4617     0.2971     8.1271
  185.0000     8.5750     8.4332   137.4041     0.1136    -0.0075     2.4631     0.2947     8.1264
  185.5000     8.5743     8.4326   137.0919     0.1154    -0.0120     2.4608     0.2935     8.1258
  186.0000     8.5738     8.4319   138.3530     0.1183    -0.0135     2.4539     0.2948     8.1253
  186.5000     8.6328     8.4901   140.3750     0.1193    -0.0120     2.4525     0.2951     8.1247
  187.0000     8.5725     8.5484   141.2659     0.1184    -0.0105     2.4540     0.2930     8.1240
  187.5000     8.5128     8.4888   141.2519     0.1175    -0.0060     2.4554     0.2906     8.1386
  188.0000     8.4534     8.4296   138.8210     0.1148     0.0001     2.4614     0.2891     8.1379
  188.5000     8.4528     8.3709   136.9970     0.1121     0.0105     2.4651     0.2894     8.1373
  189.0000     8.3938     8.3126   137.8880     0.1112     0.0105     2.4658     0.2931     8.1366
  189.5000     8.2206     8.2546   139.0806     0.1109     0.0015     2.4658     0.2955     8.1361
  190.0000     8.1633     8.1971   137.2530     0.1094    -0.0045     2.4673     0.2988     8.1355
  190.5000     8.1063     8.1400   136.3340     0.1052    -0.0015     2.4740     0.2988     8.1349
  191.0000     8.0498     8.0832   136.6216     0.1013     0.0090     2.4786     0.2961     8.1342
  191.5000     7.9902     8.0269   135.3974     0.1022     0.0151     2.4807     0.2958     8.1186
  192.0000     7.8830     7.9160   135.0852     0.1115     0.0165     2.4686     0.2989     8.1180
  192.5000     7.7203     7.7526   136.2743     0.1155     0.0150     2.4581     0.3005     8.1175
  193.0000     7.5610     7.5927   136.8635     0.1124     0.0135     2.4655     0.3013     8.1318
  193.5000     7.2524     7.3848   136.5443     0.1070     0.0090     2.4753     0.3022     8.1313
  194.0000     6.9086     7.1277   134.4187     0.1016     0.0045     2.4813     0.3025     8.1307
  194.5000     6.5355     6.7949   131.0863     0.1040     0.0015     2.4795     0.3043     8.1151
  195.0000     6.1399     6.5632   136.4986     0.1125     0.0047     2.4646     0.3083     8.1144
  195.5000     6.0549     6.3395   138.5962     0.1219     0.0105     2.4503     0.3203     8.1138
  196.0000     6.2247     6.0390   138.2805     0.1329     0.0075     2.4345     0.3276     8.1132
  196.5000     6.2242     6.1654   138.2629     0.1344    -0.0135     2.4276     0.3267     8.1125
  197.0000     6.3107     6.2510   138.8557     0.1293    -0.0105     2.4366     0.3202     8.1272
  197.5000     6.3984     6.3817   137.6315     0.1230     0.0015     2.4471     0.3117     8.1114
  198.0000     6.5366     6.5605   131.5808     0.1170     0.0105     2.4576     0.3066     8.1108
  198.5000     6.7622     6.7912   130.6617     0.1158     0.0043     2.4568     0.3102     8.0951
  199.0000     7.0001     6.9368   130.9529     0.1194    -0.0105     2.4530     0.3152     8.0945
  199.5000     7.1976     7.1275   131.8522     0.1159    -0.0135     2.4561     0.3171     8.1091
  200.0000     7.3981     7.2766   134.9503     0.1083    -0.0030     2.4662     0.3159     8.1084
  200.5000     7.5531     7.4806   136.0392     0.1077    -0.0030     2.4718     0.3153     8.1230
  201.0000     7.6052     7.5320   135.7285     0.1080    -0.0016     2.4695     0.3135     8.1075
  201.5000     7.6575     7.5839   136.0219     0.1095    -0.0001     2.4680     0.3141     8.1070
  202.0000     7.6568     7.5833   138.4245     0.1113     0.0029     2.4649     0.3150     8.1066
