~VERSION INFORMATION
 VERS.                2.0:   CWLS LOG ASCII STANDARD - VERSION 2.0
 WRAP.                 NO:   ONE LINE PER DEPTH STEP
~WELL INFORMATION
#MNEM.UNIT      DATA TYPE    INFORMATION
#----------   ------------   ------------------------------
 STRT.F           30.5000:   START DEPTH
 STOP.F          674.0000:   STOP DEPTH
 STEP.F            0.5000:   STEP LENGTH
 NULL.          -999.2500:   NO VALUE
 COMP. FENIX & SCISSON INC:   COMPANY
 WELL. NPR 3 #37 SX 34-34:   WELL
 FLD .        TEAPOT DOME:   FIELD
 LOC .      S34 T39N R78W:   LOCATION
 CNTY.            NATRONA:   COUNTY
 STAT.            WYOMING:   STATE
 CTRY. UNITED STATES OF AMERICA:   COUNTRY
 SRVC.           BIRDWELL:   SERVICE COMPANY
 DATE.        21-JAN-1979:   LOGDATE
 API .       490251074400:   API NUMBER
~CURVE INFORMATION
#MNEM.UNIT       API CODE    CURVE DESCRIPTION
#----------   ------------   ------------------------------
 DEPT.F                  :   
 SPR .MV     05 010 01 00:   SPONTANEOUS POTENTIAL FROM RES.
 SN  .OHMM   05 040 16 00:   SHORT NORMAL 16"
 IL  .OHMM   05 120 00 00:   INDUCTION LOG
 CALD.IN     45 280 60 00:   CALIPER
 GRD .GAPI   45 310 01 00:   GAMMA RAY FROM DENSITY LOG
 RHOB.G/C3   45 350 01 00:   BULK DENSITY
 DPHI.DEC    45 890 12 00:   DENSITY POROSITY SANDSTONE
 CORR.G/C3   45 356 01 00:   DENSITY CORRECTION
~PARAMETER INFORMATION
#MNEM.UNIT          VALUE    DESCRIPTION
#----------   ------------   ------------------------------
 PD  .                 GL:   PERMANENT DATUM
 EPD .F              5175:   ELEVATION PERMANENT DATUM
 LMF .                 KB:   LOG MEASURED FROM
 DAPD.F                 4:   FEET ABOVE PERMANENT DATUM
 DMF .                 KB:   DRILLING MEASURED FROM
 EKB .F              5179:   KELLING BUSHING
 EGL .F              5175:   GROUND LEVEL
 DATE.            1-21-79:   RUN DATE
 RUN .                  1:   RUN NUMBER
 DD  .F               674:   DEPTH DRILLER
 DL  .F               673:   DEPTH LOGGER
 BLI .F               666:   BOTTOM LOG INTERVAL
 TLI .F                40:   TOP LOG INTERVAL
 CS  .IN            8.625:   CASING SIZE
 CBD .F                40:   CASING BOTTOM DRILLER
 CBL .F                30:   CASING BOTTOM LOGGER
 BS  .IN            7.875:   BIT SIZE
 BSD .F               674:   BIT SIZE AT DEPTH
 DFT .                KCL:   DRILLING FLUID TYPE
 DFD .                8.8:   DRILLING FLUID DENSITY
 DFV .                 60:   DRILLING FLUID VISCOSITY
 DFPH.                9.5:   DRILLING FLUID PH
 DFL .                  8:   DRILLING FLUID LOSS
 MSS .           FLOWLINE:   MUD SAMPLE SOURCE
 RMS .OHMM            .23:   RESISTIVITY MUD SAMPLE
 MST .F                56:   MUD SAMPLE TEMPERATURE
 MFSS.           MEASURED:   MUD FILTRATE SAMPLE SOURCE
 MCSS.           MEASURED:   MUD CAKE SAMPLE SOURCE
 RMB .OHMM            .22:   RESISTIVITY MUD AT BHT
 BHT .F                60:   BOTTOM HOLE TEMPERATURE
 TCS .HRS               4:   TIME CURCULATED STOPPED
 MRT .F                60:   MAXIMUM RECORDED TEMPERATURE
 LUN .               3006:   LOGGING UNIT NUMBER
 LUL .             CASPER:   LOGGING UNIT LOCATION
 ENGI.            ROLLINS:   RECORDING ENGINEER
 WITN.           DINSMORE:   WITNESSED BY
 CLNT.            A2DTECH:   CLIENT CODE
 ORIG.       2", 5" PRINT:   ORIGIN OF DATA
 UWI .       490251074400:   UNIQUE WELL ID
 DICO. A2D Technologies, Inc.:   DIGITIZING COMPANY
~OTHER INFORMATION
~A   DEPT      SPR         SN         IL       CALD        GRD       RHOB       DPHI       CORR   
# ...
  638.0000   -49.7940     9.0540    10.9230     8.1660    99.0790     2.4960     0.1060     0.0330
  638.5000   -49.8330     8.9560    10.6440     8.1560    99.6340     2.5070     0.1020     0.0330
  639.0000   -49.8750     8.8580    10.3720     8.1460    99.2040     2.5120     0.1030     0.0320
  639.5000   -49.9170     8.7590    10.2730     8.1370    98.7620     2.5120     0.1050     0.0320
  640.0000   -49.9590     8.6610    10.1730     8.1270   101.4450     2.5080     0.1070     0.0290
  640.5000   -50.0010     8.5620    10.0740     8.1180   104.1630     2.5010     0.1070     0.0250
  641.0000   -50.0430     8.4640     9.9750     8.1190   103.9510     2.5010     0.1070     0.0210
  641.5000   -50.0850     8.3650     9.8750     8.1210   102.6370     2.5010     0.1070     0.0200
  642.0000   -50.1270     8.2670     9.7760     8.1220   102.1040     2.5010     0.1090     0.0210
  642.5000   -50.1690     8.1780     9.6470     8.1240   104.0330     2.5000     0.1110     0.0260
  643.0000   -50.2110     8.1360     9.5030     8.1250   105.5090     2.4960     0.1130     0.0300
  643.5000   -50.2530     8.0980     9.3590     8.1270   106.3860     2.4920     0.1130     0.0340
  644.0000   -50.2950     8.0600     9.2150     8.1290   107.2970     2.4900     0.1090     0.0340
  644.5000   -50.3370     8.0220     9.1280     8.1300   109.7600     2.4960     0.1060     0.0340
  645.0000   -50.3790     7.9840     9.1130     8.1320   111.9200     2.5030     0.1030     0.0350
  645.5000   -50.4200     7.9460     9.0990     8.1330   110.2200     2.5080     0.1010     0.0350
  646.0000   -50.4620     7.9080     9.0840     8.1350   107.5140     2.5080     0.1010     0.0350
  646.5000   -50.5040     7.8710     9.0690     8.1360   103.7300     2.5080     0.1020     0.0350
  647.0000   -50.5460     7.8330     9.0550     8.1380   105.8870     2.5080     0.1020     0.0360
  647.5000   -50.5880     7.7950     9.0400     8.1430   109.8350     2.5080     0.1020     0.0360
  648.0000   -50.6300     7.7570     9.0250     8.1490   112.3330     2.5080     0.1020     0.0400
  648.5000   -50.6720     7.7190     9.0110     8.1550   111.3950     2.5080     0.1020     0.0470
  649.0000   -50.7140     7.6810     8.9960     8.1600   105.6290     2.5080     0.1020     0.0530
  649.5000   -50.7560     7.6200     8.9810     8.1660   105.2630     2.5080     0.1030     0.0600
  650.0000   -50.7980     7.5450     8.9680     8.1710   108.1230     2.5080     0.1030     0.0620
  650.5000   -50.8400     7.4710     8.6730     8.1770   110.6280     2.5080     0.1000     0.0620
  651.0000   -50.8820     7.3970     8.4040     8.1830   111.7190     2.5140     0.0970     0.0580
  651.5000   -50.9240     7.3230     8.1350     8.1880   112.1100     2.5200     0.0940     0.0480
  652.0000   -50.9660     7.2480     8.0140     8.1940   111.7400     2.5220     0.0930     0.0380
  652.5000   -51.0000     7.1740     7.9900     8.1990   109.5060     2.5220     0.0970     0.0280
  653.0000   -50.9020     7.1000     7.9660     8.2050   106.5790     2.5220     0.1010     0.0260
  653.5000   -50.7970     7.0260     7.9420     8.2100   107.6430     2.5130     0.1120     0.0270
  654.0000   -50.6910     6.9510     7.9180     8.2160   109.7020     2.5030     0.1130     0.0270
  654.5000   -50.5860     6.8770     7.8940     8.2220   110.7250     2.4930     0.1140     0.0270
  655.0000   -50.4810     6.8030     7.8700     8.2270   108.9570     2.4880     0.1150     0.0280
  655.5000   -50.3760     6.7280     7.8460     8.2300   107.3440     2.4870     0.1150     0.0280
  656.0000   -50.2710     6.6540     7.8220     8.2480   106.9890     2.4860     0.1180     0.0320
  656.5000   -50.1960     6.6120     7.6710     7.8150   107.2220     2.4850     0.1270     0.0370
  657.0000   -50.1860     6.6050     7.3790     9.1660   107.4560     2.4780     0.1360     0.0410
  657.5000   -50.1750     6.5980     7.0870     8.5600   107.8860     2.4640     0.1460     0.0350
  658.0000   -50.1640     6.5910     6.6770     8.0790   110.5600     2.4490     0.1480     0.0300
  658.5000   -50.1530     6.5840     6.6930     8.9630   112.8340     2.4300     0.1410     0.0260
  659.0000   -50.1430     6.5770     6.7210     7.9080   113.6730     2.4370     0.1330     0.0250
  659.5000   -50.1320     6.5700     6.7490     9.3080   114.6360     2.4590     0.1250     0.0250
  660.0000   -50.1210     6.5630     6.7770     8.4630   117.6090     2.4770     0.1180     0.0240
  660.5000   -50.1100     6.5550     6.8240     8.3160   119.7370     2.4830     0.1110     0.0260
  661.0000   -50.0990     6.7670     7.0080     8.2840   117.8700     2.4890     0.1070     0.0290
  661.5000   -50.0880     7.0560     7.2850     8.2520   115.6540     2.4960     0.1050     0.0310
  662.0000   -50.0770     7.3440     7.7170     8.2210   116.3380     2.5030     0.1040     0.0330
  662.5000   -50.0670     7.6330     8.1490     8.2830   117.1310     2.5050     0.1030     0.0350
  663.0000   -50.0560     7.9210     8.5810     8.3560   111.5450     2.5060     0.1020     0.0370
  663.5000   -50.0450     8.0300     9.0510     8.4230   115.6500     2.5080     0.1000     0.0400
  664.0000   -50.0350     8.1160     9.0510     8.3800   114.6230     2.5090     0.0990     0.0390
  664.5000   -50.0240     8.2010     9.0510     8.0330   115.5740     2.5100     0.0980     0.0390
  665.0000   -50.0090     8.2860     9.0510     8.0240  -999.2500     2.5140     0.0960     0.0380
  665.5000   -49.9820     8.3720     9.0510     8.0380  -999.2500     2.5170     0.0950     0.0410
  666.0000  -999.2500     8.4570     9.0510     7.9390  -999.2500     2.5210     0.0960     0.0490
  666.5000  -999.2500  -999.2500     9.0970     7.9360  -999.2500     2.5200     0.0980     0.0560
  667.0000  -999.2500  -999.2500  -999.2500     7.9370  -999.2500     2.5170     0.1000     0.0570
  667.5000  -999.2500  -999.2500  -999.2500     7.9370  -999.2500     2.5170     0.0990     0.0570
  668.0000  -999.2500  -999.2500  -999.2500     7.9370  -999.2500     2.5220     0.0960     0.0720
  668.5000  -999.2500  -999.2500  -999.2500     7.9370  -999.2500     2.5270     0.0930     0.0780
  669.0000  -999.2500  -999.2500  -999.2500     7.9370  -999.2500     2.5290     0.0940     0.0780
  669.5000  -999.2500  -999.2500  -999.2500     7.9370  -999.2500     2.5220     0.1010     0.0780
  670.0000  -999.2500  -999.2500  -999.2500     7.9370  -999.2500     2.5150     0.1040     0.0780
  670.5000  -999.2500  -999.2500  -999.2500     7.9370  -999.2500     2.5070     0.1070     0.0780
  671.0000  -999.2500  -999.2500  -999.2500  -999.2500  -999.2500     2.5040     0.1070     0.0780
  671.5000  -999.2500  -999.2500  -999.2500  -999.2500  -999.2500     2.5020     0.1070     0.0780
  672.0000  -999.2500  -999.2500  -999.2500  -999.2500  -999.2500     2.5020     0.1070     0.0780
  672.5000  -999.2500  -999.2500  -999.2500  -999.2500  -999.2500     2.5020     0.1070     0.0810
  673.0000  -999.2500  -999.2500  -999.2500  -999.2500  -999.2500     2.5030     0.1070     0.0860
  673.5000  -999.2500  -999.2500  -999.2500  -999.2500  -999.2500     2.5030     0.1070     0.0840
  674.0000  -999.2500  -999.2500  -999.2500  -999.2500  -999.2500     2.5030     0.1070     0.0780
