~VERSION INFORMATION
 VERS.                2.0:   CWLS LOG ASCII STANDARD - VERSION 2.0
 WRAP.                 NO:   ONE LINE PER DEPTH STEP
~WELL INFORMATION
#MNEM.UNIT      DATA TYPE    INFORMATION
#----------   ------------   ------------------------------
 STRT.F            4.0000:   START DEPTH
 STOP.F          614.0000:   STOP DEPTH
 STEP.F            0.1000:   STEP LENGTH
 NULL.          -999.2500:   NO VALUE
 COMP.   FLUOR DANIEL INC:   COMPANY
 WELL.     63-4 X 3 #63-3:   WELL
 FLD .          N.P.R. #3:   FIELD
 LOC .       S3 T38N R78W:   LOCATION
 CNTY.            NATRONA:   COUNTY
 STAT.            WYOMING:   STATE
 CTRY. UNITED STATES OF AMERICA:   COUNTRY
 SRVC.      Western Atlas:   SERVICE COMPANY
 DATE.        01-JUN-1995:   LOGDATE
 API .       490252271300:   API NUMBER
~CURVE INFORMATION
#MNEM.UNIT       API CODE    CURVE DESCRIPTION
#----------   ------------   ------------------------------
 DEPT.F                  :   
 GRR .GAPI   07 310 01 00:   GAMMA RAY
 RILD.OHMM   07 120 46 00:   INDUCTION LOG DEEP RESISTIVITY
 RILM.OHMM   07 120 44 00:   INDUCTION LOG MEDIUM RESISTIVITY
~PARAMETER INFORMATION
#MNEM.UNIT          VALUE    DESCRIPTION
#----------   ------------   ------------------------------
 PD  .                 GL:   PERMANENT DATUM
 EPD .F              5173:   ELEVATION PERMANENT DATUM
 LMF .                 KB:   LOG MEASURED FROM
 DAPD.F                10:   FEET ABOVE PERMANENT DATUM
 DMF .                 KB:   DRILLING MEASURED FROM
 EKB .F              5183:   KELLING BUSHING
 EDF .F              5182:   DRILLING FLOOR
 EGL .F              5173:   GROUND LEVEL
 DATE.        01-JUN-1995:   RUN DATE
 RUN .                  1:   RUN NUMBER
 DD  .F               626:   DEPTH DRILLER
 DL  .F               622:   DEPTH LOGGER
 BLI .F               614:   BOTTOM LOG INTERVAL
 TLI .F                95:   TOP LOG INTERVAL
 CS  .IN            9.625:   CASING SIZE
 CBD .F                95:   CASING BOTTOM DRILLER
 CBL .F                95:   CASING BOTTOM LOGGER
 BS  .IN             8.75:   BIT SIZE
 BSD .F               626:   BIT SIZE AT DEPTH
 DFT .                AIR:   DRILLING FLUID TYPE
 MRT .F               147:   MAXIMUM RECORDED TEMPERATURE
 LUN .            HL 6530:   LOGGING UNIT NUMBER
 LUL .             CASPER:   LOGGING UNIT LOCATION
 ENGI.        VERN RAUTIO:   RECORDING ENGINEER
 WITN.        STEVE HARDY:   WITNESSED BY
 CLNT.            A2DTECH:   CLIENT CODE
 ORIG.           5" PRINT:   ORIGIN OF DATA
 UWI .       490252271300:   UNIQUE WELL ID
 DICO. A2D Technologies, Inc.:   DIGITIZING COMPANY
~OTHER INFORMATION
~A    DEPT       GRR     RILD       RILM   
# ...
  568.2000    89.6181    10.9032    10.3824
  568.3000    90.3154    10.8882    10.3615
  568.4000    91.0911    10.7538    10.3621
  568.5000    91.8670    10.7542    10.3431
  568.6000    92.6429    10.7046    10.2917
  568.7000    93.3592    10.6416    10.2923
  568.8000    93.8925    10.6073    10.2220
  568.9000    94.7498    10.5899    10.1729
  569.0000    95.2125    10.5348    10.1525
  569.1000    95.9178    10.5353    10.1239
  569.2000    96.5487    10.4764    10.0836
  569.3000    97.1674    10.4148    10.0750
  569.4000    97.8848    10.3535    10.0152
  569.5000    98.4019    10.2925    10.0159
  569.6000    98.9752    10.2319     9.9677
  569.7000    99.4359    10.1784     9.9093
  569.8000    99.9529    10.1789     9.8798
  569.9000   100.3259    10.0656     9.8615
  570.0000   100.5841    10.0394     9.8126
  570.1000   100.8423    10.0398     9.8133
  570.2000   101.0864    10.0402     9.7462
  570.3000   101.0857    10.0242     9.7467
  570.4000   101.0852     9.9716     9.7094
  570.5000   101.2710     9.9721     9.6805
  570.6000   101.2430     9.9725     9.6625
  570.7000   101.0834     9.9271     9.6059
  570.8000   101.0828     9.9043     9.5491
  570.9000   101.0822     9.9307     9.5497
  571.0000   101.0815     9.9741     9.5501
  571.1000   100.8524     9.9745     9.5135
  571.2000   100.7782     9.9750     9.4853
  571.3000   100.6357     9.9754     9.4676
  571.4000   100.4749     9.9303     9.4208
  571.5000   100.4743     9.9072     9.4215
  571.6000   100.4737     9.8820     9.4221
  571.7000   100.4730     9.8238     9.3765
  571.8000   100.2449     9.7718     9.3580
  571.9000   100.1698     9.7723     9.3313
  572.0000   100.0282     9.7186     9.2945
  572.1000    99.7688     9.7055     9.2950
  572.2000    99.5094     9.6714     9.2956
  572.3000    99.2610     9.6145     9.2962
  572.4000    99.2603     9.5579     9.2966
  572.5000    99.0332     9.5070     9.2971
  572.6000    98.7738     9.5075     9.2976
  572.7000    98.5144     9.4554     9.2801
  572.8000    98.2549     9.3998     9.2344
  572.9000    98.0489     9.3776     9.2350
  573.0000    98.0382     9.3541     9.2356
  573.1000    97.7455     9.3135     9.1908
  573.2000    97.5194     9.3139     9.1729
  573.3000    97.4423     9.3143     9.1465
  573.4000    97.5808     9.3146     9.1106
  573.5000    97.9347     9.2732     9.1111
  573.6000    98.4518     9.2510     9.1116
  573.7000    98.9594     9.2514     9.0494
  573.8000    99.2519     9.2517     9.0498
  573.9000    99.4759     9.2521     9.0503
  574.0000    99.7341     9.2525     9.0508
  574.1000    99.9923     9.2529     9.0336
  574.2000   100.1559     9.2119     8.9893
  574.3000   100.1553     9.1897     8.9899
  574.4000   100.1467     9.1900     8.9905
  574.5000    99.8519     9.1767     8.9467
  574.6000    99.8514     9.1272     8.9294
  574.7000    99.6705     9.1277     8.9299
  574.8000    99.4111     9.1280     8.9128
  574.9000    99.3390     9.0878     8.8692
  575.0000    99.5469     9.0343     8.8698
  575.1000    99.5603     9.0033     8.8092
  575.2000   100.1498     9.0037     8.8096
  575.3000   100.3718     8.9997     8.8101
  575.4000   100.8093     8.9422     8.8105
  575.5000   101.1904     8.9425     8.8110
  575.6000   101.4485     8.9429     8.8115
  575.7000   101.6575     8.9125     8.8120
  575.8000   101.6568     8.8818     8.8126
  575.9000   101.6561     8.8821     8.8130
  576.0000   101.6556     8.8825     8.8135
  576.1000   101.6550     8.8829     8.8140
  576.2000   101.6544     8.8832     8.8145
  576.3000   101.6538     8.8445     8.8149
  576.4000   101.6532     8.8225     8.8154
  576.5000   101.6526     8.8229     8.8160
  576.6000   101.6519     8.8107     8.8164
  576.7000   101.6514     8.7626     8.8169
  576.8000   101.6508     8.7630     8.8174
  576.9000   101.7840     8.7633     8.8179
  577.0000   102.0422     8.7637     8.8184
  577.1000   102.3477     8.7641     8.8188
  577.2000   102.8568     8.7644     8.8194
  577.3000   102.8561     8.7648     8.8198
  577.4000   103.2947     8.7652     8.8203
  577.5000   103.6355     8.7656     8.8208
  577.6000   103.8937     8.7659     8.8213
  577.7000   104.0622     8.7663     8.8218
  577.8000   104.1080     8.7666     8.8223
  577.9000   104.3632     8.7670     8.8228
  578.0000   104.3624     8.7674     8.8232
  578.1000   104.3619     8.7677     8.8237
  578.2000   104.1861     8.7681     8.7978
  578.3000   104.0586     8.7685     8.7638
  578.4000   104.0580     8.7688     8.7643
  578.5000   104.0121     8.7692     8.7648
  578.6000   103.7526     8.7695     8.7049
  578.7000   103.4519     8.7699     8.7053
  578.8000   103.2337     8.7703     8.7058
  578.9000   103.3229     8.7707     8.7063
  579.0000   103.4501     8.7710     8.6892
  579.1000   103.4495     8.7336     8.6471
  579.2000   103.4933     8.7111     8.6477
  579.3000   103.7505     8.7114     8.6483
  579.4000   103.7497     8.7002     8.6487
  579.5000   103.7492     8.6519     8.6146
  579.6000   103.7486     8.6523     8.5900
  579.7000   103.7480     8.6069     8.5904
  579.8000   103.7474     8.5563     8.5909
  579.9000   103.7468     8.5340     8.5914
  580.0000   103.7462     8.5344     8.5327
  580.1000   103.4434     8.5235     8.5331
  580.2000   103.2274     8.4761     8.5336
  580.3000   102.9680     8.4765     8.5340
  580.4000   102.7086     8.4768     8.5171
  580.5000   102.4491     8.4410     8.4672
  580.6000   102.1898     8.3913     8.4181
  580.7000   101.9293     8.3610     8.4187
  580.8000   101.6265     8.3505     8.3770
  580.9000   101.1970     8.3038     8.3615
  581.0000   100.8500     8.3042     8.3366
  581.1000   100.5905     8.3045     8.2877
  581.2000   100.3734     8.2696     8.2478
  581.3000   100.2434     8.2209     8.2484
  581.4000   100.1124     8.1911     8.1920
  581.5000   100.4138     8.1810     8.1924
  581.6000   100.4133     8.1328     8.1599
  581.7000   100.5829     8.0792     8.1368
  581.8000   100.7142     8.0795     8.1205
  581.9000   100.7136     8.0798     8.0815
  582.0000   100.7533     8.0541     8.0820
  582.1000   101.0145     8.0246     8.0268
  582.2000   101.0138     8.0150     7.9869
  582.3000   101.0133     7.9698     7.9401
  582.4000   100.8435     7.9701     7.9177
  582.5000   100.7100     7.9291     7.9018
  582.6000   100.7094     7.9156     7.8555
  582.7000   100.6695     7.8906     7.8094
  582.8000   100.4060     7.8615     7.7569
  582.9000   100.4053     7.8619     7.7182
  583.0000   100.4048     7.8604     7.7042
  583.1000   100.4042     7.8082     7.6810
  583.2000   100.5285     7.8085     7.6360
  583.3000   100.8683     7.7762     7.5912
  583.4000   101.3471     7.7551     7.5467
  583.5000   101.6103     7.7384     7.4960
  583.6000   102.2138     7.6929     7.4963
  583.7000   102.6343     7.6491     7.4663
  583.8000   103.1513     7.6495     7.4455
  583.9000   103.6684     7.6498     7.4459
  584.0000   104.2659     7.6501     7.4463
  584.1000   104.9672     7.6263     7.4467
  584.2000   105.2314     7.5978     7.4472
  584.3000   105.5328     7.5981     7.4475
  584.4000   105.3228     7.5985     7.4479
  584.5000   105.2296     7.5988     7.4483
  584.6000   105.1061     7.5991     7.4487
  584.7000   104.8467     7.5681     7.4492
  584.8000   104.5512     7.5472     7.4496
  584.9000   104.0187     7.5475     7.4500
  585.0000   104.0180     7.5478     7.4504
  585.1000   103.8092     7.5481     7.4508
  585.2000   103.3846     7.5485     7.4512
  585.3000   102.9882     7.5103     7.4516
  585.4000   102.7288     7.4968     7.4437
  585.5000   102.4693     7.4971     7.4001
  585.6000   102.2018     7.4816     7.3505
  585.7000   101.8990     7.4458     7.3136
  585.8000   101.8985     7.4462     7.3006
  585.9000   101.8979     7.4466     7.2783
  586.0000   102.0181     7.4468     7.2357
  586.1000   102.2763     7.4167     7.1933
  586.2000   102.5688     7.3959     7.1511
  586.3000   103.1039     7.3653     7.1033
