~VERSION INFORMATION
 VERS.                2.0:   CWLS LOG ASCII STANDARD - VERSION 2.0
 WRAP.                 NO:   ONE LINE PER DEPTH STEP
~WELL INFORMATION
#MNEM.UNIT      DATA TYPE    INFORMATION
#----------   ------------   ------------------------------
 STRT.F           10.5000:   START DEPTH
 STOP.F          604.0000:   STOP DEPTH
 STEP.F            0.5000:   STEP LENGTH
 NULL.          -999.2500:   NO VALUE
 COMP. FENIX & SCISSON INC:   COMPANY
 WELL.  NPR 3 #87 S 10-10:   WELL
 FLD .             TEAPOT:   FIELD
 LOC .      S10 T38N R78W:   LOCATION
 CNTY.            NATRONA:   COUNTY
 STAT.            WYOMING:   STATE
 CTRY. UNITED STATES OF AMERICA:   COUNTRY
 SRVC.           BIRDWELL:   SERVICE COMPANY
 DATE.        11-DEC-1978:   LOGDATE
 API .       490251075400:   API NUMBER
~CURVE INFORMATION
#MNEM.UNIT       API CODE    CURVE DESCRIPTION
#----------   ------------   ------------------------------
 DEPT.F                  :   
 SPR .MV     05 010 01 00:   SPONTANEOUS POTENTIAL FROM RES.
 SN  .OHMM   05 040 16 00:   SHORT NORMAL 16"
 IL  .OHMM   05 120 00 00:   INDUCTION LOG
 CALD.IN     45 280 60 00:   CALIPER
 GRD .GAPI   45 310 01 00:   GAMMA RAY FROM DENSITY LOG
 RHOB.G/C3   45 350 01 00:   BULK DENSITY
 DPHI.DEC    45 890 12 00:   DENSITY POROSITY SANDSTONE
 CORR.G/C3   45 356 01 00:   DENSITY CORRECTION
~PARAMETER INFORMATION
#MNEM.UNIT          VALUE    DESCRIPTION
#----------   ------------   ------------------------------
 PD  .                 GL:   PERMANENT DATUM
 LMF .                 KB:   LOG MEASURED FROM
 DAPD.F                 4:   FEET ABOVE PERMANENT DATUM
 DMF .                 KB:   DRILLING MEASURED FROM
 DATE.           12-11-78:   RUN DATE
 RUN .                  1:   RUN NUMBER
 DD  .F               600:   DEPTH DRILLER
 DL  .F               602:   DEPTH LOGGER
 BLI .F               596:   BOTTOM LOG INTERVAL
 TLI .F                60:   TOP LOG INTERVAL
 CBD .F                40:   CASING BOTTOM DRILLER
 CBL .F                35:   CASING BOTTOM LOGGER
 BS  .IN            7.875:   BIT SIZE
 BSD .F               600:   BIT SIZE AT DEPTH
 DFT .                KCC:   DRILLING FLUID TYPE
 DFD .                8.7:   DRILLING FLUID DENSITY
 DFV .                 39:   DRILLING FLUID VISCOSITY
 DFPH.               10.5:   DRILLING FLUID PH
 DFL .                 10:   DRILLING FLUID LOSS
 MSS .           FLOWLINE:   MUD SAMPLE SOURCE
 RMS .OHMM              1:   RESISTIVITY MUD SAMPLE
 MST .F                62:   MUD SAMPLE TEMPERATURE
 RMF .OHMM            .85:   RESISTIVITY MUD FILTRATE SAMPLE
 MFST.F                58:   MUD FILTRATE SAMPLE TEMPERATURE
 RMC .OHMM             .8:   RESISTIVITY MUD CAKE
 MCST.F                66:   MUD CAKE SAMPLE TEMPERATURE
 MFSS.           MEASURED:   MUD FILTRATE SAMPLE SOURCE
 MCSS.           MEASURED:   MUD CAKE SAMPLE SOURCE
 BHT .F                72:   BOTTOM HOLE TEMPERATURE
 TCS .HRS               3:   TIME CURCULATED STOPPED
 MRT .F                72:   MAXIMUM RECORDED TEMPERATURE
 LUN .               2958:   LOGGING UNIT NUMBER
 LUL .             CASPER:   LOGGING UNIT LOCATION
 ENGI.            ROLLINS:   RECORDING ENGINEER
 WITN.           DINSMORE:   WITNESSED BY
 CLNT.            A2DTECH:   CLIENT CODE
 ORIG.       2", 5" PRINT:   ORIGIN OF DATA
 UWI .       490251075400:   UNIQUE WELL ID
 DICO. A2D Technologies, Inc.:   DIGITIZING COMPANY
~OTHER INFORMATION
~A   DEPT      SPR         SN         IL       CALD        GRD       RHOB       DPHI       CORR   
# ...
   51.0000  -999.2500  -999.2500  -999.2500     8.4830   134.7120     2.5140     0.1040     0.1660
   51.5000  -999.2500  -999.2500  -999.2500     8.4790   131.4350     2.5070     0.1060     0.1200
   52.0000  -999.2500  -999.2500  -999.2500     8.4750   130.0770     2.4950     0.1140     0.0700
   52.5000  -999.2500  -999.2500  -999.2500     8.4710   132.4140     2.4830     0.1250     0.0360
   53.0000  -999.2500  -999.2500  -999.2500     8.4670   135.5060     2.4670     0.1360     0.0150
   53.5000  -999.2500  -999.2500  -999.2500     8.4630   136.1620     2.4420     0.1480     0.0080
   54.0000  -999.2500  -999.2500  -999.2500     8.4590   131.4250     2.4250     0.1590     0.0030
   54.5000  -999.2500  -999.2500  -999.2500     8.4550   128.1290     2.4160     0.1690     0.0030
   55.0000  -999.2500  -999.2500  -999.2500     8.4510   129.1710     2.4150     0.1680     0.0020
   55.5000  -999.2500  -999.2500  -999.2500     8.4470   131.5010     2.4220     0.1660     0.0010
   56.0000  -999.2500  -999.2500  -999.2500     8.4420   132.3150     2.4290     0.1610     0.0000
   56.5000  -999.2500  -999.2500  -999.2500     8.4380   128.2640     2.4350     0.1540     0.0000
   57.0000  -999.2500  -999.2500  -999.2500     8.4340   128.1140     2.4380     0.1540    -0.0010
   57.5000  -999.2500  -999.2500  -999.2500     8.4300   128.3940     2.4390     0.1540    -0.0020
   58.0000  -999.2500  -999.2500  -999.2500     8.4260   129.1010     2.4450     0.1540    -0.0020
   58.5000  -999.2500  -999.2500  -999.2500     8.4220   127.2260     2.4520     0.1480    -0.0010
   59.0000  -999.2500  -999.2500  -999.2500     8.4130   124.3540     2.4490     0.1430     0.0000
   59.5000  -999.2500  -999.2500  -999.2500     8.4020   126.2200     2.4390     0.1480     0.0010
   60.0000  -999.2500  -999.2500  -999.2500     8.3920   131.1730     2.4280     0.1620     0.0030
   60.5000  -999.2500  -999.2500  -999.2500     8.3820   135.8160     2.4190     0.1660     0.0040
   61.0000  -999.2500  -999.2500  -999.2500     8.3850   137.8240     2.4230     0.1650     0.0050
   61.5000  -999.2500  -999.2500  -999.2500     8.3880   137.0720     2.4270     0.1610     0.0060
   62.0000  -999.2500  -999.2500  -999.2500     8.3920   130.5950     2.4310     0.1580     0.0060
   62.5000  -999.2500  -999.2500  -999.2500     8.3950   126.5340     2.4350     0.1550     0.0070
   63.0000  -999.2500  -999.2500  -999.2500     8.3990   131.3400     2.4350     0.1540     0.0070
   63.5000  -999.2500  -999.2500  -999.2500     8.4020   136.0950     2.4350     0.1540     0.0070
   64.0000  -999.2500  -999.2500  -999.2500     8.4060   136.9890     2.4350     0.1550     0.0080
   64.5000  -999.2500  -999.2500  -999.2500     8.4090   136.8530     2.4360     0.1550     0.0080
   65.0000  -999.2500  -999.2500  -999.2500     8.4130   135.0330     2.4380     0.1550     0.0090
   65.5000  -999.2500  -999.2500     7.6950     8.4170   133.7400     2.4380     0.1530     0.0090
   66.0000  -999.2500  -999.2500     7.5770     8.4210   134.1860     2.4330     0.1530     0.0090
   66.5000  -999.2500  -999.2500     7.4320     8.3860   134.6200     2.4280     0.1560     0.0050
   67.0000  -999.2500  -999.2500     7.3050     8.3370   135.0920     2.4280     0.1590    -0.0020
   67.5000  -999.2500  -999.2500     7.3480     8.2870   132.0840     2.4270     0.1600    -0.0040
   68.0000  -999.2500  -999.2500     7.3480     8.2410   129.1300     2.4230     0.1620    -0.0060
   68.5000  -999.2500  -999.2500     7.3680     8.2890   132.8190     2.4190     0.1640    -0.0080
   69.0000  -999.2500  -999.2500     7.3940     8.3590   137.2020     2.4150     0.1660    -0.0080
   69.5000  -999.2500  -999.2500     7.4160     8.3880   138.7070     2.4120     0.1700    -0.0080
   70.0000  -999.2500  -999.2500     7.3710     8.3620   138.3850     2.4160     0.1690    -0.0070
   70.5000  -999.2500  -999.2500     7.3320     8.3370   137.6900     2.4230     0.1640    -0.0070
   71.0000  -999.2500  -999.2500     7.2940     8.3440   136.4130     2.4300     0.1570    -0.0060
   71.5000  -999.2500  -999.2500     7.2550     8.4430   128.9420     2.4360     0.1540    -0.0060
   72.0000  -999.2500  -999.2500     7.2170     8.4600   122.8880     2.4360     0.1540    -0.0050
   72.5000  -999.2500  -999.2500     7.1780     8.4580   127.9950     2.4370     0.1550    -0.0050
   73.0000  -999.2500  -999.2500     7.1470     8.4570   130.2120     2.4370     0.1550    -0.0040
   73.5000  -999.2500  -999.2500     7.1970     8.4550   129.1260     2.4370     0.1550    -0.0040
   74.0000  -999.2500  -999.2500     7.4160     8.4530   127.2480     2.4380     0.1540    -0.0030
   74.5000  -999.2500  -999.2500     7.5540     8.4520   126.5700     2.4380     0.1530    -0.0030
   75.0000  -999.2500  -999.2500     7.5540     8.4500   131.0770     2.4360     0.1530    -0.0020
   75.5000  -999.2500  -999.2500     7.5540     8.4480   129.2320     2.4340     0.1540    -0.0020
   76.0000  -999.2500  -999.2500     7.5540     8.4470   126.8490     2.4340     0.1570    -0.0010
   76.5000  -999.2500  -999.2500     7.5540     8.4450   126.5820     2.4360     0.1540    -0.0010
   77.0000  -999.2500  -999.2500     7.5540     8.4430   126.6540     2.4320     0.1520     0.0000
   77.5000  -999.2500  -999.2500     7.5580     8.4410   125.4960     2.4280     0.1560     0.0000
   78.0000  -999.2500  -999.2500     7.5760     8.4400   124.8170     2.4260     0.1600     0.0000
   78.5000  -999.2500  -999.2500     7.5950     8.4380   128.9180     2.4260     0.1620     0.0010
   79.0000  -999.2500  -999.2500     7.6130     8.4360   131.8320     2.4290     0.1590     0.0010
   79.5000  -999.2500  -999.2500     7.6240     8.4340   132.0690     2.4350     0.1570     0.0010
   80.0000  -999.2500  -999.2500     7.6070     8.4330   131.1760     2.4410     0.1520     0.0020
   80.5000  -999.2500  -999.2500     7.5930     8.4310   132.0480     2.4470     0.1460     0.0020
   81.0000  -999.2500  -999.2500     7.5790     8.4290   132.8000     2.4520     0.1440     0.0020
   81.5000  -999.2500  -999.2500     7.5650     8.4280   128.9970     2.4510     0.1450     0.0030
   82.0000  -999.2500  -999.2500     7.5190     8.4260   128.6650     2.4500     0.1470     0.0030
   82.5000  -999.2500  -999.2500     7.3670     8.4240   128.9900     2.4490     0.1480     0.0030
   83.0000  -999.2500  -999.2500     7.2510     8.4220   129.3070     2.4470     0.1470     0.0040
   83.5000  -999.2500  -999.2500     7.2130     8.4220   128.6860     2.4410     0.1510     0.0040
   84.0000  -999.2500  -999.2500     7.2130     8.4390   123.2810     2.4340     0.1570     0.0050
   84.5000  -999.2500  -999.2500     7.2130     8.4560   118.2140     2.4330     0.1570     0.0050
   85.0000  -999.2500  -999.2500     7.2130     8.4720   115.9220     2.4320     0.1570     0.0050
   85.5000  -999.2500  -999.2500     7.2110     8.4910   114.8240     2.4310     0.1560     0.0070
   86.0000  -999.2500  -999.2500     7.2000     8.5120   115.8890     2.4300     0.1570     0.0110
   86.5000  -999.2500  -999.2500     7.1890     8.5330   116.9820     2.4320     0.1580     0.0160
   87.0000  -999.2500  -999.2500     7.1780     8.5560   117.2750     2.4350     0.1540     0.0260
   87.5000  -999.2500  -999.2500     7.1670     8.5370   115.9570     2.4370     0.1540     0.0350
   88.0000  -999.2500  -999.2500     7.1540     8.5250   111.6580     2.4420     0.1530     0.0330
   88.5000   -21.1780  -999.2500     7.1490     8.5120   108.5930     2.4580     0.1390     0.0250
   89.0000   -20.7320  -999.2500     7.1900     8.5000   110.1310     2.4620     0.1380     0.0160
   89.5000   -20.3200  -999.2500     7.1620     8.4870   112.2630     2.4540     0.1400     0.0060
   90.0000   -19.9980  -999.2500     7.1340     8.4740   113.9790     2.4450     0.1450     0.0060
   90.5000   -19.9150  -999.2500     7.1060     8.4610   113.8190     2.4380     0.1500     0.0060
   91.0000   -19.9330  -999.2500     7.0780     8.4490   113.7010     2.4330     0.1570     0.0060
