~VERSION INFORMATION
 VERS.                2.0:   CWLS LOG ASCII STANDARD - VERSION 2.0
 WRAP.                 NO:   ONE LINE PER DEPTH STEP
~WELL INFORMATION
#MNEM.UNIT      DATA TYPE    INFORMATION
#----------   ------------   ------------------------------
 STRT.F           22.0000:   START DEPTH
 STOP.F          533.0000:   STOP DEPTH
 STEP.F            0.5000:   STEP LENGTH
 NULL.          -999.2500:   NO VALUE
 COMP. FENIX & SCISSON INC:   COMPANY
 WELL.        NPR 3 #32-3:   WELL
 FLD .        TEAPOT DOME:   FIELD
 LOC .       S3 T38N R78W:   LOCATION
 CNTY.            NATRONA:   COUNTY
 STAT.            WYOMING:   STATE
 CTRY. UNITED STATES OF AMERICA:   COUNTRY
 SRVC.            Unknown:   SERVICE COMPANY
 DATE.        19-JUL-1978:   LOGDATE
 API .       490251067200:   API NUMBER
~CURVE INFORMATION
#MNEM.UNIT       API CODE    CURVE DESCRIPTION
#----------   ------------   ------------------------------
 DEPT.F                  :   
 SPR .MV     05 010 01 00:   SPONTANEOUS POTENTIAL FROM RES.
 SN  .OHMM   05 040 16 00:   SHORT NORMAL 16"
 IL  .OHMM   05 120 00 00:   INDUCTION LOG
 RHOB.G/C3   45 350 01 00:   BULK DENSITY
 DPHI.DEC    45 890 12 00:   DENSITY POROSITY SANDSTONE
 CORR.G/C3   45 356 01 00:   DENSITY CORRECTION
 CALD.IN     45 280 60 00:   CALIPER
 GRD .GAPI   45 310 01 00:   GAMMA RAY FROM DENSITY LOG
~PARAMETER INFORMATION
#MNEM.UNIT          VALUE    DESCRIPTION
#----------   ------------   ------------------------------
 PD  .                 GL:   PERMANENT DATUM
 EPD .F              5179:   ELEVATION PERMANENT DATUM
 LMF .                 KB:   LOG MEASURED FROM
 DAPD.F                 4:   FEET ABOVE PERMANENT DATUM
 DMF .                 KB:   DRILLING MEASURED FROM
 EKB .F              5183:   KELLING BUSHING
 EGL .F              5179:   GROUND LEVEL
 DATE.            7-19-78:   RUN DATE
 RUN .                  1:   RUN NUMBER
 DD  .F               520:   DEPTH DRILLER
 DL  .F               533:   DEPTH LOGGER
 BLI .F               527:   BOTTOM LOG INTERVAL
 TLI .F                50:   TOP LOG INTERVAL
 CS  .IN            8.625:   CASING SIZE
 CBD .F                40:   CASING BOTTOM DRILLER
 BS  .IN            7.875:   BIT SIZE
 BSD .F               520:   BIT SIZE AT DEPTH
 DFT .                KCL:   DRILLING FLUID TYPE
 DFD .                8.7:   DRILLING FLUID DENSITY
 DFV .                 33:   DRILLING FLUID VISCOSITY
 DFPH.                  9:   DRILLING FLUID PH
 DFL .               12.4:   DRILLING FLUID LOSS
 MSS .          FLOW LINE:   MUD SAMPLE SOURCE
 RMS .OHMM            .28:   RESISTIVITY MUD SAMPLE
 MST .F                70:   MUD SAMPLE TEMPERATURE
 RMF .OHMM            .24:   RESISTIVITY MUD FILTRATE SAMPLE
 MFST.F                76:   MUD FILTRATE SAMPLE TEMPERATURE
 RMC .OHMM             .5:   RESISTIVITY MUD CAKE
 MCST.F                78:   MUD CAKE SAMPLE TEMPERATURE
 MFSS.               MEAS:   MUD FILTRATE SAMPLE SOURCE
 MCSS.               MEAS:   MUD CAKE SAMPLE SOURCE
 TCS .HRS               2:   TIME CURCULATED STOPPED
 LUN .               2958:   LOGGING UNIT NUMBER
 LUL .               CASP:   LOGGING UNIT LOCATION
 ENGI.             MILLER:   RECORDING ENGINEER
 WITN.           MCGINLEY:   WITNESSED BY
 CLNT.            A2DTECH:   CLIENT CODE
 ORIG.           5" PRINT:   ORIGIN OF DATA
 UWI .       490251067200:   UNIQUE WELL ID
 DICO. A2D Technologies, Inc.:   DIGITIZING COMPANY
~OTHER INFORMATION
~A   DEPT      SPR         SN         IL       RHOB       DPHI       CORR       CALD         GRD  
# ...
  346.0000   -20.8624     7.2944     9.3275     2.4839     0.1218     0.0168     9.5848    77.7971
  346.5000   -20.5471     7.4594    10.2443     2.4823     0.1189     0.0155     9.6512    77.6987
  347.0000   -20.3216     7.5679     9.9725     2.4851     0.1243     0.0143     9.6856    78.7228
  347.5000   -20.5096     7.6778     9.5665     2.4761     0.1334     0.0132     9.7465    79.4098
  348.0000   -20.5586     7.7894     9.4333     2.4630     0.1414     0.0121     9.8050    76.1509
  348.5000   -19.9536     7.9026     9.5201     2.4497     0.1489     0.0149     9.8635    75.4314
  349.0000   -19.3894     8.0175     9.8802     2.4366     0.1564     0.0222     9.9220    75.6030
  349.5000   -18.7387     8.1341    10.3107     2.4322     0.1671     0.0292     9.9805    75.7280
  350.0000   -18.0999     8.4300    10.7399     2.4227     0.1863     0.0414    10.0110    73.3205
  350.5000   -17.4939     8.7591    11.5189     2.4014     0.2068     0.0552    10.0208    68.1092
  351.0000   -17.1595     9.1009    12.3282     2.3644     0.2055     0.0664    10.0307    59.6971
  351.5000   -16.6542     9.4562    13.2820     2.3340     0.2095     0.0540    10.0405    51.1893
  352.0000   -16.1272     9.8253    14.4930     2.3393     0.2296     0.0411    10.0664    47.8858
  352.5000   -15.5942    10.2088    16.9630     2.3067     0.2455     0.0303    10.2026    46.9010
  353.0000   -14.6918    10.6073    18.0457     2.2784     0.2507     0.0377    10.3456    47.0865
  353.5000   -14.0511    10.8275    18.4166     2.2685     0.2578     0.0448    10.3724    47.3800
  354.0000   -13.4165    10.9735    18.5861     2.2574     0.2650     0.0521    10.3890    47.6610
  354.5000   -12.8669    11.1214    18.5861     2.2502     0.2593     0.0592    10.3935    47.3348
  355.0000   -12.5405    11.2713    18.7641     2.2563     0.2521     0.0601    10.3979    46.3424
  355.5000   -12.2119    11.4352    19.1119     2.2620     0.2447     0.0608    10.4020    46.0844
  356.0000   -11.9665    11.4690    19.2801     2.2782     0.2326     0.0613    10.4041    46.6614
  356.5000   -11.9384    11.5159    18.9483     2.3035     0.2243     0.0589    10.1913    47.7979
  357.0000   -11.9066    11.5630    18.7013     2.3146     0.2113     0.0564    10.0651    49.6332
  357.5000   -11.8748    11.6103    18.4576     2.3349     0.2011     0.0539    10.0492    51.5026
  358.0000   -11.8428    11.6577    18.2486     2.3544     0.2011     0.0514    10.0489    51.8576
  358.5000   -11.8108    11.7054    18.4872     2.3531     0.2070     0.0472    10.0645    52.5590
  359.0000   -11.7823    11.7533    18.7006     2.3434     0.2111     0.0361    10.0832    54.3620
  359.5000   -11.7823    11.8014    19.6224     2.3362     0.2152     0.0251    10.1023    55.6410
  360.0000   -11.7836    11.8496    20.9378     2.3327     0.2193     0.0234    10.1112    55.4422
  360.5000   -11.7804    11.8833    18.4884     2.3247     0.2290     0.0259    10.0124    54.1278
  361.0000   -11.4856    11.9122    16.7692     2.3170     0.2415     0.0230     9.9945    50.7162
  361.5000   -11.1767    11.9410    16.1689     2.2930     0.2540     0.0143     9.9870    47.8186
  362.0000   -11.0452    11.9699    15.6191     2.2672     0.2631     0.0278     9.9815    47.7451
  362.5000   -10.9166    11.9988    15.0538     2.2467     0.2701     0.1051     9.9755    48.0776
  363.0000   -10.7878    12.0279    18.2193     2.1839     0.2752     0.1237     9.9699    47.7049
  363.5000   -10.6585    12.0570    20.7468     2.1492     0.2798     0.0253    10.0357    46.4333
  364.0000   -10.6170    12.0862    20.4704     2.2241     0.2641     0.0164    10.1360    45.1632
  364.5000   -10.6631    12.1153    20.3700     2.2103     0.2499     0.0144    10.1211    44.4188
  365.0000   -10.7091    12.1448    20.7468     2.2762     0.2339     0.0180    10.0219    47.2786
  365.5000   -10.7552    12.1749    16.9585     2.2987     0.2399     0.0212    10.0083    50.4594
  366.0000   -10.8013    12.1926    18.9191     2.2852     0.2471     0.0148     9.9786    53.6850
  366.5000   -10.8473    12.0164    21.6140     2.2784     0.2394     0.0077     9.9703    54.2876
  367.0000   -10.8933    11.8880    23.4431     2.2836     0.2341     0.0005     9.9912    53.6752
  367.5000   -10.9395    11.7613    25.4269     2.2989     0.2291    -0.0009    10.0320    53.7027
  368.0000   -10.9827    11.6360    26.3289     2.3072     0.2307     0.0017    10.0751    53.8442
  368.5000   -11.1297    11.5111    19.4576     2.3065     0.2294     0.0043     9.8424    53.9876
  369.0000   -11.3315    11.4360    19.8728     2.3093     0.2264     0.0071     9.8311    54.1321
  369.5000   -11.2095    11.4496    20.1841     2.3140     0.2246     0.0061     9.8502    54.4207
  370.0000   -11.0290    11.4607    20.0781     2.3155     0.2230     0.0037     9.8741    55.0170
  370.5000   -11.3773    11.4714    20.0000     2.3178     0.2155     0.0016     9.7598    55.4233
  371.0000   -11.7315    11.4822    19.7619     2.3318     0.2083     0.0039     9.6065    55.4111
  371.5000   -11.9776    11.4930    19.4618     2.3331     0.2081     0.0063     9.5686    56.1164
  372.0000   -11.9026    11.5037    19.1662     2.3410     0.2079     0.0087     9.5350    57.3592
  372.5000   -11.8325    11.5145    18.9300     2.3407     0.2043     0.0072     9.3911    58.4345
  373.0000   -11.8284    11.5254    19.0533     2.3433     0.2000     0.0039     9.3862    57.7620
  373.5000   -11.9965    11.5368    19.1787     2.3505     0.1958     0.0005     9.3407    56.9420
  374.0000   -12.1617    11.5933    19.3235     2.3580     0.1923    -0.0022     9.2865    56.9904
  374.5000   -12.3282    11.6822    19.5465     2.3653     0.1929     0.0032     9.2365    59.2089
  375.0000   -12.4144    11.7719    19.7722     2.3671     0.1938     0.0086     9.1865    61.0206
  375.5000   -12.4696    11.8624    19.8580     2.3659     0.1917     0.0143     9.1366    60.9548
  376.0000   -12.5212    11.9535    19.9088     2.3680     0.1887     0.0130     9.0868    60.3016
  376.5000   -12.5886    12.0453    19.9596     2.3778     0.1835     0.0118     9.0377    59.8015
  377.0000   -12.9321    12.1378    20.0318     2.3814     0.1821     0.0106     8.9818    60.6303
  377.5000   -13.1726    12.2311    20.1841     2.3830     0.1803     0.0094     8.9034    61.4303
  378.0000   -13.4090    12.3250    20.3407     2.3847     0.1788     0.0083     8.8255    61.7800
  378.5000   -13.6446    12.4184    20.4970     2.3862     0.1819     0.0071     8.7478    61.8044
  379.0000   -13.7625    12.6840    20.6539     2.3856     0.1917     0.0060     8.6705    59.9029
  379.5000   -13.7621    12.9515    20.8093     2.3656     0.1891     0.0097     8.5933    57.3669
  380.0000   -13.7612    13.2246    20.9414     2.3714     0.1885     0.0171     8.5444    54.8115
  380.5000   -13.7636    13.5035    21.7662     2.3767     0.1781     0.0245     8.4784    53.4251
  381.0000   -14.0237    13.7883    22.6220     2.4006     0.1579     0.0248     8.4186    53.4342
  381.5000   -14.3151    14.0791    23.6126     2.4302     0.1351     0.0181     8.4045    53.4378
  382.0000   -14.6070    14.3762    24.7246     2.4600     0.1122     0.0114     8.3880    53.4030
  382.5000   -14.7400    14.6794    25.8863     2.4898     0.0894     0.0047     8.3973    52.5921
  383.0000   -14.7144    14.9439    26.5377     2.5195     0.0808    -0.0013     8.4067    51.8476
  383.5000   -14.6892    15.0579    26.8721     2.5491     0.0873    -0.0046     8.4163    51.1041
  384.0000   -14.6636    15.1924    27.0628     2.5614     0.0916    -0.0080     8.4259    50.2884
  384.5000   -14.6382    15.0633    26.8444     2.5442     0.1063    -0.0095     8.4355    50.6169
  385.0000   -14.6129    14.9104    26.6689     2.5229     0.1204    -0.0083     8.4451    51.2650
  385.5000   -14.5875    14.7591    26.0076     2.5022     0.1390    -0.0038     8.4547    51.2574
  386.0000   -14.5621    14.5270    24.7734     2.4699     0.1687    -0.0006     8.4643    51.7171
