~VERSION INFORMATION
 VERS.                2.0:   CWLS LOG ASCII STANDARD - VERSION 2.0
 WRAP.                 NO:   ONE LINE PER DEPTH STEP
~WELL INFORMATION
#MNEM.UNIT      DATA TYPE    INFORMATION
#----------   ------------   ------------------------------
 STRT.F           30.0000:   START DEPTH
 STOP.F          562.0000:   STOP DEPTH
 STEP.F            0.5000:   STEP LENGTH
 NULL.          -999.2500:   NO VALUE
 COMP. LAWRENCE/ALLISON INC:   COMPANY
 WELL. NPR 3 #53-16-SX-10:   WELL
 FLD .             TEAPOT:   FIELD
 LOC .      S10 T38N R78W:   LOCATION
 CNTY.            NATRONA:   COUNTY
 STAT.            WYOMING:   STATE
 CTRY. UNITED STATES OF AMERICA:   COUNTRY
 SRVC.      Dresser Atlas:   SERVICE COMPANY
 DATE.        27-AUG-1984:   LOGDATE
 API .       490251098200:   API NUMBER
~CURVE INFORMATION
#MNEM.UNIT       API CODE    CURVE DESCRIPTION
#----------   ------------   ------------------------------
 DEPT.F                  :   
 RILD.OHMM   07 120 46 00:   INDUCTION LOG DEEP RESISTIVITY
 RILM.OHMM   07 120 44 00:   INDUCTION LOG MEDIUM RESISTIVITY
 RFOC.OHMM   07 220 04 00:   RESISTIVITY FOCUSED LOG
 SPR .MV     07 010 01 00:   SPONTANEOUS POTENTIAL
 AC  .US/F   60 520 00 00:   ACOUSTIC SONIC
 DEN .G/C3   45 350 01 00:   COMPENSATED BULK DENSTIY
 CORR.G/C3   45 356 01 00:   DENSITY CORRECTION
 CNC .DEC    42 890 01 00:   NEUTRON POROSITY LIMESTONE
 CALD.IN     45 280 60 00:   CALIPER
 GRD .GAPI   45 310 01 00:   GAMMA RAY FROM DENSITY LOG
 PORD.DEC    45 890 10 00:   POROSITY DENSITY LIMESTONE
~PARAMETER INFORMATION
#MNEM.UNIT          VALUE    DESCRIPTION
#----------   ------------   ------------------------------
 PD  .                 GL:   PERMANENT DATUM
 EPD .F              5199:   ELEVATION PERMANENT DATUM
 LMF .                 GL:   LOG MEASURED FROM
 DMF .                 GL:   DRILLING MEASURED FROM
 EGL .F              5199:   GROUND LEVEL
 DATE.            8-27-84:   RUN DATE
 RUN .                  1:   RUN NUMBER
 DD  .F               550:   DEPTH DRILLER
 DL  .F               549:   DEPTH LOGGER
 BLI .F               547:   BOTTOM LOG INTERVAL
 TLI .F                30:   TOP LOG INTERVAL
 CS  .IN            9.625:   CASING SIZE
 CBD .F                40:   CASING BOTTOM DRILLER
 CBL .F                44:   CASING BOTTOM LOGGER
 BS  .IN            7.875:   BIT SIZE
 BSD .F               550:   BIT SIZE AT DEPTH
 DFT .          KCL/WATER:   DRILLING FLUID TYPE
 MSS .           MUD TANK:   MUD SAMPLE SOURCE
 RMS .OHMM            .28:   RESISTIVITY MUD SAMPLE
 MST .F                78:   MUD SAMPLE TEMPERATURE
 TCS .HRS               4:   TIME CURCULATED STOPPED
 LUN .               4082:   LOGGING UNIT NUMBER
 LUL .          ROOSEVELT:   LOGGING UNIT LOCATION
 ENGI.            FRANCIS:   RECORDING ENGINEER
 WITN.              FIVAS:   WITNESSED BY
 CLNT.            A2DTECH:   CLIENT CODE
 ORIG.       2", 5" PRINT:   ORIGIN OF DATA
 UWI .       490251098200:   UNIQUE WELL ID
 DICO. A2D Technologies, Inc.:   DIGITIZING COMPANY
~OTHER INFORMATION
~A   DEPT     RILD       RILM       RFOC        SPR         AC        DEN       CORR          CNC     CALD         GRD      PORD   
# ...
  243.5000     7.5321     7.8801     8.7841   -18.4371   103.1892     2.4865     0.0146     0.2495     8.5592   118.2863     0.1158
  244.0000     7.6462     7.9835     8.8508   -18.1659   102.8949     2.4864     0.0184     0.2518     8.5582   116.1585     0.1163
  244.5000     7.7619     8.0882     8.9179   -17.8983   102.9245     2.4865     0.0167     0.2514     8.5573   114.0299     0.1161
  245.0000     7.8794     8.1943     8.9857   -17.6519   102.9542     2.4835     0.0148     0.2473     8.5563   114.1201     0.1170
  245.5000     7.9987     8.3018     9.0364   -17.4081   102.9838     2.4789     0.0074     0.2401     8.5553   117.0705     0.1197
  246.0000     8.0185     8.3499     8.9546   -17.1638   103.0135     2.4743     0.0001     0.2345     8.5544   119.7022     0.1229
  246.5000     8.0254     8.3894     8.8784   -16.9224   103.0432     2.4701    -0.0077     0.2352     8.5534   118.7767     0.1260
  247.0000     8.0323     8.4291     8.7894   -16.6878   103.0728     2.4696     0.0039     0.2345     8.5524   117.8715     0.1277
  247.5000     8.0393     8.4690     8.9291   -16.4691   102.9609     2.4728     0.0213     0.2305     8.5515   118.4188     0.1235
  248.0000     8.0462     8.5091     9.0222   -16.5094   102.6869     2.4838     0.0413     0.2260     8.5505   120.2509     0.1181
  248.5000     8.0532     8.5494     9.1163   -16.5566   102.1373     2.4949     0.0472     0.2313     8.5495   121.6021     0.1126
  249.0000     8.0601     8.5899     9.2113   -16.6050   101.5878     2.5007     0.0376     0.2380     8.5486   122.2462     0.1078
  249.5000     8.0670     8.6285     9.3074   -16.6528   101.0721     2.5001     0.0257     0.2357     8.5476   122.8981     0.1064
  250.0000     8.0739     8.5696     9.3765   -16.7006   100.9716     2.4980     0.0136     0.2332     8.5466   123.3259     0.1076
  250.5000     8.0804     8.5139     9.2376   -16.7481   100.8717     2.4964     0.0127     0.2379     8.5457   118.8686     0.1088
  251.0000     8.0882     8.4585     9.1126   -16.7960   101.3976     2.4989     0.0198     0.2432     8.5467   113.4364     0.1072
  251.5000     8.1935     8.3926     8.9893   -16.8631   101.9544     2.5065     0.0278     0.2400     8.5491   115.0474     0.1029
  252.0000     8.3041     8.5486     8.8710   -17.0215   102.4750     2.5141     0.0499     0.2345     8.5516   118.2462     0.0988
  252.5000     8.4162     8.7467     8.9194   -17.1783   102.2177     2.5205     0.0716     0.2290     8.5541   120.9249     0.0958
  253.0000     8.5298     8.9502     9.0494   -17.3328   100.7299     2.5181     0.0856     0.2235     8.5565   119.8444     0.0957
  253.5000     8.6449     9.1592     9.3974   -17.4411    99.2420     2.5153     0.0721     0.2180     8.5590   116.9641     0.0973
  254.0000     8.7894     9.3706     9.7589   -17.4393    97.7542     2.5073     0.0513     0.2167     8.5615   112.4963     0.1004
  254.5000     8.6473     9.4636    10.1342   -17.4396    96.5180     2.4991     0.0300     0.2220     8.5639   110.4855     0.1044
  255.0000     8.1010     8.7850    10.6712   -17.4395    95.9572     2.4982     0.0197     0.2297     8.5664   111.1590     0.1084
  255.5000     7.4066     7.9998    10.6218   -17.4400    95.9283     2.4994     0.0257     0.2395     8.5688   112.7323     0.1085
  256.0000     6.7717     7.2847    10.5442   -17.4394    98.6546     2.4970     0.0314     0.2628     8.5713   114.2882     0.1080
  256.5000     6.1913     6.6336    10.1299   -17.4414   104.8242     2.4389     0.0319     0.2862     8.5738   116.2430     0.1258
  257.0000     5.6606     6.0364     7.5131   -17.1173   110.5872     2.3646     0.0325     0.2902     8.5762   121.4094     0.1687
  257.5000     5.4871     5.6886     5.5723   -16.5448   115.5922     2.3077     0.0337     0.2661     8.5787   127.1127     0.2110
  258.0000     5.6968     5.9511     4.3903   -15.9694   115.5867     2.3373     0.0096     0.2468     8.5812   132.2097     0.2208
  258.5000     5.9750     6.6188     5.4819   -15.3937   109.8059     2.3924    -0.0183     0.2317     8.5836   122.4126     0.1797
  259.0000     6.2447     7.4352     7.5806   -14.8149   103.3378     2.4482    -0.0197     0.2249     8.5855   112.9797     0.1436
  259.5000     6.9178     8.3522    10.4828   -14.2350    97.4316     2.5018     0.0012     0.2200     8.5846   105.9323     0.1113
  260.0000     7.6098     9.3876    11.7039   -14.1156    95.0601     2.5113     0.0219     0.2115     8.5837   106.3539     0.1011
  260.5000     8.3710    10.5687    11.4208   -14.0198    95.1603     2.5005     0.0424     0.2012     8.5829   108.4311     0.1033
  261.0000     9.2083    10.6556    11.1277   -13.9206    95.3313     2.4920     0.0404     0.1970     8.5820   110.1487     0.1085
  261.5000    10.1294    10.7306    10.8421   -13.8206    95.8617     2.4917     0.0353     0.1967     8.5812   107.8693     0.1116
  262.0000    10.9710    10.8098    10.5638   -13.8483    96.2853     2.4946     0.0303     0.2162     8.5803   105.1604     0.1095
  262.5000    11.0039    10.8906    10.4758   -13.8922    96.7613     2.4991     0.0252     0.2354     8.5794   104.1404     0.1074
  263.0000    11.0348    10.9720    10.5775   -13.9377    97.2373     2.5034     0.0255     0.2380     8.5785   107.3993     0.1053
  263.5000    11.0605    11.0540    10.7225   -13.9800    97.7133     2.5074     0.0295     0.2366     8.5777   110.4330     0.1032
  264.0000    11.8236    11.2263    10.8696   -13.8864    98.1893     2.5053     0.0331     0.2271     8.5768   110.3332     0.1024
  264.5000    12.8714    11.4897    11.0186   -13.2726    98.6652     2.4935     0.0308     0.2121     8.5759   110.2087     0.1059
  265.0000    14.0148    13.1592    11.6819   -12.6770    99.4011     2.4783     0.0077     0.2015     8.5751   110.0616     0.1166
  265.5000    15.2590    15.0342    13.1729   -11.9769   101.6164     2.4615    -0.0171     0.2029     8.5742   107.8719     0.1285
  266.0000    16.6133    17.1729    14.8543   -11.1789   103.8333     2.4430    -0.0225     0.2074     8.5733    99.3918     0.1390
  266.5000    18.0877    19.6017    16.7502   -10.3849   106.0407     2.3988     0.0390     0.2102     8.5725    87.2844     0.1632
  267.0000    19.6930    20.9653    18.8882    -9.5914   108.3868     2.3507     0.0897     0.2121     8.5716    75.0959     0.1913
  267.5000    21.4098    21.3435    19.9789    -9.1193   112.6564     2.3023     0.1059     0.2144     8.5707    68.7847     0.2195
  268.0000    23.2539    21.7284    20.2529    -9.0084   117.2429     2.2970     0.1055     0.2159     8.5699    67.7845     0.2284
  268.5000    25.2569    22.6147    20.5306    -8.8966   120.7383     2.3489     0.0654     0.2134     8.5690    66.7469     0.2002
  269.0000    25.9482    24.1335    21.7287    -8.7853   120.8331     2.3904     0.0598     0.2077     8.5681    66.6581     0.1822
  269.5000    26.0366    25.3807    23.1226    -8.6730   116.4064     2.4195     0.0658     0.2023     8.5673    68.0471     0.1641
  270.0000    26.1255    25.9367    24.6059    -8.5706   110.1904     2.4258     0.0720     0.2026     8.5664    69.3645     0.1531
  270.5000    26.6320    26.3871    26.1844    -8.5820   105.8382     2.4311     0.0750     0.2060     8.5655    68.6380     0.1500
  271.0000    25.1331    25.8070    27.1286    -8.5960   103.3767     2.4282     0.0807     0.2094     8.5647    66.6314     0.1481
  271.5000    24.1081    25.0396    26.1474    -8.6094   104.9331     2.3925     0.0998     0.2129     8.5638    64.6559     0.1564
  272.0000    23.1263    24.2949    25.3799    -8.6228   107.6798     2.3606     0.1157     0.2200     8.5629    64.5689     0.1760
  272.5000    22.1861    23.5724    24.6349    -8.6361   110.6032     2.3625     0.1097     0.2318     8.5621    66.7774     0.1902
  273.0000    21.2839    22.8714    23.9118    -8.6495   112.4867     2.3745     0.0914     0.2420     8.5612    71.1858     0.1864
  273.5000    20.7529    22.1912    23.2099    -8.6629   114.0066     2.3831     0.0757     0.2416     8.5603    75.5411     0.1816
