~VERSION INFORMATION
 VERS.                2.0:   CWLS LOG ASCII STANDARD - VERSION 2.0
 WRAP.                 NO:   ONE LINE PER DEPTH STEP
~WELL INFORMATION
#MNEM.UNIT      DATA TYPE    INFORMATION
#----------   ------------   ------------------------------
 STRT.F            0.0000:   START DEPTH
 STOP.F          561.0000:   STOP DEPTH
 STEP.F            0.1000:   STEP LENGTH
 NULL.          -999.2500:   NO VALUE
 COMP.       F D SERV INC:   COMPANY
 WELL.  83-1 sx 10 #83-10:   WELL
 FLD .             TEAPOT:   FIELD
 LOC .      S10 T38N R78W:   LOCATION
 CNTY.            NATRONA:   COUNTY
 STAT.            WYOMING:   STATE
 CTRY. UNITED STATES OF AMERICA:   COUNTRY
 SRVC.     Atlas Wireline:   SERVICE COMPANY
 DATE.        10-DEC-1992:   LOGDATE
 API .       490252258000:   API NUMBER
~CURVE INFORMATION
#MNEM.UNIT       API CODE    CURVE DESCRIPTION
#----------   ------------   ------------------------------
 DEPT.F                  :   
 GRR .GAPI   07 310 01 00:   GAMMA RAY
 RILD.OHMM   07 120 46 00:   INDUCTION LOG DEEP RESISTIVITY
 RILM.OHMM   07 120 44 00:   INDUCTION LOG MEDIUM RESISTIVITY
~PARAMETER INFORMATION
#MNEM.UNIT          VALUE    DESCRIPTION
#----------   ------------   ------------------------------
 PD  .                 GL:   PERMANENT DATUM
 EPD .F              5170:   ELEVATION PERMANENT DATUM
 LMF .                 KB:   LOG MEASURED FROM
 DAPD.F                10:   FEET ABOVE PERMANENT DATUM
 DMF .                 KB:   DRILLING MEASURED FROM
 EKB .F              5180:   KELLING BUSHING
 EDF .F              5179:   DRILLING FLOOR
 EGL .F              5170:   GROUND LEVEL
 DATE.        10-DEC-1992:   RUN DATE
 RUN .                  1:   RUN NUMBER
 DD  .F               567:   DEPTH DRILLER
 DL  .F               569:   DEPTH LOGGER
 BLI .F               560:   BOTTOM LOG INTERVAL
 TLI .F                97:   TOP LOG INTERVAL
 CS  .IN            8.625:   CASING SIZE
 CBD .F                97:   CASING BOTTOM DRILLER
 CBL .F                97:   CASING BOTTOM LOGGER
 BS  .IN            7.875:   BIT SIZE
 BSD .F               567:   BIT SIZE AT DEPTH
 DFT .           AIR FOAM:   DRILLING FLUID TYPE
 MRT .F                65:   MAXIMUM RECORDED TEMPERATURE
 LUN .           HL- 6274:   LOGGING UNIT NUMBER
 LUL .             CASPER:   LOGGING UNIT LOCATION
 ENGI.       P. RASMUSSEN:   RECORDING ENGINEER
 WITN.          G. STRONG:   WITNESSED BY
 CLNT.            A2DTECH:   CLIENT CODE
 ORIG.           5" PRINT:   ORIGIN OF DATA
 UWI .       490252258000:   UNIQUE WELL ID
 DICO. A2D Technologies, Inc.:   DIGITIZING COMPANY
~OTHER INFORMATION
~A    DEPT      GRR      RILD       RILM   
# ...
  182.0000   113.0926    10.4049    10.1198
  182.1000   113.0932    10.4054    10.1204
  182.2000   113.0938    10.4058    10.1211
  182.3000   113.0944    10.4062    10.1218
  182.4000   113.0950    10.4067    10.1225
  182.5000   113.0956    10.4071    10.1232
  182.6000   113.0962    10.3950    10.1240
  182.7000   113.0968    10.3356    10.1815
  182.8000   113.0974    10.3361    10.1957
  182.9000   113.2445    10.3364    10.1965
  183.0000   113.4021    10.3369    10.1972
  183.1000   113.4505    10.3373    10.1979
  183.2000   113.7068    10.3224    10.1986
  183.3000   114.4649    10.2662    10.1993
  183.4000   115.0247    10.2667    10.2000
  183.5000   115.5336    10.2671    10.2007
  183.6000   116.0425    10.2265    10.2014
  183.7000   116.5513    10.1965    10.1893
  183.8000   117.0545    10.1969    10.1323
  183.9000   117.3531    10.1973    10.1332
  184.0000   117.7744    10.1978    10.0852
  184.1000   117.9612    10.1982    10.0645
  184.2000   117.9618    10.1986    10.0396
  184.3000   117.9000    10.1669     9.9822
  184.4000   117.6466    10.1285     9.9280
  184.5000   117.3567    10.1289     9.9288
  184.6000   116.9218    10.1294     9.9294
  184.7000   116.4142    10.1298     9.8920
  184.8000   115.9066    10.1302     9.8622
  184.9000   115.3989    10.0959     9.8628
  185.0000   114.8912    10.0606     9.8590
  185.1000   114.3254    10.0610     9.7962
  185.2000   114.1010    10.0614     9.7968
  185.3000   113.8474    10.0619     9.7583
  185.4000   113.7202    10.0137     9.7305
  185.5000   113.7208     9.9926     9.7141
  185.6000   113.7489     9.9671     9.6645
  185.7000   114.0255     9.9239     9.6653
  185.8000   114.0261     9.9207     9.6659
  185.9000   114.3925     9.8558     9.6264
  186.0000   114.9013     9.8561     9.6005
  186.1000   115.4102     9.8565     9.5828
  186.2000   115.8843     9.8570     9.5354
  186.3000   116.1536     9.8400     9.5362
  186.4000   116.1542     9.7828     9.4849
  186.5000   116.1548     9.7215     9.4716
  186.6000   116.1554     9.7219     9.4419
  186.7000   116.0645     9.6808     9.4075
  186.8000   115.8530     9.6550     9.4082
  186.9000   115.8537     9.6357     9.4088
  187.0000   115.8543     9.5886     9.3566
  187.1000   115.6574     9.5891     9.3032
  187.2000   115.5520     9.5352     9.2500
  187.3000   115.5527     9.5231     9.2178
  187.4000   115.5533     9.4908     9.2081
  187.5000   115.5539     9.4577     9.1554
  187.6000   115.5546     9.4581     9.1562
  187.7000   115.7598     9.4585     9.1567
  187.8000   116.0145     9.4589     9.1573
  187.9000   116.2693     9.4592     9.1358
  188.0000   116.5524     9.4245     9.0953
  188.1000   116.9341     9.3942     9.0959
  188.2000   117.3792     9.3807     9.0967
  188.3000   117.5917     9.3296     9.0972
  188.4000   117.8464     9.3301     9.0978
  188.5000   118.1012     9.3304     9.0985
  188.6000   118.3559     9.2936     9.0991
  188.7000   118.5960     9.2663     9.0997
  188.8000   118.2933     9.2666     9.1004
  188.9000   118.0744     9.2670     9.1010
  189.0000   117.8209     9.2674     9.1016
  189.1000   117.5674     9.2678     9.1023
  189.2000   117.2427     9.2286     9.1029
  189.3000   116.7569     9.2041     9.1035
  189.4000   116.4759     9.1857     9.1042
  189.5000   116.2499     9.1407     9.1048
  189.6000   115.8192     9.1412     9.1054
  189.7000   114.9279     9.1416     9.1060
  189.8000   113.3438     9.1420     9.1067
  189.9000   111.2030     9.1423     9.1073
  190.0000   110.1063     9.1427     9.1080
  190.1000   109.4051     9.1431     9.0601
  190.2000   108.8279     9.1435     9.0463
  190.3000   108.4554     9.1439     9.0469
  190.4000   108.2877     9.1001     9.0475
  190.5000   108.3248     9.0810     9.0407
  190.6000   108.5924     9.0814     8.9863
  190.7000   108.8342     9.0818     8.9869
  190.8000   109.2807     9.0788     8.9875
  190.9000   109.6471     9.0194     8.9882
  191.0000   110.2741     9.0197     8.9698
  191.1000   111.4415     9.0201     8.9272
  191.2000   112.1092     9.0205     8.9280
  191.3000   112.7769     9.0208     8.9286
  191.4000   113.4531     9.0212     8.8887
  191.5000   113.9555     9.0216     8.8681
  191.6000   114.6659     9.0220     8.8485
  191.7000   115.1245     9.0611     8.8081
  191.8000   115.2765     9.0860     8.8087
  191.9000   115.2771     9.0863     8.8094
  192.0000   115.2736     9.0867     8.8099
  192.1000   114.9749     9.0871     8.8105
  192.2000   114.7666     9.0875     8.8112
  192.3000   114.5131     9.0879     8.8118
  192.4000   114.2596     9.0882     8.8124
  192.5000   114.0061     9.0886     8.8131
  192.6000   113.7639     9.0890     8.8136
  192.7000   113.7646     9.0894     8.8142
  192.8000   113.7651     9.0898     8.8148
  192.9000   113.7657     9.0901     8.8154
  193.0000   113.8837     9.0905     8.8160
  193.1000   114.1384     9.0909     8.8167
  193.2000   114.4304     9.0913     8.8173
  193.3000   115.2857     9.0917     8.8179
  193.4000   115.9564     9.0921     8.8185
  193.5000   116.5453     9.0924     8.8191
  193.6000   117.1788     9.0928     8.8197
  193.7000   117.9418     9.0932     8.8204
  193.8000   118.7048     9.0936     8.8209
  193.9000   119.5381     9.0939     8.8215
  194.0000   120.6919     9.0944     8.8222
  194.1000   121.6005     9.0947     8.8228
  194.2000   122.2316     9.0951     8.8172
  194.3000   122.5754     9.0955     8.7631
  194.4000   122.6092     9.0773     8.7637
  194.5000   122.8802     9.0329     8.7271
  194.6000   122.8807     9.0333     8.7043
  194.7000   123.0699     9.0337     8.7049
  194.8000   123.1854     8.9930     8.7055
  194.9000   123.1860     8.9716     8.7062
  195.0000   123.1866     8.9511     8.6586
  195.1000   123.1873     8.8992     8.6472
  195.2000   122.9426     8.8483     8.6195
  195.3000   122.6891     8.8487     8.5887
  195.4000   122.5821     8.8063     8.5804
  195.5000   122.4856     8.7552     8.5306
  195.6000   122.2321     8.7270     8.4826
  195.7000   121.9769     8.7144     8.4728
  195.8000   121.7251     8.6670     8.4442
  195.9000   121.2684     8.6674     8.3959
  196.0000   120.2995     8.6235     8.3479
  196.1000   119.1338     8.6078     8.3002
  196.2000   118.2280     8.5834     8.2441
  196.3000   117.7261     8.5486     8.2446
  196.4000   117.4289     8.5434     8.2154
  196.5000   117.2190     8.4899     8.1684
  196.6000   117.1266     8.4902     8.1107
  196.7000   117.2389     8.4543     8.0195
  196.8000   117.4936     8.4052     7.9666
  196.9000   117.7483     8.3564     7.9281
  197.0000   118.0395     8.3155     7.9126
  197.1000   118.4755     8.3159     7.8922
  197.2000   118.8160     8.2692     7.8471
  197.3000   119.0707     8.2212     7.8022
  197.4000   119.4646     8.1735     7.7520
  197.5000   120.2276     8.1260     7.7132
  197.6000   121.0781     8.0788     7.6995
  197.7000   121.5286     8.0311     7.6783
  197.8000   121.8618     7.9216     7.6344
  197.9000   122.1165     7.8837     7.5950
  198.0000   122.2944     7.8379     7.5957
  198.1000   122.3225     7.7924     7.5564
  198.2000   122.5991     7.7357     7.5442
  198.3000   122.5997     7.6485     7.5222
  198.4000   122.6003     7.5985     7.4931
  198.5000   122.6009     7.5600     7.4881
  198.6000   122.6015     7.5161     7.4425
  198.7000   122.6021     7.4940     7.4028
  198.8000   122.6028     7.4811     7.3921
  198.9000   122.6033     7.4424     7.3926
  199.0000   122.7941     7.4428     7.3781
  199.1000   122.9080     7.4431     7.3424
  199.2000   123.0001     7.4116     7.3431
  199.3000   123.2548     7.3919     7.3435
  199.4000   123.5169     7.3922     7.3441
  199.5000   123.5174     7.3925     7.3446
  199.6000   123.9130     7.3929     7.3451
  199.7000   124.2738     7.3932     7.3377
  199.8000   124.5285     7.3935     7.2954
  199.9000   124.7832     7.3938     7.2959
  200.0000   125.0379     7.3941     7.2964
  200.1000   125.0387     7.3944     7.2969
