~VERSION INFORMATION
 VERS.                2.0:   CWLS LOG ASCII STANDARD - VERSION 2.0
 WRAP.                 NO:   ONE LINE PER DEPTH STEP
~WELL INFORMATION
#MNEM.UNIT      DATA TYPE    INFORMATION
#----------   ------------   ------------------------------
 STRT.F         1596.0000:   START DEPTH
 STOP.F         3210.0000:   STOP DEPTH
 STEP.F            0.5000:   STEP LENGTH
 NULL.          -999.2500:   NO VALUE
 COMP.   FLUOR DANIEL INC:   COMPANY
 WELL. NAVAL PETROLEUM RESERVE 3 X-23 #73-23:   WELL
 FLD .             TEAPOT:   FIELD
 LOC .      S23 T38N R78W:   LOCATION
 CNTY.            NATRONA:   COUNTY
 STAT.            WYOMING:   STATE
 CTRY. UNITED STATES OF AMERICA:   COUNTRY
 SRVC.            Unknown:   SERVICE COMPANY
 DATE.        29-JAN-1995:   LOGDATE
 API .       490252265000:   API NUMBER
~CURVE INFORMATION
#MNEM.UNIT       API CODE    CURVE DESCRIPTION
#----------   ------------   ------------------------------
 DEPT.F                  :   
 TGAS.TC/CC  91 830 01 00:   TOTAL GAS UNIT
 ROP .FT/HR  91 810 01 00:   RAT OF DRILLING PENETRATION
~PARAMETER INFORMATION
#MNEM.UNIT          VALUE    DESCRIPTION
#----------   ------------   ------------------------------
 EKB .F              5433:   KELLING BUSHING
 EGL .F              5423:   GROUND LEVEL
 DATE.        29-JAN-1995:   RUN DATE
 RUN .                  1:   RUN NUMBER
 BLI .F              3210:   BOTTOM LOG INTERVAL
 TLI .F              1600:   TOP LOG INTERVAL
 WITN.     C.TOWER/R.HUSK:   WITNESSED BY
 CLNT.            A2DTECH:   CLIENT CODE
 ORIG.           5" PRINT:   ORIGIN OF DATA
 UWI .       490252265000:   UNIQUE WELL ID
 DICO. A2D Technologies, Inc.:   DIGITIZING COMPANY
~OTHER INFORMATION
~A  DEPT        TGAS        ROP 
# ...
 2568.0000     0.6030     0.5245
 2568.5000     0.7824     0.5337
 2569.0000     0.7732     0.5335
 2569.5000     0.7640     0.5332
 2570.0000     0.7547     0.6557
 2570.5000     0.7453     0.6554
 2571.0000     0.7358     0.6552
 2571.5000     0.9157     0.6644
 2572.0000     0.9057     0.5698
 2572.5000     0.8962     0.5507
 2573.0000     0.8868     0.5505
 2573.5000     0.8774     0.5510
 2574.0000     0.8679     0.5516
 2574.5000     0.8585     0.5521
 2575.0000     0.8491     0.5526
 2575.5000     0.8386     0.5531
 2576.0000     1.0203     0.5537
 2576.5000     0.8199     0.5542
 2577.0000     1.0016     0.5547
 2577.5000     0.9900     0.5552
 2578.0000     1.1717     0.5558
 2578.5000     1.1600     0.5563
 2579.0000     1.1507     0.5566
 2579.5000     1.1414     0.5660
 2580.0000     1.1234     0.5660
 2580.5000     1.0786     0.5660
 2581.0000     1.0338     0.5660
 2581.5000     0.9890     0.5660
 2582.0000     0.9442     0.5566
 2582.5000     0.8995     0.5472
 2583.0000     0.8486     0.5472
 2583.5000     0.8627     0.5472
 2584.0000     0.8767     0.5377
 2584.5000     0.8907     0.5377
 2585.0000     1.0950     0.5377
 2585.5000     1.1090     0.5377
 2586.0000     1.1230     0.5377
 2586.5000     0.9466     0.5377
 2587.0000     0.9609     0.5377
 2587.5000     0.9871     0.5377
 2588.0000     1.1825     0.5377
 2588.5000     1.3868     0.5402
 2589.0000     1.5911     0.5472
 2589.5000     1.6051     0.5472
 2590.0000     1.4253     0.5472
 2590.5000     1.4428     0.5472
 2591.0000     1.6471     0.5472
 2591.5000     1.6611     0.5472
 2592.0000     1.6751     0.5472
 2592.5000     1.6891     0.5472
 2593.0000     1.7031     0.5472
 2593.5000     1.9075     0.5472
 2594.0000     1.9218     0.5472
 2594.5000     1.9360     0.5472
 2595.0000     1.5724     0.5440
 2595.5000     1.3926     0.5094
 2596.0000     1.2164     0.5000
 2596.5000     1.2320     0.5000
 2597.0000     1.2479     0.5000
 2597.5000     1.2619     0.5000
 2598.0000     1.2759     0.4906
 2598.5000     1.2899     0.4906
 2599.0000     1.3039     0.4906
 2599.5000     1.3179     0.4811
 2600.0000     1.3319     0.4906
 2600.5000     1.3462     0.4910
 2601.0000     1.3605     0.4915
 2601.5000     1.3774     0.4920
 2602.0000     1.3915     0.4925
 2602.5000     1.4055     0.4933
 2603.0000     1.4195     0.5028
 2603.5000     1.4818     0.5033
 2604.0000     1.6378     0.5039
 2604.5000     1.6518     0.5042
 2605.0000     1.6587     0.5048
 2605.5000     1.6586     0.5052
 2606.0000     1.6584     0.5057
 2606.5000     1.6582     0.6477
 2607.0000     1.6581     0.6481
 2607.5000     1.6579     0.6580
 2608.0000     1.6578     0.7906
 2608.5000     1.6576     0.7910
 2609.0000     1.6436     0.8009
 2609.5000     1.8234     0.8108
 2610.0000     1.9961     0.8208
 2610.5000     1.9821     0.8307
 2611.0000     2.0312     0.8312
 2611.5000     2.1479     0.8317
 2612.0000     2.1304     0.8321
 2612.5000     2.1164     0.5873
 2613.0000     2.1024     0.5688
 2613.5000     1.8980     0.5694
 2614.0000     1.6934     0.5698
 2614.5000     1.6792     0.5703
 2615.0000     1.6623     0.5708
 2615.5000     1.6483     0.5712
 2616.0000     1.6343     0.5717
 2616.5000     1.6203     0.5659
 2617.0000     1.6062     0.5543
 2617.5000     1.5922     0.5428
 2618.0000     1.3880     0.5764
 2618.5000     1.3739     0.6517
 2619.0000     1.3599     0.6514
 2619.5000     1.3459     0.6512
 2620.0000     1.1417     0.7830
 2620.5000     1.3179     0.7828
 2621.0000     1.1131     0.7825
 2621.5000     1.0961     0.7823
 2622.0000     1.0656     0.7915
 2622.5000     0.8778     0.8007
 2623.0000     0.8638     0.8099
 2623.5000     0.8498     0.8096
 2624.0000     0.8358     0.8189
 2624.5000     0.8218     0.6299
 2625.0000     0.8078     0.6297
 2625.5000     0.6035     0.6200
 2626.0000     0.5895     0.6198
 2626.5000     0.4341     0.6247
 2627.0000     0.3710     0.6288
 2627.5000     0.3568     0.6285
 2628.0000     0.3397     0.6283
 2628.5000     0.3257     0.6280
 2629.0000     0.3117     0.6278
 2629.5000     0.4914     0.6370
 2630.0000     0.4739     0.6273
 2630.5000     0.4599     0.6271
 2631.0000     0.4471     0.6269
 2631.5000     0.4319     0.6266
 2632.0000     0.4179     0.6358
 2632.5000     0.4039     0.6451
 2633.0000     0.3901     0.6448
 2633.5000     0.3758     0.6445
 2634.0000     0.3615     0.6443
 2634.5000     0.3473     0.6441
 2635.0000     0.9514     0.6344
 2635.5000     0.9514     0.6247
 2636.0000     0.7611     0.7566
 2636.5000     0.7611     0.8036
 2637.0000     0.7611     0.7939
 2637.5000     0.7611     0.7936
 2638.0000     0.7611     0.7934
 2638.5000     0.7611     0.7932
 2639.0000     0.7611     0.7929
 2639.5000     0.7880     0.7926
 2640.0000     0.9514     0.7883
 2640.5000     0.9514     0.7733
 2641.0000     0.7611     0.7731
 2641.5000     0.9514     0.7701
 2642.0000     0.9514     0.7632
 2642.5000     0.7611     0.7724
 2643.0000     0.7611     0.7722
 2643.5000     0.7611     0.7814
 2644.0000     0.7611     0.6774
 2644.5000     0.7611     0.6488
 2645.0000     0.5708     0.6486
 2645.5000     0.5708     0.6483
 2646.0000     0.5708     0.6386
 2646.5000     0.5708     0.6384
 2647.0000     0.5754     0.6382
 2647.5000     0.5933     0.6379
 2648.0000     0.6113     0.6377
 2648.5000     0.6292     0.6375
 2649.0000     0.6471     0.6373
 2649.5000     0.6651     0.6370
 2650.0000     0.6830     0.6368
 2650.5000     0.7009     0.6460
 2651.0000     0.7189     0.6458
 2651.5000     0.7340     0.6455
 2652.0000     0.5320     0.6452
 2652.5000     0.5226     0.6545
 2653.0000     0.7058     0.6637
 2653.5000     0.6940     0.6729
 2654.0000     0.6850     0.6726
 2654.5000     0.6752     0.6724
 2655.0000     0.6658     0.6627
 2655.5000     0.6564     0.6342
 2656.0000     0.6469     0.5396
 2656.5000     0.6374     0.5205
 2657.0000     0.6279     0.5203
 2657.5000     0.6184     0.5200
 2658.0000     0.6089     0.5293
 2658.5000     0.5994     0.5290
 2659.0000     0.5881     0.5382
 2659.5000     0.5787     0.5380
 2660.0000     0.3790     0.5472
 2660.5000     0.3696     0.5564
 2661.0000     0.3601     0.5561
 2661.5000     0.3507     0.5559
 2662.0000     0.3413     0.5556
 2662.5000     0.3319     0.5554
 2663.0000     0.3225     0.5647
 2663.5000     0.3436     0.5644
 2664.0000     0.4963     0.5547
 2664.5000     0.5012     0.5545
 2665.0000     0.5295     0.5354
 2665.5000     0.5579     0.5351
 2666.0000     0.5862     0.5255
 2666.5000     0.6146     0.5252
 2667.0000     0.6375     0.5250
 2667.5000     0.6422     0.5247
 2668.0000     0.4565     0.5151
 2668.5000     0.4623     0.5168
 2669.0000     0.4670     0.5241
 2669.5000     0.4709     0.5238
 2670.0000     0.5708     0.5236
 2670.5000     0.6700     0.5233
 2671.0000     0.6758     0.5231
 2671.5000     0.6802     0.5229
 2672.0000     0.6851     0.5226
 2672.5000     0.6898     0.5224
 2673.0000     0.6945     0.5316
 2673.5000     0.6993     0.5314
 2674.0000     0.7049     0.5311
 2674.5000     0.8998     0.5309
 2675.0000     0.9038     0.5306
 2675.5000     0.9091     0.5210
 2676.0000     0.9138     0.5235
 2676.5000     0.9184     0.5257
 2677.0000     0.7316     0.5278
 2677.5000     0.7375     0.5300
 2678.0000     0.5518     0.5322
 2678.5000     0.5566     0.5343
 2679.0000     0.5613     0.5365
 2679.5000     0.5661     0.5377
 2680.0000     0.7619     0.5377
 2680.5000     0.7665     0.5377
 2681.0000     0.5797     0.5377
 2681.5000     0.5856     0.5377
 2682.0000     0.7805     0.5377
 2682.5000     0.5937     0.5377
 2683.0000     0.5994     0.5377
 2683.5000     0.6042     0.5377
 2684.0000     0.6089     0.5472
 2684.5000     0.6136     0.5472
 2685.0000     0.6193     0.5566
 2685.5000     0.6239     0.5472
 2686.0000     0.6286     0.7830
 2686.5000     0.6332     0.7830
 2687.0000     0.7060     0.7830
 2687.5000     0.7884     0.7830
 2688.0000     0.8707     0.5566
 2688.5000     0.9514     0.5468
 2689.0000     1.0624     0.5377
