~VERSION INFORMATION
 VERS.                2.0:   CWLS LOG ASCII STANDARD - VERSION 2.0
 WRAP.                 NO:   ONE LINE PER DEPTH STEP
~WELL INFORMATION
#MNEM.UNIT      DATA TYPE    INFORMATION
#----------   ------------   ------------------------------
 STRT.F           11.5000:   START DEPTH
 STOP.F          583.0000:   STOP DEPTH
 STEP.F            0.5000:   STEP LENGTH
 NULL.          -999.2500:   NO VALUE
 COMP.    FENIX & SCISSON:   COMPANY
 WELL.      41 SX 3 #41-3:   WELL
 FLD .             TEAPOT:   FIELD
 LOC .       S3 T38N R78W:   LOCATION
 CNTY.            NATRONA:   COUNTY
 STAT.            WYOMING:   STATE
 CTRY. UNITED STATES OF AMERICA:   COUNTRY
 SRVC.            Unknown:   SERVICE COMPANY
 DATE.        01-DEC-1978:   LOGDATE
 API .       490251074000:   API NUMBER
~CURVE INFORMATION
#MNEM.UNIT       API CODE    CURVE DESCRIPTION
#----------   ------------   ------------------------------
 DEPT.F                  :   
 SPR .MV     05 010 01 00:   SPONTANEOUS POTENTIAL FROM RES.
 SN  .OHMM   05 040 16 00:   SHORT NORMAL 16"
 IL  .OHMM   05 120 00 00:   INDUCTION LOG
 GRD .GAPI   45 310 01 00:   GAMMA RAY FROM DENSITY LOG
 CALD.IN     45 280 60 00:   CALIPER
 DEN .G/C3   45 350 01 00:   COMPENSATED BULK DENSTIY
 CORR.G/C3   45 356 01 00:   DENSITY CORRECTION
 DPHI.DEC    45 890 12 00:   DENSITY POROSITY SANDSTONE
~PARAMETER INFORMATION
#MNEM.UNIT          VALUE    DESCRIPTION
#----------   ------------   ------------------------------
 PD  .                 GL:   PERMANENT DATUM
 EPD .F              5150:   ELEVATION PERMANENT DATUM
 LMF .                 KB:   LOG MEASURED FROM
 DAPD.F                 4:   FEET ABOVE PERMANENT DATUM
 DMF .                 KB:   DRILLING MEASURED FROM
 EKB .F              5154:   KELLING BUSHING
 EGL .F              5150:   GROUND LEVEL
 DATE.            12-1-78:   RUN DATE
 RUN .                  1:   RUN NUMBER
 DD  .F               600:   DEPTH DRILLER
 DL  .F               582:   DEPTH LOGGER
 BLI .F               576:   BOTTOM LOG INTERVAL
 TLI .F                42:   TOP LOG INTERVAL
 CS  .IN            8.625:   CASING SIZE
 CBD .F                40:   CASING BOTTOM DRILLER
 CBL .F                41:   CASING BOTTOM LOGGER
 BS  .IN            7.875:   BIT SIZE
 BSD .F               600:   BIT SIZE AT DEPTH
 DFT .                KCL:   DRILLING FLUID TYPE
 DFD .                8.8:   DRILLING FLUID DENSITY
 DFV .                 35:   DRILLING FLUID VISCOSITY
 DFPH.               11.2:   DRILLING FLUID PH
 DFL .               11.6:   DRILLING FLUID LOSS
 MSS .          FLOW LINE:   MUD SAMPLE SOURCE
 RMS .OHMM            .36:   RESISTIVITY MUD SAMPLE
 MST .F                52:   MUD SAMPLE TEMPERATURE
 RMF .OHMM            .36:   RESISTIVITY MUD FILTRATE SAMPLE
 MFST.F                55:   MUD FILTRATE SAMPLE TEMPERATURE
 RMC .OHMM            .42:   RESISTIVITY MUD CAKE
 MCST.F                60:   MUD CAKE SAMPLE TEMPERATURE
 MFSS.           MEASURED:   MUD FILTRATE SAMPLE SOURCE
 MCSS.           MEASURED:   MUD CAKE SAMPLE SOURCE
 RMB .OHMM            .32:   RESISTIVITY MUD AT BHT
 BHT .F                58:   BOTTOM HOLE TEMPERATURE
 MRT .F                58:   MAXIMUM RECORDED TEMPERATURE
 LUN .               2958:   LOGGING UNIT NUMBER
 LUL .                CPR:   LOGGING UNIT LOCATION
 ENGI.            ROLLINS:   RECORDING ENGINEER
 WITN.              AMEND:   WITNESSED BY
 CLNT.            A2DTECH:   CLIENT CODE
 ORIG.       2", 5" PRINT:   ORIGIN OF DATA
 UWI .       490251074000:   UNIQUE WELL ID
 DICO. A2D Technologies, Inc.:   DIGITIZING COMPANY
~OTHER INFORMATION
~A   DEPT      SPR         SN         IL         GRD      CALD        DEN       CORR       DPHI   
# ...
  376.0000   -36.7243     8.6855     8.4705   102.2445     8.1430     2.4900     0.0319     0.1147
  376.5000   -37.1021     8.6954     8.4721   102.9825     8.1432     2.4962     0.0279     0.1117
  377.0000   -37.1550     8.7086     8.4522   102.3372     8.1434     2.4910     0.0239     0.1245
  377.5000   -37.2214     8.6866     8.3926   101.7020     8.1436     2.4789     0.0217     0.1336
  378.0000   -37.2895     8.6564     7.4168   101.4782     8.1439     2.4667     0.0261     0.1385
  378.5000   -37.3571     8.6285     6.9816   100.1240     8.1441     2.4597     0.0302     0.1310
  379.0000   -37.4235     8.2393     6.8491    95.6069     8.1443     2.4642     0.0342     0.1260
  379.5000   -37.4599     7.8954     6.8491    89.6227     8.1446     2.4780     0.0344     0.1210
  380.0000   -37.3808     7.4411     6.8491    93.2374     8.1454     2.4942     0.0274     0.1179
  380.5000   -37.3051     7.4994     6.8491    98.2583     8.1202     2.5057     0.0210     0.1173
  381.0000   -37.1182     7.7937     6.9854    98.4028     8.0903     2.5001     0.0229     0.1183
  381.5000   -36.8591     8.2720     7.3465    97.6108     8.0601     2.4949     0.0253     0.1186
  382.0000   -36.5989     8.7882     7.9021    98.8574     8.0302     2.4897     0.0265     0.1187
  382.5000   -36.2144     9.3369     8.6524   103.2152     8.0322     2.4895     0.0237     0.1188
  383.0000   -35.7292     9.9183     9.4496   105.2258     8.0361     2.4895     0.0210     0.1189
  383.5000   -35.2851    10.4758    10.1149   106.0065     8.0398     2.4872     0.0227     0.1240
  384.0000   -35.1023    10.8063    10.4758   108.2473     8.0435     2.4818     0.0255     0.1290
  384.5000   -34.9325    10.9710    10.4747   110.2740     8.0471     2.4763     0.0283     0.1344
  385.0000   -34.7629    10.9726    10.4766   109.3714     8.0606     2.4707     0.0312     0.1341
  385.5000   -34.5934    10.9721    10.4768   105.1981     8.0777     2.4707     0.0341     0.1292
  386.0000   -34.3392    10.9721    10.4723   100.9476     8.0949     2.4743     0.0365     0.1241
  386.5000   -33.9571    11.1895    11.3516    96.6757     8.1121     2.4818     0.0258     0.1385
  387.0000   -33.5778    11.4722    12.1332    90.1733     8.1294     2.4758     0.0147     0.1529
  387.5000   -33.2029    11.8969    12.9918    81.3071     8.1447     2.4530     0.0089     0.1673
  388.0000   -32.5862    12.4479    14.0544    72.3269     8.1349     2.4095     0.0089     0.1826
  388.5000   -31.7285    13.0292    15.2040    64.0857     8.1237     2.3674     0.0095     0.2155
  389.0000   -30.8659    13.6778    16.3217    62.9328     8.1127     2.3254     0.0132     0.2506
  389.5000   -29.9856    14.3591    18.2968    62.0030     8.1016     2.2887     0.0174     0.2596
  390.0000   -29.0693    15.0738    20.3033    60.2941     8.0905     2.2626     0.0323     0.2559
  390.5000   -28.1225    15.8225    22.5299    57.6503     8.0793     2.2560     0.0473     0.2285
  391.0000   -27.3691    16.6129    23.4775    59.9302     8.0682     2.2991     0.0588     0.1974
  391.5000   -26.6352    17.3444    23.8374    63.8104     8.0842     2.3428     0.0577     0.1801
  392.0000   -25.8936    17.9672    23.7956    64.1763     8.1024     2.3803     0.0564     0.1742
  392.5000   -25.7368    18.4498    23.7531    67.4291     8.1207     2.4022     0.0717     0.1763
  393.0000   -25.7180    18.8255    23.7129    69.5520     8.1389     2.4007     0.0905     0.1725
  393.5000   -25.7040    19.0972    23.6718    69.3499     8.1369     2.4003     0.1020     0.1688
  394.0000   -25.6896    19.0780    23.6175    69.8880     8.1025     2.4089     0.1079     0.1585
  394.5000   -25.6748    19.0184    23.6196    72.1018     8.0693     2.4177     0.1063     0.1474
  395.0000   -25.6600    18.9590    23.3657    73.7378     8.0360     2.4299     0.0985     0.1401
  395.5000   -25.6452    18.8998    23.1858    70.8835     8.0026     2.4426     0.0903     0.1390
  396.0000   -25.6304    18.8408    22.8595    67.3228     7.9715     2.4555     0.0714     0.1427
  396.5000   -25.6156    18.7819    22.4854    66.3735     7.9741     2.4584     0.0523     0.1578
  397.0000   -25.6008    18.7476    22.3444    67.8450     7.9781     2.4383     0.0353     0.1728
  397.5000   -25.5861    18.7476    22.3444    69.6315     7.9819     2.4131     0.0236     0.1886
  398.0000   -25.5714    18.7476    22.3445    70.2994     7.9857     2.3878     0.0189     0.2006
  398.5000   -25.5554    18.7476    22.3445    70.6786     7.9895     2.3626     0.0185     0.2132
  399.0000   -25.5118    18.6011    22.3432    71.0362     7.9933     2.3397     0.0183     0.2213
  399.5000   -25.3930    18.4074    22.3423    72.2436     7.9971     2.3249     0.0181     0.2231
  400.0000   -25.2786    18.2352    22.3382    73.8508     8.0009     2.3157     0.0179     0.2272
  400.5000   -25.1645    18.2246    22.6176    75.0856     8.0047     2.3092     0.0176     0.2323
  401.0000   -25.0502    18.2093    22.8682    73.6651     8.0085     2.2994     0.0174     0.2428
  401.5000   -24.9355    18.1941    23.1216    69.4052     8.0124     2.2865     0.0171     0.2576
  402.0000   -24.8200    18.1789    23.3778    64.5619     8.0162     2.2588     0.0169     0.2711
  402.5000   -24.6114    18.1637    23.6368    64.5543     8.0200     2.2402     0.0169     0.2686
  403.0000   -24.2451    18.1485    23.8987    67.3021     8.0238     2.2407     0.0169     0.2627
  403.5000   -23.8818    18.1333    24.1635    70.0770     8.0276     2.2568     0.0169     0.2539
  404.0000   -23.5683    18.1182    24.4312    72.8624     8.0261     2.2736     0.0169     0.2456
  404.5000   -23.6268    18.1030    24.5073    75.6682     8.0198     2.2858     0.0177     0.2409
  405.0000   -23.6907    18.0879    24.1834    74.1660     8.0135     2.2870     0.0186     0.2296
  405.5000   -23.7534    18.0728    23.8938    72.3767     8.0121     2.2996     0.0194     0.2238
  406.0000   -23.8163    17.9592    23.6077    73.4846     8.0263     2.3155     0.0203     0.2197
  406.5000   -23.8785    17.7941    23.3250    74.4063     8.0402     2.3315     0.0212     0.2075
  407.0000   -23.9348    17.6304    23.0457    74.9329     8.0542     2.3461     0.0221     0.2020
  407.5000   -24.2254    17.4682    22.7698    75.3590     8.0681     2.3504     0.0230     0.1985
  408.0000   -24.5760    17.3076    22.4977    73.3769     8.0824     2.3550     0.0238     0.1950
  408.5000   -24.9291    17.1484    22.2293    71.2558     8.0626     2.3596     0.0247     0.1916
  409.0000   -25.2821    16.9907    21.9377    69.2478     8.0262     2.3667     0.0256     0.1878
  409.5000   -25.6352    16.8344    21.4653    70.8465     8.0322     2.3747     0.0266     0.1838
  410.0000   -25.9895    16.6783    20.9532    72.8222     8.0724     2.3828     0.0256     0.1783
  410.5000   -26.3333    16.5499    20.4544    74.6620     8.0866     2.3909     0.0234     0.1809
  411.0000   -26.3975    16.4361    20.3730    75.4817     8.0870     2.3948     0.0212     0.1851
  411.5000   -26.4501    16.3221    20.3730    76.2598     8.0867     2.3837     0.0190     0.1893
  412.0000   -26.5019    16.3068    20.3730    76.9143     8.0748     2.3725     0.0167     0.1934
  412.5000   -26.5033    16.2879    20.3730    77.2371     8.0622     2.3632     0.0145     0.1971
  413.0000   -26.3599    16.2690    20.3730    76.6107     8.0495     2.3601     0.0129     0.2002
  413.5000   -26.2224    16.2502    20.3730    76.2488     8.0369     2.3568     0.0130     0.1995
  414.0000   -26.1590    16.2312    20.3731    76.6656     8.0243     2.3556     0.0130     0.1988
  414.5000   -26.1936    16.2120    20.3730    76.7510     8.0117     2.3549     0.0130     0.2015
  415.0000   -26.2276    16.1942    20.4845    74.3582     7.9991     2.3544     0.0129     0.2063
  415.5000   -26.2621    16.1688    20.6558    74.1041     7.9822     2.3464     0.0132     0.2112
  416.0000   -26.2969    16.4112    20.8280    76.6395     7.9551     2.3354     0.0135     0.2133
