~VERSION INFORMATION
 VERS.                2.0:   CWLS LOG ASCII STANDARD - VERSION 2.0
 WRAP.                 NO:   ONE LINE PER DEPTH STEP
~WELL INFORMATION
#MNEM.UNIT      DATA TYPE    INFORMATION
#----------   ------------   ------------------------------
 STRT.F           20.0000:   START DEPTH
 STOP.F          565.0000:   STOP DEPTH
 STEP.F            0.5000:   STEP LENGTH
 NULL.          -999.2500:   NO VALUE
 COMP. FENIX & SCISSON INC:   COMPANY
 WELL.     NPR-3 #12-SX-3:   WELL
 FLD .        TEAPOT DOME:   FIELD
 LOC .       S3 T38N R78W:   LOCATION
 CNTY.            NATRONA:   COUNTY
 STAT.            WYOMING:   STATE
 CTRY. UNITED STATES OF AMERICA:   COUNTRY
 SRVC.           BIRDWELL:   SERVICE COMPANY
 DATE.        29-JUL-1978:   LOGDATE
 API .       490251067000:   API NUMBER
~CURVE INFORMATION
#MNEM.UNIT       API CODE    CURVE DESCRIPTION
#----------   ------------   ------------------------------
 DEPT.F                  :   
 SPR .MV     05 010 01 00:   SPONTANEOUS POTENTIAL FROM RES.
 SN  .OHMM   05 040 16 00:   SHORT NORMAL 16"
 IL  .OHMM   05 120 00 00:   INDUCTION LOG
 GRD .GAPI   45 310 01 00:   GAMMA RAY FROM DENSITY LOG
 CALD.IN     45 280 60 00:   CALIPER
 CORR.G/C3   45 356 01 00:   DENSITY CORRECTION
 RHOB.G/C3   45 350 01 00:   BULK DENSITY
 DPHI.DEC    45 890 12 00:   DENSITY POROSITY SANDSTONE
~PARAMETER INFORMATION
#MNEM.UNIT          VALUE    DESCRIPTION
#----------   ------------   ------------------------------
 PD  .                 GL:   PERMANENT DATUM
 EPD .F              5191:   ELEVATION PERMANENT DATUM
 LMF .                 KB:   LOG MEASURED FROM
 DAPD.F                 4:   FEET ABOVE PERMANENT DATUM
 DMF .                 KB:   DRILLING MEASURED FROM
 EKB .F              5195:   KELLING BUSHING
 EGL .F              5191:   GROUND LEVEL
 DATE.            7-29-78:   RUN DATE
 RUN .                  1:   RUN NUMBER
 DD  .F               565:   DEPTH DRILLER
 DL  .F               571:   DEPTH LOGGER
 BLI .F               565:   BOTTOM LOG INTERVAL
 TLI .F                40:   TOP LOG INTERVAL
 CS  .IN            8.625:   CASING SIZE
 CBD .F                40:   CASING BOTTOM DRILLER
 CBL .F                40:   CASING BOTTOM LOGGER
 BS  .IN            7.875:   BIT SIZE
 BSD .F               565:   BIT SIZE AT DEPTH
 DFT .                KCL:   DRILLING FLUID TYPE
 DFD .                8.6:   DRILLING FLUID DENSITY
 DFV .                 31:   DRILLING FLUID VISCOSITY
 DFPH.                  9:   DRILLING FLUID PH
 RMS .OHMM            .32:   RESISTIVITY MUD SAMPLE
 MST .F                70:   MUD SAMPLE TEMPERATURE
 TCS .HRS               1:   TIME CURCULATED STOPPED
 LUN .               2958:   LOGGING UNIT NUMBER
 LUL .               CASP:   LOGGING UNIT LOCATION
 ENGI.              HONEA:   RECORDING ENGINEER
 WITN.              AMEND:   WITNESSED BY
 CLNT.            A2DTECH:   CLIENT CODE
 ORIG.           5" PRINT:   ORIGIN OF DATA
 UWI .       490251067000:   UNIQUE WELL ID
 DICO. A2D Technologies, Inc.:   DIGITIZING COMPANY
~OTHER INFORMATION
~A   DEPT      SPR         SN         IL         GRD      CALD       CORR       RHOB       DPHI   
# ...
  222.5000   -33.1864    11.2855     9.4242    84.7109     7.6116     0.0450     2.4772     0.1210
  223.0000   -33.1596    11.4306     9.5733    84.4307     7.6122     0.0437     2.4755     0.1185
  223.5000   -32.9525    11.5777     9.7247    83.7897     7.6127     0.0424     2.4833     0.1182
  224.0000   -32.9520    11.7266     9.8785    83.1566     7.6132     0.0411     2.4934     0.1184
  224.5000   -32.9414    11.8774    10.0347    82.5360     7.6137     0.0398     2.4928     0.1189
  225.0000   -32.9264    12.0302    10.1934    83.1889     7.6142     0.0411     2.4850     0.1186
  225.5000   -32.9118    12.1849    10.3521    84.7647     7.6145     0.0425     2.4855     0.1178
  226.0000   -32.8971    12.3416    10.5237    83.6133     7.6149     0.0439     2.4925     0.1179
  226.5000   -32.8824    12.5050    10.8120    80.6862     7.6153     0.0452     2.4875     0.1184
  227.0000   -32.8677    12.6828    11.1437    77.7617     7.6157     0.0458     2.4876     0.1189
  227.5000   -32.8530    12.6783    11.2468    74.8132     7.6161     0.0442     2.4876     0.1185
  228.0000   -32.8383    12.6104    11.2485    74.9487     7.6165     0.0424     2.4900     0.1214
  228.5000   -32.8236    12.5456    11.2069    78.4742     7.6169     0.0418     2.4938     0.1263
  229.0000   -32.8089    12.4812    11.1592    79.6181     7.6173     0.0417     2.4799     0.1264
  229.5000   -32.7943    12.4171    11.1117    79.7438     7.6177     0.0417     2.4746     0.1270
  230.0000   -32.7796    12.3534    11.0645    80.7843     7.6181     0.0417     2.4728     0.1290
  230.5000   -32.7649    12.2188    11.0175    78.9223     7.6185     0.0417     2.4712     0.1350
  231.0000   -32.7502    12.2218    10.9706    77.0027     7.6189     0.0418     2.4656     0.1364
  231.5000   -32.7355    12.2178    10.9240    77.1207     7.6192     0.0444     2.4502     0.1328
  232.0000   -32.7208    12.2188    10.8775    79.5119     7.6196     0.0530     2.4531     0.1293
  232.5000   -32.7061    12.2188    10.8313    81.1203     7.6200     0.0618     2.4593     0.1237
  233.0000   -32.6915    12.2188    10.7853    76.1244     7.6204     0.0636     2.4690     0.1209
  233.5000   -32.6768    12.2188    10.7394    70.3623     7.6208     0.0636     2.4820     0.1209
  234.0000   -32.6621    12.2188    10.6938    70.2273     7.6212     0.0636     2.4851     0.1229
  234.5000   -32.6474    12.2191    10.6483    70.3923     7.6216     0.0605     2.4790     0.1209
  235.0000   -32.6327    12.2181    10.6030    70.6809     7.6220     0.0523     2.4821     0.1175
  235.5000   -32.6180    12.2146    10.5580    70.9926     7.6224     0.0441     2.5168     0.1146
  236.0000   -32.6033    12.2243    10.5131    70.1373     7.6228     0.0359     2.5123     0.1205
  236.5000   -32.5886    11.9508    10.4684    69.0955     7.6232     0.0277     2.4880     0.1300
  237.0000   -32.5741    11.8116    10.4479    74.0741     7.6236     0.0200     2.4714     0.1311
  237.5000   -32.5650    11.6756    10.3999    75.2381     7.6240     0.0218     2.4673     0.1316
  238.0000   -32.5652    11.5412    10.3359    75.6072     7.6244     0.0314     2.4631     0.1316
  238.5000   -32.5651    11.4083    10.2722    74.9577     7.6248     0.0406     2.4628     0.1311
  239.0000   -32.5651    11.2769    10.2090    72.0531     7.6252     0.0418     2.4696     0.1310
  239.5000   -32.5651    11.1470    10.1461    71.9687     7.6256     0.0397     2.4652     0.1308
  240.0000   -32.5651    11.0187    10.0836    71.9690     7.6259     0.0367     2.4650     0.1308
  240.5000   -32.5651    10.8918    10.0215    73.0063     7.6263     0.0337     2.4665     0.1315
  241.0000   -32.5651    10.7664     9.9598    74.3267     7.6267     0.0305     2.4685     0.1326
  241.5000   -32.5651    10.6424     9.8985    75.6218     7.6271     0.0299     2.4667     0.1332
  242.0000   -32.5651    10.5446     9.8375    76.1227     7.6275     0.0333     2.4601     0.1317
  242.5000   -32.5651    10.5446     9.7769    74.5188     7.6279     0.0355     2.4552     0.1253
  243.0000   -32.5651    10.5171     9.7167    72.9511     7.6283     0.0347     2.4825     0.1237
  243.5000   -32.5651    10.4508     9.5286    71.3271     7.6287     0.0338     2.4820     0.1278
  244.0000   -32.5651    10.3850     9.4413    70.7926     7.6291     0.0330     2.4776     0.1336
  244.5000   -32.5651    10.3196     9.3884    71.5838     7.6295     0.0321     2.4730     0.1384
  245.0000   -32.5651    10.2572     9.3051    73.8637     7.6299     0.0323     2.4571     0.1381
  245.5000   -32.5651    10.1530     9.2226    76.1211     7.6303     0.0351     2.4537     0.1380
  246.0000   -32.5651    10.1301     9.1408    78.3390     7.6307     0.0378     2.4558     0.1443
  246.5000   -32.5651    10.1072     9.0597    78.5404     7.6311     0.0406     2.4428     0.1449
  247.0000   -32.5651    10.0844     9.0103    77.6423     7.6315     0.0433     2.4439     0.1453
  247.5000   -32.5651    10.0617     8.9973    75.6163     7.6319     0.0437     2.4448     0.1459
  248.0000   -32.5651    10.0389     8.9843    75.0789     7.6323     0.0437     2.4438     0.1498
  248.5000   -32.5651    10.0163     8.9713    74.7367     7.6327     0.0437     2.4396     0.1541
  249.0000   -32.5651     9.9945     8.9583    76.9087     7.6331     0.0433     2.4250     0.1549
  249.5000   -32.5651     9.9777     8.9454    79.9823     7.6335     0.0591     2.4230     0.1555
  250.0000   -32.5651     9.8862     8.9325    80.3664     7.6339     0.0713     2.4132     0.1520
  250.5000   -32.5651     9.8862     8.9196    76.2408     7.6342     0.0703     2.4242     0.1495
  251.0000   -32.5651     9.8363     8.9067    75.2372     7.6342     0.0757     2.4328     0.1495
  251.5000   -32.5651     9.7385     8.8938    75.3766     7.6342     0.0761     2.4286     0.1493
  252.0000   -32.5651     9.6416     8.8809    74.4208     7.6342     0.0766     2.4258     0.1485
  252.5000   -32.5651     9.5457     8.8677    75.0452     7.6342     0.0770     2.4306     0.1479
  253.0000   -32.5650     9.4508     8.8559    77.3218     7.6342     0.0775     2.4326     0.1477
  253.5000   -32.5648     9.3567     8.7083    80.4123     7.6342     0.0761     2.4312     0.1474
  254.0000   -32.5661     9.2641     8.5138    80.8394     7.6342     0.0742     2.4334     0.1471
  254.5000   -32.6486     9.1725     8.3235    77.9869     7.6342     0.0724     2.4403     0.1527
  255.0000   -32.9257     9.0880     8.1377    75.2400     7.6342     0.0662     2.4258     0.1507
  255.5000   -33.1998     9.0044     7.9560    74.9390     7.6342     0.0577     2.4216     0.1482
  256.0000   -33.4758     8.9215     7.7783    74.9670     7.6342     0.0490     2.4273     0.1458
  256.5000   -33.7544     8.8394     7.6047    75.7852     7.6342     0.0404     2.4329     0.1439
  257.0000   -33.7697     8.7706     7.4349    77.2878     7.6342     0.0318     2.4400     0.1444
  257.5000   -33.7649     8.7706     7.2951    80.9049     7.6342     0.0239     2.4432     0.1456
  258.0000   -33.7400     8.8314     7.2282    82.2175     7.6342     0.0260     2.4417     0.1515
  258.5000   -33.7154     8.8951     7.2282    80.1881     7.6342     0.0292     2.4277     0.1493
  259.0000   -33.6909     8.9593     7.3411    78.1025     7.6342     0.0324     2.4244     0.1467
  259.5000   -33.6664     9.0240     7.5435    76.3120     7.6342     0.0356     2.4262     0.1409
  260.0000   -33.6419     9.0892     7.7515    76.5051     7.6342     0.0356     2.4402     0.1359
  260.5000   -33.6176     9.1548     7.9256    77.4309     7.6339     0.0340     2.4530     0.1348
  261.0000   -33.5937     9.2209     7.9496    78.3314     7.6335     0.0324     2.4587     0.1364
  261.5000   -33.5652     9.2879     7.9742    76.9355     7.6331     0.0309     2.4647     0.1385
  262.0000   -33.3951     9.3547     7.9988    74.8377     7.6327     0.0296     2.4559     0.1424
  262.5000   -33.2120     9.4413     8.0235    75.7072     7.6323     0.0425     2.4451     0.1394
