~VERSION INFORMATION
 VERS.                2.0:   CWLS LOG ASCII STANDARD - VERSION 2.0
 WRAP.                 NO:   ONE LINE PER DEPTH STEP
~WELL INFORMATION
#MNEM.UNIT      DATA TYPE    INFORMATION
#----------   ------------   ------------------------------
 STRT.F            0.1000:   START DEPTH
 STOP.F          550.8000:   STOP DEPTH
 STEP.F            0.1000:   STEP LENGTH
 NULL.          -999.2500:   NO VALUE
 COMP.       F D SERV INC:   COMPANY
 WELL.  82-1 SX 10 #82-10:   WELL
 FLD .             TEAPOT:   FIELD
 LOC .      S10 T38N R78W:   LOCATION
 CNTY.            NATRONA:   COUNTY
 STAT.            WYOMING:   STATE
 CTRY. UNITED STATES OF AMERICA:   COUNTRY
 SRVC.     Atlas Wireline:   SERVICE COMPANY
 DATE.        11-DEC-1992:   LOGDATE
 API .       490252257600:   API NUMBER
~CURVE INFORMATION
#MNEM.UNIT       API CODE    CURVE DESCRIPTION
#----------   ------------   ------------------------------
 DEPT.F                  :   
 GRR .GAPI   07 310 01 00:   GAMMA RAY
 RILD.OHMM   07 120 46 00:   INDUCTION LOG DEEP RESISTIVITY
 RILM.OHMM   07 120 44 00:   INDUCTION LOG MEDIUM RESISTIVITY
~PARAMETER INFORMATION
#MNEM.UNIT          VALUE    DESCRIPTION
#----------   ------------   ------------------------------
 PD  .                 GL:   PERMANENT DATUM
 EPD .F              5136:   ELEVATION PERMANENT DATUM
 LMF .                 KB:   LOG MEASURED FROM
 DAPD.F                10:   FEET ABOVE PERMANENT DATUM
 DMF .                 KB:   DRILLING MEASURED FROM
 EKB .F              5146:   KELLING BUSHING
 EDF .F              5145:   DRILLING FLOOR
 EGL .F              5136:   GROUND LEVEL
 DATE.        11-DEC-1992:   RUN DATE
 RUN .                  1:   RUN NUMBER
 DD  .F               560:   DEPTH DRILLER
 DL  .F               560:   DEPTH LOGGER
 BLI .F               551:   BOTTOM LOG INTERVAL
 CS  .IN            8.625:   CASING SIZE
 CBD .F                53:   CASING BOTTOM DRILLER
 CBL .F                54:   CASING BOTTOM LOGGER
 BS  .IN            7.875:   BIT SIZE
 BSD .F               560:   BIT SIZE AT DEPTH
 DFT .           AIR FOAM:   DRILLING FLUID TYPE
 BHT .F                60:   BOTTOM HOLE TEMPERATURE
 MRT .F                60:   MAXIMUM RECORDED TEMPERATURE
 LUN .           HL- 6274:   LOGGING UNIT NUMBER
 LUL .             CASPER:   LOGGING UNIT LOCATION
 ENGI.       P. RASMUSSEN:   RECORDING ENGINEER
 WITN.          G. STRONG:   WITNESSED BY
 CLNT.            A2DTECH:   CLIENT CODE
 ORIG.           5" PRINT:   ORIGIN OF DATA
 UWI .       490252257600:   UNIQUE WELL ID
 DICO. A2D Technologies, Inc.:   DIGITIZING COMPANY
~OTHER INFORMATION
~A    DEPT      GRR      RILD       RILM   
# ...
  364.1000   100.4125    15.7259    15.5458
  364.2000   100.1700    15.6550    15.5016
  364.3000    99.9132    15.5637    15.4395
  364.4000    99.5088    15.5102    15.4280
  364.5000    98.9975    15.4894    15.3340
  364.6000    98.5411    15.3989    15.3344
  364.7000    98.2758    15.2975    15.2655
  364.8000    97.6887    15.2977    15.2296
  364.9000    97.2531    15.2361    15.2300
  365.0000    96.5715    15.1471    15.2094
  365.1000    95.8058    15.0879    15.1209
  365.2000    95.1178    15.0748    15.0221
  365.3000    94.6695    14.9842    14.9455
  365.4000    94.6669    14.9844    14.9194
  365.5000    94.4250    14.9154    14.8746
  365.6000    94.1682    14.8814    14.8174
  365.7000    94.0583    14.8442    14.8178
  365.8000    94.0559    14.7792    14.8182
  365.9000    94.1079    14.7733    14.7166
  366.0000    94.3520    14.6776    14.7169
  366.1000    94.3491    14.6778    14.7173
  366.2000    94.3471    14.6780    14.7177
  366.3000    94.5145    14.6782    14.7181
  366.4000    94.6430    14.6484    14.7185
  366.5000    94.7178    14.5773    14.7190
  366.6000    94.9698    14.5775    14.7194
  366.7000    95.2372    14.5777    14.7198
  366.8000    95.4739    14.5779    14.7202
  366.9000    95.7259    14.5781    14.7206
  367.0000    95.9779    14.5783    14.7373
  367.1000    96.2299    14.5785    14.8235
  367.2000    96.4283    14.5863    14.8240
  367.3000    96.4333    14.6802    14.8244
  367.4000    96.6853    14.6804    14.8248
  367.5000    96.9374    14.6806    14.8252
  367.6000    97.1894    14.6808    14.8256
  367.7000    97.4414    14.6810    14.8260
  367.8000    97.6934    14.6812    14.8264
  367.9000    97.9455    14.6814    14.8268
  368.0000    98.2134    14.6817    14.8272
  368.1000    98.2111    14.6818    14.7778
  368.2000    98.4008    14.6820    14.7259
  368.3000    98.5071    14.6822    14.7263
  368.4000    98.5047    14.6824    14.7267
  368.5000    98.5023    14.6826    14.7272
  368.6000    98.4998    14.6829    14.7275
  368.7000    98.4971    14.6831    14.7279
  368.8000    98.4950    14.6833    14.7283
  368.9000    98.6613    14.6349    14.7287
  369.0000    98.7910    14.5823    14.7291
  369.1000    98.7886    14.5825    14.7296
  369.2000    98.7862    14.5827    14.7299
  369.3000    98.7836    14.5830    14.7304
  369.4000    98.7814    14.5831    14.7308
  369.5000    98.5875    14.5833    14.6946
  369.6000    98.4758    14.5835    14.6301
  369.7000    98.3746    14.5578    14.6248
  369.8000    98.0652    14.4833    14.5301
  369.9000    97.5601    14.4835    14.5305
  370.0000    97.2628    14.4837    14.5309
  370.1000    97.2607    14.4192    14.5313
  370.2000    97.0903    14.3841    14.5020
  370.3000    96.9552    14.3843    14.4319
  370.4000    96.9528    14.3657    14.4323
  370.5000    96.9213    14.2855    14.4328
  370.6000    96.6471    14.2857    14.4331
  370.7000    96.6448    14.2859    14.4335
  370.8000    96.6424    14.2575    14.3957
  370.9000    96.4955    14.2160    14.3349
  371.0000    96.3368    14.1611    14.3274
  371.1000    96.3344    14.0901    14.2369
  371.2000    96.3320    14.0904    14.1611
  371.3000    96.3292    14.0905    14.1395
  371.4000    96.1135    13.9623    14.0939
  371.5000    96.1915    13.8971    14.0119
  371.6000    96.3224    13.8630    13.9464
  371.7000    96.2452    13.7821    13.9438
  371.8000    96.0168    13.7065    13.7558
  371.9000    96.0143    13.7067    13.7561
  372.0000    96.0120    13.6363    13.7034
  372.1000    95.8194    13.6125    13.6621
  372.2000    95.7065    13.5712    13.6383
  372.3000    95.6064    13.5189    13.5686
  372.4000    95.2469    13.5064    13.5691
  372.5000    94.4863    13.4260    13.4203
  372.6000    93.8919    13.4262    13.3834
  372.7000    93.4636    13.4264    13.3381
  372.8000    92.9524    13.3779    13.2604
  372.9000    92.4411    13.3341    13.2007
  373.0000    91.9298    13.3343    13.1974
  373.1000    91.4464    13.3345    13.1105
  373.2000    91.1710    13.3347    13.1108
  373.3000    91.1687    13.1951    13.0584
  373.4000    91.3560    13.1516    13.0212
  373.5000    91.6080    13.1518    12.9965
  373.6000    91.8601    13.1520    12.9322
  373.7000    92.2643    13.1384    12.9326
  373.8000    93.2795    13.0616    12.9329
  373.9000    94.4622    13.0618    12.8734
  374.0000    95.0978    12.9994    12.8215
  374.1000    96.0248    12.9720    12.7843
  374.2000    97.3997    12.9721    12.7567
  374.3000    98.8106    12.9513    12.7514
  374.4000    99.3171    12.8756    12.6695
  374.5000    99.8615    12.7943    12.6699
  374.6000   100.3301    12.7944    12.6171
  374.7000   100.4583    12.7395    12.5832
  374.8000   100.5987    12.7065    12.5836
  374.9000   100.7221    12.6787    12.5708
  375.0000   100.6349    12.6191    12.4976
  375.1000   100.5477    12.6181    12.4980
  375.2000   100.4459    12.5324    12.4983
  375.3000   100.4439    12.4713    12.4518
  375.4000   100.4415    12.4463    12.4128
  375.5000   100.4391    12.4118    12.3926
  375.6000   100.4367    12.3393    12.3279
  375.7000   100.4610    12.2756    12.3283
  375.8000   100.7324    12.2758    12.3287
  375.9000   101.1998    12.2088    12.2753
  376.0000   101.7063    12.1914    12.2444
  376.1000   102.2128    12.1505    12.2447
  376.2000   102.7192    12.1076    12.2451
  376.3000   103.2256    12.1077    12.2454
  376.4000   103.7289    12.1079    12.2458
  376.5000   104.0237    12.1081    12.1853
  376.6000   104.0217    12.1082    12.1620
  376.7000   104.1842    12.0607    12.1624
  376.8000   104.1989    12.0250    12.1627
  376.9000   104.0144    12.0252    12.1630
  377.0000   104.0120    12.0253    12.1634
  377.1000   104.0094    12.0255    12.1637
  377.2000   103.7730    12.0257    12.1640
  377.3000   103.7041    12.0258    12.1644
  377.4000   103.5601    12.0260    12.1647
  377.5000   103.3032    12.0262    12.1651
  377.6000   103.0953    12.0263    12.1654
  377.7000   103.0929    12.0265    12.1658
  377.8000   103.0901    12.0267    12.1661
  377.9000   103.2988    12.0268    12.1664
  378.0000   103.5509    12.0270    12.1667
  378.1000   103.9211    12.0635    12.1671
  378.2000   104.3557    12.1109    12.1674
  378.3000   104.6077    12.1111    12.1678
  378.4000   104.8804    12.1113    12.2526
  378.5000   104.8782    12.1114    12.2529
  378.6000   104.8758    12.1116    12.2532
  378.7000   104.7324    12.1554    12.2855
  378.8000   104.5702    12.1961    12.3389
  378.9000   104.5678    12.2143    12.3454
  379.0000   104.5635    12.2812    12.4252
  379.1000   104.2618    12.2814    12.4917
  379.2000   104.0497    12.2815    12.5121
  379.3000   103.7929    12.2817    12.5527
  379.4000   103.4185    12.3202    12.5996
  379.5000   102.9072    12.3929    12.6000
  379.6000   102.3960    12.4660    12.6010
  379.7000   101.8847    12.5402    12.6882
  379.8000   101.3734    12.6276    12.6884
  379.9000   101.0488    12.6277    12.6888
  380.0000   100.7920    12.6747    12.7244
  380.1000   100.4411    12.7158    12.7775
  380.2000    99.9775    12.7160    12.7779
  380.3000    99.7221    12.7228    12.7783
  380.4000    99.7193    12.8047    12.8488
  380.5000    99.7173    12.8049    12.8676
  380.6000    99.8781    12.8051    12.8680
  380.7000   100.0132    12.8466    12.8683
  380.8000   100.0814    12.9224    12.8687
  380.9000   100.3094    12.9842    12.8691
  381.0000   100.0058    12.9844    12.8695
  381.1000   100.0036    12.9846    12.8698
  381.2000   100.0012    12.9847    12.8701
  381.3000   100.1385    13.0344    12.9083
  381.4000   100.2971    13.0753    12.9358
  381.5000   100.2947    13.0755    12.8711
  381.6000   100.2923    13.0757    12.8716
  381.7000   100.2895    13.0759    12.8719
  381.8000   100.2875    13.0761    12.8723
  381.9000   100.1225    13.0762    12.8726
  382.0000    99.9820    13.0764    12.8730
  382.1000    99.9096    13.0766    12.8733
  382.2000    99.6527    13.0610    12.8737
