~VERSION INFORMATION
 VERS.                2.0:   CWLS LOG ASCII STANDARD - VERSION 2.0
 WRAP.                 NO:   ONE LINE PER DEPTH STEP
~WELL INFORMATION
#MNEM.UNIT      DATA TYPE    INFORMATION
#----------   ------------   ------------------------------
 STRT.F         1782.5000:   START DEPTH
 STOP.F         2209.5000:   STOP DEPTH
 STEP.F            0.5000:   STEP LENGTH
 NULL.          -999.2500:   NO VALUE
 COMP. BROWN JOHN E&C INC:   COMPANY
 WELL. NPR 3 SHX-28 #66-28:   WELL
 FLD .             TEAPOT:   FIELD
 LOC .      S28 T39N R78W:   LOCATION
 CNTY.            NATRONA:   COUNTY
 STAT.            WYOMING:   STATE
 CTRY. UNITED STATES OF AMERICA:   COUNTRY
 SRVC.            Unknown:   SERVICE COMPANY
 DATE.        11-OCT-1991:   LOGDATE
 API .       490251105600:   API NUMBER
~CURVE INFORMATION
#MNEM.UNIT       API CODE    CURVE DESCRIPTION
#----------   ------------   ------------------------------
 DEPT.F                  :   
 ROP .MIN/FT 91 810 01 00:   RATE OF DRILLING PENETRATION
 TGAS.UNITS  91 830 01 00:   TOTAL GAS FROM HOTWIRE
~PARAMETER INFORMATION
#MNEM.UNIT          VALUE    DESCRIPTION
#----------   ------------   ------------------------------
 EKB .F              5068:   KELLING BUSHING
 EGL .F              5058:   GROUND LEVEL
 DATE.           10-11-91:   RUN DATE
 DD  .F              2210:   DEPTH DRILLER
 BLI .F              2210:   BOTTOM LOG INTERVAL
 TLI .F              1780:   TOP LOG INTERVAL
 CS  .IN            8.625:   CASING SIZE
 CBD .F               480:   CASING BOTTOM DRILLER
 ENGI.               HUSK:   RECORDING ENGINEER
 WITN.              TOWER:   WITNESSED BY
 CLNT.            A2DTECH:   CLIENT CODE
 ORIG.           5" PRINT:   ORIGIN OF DATA
 UWI .       490251105600:   UNIQUE WELL ID
 DICO. A2D Technologies, Inc.:   DIGITIZING COMPANY
~OTHER INFORMATION
~A  DEPT         ROP      TGAS  
 1782.5000     0.5591    49.2963
 1783.0000     0.5591    49.3267
 1783.5000     0.5591    49.3570
 1784.0000     0.5591    49.3873
 1784.5000     0.5376    49.4176
 1785.0000     0.5269    49.4479
 1785.5000     0.4731    49.4782
 1786.0000     0.4086    49.5085
 1786.5000     0.3978    49.5388
 1787.0000     0.4516    49.5691
 1787.5000     0.4839    49.5994
 1788.0000     0.5161    49.6297
 1788.5000     0.5269    49.6600
 1789.0000     0.5376    49.6904
 1789.5000     0.5484    49.7207
 1790.0000     0.5376    49.7510
 1790.5000     0.5376    49.7813
 1791.0000     0.5376    49.8116
 1791.5000     0.5376    49.8419
 1792.0000     0.5484    49.8722
 1792.5000     0.5591    49.9025
 1793.0000     0.5376    49.9328
 1793.5000     0.4731    49.9631
 1794.0000     0.4301    49.9934
 1794.5000     0.4086    50.0238
 1795.0000     0.4516    50.0541
 1795.5000     0.4946    50.0844
 1796.0000     0.5484    50.1147
 1796.5000     0.5591    50.1450
 1797.0000     0.5699    50.1753
 1797.5000     0.5806    50.2056
 1798.0000     0.5806    50.2359
 1798.5000     0.5591    50.2662
 1799.0000     0.5269    50.2965
 1799.5000     0.4731    50.3268
 1800.0000     0.4194    50.3571
 1800.5000     0.3978    50.3302
 1801.0000     0.4839    50.3034
 1801.5000     0.5914    50.2765
 1802.0000     0.6989    50.2496
 1802.5000     0.7742    50.2227
 1803.0000     0.7742    50.1958
 1803.5000     0.7634    50.1689
 1804.0000     0.6989    50.1420
 1804.5000     0.6022    50.1151
 1805.0000     0.4839    50.0882
 1805.5000     0.4086    50.0613
 1806.0000     0.3011    50.0344
 1806.5000     0.3011    50.0075
 1807.0000     0.3011    49.9806
 1807.5000     0.3011    49.9537
 1808.0000     0.3118    49.9268
 1808.5000     0.3656    49.9000
 1809.0000     0.4516    49.8731
 1809.5000     0.5161    49.8462
 1810.0000     0.5376    49.8193
 1810.5000     0.4946    49.7924
 1811.0000     0.4624    49.7655
 1811.5000     0.4301    49.7386
 1812.0000     0.3978    49.7117
 1812.5000     0.3871    49.6848
 1813.0000     0.3871    49.6579
 1813.5000     0.3871    49.6310
 1814.0000     0.3871    49.6041
 1814.5000     0.3871    49.5772
 1815.0000     0.3871    49.5503
 1815.5000     0.3871    49.5234
 1816.0000     0.4086    49.4965
 1816.5000     0.4731    49.4697
 1817.0000     0.5806    49.4428
 1817.5000     0.6559    49.4159
 1818.0000     0.7097    49.3890
 1818.5000     0.7742    49.3621
 1819.0000     0.8249    49.3352
 1819.5000     0.9009    49.3083
 1820.0000     0.9892    49.2857
 1820.5000     1.0000    49.4410
 1821.0000     0.9140    49.5749
 1821.5000     0.8817    49.7088
 1822.0000     0.8602    49.8426
 1822.5000     0.7742    49.9765
 1823.0000     0.7742    50.1104
 1823.5000     0.6989    50.2442
 1824.0000     0.6452    50.3781
 1824.5000     0.6452    50.5119
 1825.0000     0.6452    50.6458
 1825.5000     0.6452    50.7797
 1826.0000     0.6237    50.9135
 1826.5000     0.5806    51.0474
 1827.0000     0.5161    51.1813
 1827.5000     0.4301    51.3151
 1828.0000     0.3763    51.4490
 1828.5000     0.3441    51.5828
 1829.0000     0.3548    51.7167
 1829.5000     0.3656    51.8506
 1830.0000     0.3656    51.9844
 1830.5000     0.3871    52.1183
 1831.0000     0.3871    52.2522
 1831.5000     0.4194    52.3860
 1832.0000     0.4731    52.5199
 1832.5000     0.4409    52.6537
 1833.0000     0.3978    52.7876
 1833.5000     0.3656    52.9215
 1834.0000     0.3441    53.0553
 1834.5000     0.3656    53.1892
 1835.0000     0.4516    53.2987
 1835.5000     0.5591    53.2019
 1836.0000     0.6022    53.1200
 1836.5000     0.5161    53.0381
 1837.0000     0.5161    52.9562
 1837.5000     0.5161    52.8743
 1838.0000     0.4946    52.7924
 1838.5000     0.4946    52.7106
 1839.0000     0.4946    52.6287
 1839.5000     0.4946    52.5468
 1840.0000     0.4946    52.4556
 1840.5000     0.4946    52.3449
 1841.0000     0.4516    52.2343
 1841.5000     0.3871    52.1236
 1842.0000     0.3441    52.0129
 1842.5000     0.3226    51.9023
 1843.0000     0.3788    51.7916
 1843.5000     0.4653    51.6810
 1844.0000     0.5087    51.5703
 1844.5000     0.5091    51.4596
 1845.0000     0.5310    51.3490
 1845.5000     0.5313    51.2383
 1846.0000     0.5318    51.1277
 1846.5000     0.5322    51.0170
 1847.0000     0.5326    50.9063
 1847.5000     0.5388    50.7957
 1848.0000     0.6280    50.6850
 1848.5000     0.6628    50.5744
 1849.0000     0.6632    47.3053
 1849.5000     0.6636    41.9568
 1850.0000     0.6640    37.6798
 1850.5000     0.6644    30.8837
 1851.0000     0.7139    26.3263
 1851.5000     0.7774    22.1189
 1852.0000     0.8409    18.4302
 1852.5000     0.8443    16.2945
 1853.0000     0.7966    15.1001
 1853.5000     0.7489    14.8590
 1854.0000     0.7303    14.6180
 1854.5000     0.7284    14.3769
 1855.0000     0.7266    14.1358
 1855.5000     0.7247    13.8948
 1856.0000     0.7226    13.6537
 1856.5000     0.6755    13.4126
 1857.0000     0.6214    13.1715
 1857.5000     0.5674    12.9305
 1858.0000     0.5299    12.6894
 1858.5000     0.5281    12.4483
 1859.0000     0.5262    12.2073
 1859.5000     0.5244    11.9662
 1860.0000     0.5225    11.7251
 1860.5000     0.5473    11.4840
 1861.0000     0.5934    11.2430
 1861.5000     0.6394    11.0019
 1862.0000     0.6599    10.7608
 1862.5000     0.6710    10.5197
 1863.0000     0.6821    10.2787
 1863.5000     0.6931    10.0518
 1864.0000     0.7183     9.9530
 1864.5000     0.7725     9.8542
 1865.0000     0.8266     9.7554
 1865.5000     0.8486     9.6566
 1866.0000     0.8490     9.5578
 1866.5000     0.8494     9.4590
 1867.0000     0.8175     9.3602
 1867.5000     0.7749     9.2614
 1868.0000     0.7645     9.1626
 1868.5000     0.7757     9.6728
 1869.0000     0.7761    13.5394
 1869.5000     0.7765    17.4061
 1870.0000     0.7877    21.2727
 1870.5000     0.7450    25.1393
 1871.0000     0.7132    29.0060
 1871.5000     0.6812    32.8726
 1872.0000     0.6602    37.5898
 1872.5000     0.7037    42.5674
 1873.0000     0.7579    47.5450
 1873.5000     0.8013    52.5226
 1874.0000     0.7479    57.5002
 1874.5000     0.6300    62.0704
 1875.0000     0.5444    66.3579
 1875.5000     0.4695    70.6454
 1876.0000     0.4700    74.9329
 1876.5000     0.4596    79.2204
 1877.0000     0.3847    83.5079
 1877.5000     0.3851    87.7954
 1878.0000     0.4178    92.8230
 1878.5000     0.5365    92.9418
 1879.0000     0.5799    93.0855
 1879.5000     0.6125    93.2292
 1880.0000     0.6559    93.3729
 1880.5000     0.7316    93.5165
 1881.0000     0.8181    93.6602
 1881.5000     0.8937    93.8039
 1882.0000     0.9479    93.9476
 1882.5000     0.9913    94.0913
 1883.0000     1.0132    94.2349
 1883.5000     1.0567    94.3786
 1884.0000     1.0786    94.5223
 1884.5000     1.0359    94.6660
 1885.0000     0.9288    94.8096
 1885.5000     0.8217    94.9533
 1886.0000     0.7253    95.0970
 1886.5000     0.7365    95.2407
 1887.0000     0.7369    95.3843
 1887.5000     0.7373    95.5280
 1888.0000     0.7377    95.6717
 1888.5000     0.6950    95.8154
 1889.0000     0.6417    95.9590
 1889.5000     0.5669    96.1027
 1890.0000     0.5027    96.2502
 1890.5000     0.4386    89.8116
 1891.0000     0.4067    83.8391
 1891.5000     0.3963    75.0150
 1892.0000     0.4237    62.4137
 1892.5000     0.4669    49.8150
 1893.0000     0.5101    39.6905
 1893.5000     0.5532    28.6850
 1894.0000     0.5857    17.0374
 1894.5000     0.6396    11.9187
 1895.0000     0.6828     7.4378
 1895.5000     0.7475     7.5471
 1896.0000     0.8122     7.6564
 1896.5000     0.8769     7.7657
 1897.0000     0.9201     7.8750
 1897.5000     0.9848     7.9843
 1898.0000     1.1140     8.0936
 1898.5000     1.2110     8.2029
 1899.0000     1.2864     8.3122
 1899.5000     1.4156     8.4215
 1900.0000     1.5233     8.5308
 1900.5000     1.5665     8.5748
 1901.0000     1.4054     8.5744
 1901.5000     1.2013     8.5740
 1902.0000     1.0079     8.5735
 1902.5000     0.9435     8.5731
 1903.0000     0.9437     8.5727
 1903.5000     0.9547     8.5723
