~VERSION INFORMATION
 VERS.                2.0:   CWLS LOG ASCII STANDARD - VERSION 2.0
 WRAP.                 NO:   ONE LINE PER DEPTH STEP
~WELL INFORMATION
#MNEM.UNIT      DATA TYPE    INFORMATION
#----------   ------------   ------------------------------
 STRT.F            0.0000:   START DEPTH
 STOP.F          404.0000:   STOP DEPTH
 STEP.F            0.1000:   STEP LENGTH
 NULL.          -999.2500:   NO VALUE
 COMP.   FLUOR DANIEL INC:   COMPANY
 WELL.   62-1 X 10 #62-10:   WELL
 FLD .             TEAPOT:   FIELD
 LOC .      S10 T38N R78W:   LOCATION
 CNTY.            NATRONA:   COUNTY
 STAT.            WYOMING:   STATE
 CTRY. UNITED STATES OF AMERICA:   COUNTRY
 SRVC.      Western Atlas:   SERVICE COMPANY
 DATE.        29-MAR-1995:   LOGDATE
 API .       490252270300:   API NUMBER
~CURVE INFORMATION
#MNEM.UNIT       API CODE    CURVE DESCRIPTION
#----------   ------------   ------------------------------
 DEPT.F                  :   
 GRR .GAPI   07 310 01 00:   GAMMA RAY
 RILD.OHMM   07 120 46 00:   INDUCTION LOG DEEP RESISTIVITY
 RILM.OHMM   07 120 44 00:   RESITIVITY LONG MEDIUM
~PARAMETER INFORMATION
#MNEM.UNIT          VALUE    DESCRIPTION
#----------   ------------   ------------------------------
 PD  .                 GL:   PERMANENT DATUM
 EPD .F              5160:   ELEVATION PERMANENT DATUM
 LMF .                 KB:   LOG MEASURED FROM
 DAPD.F                10:   FEET ABOVE PERMANENT DATUM
 DMF .                 KB:   DRILLING MEASURED FROM
 EKB .F              5170:   KELLING BUSHING
 EDF .F              5169:   DRILLING FLOOR
 EGL .F              5160:   GROUND LEVEL
 DATE.        29-MAR-1995:   RUN DATE
 RUN .                  1:   RUN NUMBER
 DD  .F               455:   DEPTH DRILLER
 DL  .F               416:   DEPTH LOGGER
 BLI .F               408:   BOTTOM LOG INTERVAL
 TLI .F                95:   TOP LOG INTERVAL
 CS  .IN            9.625:   CASING SIZE
 CBD .F                95:   CASING BOTTOM DRILLER
 CBL .F                95:   CASING BOTTOM LOGGER
 BS  .IN             8.75:   BIT SIZE
 BSD .F               455:   BIT SIZE AT DEPTH
 DFT .                AIR:   DRILLING FLUID TYPE
 MRT .F               204:   MAXIMUM RECORDED TEMPERATURE
 LUN .            HL 6530:   LOGGING UNIT NUMBER
 LUL .             CASPER:   LOGGING UNIT LOCATION
 ENGI.        VERN RAUTIO:   RECORDING ENGINEER
 WITN.        GARY STRONG:   WITNESSED BY
 CLNT.            A2DTECH:   CLIENT CODE
 ORIG.           5" PRINT:   ORIGIN OF DATA
 UWI .       490252270300:   UNIQUE WELL ID
 DICO. A2D Technologies, Inc.:   DIGITIZING COMPANY
~OTHER INFORMATION
~A    DEPT      GRR      RILD       RILM   
# ...
  309.4000   100.9062     2.8366     2.9926
  309.5000   101.2117     2.8366     2.9862
  309.6000   101.7170     2.8408     2.9718
  309.7000   101.4161     2.8563     2.9718
  309.8000   101.2038     2.8562     2.9512
  309.9000   100.6154     2.8413     2.9511
  310.0000    99.6079     2.8364     2.9511
  310.1000    98.4052     2.8363     2.9433
  310.2000    97.4403     2.8363     2.9261
  310.3000    96.8948     2.8363     2.9103
  310.4000    96.4191     2.8362     2.9102
  310.5000    96.1006     2.8362     2.8949
  310.6000    95.6995     2.8229     2.8900
  310.7000    95.2889     2.8165     2.8810
  310.8000    95.0878     2.8093     2.8700
  310.9000    95.1042     2.7969     2.8671
  311.0000    95.6924     2.7957     2.8500
  311.1000    96.3451     2.7775     2.8303
  311.2000    96.9412     2.7774     2.8170
  311.3000    97.2024     2.7659     2.8106
  311.4000    97.2823     2.7581     2.8034
  311.5000    97.5053     2.7525     2.7911
  311.6000    97.5059     2.7364     2.7899
  311.7000    97.5065     2.7200     2.7717
  311.8000    97.5071     2.7199     2.7573
  311.9000    97.5077     2.7072     2.7412
  312.0000    97.4037     2.6913     2.7251
  312.1000    97.0318     2.6823     2.7091
  312.2000    96.2655     2.6783     2.6932
  312.3000    95.3986     2.6636     2.6770
  312.4000    94.7330     2.6636     2.6617
  312.5000    93.9669     2.6497     2.6461
  312.6000    93.3305     2.6342     2.6306
  312.7000    92.8199     2.6187     2.6152
  312.8000    92.3093     2.6085     2.5998
  312.9000    91.7822     2.6061     2.5854
  313.0000    91.2881     2.5904     2.5854
  313.1000    90.9788     2.5756     2.5722
  313.2000    90.7238     2.5604     2.5571
  313.3000    90.5780     2.5454     2.5421
  313.4000    90.6418     2.5305     2.5272
  313.5000    90.8979     2.5156     2.5124
  313.6000    91.1832     2.5008     2.4970
  313.7000    91.8637     2.4844     2.4970
  313.8000    92.4505     2.4715     2.4856
  313.9000    92.9623     2.4672     2.4710
  314.0000    93.4741     2.4596     2.4625
  314.1000    94.0285     2.4452     2.4592
  314.2000    94.8066     2.4330     2.4454
  314.3000    95.7123     2.4330     2.4453
  314.4000    96.1247     2.4191     2.4453
  314.5000    96.7964     2.4161     2.4453
  314.6000    97.4499     2.4160     2.4381
  314.7000    98.0295     2.4100     2.4283
  314.8000    98.8404     2.3993     2.4282
  314.9000   100.2408     2.3983     2.4282
  315.0000   100.7038     2.3826     2.4282
  315.1000   100.8453     2.3826     2.4391
  315.2000   100.8459     2.3728     2.4450
  315.3000   100.9396     2.3660     2.4507
  315.4000   101.1487     2.3613     2.4620
  315.5000   101.1493     2.3496     2.4619
  315.6000   101.1500     2.3495     2.4619
  315.7000   100.5189     2.3495     2.4742
  315.8000    99.5881     2.3495     2.4790
  315.9000    98.5662     2.3411     2.4790
  316.0000    97.6893     2.3331     2.4789
  316.1000    97.2050     2.3331     2.4772
  316.2000    96.9304     2.3331     2.4617
  316.3000    96.6950     2.3330     2.4617
  316.4000    96.6299     2.3330     2.4508
  316.5000    96.6305     2.3330     2.4446
  316.6000    96.7289     2.3329     2.4445
  316.7000    96.9850     2.3329     2.4416
  316.8000    97.2469     2.3329     2.4276
  316.9000    97.8396     2.3328     2.4275
  317.0000    98.2706     2.3196     2.4275
  317.1000    98.6132     2.3166     2.4182
  317.2000    98.9924     2.3166     2.4106
  317.3000    99.5043     2.3166     2.4106
  317.4000   100.0161     2.3165     2.4091
  317.5000   100.5581     2.3165     2.3939
  317.6000   101.0398     2.3165     2.3938
  317.7000   101.7460     2.3164     2.3938
  317.8000   102.3650     2.3070     2.3938
  317.9000   102.7745     2.3003     2.3937
  318.0000   102.9744     2.3003     2.3937
  318.1000   102.9750     2.3003     2.3937
  318.2000   102.9756     2.3002     2.3936
  318.3000   102.7563     2.3002     2.3936
  318.4000   102.6751     2.3002     2.3936
  318.5000   102.6757     2.3001     2.4000
  318.6000   102.5947     2.3001     2.4102
  318.7000   102.3752     2.3001     2.4101
  318.8000   102.3759     2.3008     2.4101
  318.9000   102.3765     2.3160     2.4101
  319.0000   102.1780     2.3160     2.4203
  319.1000   102.0760     2.3160     2.4268
  319.2000   101.9696     2.3229     2.4268
  319.3000   101.6537     2.3321     2.4267
  319.4000   101.1580     2.3320     2.4267
  319.5000   100.8719     2.3320     2.4267
  319.6000   100.4235     2.3452     2.4266
  319.7000   100.0913     2.3482     2.4356
  319.8000    99.8363     2.3481     2.4435
  319.9000    99.6676     2.3539     2.4434
  320.0000    99.6280     2.3644     2.4445
  320.1000    99.3671     2.3652     2.4604
  320.2000    99.1180     2.3809     2.4603
  320.3000    98.8630     2.3808     2.4603
  320.4000    98.6080     2.3905     2.4679
  320.5000    98.2414     2.3974     2.4774
  320.6000    97.7963     2.3973     2.4797
  320.7000    97.5413     2.3993     2.4946
  320.8000    97.2598     2.4140     2.4945
  320.9000    97.2603     2.4139     2.4945
  321.0000    97.0779     2.4250     2.5035
  321.1000    97.0968     2.4393     2.5118
  321.2000    97.2621     2.4476     2.5154
  321.3000    97.3525     2.4509     2.5302
  321.4000    97.8667     2.4646     2.5468
  321.5000    98.7724     2.4646     2.5468
  321.6000    99.3979     2.4772     2.5572
  321.7000    99.8407     2.4917     2.5644
  321.8000   100.2132     2.4989     2.5694
  321.9000   100.6548     2.5037     2.5822
  322.0000   100.8869     2.5184     2.5822
  322.1000   100.8875     2.5338     2.5969
  322.2000   100.8881     2.5337     2.6121
  322.3000   100.8887     2.5337     2.6182
  322.4000   100.6061     2.5426     2.6246
  322.5000   100.0955     2.5513     2.6363
  322.6000    99.5355     2.5547     2.6363
  322.7000    98.7760     2.5698     2.6363
  322.8000    98.4785     2.5869     2.6497
  322.9000    98.2661     2.5868     2.6545
  323.0000    98.0111     2.5973     2.6545
  323.1000    97.7561     2.6048     2.6545
  323.2000    97.5759     2.6048     2.6544
  323.3000    97.5765     2.6047     2.6544
  323.4000    97.5771     2.6047     2.6544
  323.5000    97.5777     2.6047     2.6543
  323.6000    97.3861     2.6046     2.6543
  323.7000    97.2772     2.6046     2.6542
  323.8000    97.1777     2.6046     2.6542
  323.9000    96.8686     2.6010     2.6542
  324.0000    96.3660     2.5865     2.6541
  324.1000    96.0731     2.5864     2.6541
  324.2000    95.8560     2.5733     2.6436
  324.3000    95.4295     2.5684     2.6357
  324.4000    95.1698     2.5684     2.6309
  324.5000    95.1704     2.5636     2.6174
  324.6000    95.1710     2.5506     2.6173
  324.7000    95.1717     2.5505     2.6029
  324.8000    95.1722     2.5362     2.5876
  324.9000    95.3698     2.5328     2.5811
  325.0000    95.6259     2.5328     2.5752
  325.1000    95.8822     2.5267     2.5601
  325.2000    96.1972     2.5118     2.5455
  325.3000    96.7089     2.4971     2.5454
  325.4000    97.2876     2.4804     2.5328
  325.5000    97.5103     2.4804     2.5180
  325.6000    98.1188     2.4704     2.5032
  325.7000    98.7561     2.4631     2.4928
  325.8000    99.0998     2.4585     2.4911
  325.9000    99.1004     2.4441     2.4755
  326.0000    99.1011     2.4290     2.4620
  326.1000    98.8541     2.4290     2.4583
  326.2000    98.8006     2.4180     2.4583
  326.3000    98.8012     2.4121     2.4528
  326.4000    98.8018     2.4063     2.4412
  326.5000    98.7391     2.3954     2.4410
  326.6000    98.5013     2.3947     2.4243
  326.7000    98.5020     2.3787     2.4242
  326.8000    98.5026     2.3787     2.4150
  326.9000    98.5032     2.3692     2.4074
  327.0000    98.6385     2.3553     2.4074
  327.1000    98.8947     2.3458     2.4059
  327.2000    99.1509     2.3439     2.3906
  327.3000    99.4106     2.3295     2.3906
  327.4000    99.7129     2.3294     2.3906
  327.5000    99.9195     2.3189     2.3867
