~VERSION INFORMATION
 VERS.                2.0:   CWLS LOG ASCII STANDARD - VERSION 2.0
 WRAP.                 NO:   ONE LINE PER DEPTH STEP
~WELL INFORMATION
#MNEM.UNIT      DATA TYPE    INFORMATION
#----------   ------------   ------------------------------
 STRT.F           28.0000:   START DEPTH
 STOP.F          546.5000:   STOP DEPTH
 STEP.F            0.5000:   STEP LENGTH
 NULL.          -999.2500:   NO VALUE
 COMP. LAWRENCE/ALLISON INC:   COMPANY
 WELL.    55-66 SX #10-10:   WELL
 FLD .            WILDCAT:   FIELD
 LOC .      S10 T38N R78W:   LOCATION
 CNTY.            NATRONA:   COUNTY
 STAT.            WYOMING:   STATE
 CTRY. UNITED STATES OF AMERICA:   COUNTRY
 SRVC.            Unknown:   SERVICE COMPANY
 DATE.        20-AUG-1984:   LOGDATE
 API .       490251098000:   API NUMBER
~CURVE INFORMATION
#MNEM.UNIT       API CODE    CURVE DESCRIPTION
#----------   ------------   ------------------------------
 DEPT.F                  :   
 CNC .DEC    42 890 03 00:   NEUTRON POROSITY SANDSTONE
 CALD.IN     45 280 60 00:   CALIPER FROM DENSITY LOG
 DEN .G/C3   45 350 01 00:   COMPENSATED BULK DENSTIY
 PORD.DEC    45 890 12 00:   POROSITY DENSITY STONESTONE
 CORR.G/C3   45 356 01 00:   DENSITY CORRECTION
 SPR .MV     07 010 01 00:   SPONTANEOUS POTENTIAL
 RFOC.OHMM   07 220 04 00:   RESISTIVITY FOCUSED LOG
 RILD.OHMM   07 120 46 00:   INDUCTION LOG DEEP RESISTIVITY
 RILM.OHMM   07 120 44 00:   INDUCTION LOG MEDIUM RESISTIVITY
 AC  .US/F   60 520 00 00:   ACCOUSTIC
 GRD .GAPI   45 310 01 00:   GAMMA RAY FROM DENSITY LOG
~PARAMETER INFORMATION
#MNEM.UNIT          VALUE    DESCRIPTION
#----------   ------------   ------------------------------
 PD  .                 GL:   PERMANENT DATUM
 EPD .F              5200:   ELEVATION PERMANENT DATUM
 LMF .                 GL:   LOG MEASURED FROM
 DMF .                 GL:   DRILLING MEASURED FROM
 EGL .F              5200:   GROUND LEVEL
 DATE.        20-AUG-1984:   RUN DATE
 RUN .                  1:   RUN NUMBER
 DD  .F               554:   DEPTH DRILLER
 DL  .F               548:   DEPTH LOGGER
 BLI .F               546:   BOTTOM LOG INTERVAL
 TLI .F                30:   TOP LOG INTERVAL
 CS  .IN            9.625:   CASING SIZE
 CBD .F                46:   CASING BOTTOM DRILLER
 CBL .F                41:   CASING BOTTOM LOGGER
 BS  .IN            7.875:   BIT SIZE
 BSD .F               554:   BIT SIZE AT DEPTH
 DFT .          KCL WATER:   DRILLING FLUID TYPE
 MSS .           FLOWLINE:   MUD SAMPLE SOURCE
 RMS .OHMM           .691:   RESISTIVITY MUD SAMPLE
 MST .F                82:   MUD SAMPLE TEMPERATURE
 MRT .F               100:   MAXIMUM RECORDED TEMPERATURE
 LUN .               6307:   LOGGING UNIT NUMBER
 LUL .               GLTE:   LOGGING UNIT LOCATION
 ENGI.           FAHLSING:   RECORDING ENGINEER
 WITN.           JENNINGS:   WITNESSED BY
 CLNT.            A2DTECH:   CLIENT CODE
 ORIG.       2", 5" PRINT:   ORIGIN OF DATA
 UWI .       490251098000:   UNIQUE WELL ID
 DICO. A2D Technologies, Inc.:   DIGITIZING COMPANY
~OTHER INFORMATION
~A   DEPT      CNC       CALD        DEN       PORD       CORR        SPR       RFOC       RILD       RILM         AC        GRD   
# ...
  333.0000     0.2797     7.8430     2.4070     0.1620     0.0110   -29.0130    21.8200    22.9880    20.2510    95.0400    78.1330
  333.5000     0.2753     7.8430     2.4070     0.1610     0.0260   -29.0370    21.4860    22.6420    20.2290    94.6740    80.2880
  334.0000     0.2678     7.8430     2.4030     0.1650     0.0220   -28.8480    21.2310    22.8280    20.2080    94.4060    82.9510
  334.5000     0.2665     7.8430     2.3990     0.1700     0.0180   -28.6590    21.6910    23.0500    20.1860    94.7990    85.6910
  335.0000     0.2698     7.8430     2.3940     0.1720     0.0210   -28.4700    22.0630    23.2720    20.1650    95.1920    84.8980
  335.5000     0.2744     7.8430     2.3910     0.1730     0.0280   -28.2820    22.4350    23.4950    20.1430    95.5850    83.8330
  336.0000     0.2722     7.8430     2.3950     0.1700     0.0350   -28.0940    22.6420    23.7070    20.1200    95.6390    82.7350
  336.5000     0.2700     7.8430     2.4000     0.1670     0.0420   -27.9050    22.4580    23.4750    20.0920    94.2370    82.9700
  337.0000     0.2733     7.8430     2.4040     0.1660     0.0490   -27.7170    21.9470    23.2530    20.2780    92.6100    83.3000
  337.5000     0.2748     7.8430     2.4040     0.1660     0.0390   -27.7190    21.1920    23.0310    20.2230    90.9830    83.8260
  338.0000     0.2725     7.8430     2.4040     0.1640     0.0290   -27.9230    20.4370    22.8080    20.0060    90.2500    84.5430
  338.5000     0.2703     7.8430     2.4060     0.1610     0.0180   -28.1270    19.6820    22.6420    19.7890    91.4470    85.2550
  339.0000     0.2696     7.8430     2.4150     0.1570     0.0240   -28.3300    18.6680    22.7800    19.5720    93.3020    85.9650
  339.5000     0.2733     7.8430     2.4250     0.1520     0.0450   -28.5340    18.8320    22.8510    19.3670    95.2630    86.6870
  340.0000     0.2776     7.8430     2.4390     0.1440     0.0640   -28.7380    19.0820    21.6150    19.5460    97.2240    86.2300
  340.5000     0.2831     7.8430     2.4550     0.1360     0.0600   -28.9410    19.3320    20.6320    19.8920    99.1850    84.6020
  341.0000     0.2880     7.8430     2.4720     0.1290     0.0550   -29.1440    18.8770    19.9080    20.2190   101.1450    83.5670
  341.5000     0.2867     7.8430     2.4760     0.1260     0.0550   -29.3460    18.3090    20.2070    20.5460   103.1060    86.1770
  342.0000     0.2863     7.8430     2.4640     0.1290     0.0610   -29.4400    17.7410    20.3800    20.8740   105.0670    87.1830
  342.5000     0.2856     7.8410     2.4530     0.1340     0.0690   -29.3270    17.1730    20.5530    21.2010   107.0280    86.6740
  343.0000     0.2840     7.8380     2.4440     0.1390     0.0750   -29.2160    16.8720    20.7260    21.5280   108.9890    87.2360
  343.5000     0.2831     7.8350     2.4420     0.1420     0.0690   -29.1020    17.0280    20.8990    21.8550   110.4090    87.7960
  344.0000     0.2721     7.8320     2.4440     0.1400     0.0560   -29.0210    17.8090    21.0720    22.0270   109.3390    86.0630
  344.5000     0.2690     7.8300     2.4490     0.1350     0.0460   -28.9460    18.4990    21.2310    24.2060   106.3510    83.2670
  345.0000     0.2748     7.8270     2.4610     0.1310     0.0530   -28.8720    19.5460    22.1490    26.8240   103.3630    81.3810
  345.5000     0.2754     7.8230     2.4730     0.1260     0.0630   -28.7990    19.4880    24.0630    29.4410   101.1280    80.3840
  346.0000     0.2697     7.8330     2.4840     0.1210     0.0720   -28.7280    19.3700    25.9780    32.0590   102.2890    80.0720
  346.5000     0.2563     7.7900     2.4810     0.1200     0.0670   -28.7280    19.2510    27.8920    33.9290   103.9070    80.4740
  347.0000     0.2554     7.7480     2.4630     0.1350     0.0590   -28.9720    19.1900    29.3550    32.1780   105.0200    79.1760
  347.5000     0.2664     7.7050     2.4430     0.1520     0.0510   -29.2110    22.4820    30.6110    30.6660   103.4760    76.1800
  348.0000     0.2794     7.7030     2.4290     0.1490     0.0440   -29.4490    25.5080    31.8680    31.7870   100.4550    73.1880
  348.5000     0.2740     7.7030     2.4350     0.1460     0.0370   -29.6860    28.5340    33.0060    33.4100    97.4340    69.9960
  349.0000     0.2708     7.7030     2.4400     0.1450     0.0450   -29.9240    30.6660    34.2420    34.8780    95.9380    70.1270
  349.5000     0.2739     7.7030     2.4310     0.1500     0.0520   -30.1620    30.2610    34.0020    34.7200    97.3190    71.4090
  350.0000     0.2766     7.7030     2.4210     0.1550     0.0600   -30.3990    29.9480    33.5190    34.4930    97.4350    74.8910
  350.5000     0.2735     7.7030     2.4130     0.1580     0.0550   -30.6360    29.6350    33.0350    34.2420    96.8360    78.3870
  351.0000     0.2715     7.7030     2.4170     0.1580     0.0490   -30.8670    29.3220    32.5520    34.4520    95.5780    81.3940
  351.5000     0.2668     7.7030     2.4230     0.1550     0.0430   -31.1900    29.0090    32.1080    34.8750    94.1900    83.1260
  352.0000     0.2627     7.7030     2.4280     0.1510     0.0360   -31.5010    28.6970    32.9860    35.2980    92.8020    81.6570
  352.5000     0.2653     7.7030     2.4340     0.1480     0.0300   -31.8120    28.3840    33.6640    35.7210    92.1460    80.2590
  353.0000     0.2710     7.7030     2.4360     0.1470     0.0240   -32.1220    27.9730    34.3420    36.1440    92.1940    78.8810
  353.5000     0.2718     7.7030     2.4280     0.1500     0.0180   -32.4320    28.2310    35.0200    36.5660    92.2860    77.9870
  354.0000     0.2683     7.7030     2.4200     0.1540     0.0150   -32.7420    28.9550    35.6980    36.9890    92.2680    78.4610
  354.5000     0.2645     7.7030     2.4190     0.1560     0.0170   -33.0520    29.6290    36.1840    37.4120    92.0450    78.9090
  355.0000     0.2598     7.7030     2.4240     0.1530     0.0190   -33.3620    30.3040    35.7910    37.8350    91.8340    79.3680
  355.5000     0.2561     7.7030     2.4280     0.1500     0.0210   -33.6720    30.3860    34.9750    38.2360    91.6340    79.0520
  356.0000     0.2597     7.7030     2.4280     0.1510     0.0230   -33.9800    29.8410    34.1590    37.5720    91.4330    78.1390
  356.5000     0.2636     7.7030     2.4280     0.1520     0.0250   -34.0490    29.4160    33.3420    36.9140    91.2320    76.3430
  357.0000     0.2655     7.7030     2.4290     0.1500     0.0370   -34.0860    29.0210    32.5260    36.2560    90.7240    76.8320
  357.5000     0.2663     7.7030     2.4350     0.1440     0.0520   -34.1210    29.1490    31.7100    35.5980    89.9940    79.5910
  358.0000     0.2653     7.7030     2.4540     0.1340     0.0680   -34.1560    29.2890    30.9490    34.9390    89.2950    82.2500
  358.5000     0.2447     7.7030     2.4730     0.1210     0.0850   -34.1920    27.9370    30.5270    34.2810    88.6460    84.7540
  359.0000     0.2341     7.7030     2.4920     0.1100     0.0730   -34.2320    26.3140    29.8320    33.6230    87.9960    87.0370
  359.5000     0.2283     7.7030     2.5060     0.1060     0.0510   -34.3850    24.6910    29.9300    33.0060    87.3550    87.3730
  360.0000     0.2050     7.7030     2.5060     0.1030     0.0560   -34.5410    23.4900    30.1430    35.5600    86.5570    83.6210
  360.5000     0.2018     7.7030     2.5250     0.0960     0.0660   -34.6960    27.5970    30.3860    38.5230    84.8320    79.8290
  361.0000     0.2036     7.7030     2.5460     0.0840     0.0610   -34.8520    30.8510    29.7430    38.9450    83.1410    76.8530
  361.5000     0.2054     7.7030     2.5670     0.0720     0.0380   -35.0070    33.9290    28.7660    34.8440    81.4500    76.0230
  362.0000     0.2106     7.7030     2.5830     0.0580     0.0090   -35.1620    31.0710    28.4920    32.1740    80.1700    75.4560
  362.5000     0.2300     7.7030     2.5820     0.0680     0.0070   -35.3170    28.3600    27.6580    31.2610    80.0700    76.8010
  363.0000     0.2405     7.7030     2.5530     0.0870     0.0400   -35.4730    25.6490    26.6780    30.3480    81.8850    78.6240
