~VERSION INFORMATION
 VERS.                2.0:   CWLS LOG ASCII STANDARD - VERSION 2.0
 WRAP.                 NO:   ONE LINE PER DEPTH STEP
~WELL INFORMATION
#MNEM.UNIT      DATA TYPE    INFORMATION
#----------   ------------   ------------------------------
 STRT.F           20.0000:   START DEPTH
 STOP.F          698.0000:   STOP DEPTH
 STEP.F            0.5000:   STEP LENGTH
 NULL.          -999.2500:   NO VALUE
 COMP. FENIX & SCISSON INC:   COMPANY
 WELL.    52 SX 34 #52-34:   WELL
 FLD .             TEAPOT:   FIELD
 LOC .      S34 T39N R78W:   LOCATION
 CNTY.            NATRONA:   COUNTY
 STAT.            WYOMING:   STATE
 CTRY. UNITED STATES OF AMERICA:   COUNTRY
 SRVC.            Unknown:   SERVICE COMPANY
 DATE.        26-JAN-1979:   LOGDATE
 API .       490251077100:   API NUMBER
~CURVE INFORMATION
#MNEM.UNIT       API CODE    CURVE DESCRIPTION
#----------   ------------   ------------------------------
 DEPT.F                  :   
 SPR .MV     05 010 01 00:   SPONTANEOUS POTENTIAL FROM RES.
 CALD.IN     45 280 60 00:   CALIPER
 GRD .GAPI   45 310 01 00:   GAMMA RAY FROM DENSITY LOG
 CORR.G/C3   45 356 01 00:   DENSITY CORRECTION
 RHOB.G/C3   45 350 01 00:   BULK DENSITY
 ILD .OHMM   05 120 46 00:   INDUCTION LOG DEEP
 SN  .OHMM   05 040 16 00:   SHORT NORMAL 16"
 DPHI.DEC    45 890 12 00:   DENSITY POROSITY SANDSTONE
~PARAMETER INFORMATION
#MNEM.UNIT          VALUE    DESCRIPTION
#----------   ------------   ------------------------------
 PD  .                 GL:   PERMANENT DATUM
 EPD .F              5072:   ELEVATION PERMANENT DATUM
 LMF .                 KB:   LOG MEASURED FROM
 DAPD.F                 4:   FEET ABOVE PERMANENT DATUM
 DMF .                 KB:   DRILLING MEASURED FROM
 EKB .F              5076:   KELLING BUSHING
 EGL .F              5072:   GROUND LEVEL
 DATE.            1-26-79:   RUN DATE
 RUN .                  1:   RUN NUMBER
 DD  .F               688:   DEPTH DRILLER
 DL  .F               698:   DEPTH LOGGER
 BLI .F               691:   BOTTOM LOG INTERVAL
 TLI .F                30:   TOP LOG INTERVAL
 CS  .IN            8.625:   CASING SIZE
 CBD .F                40:   CASING BOTTOM DRILLER
 CBL .F                20:   CASING BOTTOM LOGGER
 BS  .IN            7.875:   BIT SIZE
 BSD .F               688:   BIT SIZE AT DEPTH
 DFT .                KCL:   DRILLING FLUID TYPE
 DFD .                8.9:   DRILLING FLUID DENSITY
 DFV .                 39:   DRILLING FLUID VISCOSITY
 DFPH.                 10:   DRILLING FLUID PH
 DFL .                 10:   DRILLING FLUID LOSS
 MSS .           FLOWLINE:   MUD SAMPLE SOURCE
 RMS .OHMM             .3:   RESISTIVITY MUD SAMPLE
 MST .F                60:   MUD SAMPLE TEMPERATURE
 RMF .OHMM            .22:   RESISTIVITY MUD FILTRATE SAMPLE
 MFST.F                66:   MUD FILTRATE SAMPLE TEMPERATURE
 MFSS.           MEASURED:   MUD FILTRATE SAMPLE SOURCE
 MCSS.           MEASURED:   MUD CAKE SAMPLE SOURCE
 RMB .OHMM            .25:   RESISTIVITY MUD AT BHT
 BHT .F                70:   BOTTOM HOLE TEMPERATURE
 TCS .HRS               7:   TIME CURCULATED STOPPED
 MRT .F                70:   MAXIMUM RECORDED TEMPERATURE
 LUN .               3006:   LOGGING UNIT NUMBER
 LUL .             CASPER:   LOGGING UNIT LOCATION
 ENGI.            ROLLINS:   RECORDING ENGINEER
 WITN.              AMEND:   WITNESSED BY
 CLNT.            A2DTECH:   CLIENT CODE
 ORIG.       2", 5" PRINT:   ORIGIN OF DATA
 UWI .       490251077100:   UNIQUE WELL ID
 DICO. A2D Technologies, Inc.:   DIGITIZING COMPANY
~OTHER INFORMATION
~A   DEPT      SPR         CALD       GRD      CORR       RHOB        ILD         SN       DPHI   
# ...
  587.0000   -33.6755     8.1912    77.6550     0.0165     2.4075    12.6458    11.3326     0.1554
  587.5000   -33.6755     8.1956    77.4547     0.0173     2.4120    12.6813    11.3711     0.1484
  588.0000   -33.6755     8.1993    77.2500     0.0169     2.4244    12.7065    11.2544     0.1441
  588.5000   -33.6755     8.2029    77.5628     0.0162     2.4337    12.5221    11.1183     0.1428
  589.0000   -33.6756     8.2067    81.0217     0.0155     2.4399    12.3748    10.9838     0.1393
  589.5000   -33.6752     8.2105    80.6359     0.0165     2.4455    12.2293    10.9577     0.1375
  590.0000   -33.6744     8.2114    80.2293     0.0175     2.4408    12.0851    10.9582     0.1417
  590.5000   -33.5852     8.2114    79.0814     0.0185     2.4358    11.9427    10.8936     0.1448
  591.0000   -33.3617     8.2114    77.7450     0.0195     2.4314    11.8748    10.8108     0.1448
  591.5000   -33.1401     8.2120    78.1577     0.0214     2.4310    11.8300    10.7288     0.1396
  592.0000   -32.9193     8.1771    80.0200     0.0234     2.4409    11.7961    10.6642     0.1380
  592.5000   -32.6792     8.1231    82.0565     0.0226     2.4468    11.7845    10.7161     0.1396
  593.0000   -31.9692     8.1094    82.7675     0.0216     2.4428    11.7728    10.7683     0.1408
  593.5000   -31.1653     8.1048    78.5845     0.0207     2.4390    11.7612    10.8207     0.1389
  594.0000   -30.0277     8.1006    78.7106     0.0197     2.4452    11.7495    10.8733     0.1352
  594.5000   -28.8621     8.0963    78.7156     0.0205     2.4519    11.7379    10.9262     0.1362
  595.0000   -27.5658     8.0920    78.9163     0.0219     2.4518    11.7261    10.9794     0.1393
  595.5000   -26.1485     8.0877    80.7593     0.0318     2.4492    11.7142    11.0328     0.1452
  596.0000   -24.7360     8.0834    81.2351     0.0403     2.4319    11.7030    11.0865     0.1597
  596.5000   -23.3601     8.0792    78.8483     0.0430     2.4065    11.6913    11.1405     0.1743
  597.0000   -22.6732     8.0745    74.8462     0.0431     2.3813    11.8589    11.2382     0.1890
  597.5000   -22.5514     8.1113    70.0242     0.0427     2.3555    12.0293    11.3672     0.2155
  598.0000   -22.5488     8.1679    62.3942     0.0423     2.3195    12.1992    11.5111     0.2255
  598.5000   -22.5494     8.1040    58.9758     0.0418     2.2952    12.6901    11.7294     0.2209
  599.0000   -22.5496     7.9763    59.6513     0.0414     2.3037    13.3113    11.9519     0.2159
  599.5000   -22.5496     7.8030    62.6642     0.0410     2.3115    13.9631    12.1786     0.2151
  600.0000   -22.5501     7.7184    66.0103     0.0405     2.3121    14.6442    12.4158     0.2159
  600.5000   -22.5505     7.7326    68.6083     0.0401     2.3105    15.1505    12.6603     0.2187
  601.0000   -22.6346     7.7613    70.8877     0.0397     2.3025    15.7686    12.9096     0.2263
  601.5000   -22.8121     7.8118    69.1620     0.0420     2.2919    16.5019    12.9445     0.2279
  602.0000   -23.0187     7.8868    65.2043     0.0476     2.2898    17.2468    12.9445     0.2361
  602.5000   -23.3739     7.9615    63.6273     0.0490     2.2782    17.6922    12.9445     0.2448
  603.0000   -24.4411     8.0364    61.6656     0.0483     2.2669    18.1363    12.9445     0.2441
  603.5000   -25.3593     8.1112    60.4812     0.0478     2.2604    18.2318    12.9445     0.2379
  604.0000   -25.3323     8.1857    62.1568     0.0418     2.2810    18.2318    12.9445     0.2241
  604.5000   -25.3295     8.2291    65.1742     0.0349     2.3041    18.2318    12.9445     0.2153
  605.0000   -25.3310     8.2141    66.0909     0.0314     2.3096    18.2318    12.9445     0.2098
  605.5000   -25.3311     8.2114    66.1296     0.0286     2.3267    18.3090    12.9415     0.2008
  606.0000   -25.3311     8.1874    65.6942     0.0275     2.3373    18.4609    12.9356     0.1950
  606.5000   -25.3311     8.1401    67.7552     0.0274     2.3442    18.6141    12.9297     0.1962
  607.0000   -25.3311     8.0583    66.9710     0.0295     2.3431    18.7685    12.9239     0.2026
  607.5000   -25.3311     7.9762    65.9811     0.0322     2.3313    18.9195    12.9180     0.2113
  608.0000   -25.3311     7.8941    65.6249     0.0349     2.3156    18.7431    12.9121     0.2155
  608.5000   -25.3311     7.8122    63.6839     0.0375     2.3116    18.5735    12.9062     0.2119
  609.0000   -25.3311     7.7378    62.6778     0.0387     2.3203    18.4013    12.9004     0.2009
  609.5000   -25.3311     7.6937    63.3557     0.0353     2.3393    18.2929    12.8945     0.1947
  610.0000   -25.3311     7.6452    66.6590     0.0344     2.3449    18.1823    12.8887     0.1995
  610.5000   -25.3311     7.5973    71.1470     0.0382     2.3375    18.0638    12.8828     0.2069
  611.0000   -25.3311     7.5569    72.2391     0.0360     2.3261    17.8758    12.8770     0.2138
  611.5000   -25.3319     7.4686    71.8664     0.0308     2.3132    17.6739    12.8711     0.2208
  612.0000   -25.3314     7.3756    67.8982     0.0255     2.3003    17.4034    12.8652     0.2287
  612.5000   -25.3201     7.2567    63.8672     0.0245     2.2906    17.0607    12.8594     0.2303
  613.0000   -26.0145     7.1679    61.9092     0.0260     2.2861    16.7248    12.8536     0.2319
  613.5000   -25.9778     7.2587    60.8553     0.0275     2.2823    16.4450    12.8477     0.2290
  614.0000   -26.3393     7.4167    62.8637     0.0289     2.2879    16.3457    12.8419     0.2243
  614.5000   -26.9134     7.5753    64.9069     0.0356     2.3029    16.2469    12.8361     0.2147
  615.0000   -27.0908     7.7333    66.5851     0.0534     2.3129    16.1647    12.8304     0.2081
  615.5000   -27.2525     7.9568    67.6790     0.0723     2.3252    16.3199    12.8170     0.2043
  616.0000   -27.4146     8.2074    68.6063     0.0836     2.3352    16.4560    12.7585     0.2005
  616.5000   -27.5364     8.2686    65.3360     0.0812     2.3373    16.5930    12.7055     0.1950
  617.0000   -27.5855     8.2545    64.3774     0.0609     2.3506    16.7311    12.6898     0.1817
  617.5000   -27.6357     8.1885    66.3485     0.0583     2.3676    16.8909    12.6742     0.1815
  618.0000   -27.6859     8.0894    67.6390     0.0623     2.3705    17.0621    12.6586     0.1813
  618.5000   -27.7360     7.9938    68.5060     0.0586     2.3709    17.2355    12.6431     0.1911
  619.0000   -27.7861     7.8986    75.1441     0.0516     2.3562    17.4100    12.6276     0.1965
  619.5000   -27.8364     7.8035    74.8688     0.0471     2.3453    17.5868    12.6122     0.1985
  620.0000   -27.8868     7.7083    73.4110     0.0463     2.3378    17.7325    12.5912     0.2049
  620.5000   -28.0643     7.6130    71.1874     0.0452     2.3301    17.3136    12.6264     0.2050
  621.0000   -28.5260     7.5186    67.9170     0.0373     2.3295    16.9680    12.6903     0.2045
  621.5000   -29.7921     7.4381    67.8011     0.0291     2.3296    16.6276    12.7546     0.2040
  622.0000   -31.2091     7.4403    67.8185     0.0282     2.3297    16.2937    12.8192     0.1997
  622.5000   -32.2261     7.4420    67.8213     0.0321     2.3559    15.8652    12.8841     0.1840
  623.0000   -32.6513     7.4971    67.8132     0.0356     2.3961    15.8682    12.9493     0.1535
  623.5000   -32.6864     7.5567    67.6915     0.0373     2.4366    15.8682    13.0148     0.1323
  624.0000   -32.6834     7.5805    70.7391     0.0393     2.4756    15.8682    13.0807     0.1207
  624.5000   -32.6819     7.7162    70.5322     0.0415     2.4769    15.9654    13.1864     0.1329
  625.0000   -32.6821     7.8647    70.7540     0.0485     2.4557    16.1962    13.1753     0.1516
  625.5000   -32.6821     8.0137    73.1186     0.0673     2.4189    16.4304    13.1481     0.1697
  626.0000   -32.6822     8.1681    75.0697     0.0855     2.3849    16.6679    13.1210     0.1767
  626.5000   -32.6818     8.2097    73.6724     0.0952     2.3782    16.8351    13.0939     0.1776
  627.0000   -32.6812     8.2410    73.0228     0.0891     2.3773    16.9448    13.0649     0.1753
