~VERSION INFORMATION
 VERS.                2.0:   CWLS LOG ASCII STANDARD - VERSION 2.0
 WRAP.                 NO:   ONE LINE PER DEPTH STEP
~WELL INFORMATION
#MNEM.UNIT      DATA TYPE    INFORMATION
#----------   ------------   ------------------------------
 STRT.F           43.0000:   START DEPTH
 STOP.F          551.0000:   STOP DEPTH
 STEP.F            0.5000:   STEP LENGTH
 NULL.          -999.2500:   NO VALUE
 COMP. FENIX & SCISSON INC:   COMPANY
 WELL.   NPR 3  27-S #3-3:   WELL
 FLD .             TEAPOT:   FIELD
 LOC .       S3 T38N R78W:   LOCATION
 CNTY.            NATRONA:   COUNTY
 STAT.            WYOMING:   STATE
 CTRY. UNITED STATES OF AMERICA:   COUNTRY
 SRVC.           BIRDWELL:   SERVICE COMPANY
 DATE.        07-OCT-1978:   LOGDATE
 API .       490251071600:   API NUMBER
~CURVE INFORMATION
#MNEM.UNIT       API CODE    CURVE DESCRIPTION
#----------   ------------   ------------------------------
 DEPT.F                  :   
 SPR .MV     05 010 01 00:   SPONTANEOUS POTENTIAL FROM RES.
 SN  .OHMM   05 040 16 00:   SHORT NORMAL 16"
 ILD .OHMM   05 120 46 00:   INDUCTION LOG DEEP
 GRD .GAPI   45 310 01 00:   GAMMA RAY FROM DENSITY LOG
 CALD.IN     45 280 60 00:   CALIPER
 RHOB.G/C3   45 350 01 00:   BULK DENSITY
 CORR.G/C3   45 356 01 00:   DENSITY CORRECTION
 DPHI.DEC    45 890 12 00:   DENSITY POROSITY SANDSTONE
~PARAMETER INFORMATION
#MNEM.UNIT          VALUE    DESCRIPTION
#----------   ------------   ------------------------------
 PD  .                 GL:   PERMANENT DATUM
 EPD .F              5241:   ELEVATION PERMANENT DATUM
 LMF .                 KB:   LOG MEASURED FROM
 DAPD.F                 4:   FEET ABOVE PERMANENT DATUM
 DMF .                 KB:   DRILLING MEASURED FROM
 EKB .F              5245:   KELLING BUSHING
 EGL .F              5241:   GROUND LEVEL
 DATE.            10-7-78:   RUN DATE
 RUN .                  1:   RUN NUMBER
 DD  .F               552:   DEPTH DRILLER
 DL  .F               551:   DEPTH LOGGER
 BLI .F               545:   BOTTOM LOG INTERVAL
 TLI .F                48:   TOP LOG INTERVAL
 CS  .IN            8.625:   CASING SIZE
 CBL .F                43:   CASING BOTTOM LOGGER
 BS  .IN            7.875:   BIT SIZE
 BSD .F               552:   BIT SIZE AT DEPTH
 DFT .                KCL:   DRILLING FLUID TYPE
 DFD .                8.7:   DRILLING FLUID DENSITY
 DFV .                 38:   DRILLING FLUID VISCOSITY
 DFPH.                  9:   DRILLING FLUID PH
 DFL .                 38:   DRILLING FLUID LOSS
 MSS .            MUD PIT:   MUD SAMPLE SOURCE
 RMS .OHMM            .24:   RESISTIVITY MUD SAMPLE
 MST .F                48:   MUD SAMPLE TEMPERATURE
 RMF .OHMM             .2:   RESISTIVITY MUD FILTRATE SAMPLE
 MFST.F                62:   MUD FILTRATE SAMPLE TEMPERATURE
 RMC .OHMM             .3:   RESISTIVITY MUD CAKE
 MCST.F                62:   MUD CAKE SAMPLE TEMPERATURE
 MFSS.               MEAS:   MUD FILTRATE SAMPLE SOURCE
 MCSS.               MEAS:   MUD CAKE SAMPLE SOURCE
 TCS .HRS               3:   TIME CURCULATED STOPPED
 LUN .               2958:   LOGGING UNIT NUMBER
 LUL .               CASP:   LOGGING UNIT LOCATION
 ENGI.             MILLER:   RECORDING ENGINEER
 WITN.              AMEND:   WITNESSED BY
 CLNT.            A2DTECH:   CLIENT CODE
 ORIG.       2", 5" PRINT:   ORIGIN OF DATA
 UWI .       490251071600:   UNIQUE WELL ID
 DICO. A2D Technologies, Inc.:   DIGITIZING COMPANY
~OTHER INFORMATION
~A   DEPT      SPR         SN        ILD        GRD         CALD       RHOB      CORR        DPHI 
# ...
  164.5000   -37.4571     7.5965     8.8039   103.7846     7.9806     2.5133     0.0040     0.1026
  165.0000   -37.4379     7.5966     8.7893   103.8615     7.9851     2.4920     0.0042     0.1127
  165.5000   -37.4188     7.5957     8.7631   103.9300     7.9902     2.4884     0.0043     0.1161
  166.0000   -37.4001     7.5964     8.7370   104.1015     7.9958     2.4882     0.0045     0.1161
  166.5000   -37.3808     7.4147     8.7110   107.2515     8.0300     2.4880     0.0046     0.1153
  167.0000   -37.3579     7.2841     8.6851   107.9738     8.1012     2.4878     0.0048     0.1140
  167.5000   -37.1374     7.2552     8.6592   108.3466     8.2011     2.4876     0.0049     0.1159
  168.0000   -36.6326     7.2566     8.6430   108.2817     8.2644     2.4878     0.0099     0.1164
  168.5000   -36.5327     7.2580     8.7754   107.4958     8.2800     2.4944     0.0173     0.1124
  169.0000   -36.5065     7.2593     8.8732   106.9954     8.2961     2.4955     0.0230     0.1110
  169.5000   -36.4822     7.2607     8.9721   110.8837     8.3120     2.4932     0.0229     0.1110
  170.0000   -36.4571     7.2621     9.0729   110.8608     8.3280     2.4909     0.0226     0.1122
  170.5000   -36.4318     7.2634     9.1342   110.7654     8.3367     2.4887     0.0329     0.1148
  171.0000   -36.4065     7.2648     9.1116   110.7388     8.3366     2.4866     0.0448     0.1173
  171.5000   -36.3812     7.2661     9.0945   110.7092     8.3367     2.4903     0.0653     0.1145
  172.0000   -36.3560     7.2675     9.0777   110.6797     8.3366     2.4982     0.0964     0.1067
  172.5000   -36.3307     7.2689     9.0610   110.6472     8.3367     2.5094     0.1273     0.0979
  173.0000   -36.3054     7.2702     8.9962   110.6019     8.3368     2.5224     0.1581     0.0891
  173.5000   -36.2802     7.2716     8.8592   111.2654     8.3356     2.5431     0.1806     0.0803
  174.0000   -36.2549     7.2730     8.7236   112.0003     8.3139     2.5632     0.1698     0.0715
  174.5000   -36.2296     7.2743     8.5903   112.7212     8.2927     2.5811     0.1375     0.0627
  175.0000   -36.2043     7.2757     8.4072   112.3128     8.2719     2.5816     0.1053     0.0584
  175.5000   -36.1791     7.2771     8.4170   111.2663     8.2579     2.5636     0.0731     0.0642
  176.0000   -36.1538     7.2784     8.4332   110.9722     8.2627     2.5385     0.0407     0.0774
  176.5000   -36.1285     7.2798     8.4494   110.8994     8.2670     2.5127     0.0253     0.1001
  177.0000   -36.1032     7.2812     8.4657   110.8351     8.2713     2.5155     0.0258     0.0973
  177.5000   -36.0780     7.2825     8.4845   110.7659     8.2757     2.5240     0.0267     0.0941
  178.0000   -36.0527     7.2839     8.4709   110.6936     8.2800     2.5261     0.0245     0.0922
  178.5000   -36.0274     7.2853     8.4534   110.6300     8.2844     2.5280     0.0202     0.0906
  179.0000   -36.0035     7.2867     8.4359   112.6577     8.2890     2.5275     0.0148     0.0918
  179.5000   -35.9836     7.2880     8.4185   115.8869     8.2933     2.5182     0.0095     0.1002
  180.0000   -35.9245     7.2894     8.4011   116.9325     8.2818     2.5027     0.0049     0.1088
  180.5000   -34.7962     7.2908     8.3838   117.8153     8.1717     2.4872     0.0056     0.1177
  181.0000   -34.5641     7.2921     8.3664   117.8009     8.0752     2.4871     0.0062     0.1164
  181.5000   -34.5589     7.2935     8.3491   118.2916     8.0775     2.4901     0.0067     0.1132
  182.0000   -34.5613     7.2949     8.3319   119.7325     8.0769     2.4921     0.0073     0.1129
  182.5000   -34.5617     7.2962     8.3147   119.5667     8.0411     2.4887     0.0078     0.1150
  183.0000   -34.5617     7.2976     8.2975   116.6778     8.0028     2.4853     0.0084     0.1171
  183.5000   -34.5617     7.2990     8.2806   113.8295     7.9777     2.4830     0.0089     0.1192
  184.0000   -34.5617     7.3003     8.2633   111.6198     7.9781     2.4819     0.0092     0.1209
  184.5000   -34.5617     7.3017     8.2536   110.6073     7.9781     2.4973     0.0094     0.1106
  185.0000   -34.5617     7.3031     8.3323   110.2736     7.9781     2.5012     0.0097     0.1076
  185.5000   -34.5617     7.3045     8.3875   111.9903     7.9787     2.5022     0.0099     0.1067
  186.0000   -34.5617     7.3058     8.4430   113.8571     7.9539     2.5031     0.0102     0.1059
  186.5000   -34.5617     7.3072     8.4851   114.2444     7.9335     2.5013     0.0104     0.1051
  187.0000   -34.5617     7.3086     8.4747   114.3018     7.9126     2.4976     0.0106     0.1081
  187.5000   -34.5617     7.3099     8.4664   114.3506     7.8917     2.4940     0.0109     0.1121
  188.0000   -34.5617     7.3113     8.4581   114.4026     7.8707     2.4938     0.0115     0.1138
  188.5000   -34.5617     7.3127     8.4498   114.4553     7.8601     2.5006     0.0128     0.1089
  189.0000   -34.5619     7.3141     8.4415   114.5083     7.9110     2.5072     0.0096     0.1029
  189.5000   -34.5623     7.3154     8.4332   114.5648     7.9637     2.5126     0.0063     0.0982
  190.0000   -34.5680     7.3168     8.4249   114.6441     8.0163     2.5119     0.0029     0.0990
  190.5000   -34.2751     7.3182     8.4166   112.9751     8.0693     2.5010    -0.0004     0.1111
  191.0000   -33.8891     7.3195     8.4084   111.8994     8.0777     2.4862    -0.0019     0.1196
  191.5000   -33.5023     7.3222     8.3404   113.3809     8.0778     2.4748    -0.0029     0.1234
  192.0000   -33.1463     7.2936     8.2637   115.3406     8.0777     2.4776    -0.0008     0.1209
  192.5000   -33.0657     7.2513     8.1877   115.1144     8.0777     2.4793     0.0013     0.1220
  193.0000   -32.9781     7.2095     8.1124   114.8198     8.0775     2.4777     0.0081     0.1222
  193.5000   -32.8893     7.1680     8.0378   114.6060     8.0779     2.4781     0.0150     0.1210
  194.0000   -32.8006     7.1268     7.9935   114.6552     8.0947     2.4854     0.0220     0.1198
  194.5000   -32.7118     7.1217     7.9537   114.7006     8.1747     2.4925     0.0197     0.1119
  195.0000   -32.6231     7.1217     7.9141   114.7372     8.2165     2.4996     0.0137     0.1079
  195.5000   -32.5343     7.1217     7.8747   114.8252     8.2121     2.4996     0.0075     0.1080
  196.0000   -32.4456     7.1217     7.8354   112.4340     8.2081     2.4983     0.0029     0.1082
  196.5000   -32.3568     7.1217     7.7964   108.9396     8.2040     2.4918     0.0030     0.1135
  197.0000   -32.2673     7.1217     7.7576   107.5885     8.2002     2.4854     0.0030     0.1185
  197.5000   -32.1759     7.1217     7.7378   107.1979     8.2044     2.4844     0.0039     0.1198
  198.0000   -32.1706     7.1217     7.8234   106.8116     8.2355     2.4996     0.0059     0.1155
  198.5000   -32.1712     7.1217     7.8815   106.3011     8.2591     2.5011     0.0079     0.1076
  199.0000   -32.1713     7.1205     7.9399   103.6790     8.2657     2.5008     0.0100     0.1069
  199.5000   -32.1713     7.1177     7.9988   100.3580     8.2725     2.5024     0.0164     0.1062
  200.0000   -32.1713     7.2595     8.1255    98.6363     8.2793     2.5105     0.0274     0.1008
  200.5000   -32.1713     7.4162     8.3233    98.3094     8.2861     2.5174     0.0337     0.0979
  201.0000   -32.1713     7.5285     8.5260    99.0874     8.2929     2.5175     0.0353     0.0981
  201.5000   -32.1713     7.5344     8.7337   101.7734     8.2997     2.5174     0.0381     0.0984
  202.0000   -32.1726     7.5403     8.9464   104.5578     8.3065     2.5179     0.0494     0.0982
  202.5000   -32.1684     7.5463     9.0508   107.9735     8.3130     2.5223     0.0610     0.0945
  203.0000   -32.1736     7.5522     9.0521   111.5565     8.3033     2.5260     0.0676     0.0919
  203.5000   -30.8801     7.5581     9.0509   113.6154     8.2766     2.5236     0.0695     0.0922
  204.0000   -29.1431     7.5641     9.0506   113.4622     8.2741     2.5196     0.0734     0.0965
  204.5000   -29.1425     7.5700     9.0511   113.3243     8.3481     2.5194     0.0829     0.0953
