~VERSION INFORMATION
 VERS.                2.0:   CWLS LOG ASCII STANDARD - VERSION 2.0
 WRAP.                 NO:   ONE LINE PER DEPTH STEP
~WELL INFORMATION
#MNEM.UNIT      DATA TYPE    INFORMATION
#----------   ------------   ------------------------------
 STRT.F            0.0000:   START DEPTH
 STOP.F          562.0000:   STOP DEPTH
 STEP.F            0.1000:   STEP LENGTH
 NULL.          -999.2500:   NO VALUE
 COMP. BROWN JOHN E&C INC:   COMPANY
 WELL.    73-1 SX-3 #73-3:   WELL
 FLD .             TEAPOT:   FIELD
 LOC .       S3 T38N R78W:   LOCATION
 CNTY.            NATRONA:   COUNTY
 STAT.            WYOMING:   STATE
 CTRY. UNITED STATES OF AMERICA:   COUNTRY
 SRVC.      Western Atlas:   SERVICE COMPANY
 DATE.        23-APR-1992:   LOGDATE
 API .       490252251200:   API NUMBER
~CURVE INFORMATION
#MNEM.UNIT       API CODE    CURVE DESCRIPTION
#----------   ------------   ------------------------------
 DEPT.F                  :   
 GRR .GAPI   07 310 01 00:   GAMMA RAY
 RILD.OHMM   07 120 46 00:   INDUCTION LOG DEEP RESISTIVITY
 RILM.OHMM   07 120 44 00:   INDUCTION LOG MEDIUM RESISTIVITY
 CILD.MMHO   07 110 46 00:   CONDUCTIVITY INDUCTION LOG DEEP
~PARAMETER INFORMATION
#MNEM.UNIT          VALUE    DESCRIPTION
#----------   ------------   ------------------------------
 PD  .                 GL:   PERMANENT DATUM
 EPD .F              5164:   ELEVATION PERMANENT DATUM
 LMF .                 KB:   LOG MEASURED FROM
 DAPD.F                 5:   FEET ABOVE PERMANENT DATUM
 DMF .                 KB:   DRILLING MEASURED FROM
 EKB .F              5169:   KELLING BUSHING
 EDF .F              5168:   DRILLING FLOOR
 EGL .F              5164:   GROUND LEVEL
 DATE.        23-APR-1992:   RUN DATE
 RUN .                  1:   RUN NUMBER
 DD  .F               561:   DEPTH DRILLER
 DL  .F               564:   DEPTH LOGGER
 BLI .F               562:   BOTTOM LOG INTERVAL
 CS  .IN            8.625:   CASING SIZE
 CBD .F                48:   CASING BOTTOM DRILLER
 CBL .F                49:   CASING BOTTOM LOGGER
 BS  .IN            7.875:   BIT SIZE
 BSD .F               561:   BIT SIZE AT DEPTH
 DFT .                AIR:   DRILLING FLUID TYPE
 TCS .HRS               2:   TIME CURCULATED STOPPED
 LUN .           HL- 6272:   LOGGING UNIT NUMBER
 LUL .             CASPER:   LOGGING UNIT LOCATION
 ENGI.            LEBSOCK:   RECORDING ENGINEER
 WITN.        GARY STRONG:   WITNESSED BY
 CLNT.            A2DTECH:   CLIENT CODE
 ORIG.       2", 5" PRINT:   ORIGIN OF DATA
 UWI .       490252251200:   UNIQUE WELL ID
 DICO. A2D Technologies, Inc.:   DIGITIZING COMPANY
~OTHER INFORMATION
~A    DEPT      GRR      RILD       RILM       CILD   
# ...
   43.8000    77.2624  -999.2500  -999.2500  -999.2500
   43.9000    77.7476  -999.2500  -999.2500  -999.2500
   44.0000    78.2289  -999.2500  -999.2500  -999.2500
   44.1000    78.3488  -999.2500  -999.2500  -999.2500
   44.2000    78.4706  -999.2500  -999.2500  -999.2500
   44.3000    78.5856  -999.2500  -999.2500  -999.2500
   44.4000    78.3470  -999.2500  -999.2500  -999.2500
   44.5000    78.3463  -999.2500  -999.2500  -999.2500
   44.6000    78.1590  -999.2500  -999.2500  -999.2500
   44.7000    77.6615  -999.2500  -999.2500  -999.2500
   44.8000    77.0715  -999.2500  -999.2500  -999.2500
   44.9000    76.8111  -999.2500  -999.2500  -999.2500
   45.0000    76.0841  -999.2500  -999.2500  -999.2500
   45.1000    75.3576  -999.2500  -999.2500  -999.2500
   45.2000    74.6312  -999.2500  -999.2500  -999.2500
   45.3000    73.9048  -999.2500  -999.2500  -999.2500
   45.4000    73.1784  -999.2500  -999.2500  -999.2500
   45.5000    72.3162  -999.2500  -999.2500  -999.2500
   45.6000    72.1190  -999.2500  -999.2500  -999.2500
   45.7000    71.7388  -999.2500  -999.2500  -999.2500
   45.8000    71.3324  -999.2500  -999.2500  -999.2500
   45.9000    71.0899  -999.2500  -999.2500  -999.2500
   46.0000    70.8071  -999.2500  -999.2500  -999.2500
   46.1000    70.6049  -999.2500  -999.2500  -999.2500
   46.2000    70.5048  -999.2500  -999.2500  -999.2500
   46.3000    70.5875  -999.2500  -999.2500  -999.2500
   46.4000    70.8290  -999.2500  -999.2500  -999.2500
   46.5000    71.1053  -999.2500  -999.2500  -999.2500
   46.6000    71.3117  -999.2500  -999.2500  -999.2500
   46.7000    71.7006  -999.2500  -999.2500  -999.2500
   46.8000    72.1838  -999.2500  -999.2500  -999.2500
   46.9000    72.6962  -999.2500  -999.2500  -999.2500
   47.0000    73.5120  -999.2500  -999.2500  -999.2500
   47.1000    74.1472  -999.2500  -999.2500  -999.2500
   47.2000    75.1777  -999.2500  -999.2500  -999.2500
   47.3000    76.3868  -999.2500  -999.2500  -999.2500
   47.4000    77.7324  -999.2500  -999.2500  -999.2500
   47.5000    80.1355  -999.2500  -999.2500  -999.2500
   47.6000    81.6524  -999.2500  -999.2500  -999.2500
   47.7000    83.6614  -999.2500  -999.2500  -999.2500
   47.8000    86.0362  -999.2500  -999.2500  -999.2500
   47.9000    88.6576  -999.2500  -999.2500  -999.2500
   48.0000    91.2771  -999.2500  -999.2500  -999.2500
   48.1000    93.9387  -999.2500  -999.2500  -999.2500
   48.2000    96.5161  -999.2500  -999.2500  -999.2500
   48.3000    99.0391  -999.2500  -999.2500  -999.2500
   48.4000   101.6573  -999.2500  -999.2500  -999.2500
   48.5000   104.2259  -999.2500  -999.2500  -999.2500
   48.6000   105.8138  -999.2500  -999.2500  -999.2500
   48.7000   107.5067  -999.2500  -999.2500  -999.2500
   48.8000   108.9829  -999.2500  -999.2500  -999.2500
   48.9000   110.2413  -999.2500  -999.2500  -999.2500
   49.0000   111.7530     4.2492    25.5389   256.4010
   49.1000   112.9125     4.1766    23.7544   257.5802
   49.2000   114.4670     4.0884    21.9039   258.7593
   49.3000   116.0464     3.9680    11.0561   259.9385
   49.4000   117.5516     3.7739     6.9730   261.0075
   49.5000   119.2801     3.8479     6.3073   261.4982
   49.6000   121.1743     3.9480     6.1557   261.9889
   49.7000   123.1104     4.1527     5.9401   260.6386
   49.8000   124.9274     4.5506     5.8486   238.1130
   49.9000   126.4425     5.2386     5.8607   215.5874
   50.0000   127.4096     6.2994     5.9824   193.0618
   50.1000   128.2534    12.5287     6.2075   154.8656
   50.2000   129.0973    28.9525     6.5946   116.6693
   50.3000   129.9412    61.8722     6.9727    75.4179
   50.4000   130.7850   146.1054     7.5247    53.3427
   50.5000   131.6268   634.3464     8.1384    29.3483
   50.6000   132.3496  1204.5758     8.7493     1.5145
   50.7000   133.0724  3524.8625     9.5440     1.5153
   50.8000   133.6682 10023.7451    10.0239     1.5164
   50.9000   134.1493 10023.7451    10.4481     1.5174
   51.0000   134.6145 10023.7451    10.7789     1.5184
   51.1000   134.6120 10023.7451    11.0746     1.5194
   51.2000   134.6096 10023.7451    11.3613     1.5204
   51.3000   134.3452 10023.7451    11.4684     1.5214
   51.4000   133.8593 10023.7451    11.6344     1.5224
   51.5000   133.3613  9041.0059    11.8961     1.5234
   51.6000   132.4911  7709.3643    12.2972     1.5244
   51.7000   131.9061  6377.7231    12.7903     1.5254
   51.8000   130.9087  5046.0820    13.2056     1.5264
   51.9000   129.7731  3714.4407    13.7727     1.5274
   52.0000   128.8195  2382.7996    14.3962     1.5284
   52.1000   127.9610  1101.2915    15.1514     1.5294
   52.2000   127.5621    99.4006    18.2439     1.9604
   52.3000   126.9372    31.6979    19.4080     2.9408
   52.4000   126.3687    22.5503    19.5945     3.9212
   52.5000   126.1045    17.0821    19.4067     5.6049
   52.6000   125.5394    14.3935    19.2955     8.5441
   52.7000   125.3350    12.4610    18.9769    11.4834
   52.8000   124.9478     9.4136    18.5090    24.6018
   52.9000   124.4616     7.8520    17.5295    64.0239
   53.0000   123.9999     7.1957    16.2434   103.4459
   53.1000   123.7201     7.1709    15.4359   135.2185
   53.2000   123.3052     7.1709    14.4638   136.1989
   53.3000   122.8193     7.1709    13.4824   137.1794
   53.4000   121.6334     7.1709    12.4813   138.1015
   53.5000   119.2416     7.1709    11.5676   138.5922
   53.6000   116.7804     7.1709    11.0412   139.0829
   53.7000   116.1469     7.1709    10.6406   139.5737
   53.8000   115.8723     7.1709    10.3139   140.0644
   53.9000   115.8699     7.1709    10.0554   140.5551
   54.0000   115.8996     7.1259     9.8439   141.0659
   54.1000   116.1660     7.0473     9.6690   141.0669
   54.2000   116.5927     6.9695     9.5700   141.0679
   54.3000   117.0738     6.8926     9.4641   141.0690
   54.4000   117.6503     6.8167     9.3807   141.7156
   54.5000   118.4092     6.7615     9.3205   142.4511
   54.6000   119.4672     6.7138     9.2068   143.1867
   54.7000   120.3392     6.6404     9.1155   144.9004
   54.8000   121.6219     6.6037     9.0146   146.8603
   54.9000   123.1695     6.5397     8.8961   148.8201
   55.0000   124.9796     6.4855     8.7428   150.0757
   55.1000   127.5878     6.4583     8.5254   151.0562
   55.2000   128.2528     6.4583     8.3631   152.0366
   55.3000   128.4868     6.4583     8.2068   152.5476
   55.4000   128.5881     6.4845     8.0094   152.7935
   55.5000   128.7836     6.5036     7.6990   153.0394
   55.6000   128.7806     6.5036     7.3111   153.1483
   55.7000   129.0048     6.5036     7.0460   153.1493
   55.8000   129.4112     6.5036     6.8258   153.1503
   55.9000   129.6771     6.5036     6.6639   153.2683
   56.0000   129.7228     6.5036     6.4855   153.5142
   56.1000   129.9734     6.4972     6.3580   153.7601
   56.2000   129.9711     6.4583     6.3011   154.1034
   56.3000   130.1398     6.4255     6.2314   154.5941
   56.4000   130.4908     6.3436     6.1724   155.0848
   56.5000   130.9197     6.2253     6.1380   155.5755
   56.6000   131.1662     6.0980     6.1039   156.0663
   56.7000   131.3983     6.0231     6.0700   156.5570
   56.8000   131.9877     5.9063     6.0362   157.2225
   56.9000   132.4795     5.7769     6.0115   158.4478
   57.0000   132.7753     5.6615     6.0113   159.6730
   57.1000   133.2626     5.5679     6.0111   160.9756
   57.2000   133.2602     5.4625     6.0110   162.6906
   57.3000   133.0787     5.4368     5.9944   164.4056
   57.4000   132.8345     5.3715     5.9689   166.2542
   57.5000   132.5904     5.3023     5.9687   169.6832
   57.6000   132.3463     5.2707     5.9685   173.1122
   57.7000   132.1021     5.2021     5.9684   176.5480
   57.8000   131.8578     5.1786     5.9682   180.9483
   57.9000   131.4898     5.1500     5.9681   185.5999
   58.0000   130.9397     5.1129     5.9678   187.6827
   58.1000   130.2120     5.0577     5.9676   189.8866
   58.2000   129.4843     5.0298     5.9905   192.3903
   58.3000   128.1954     5.0238     6.0091   192.3912
