~VERSION INFORMATION
 VERS.                2.0:   CWLS LOG ASCII STANDARD - VERSION 2.0
 WRAP.                 NO:   ONE LINE PER DEPTH STEP
~WELL INFORMATION
#MNEM.UNIT      DATA TYPE    INFORMATION
#----------   ------------   ------------------------------
 STRT.F           32.0000:   START DEPTH
 STOP.F          517.0000:   STOP DEPTH
 STEP.F            0.5000:   STEP LENGTH
 NULL.          -999.2500:   NO VALUE
 COMP.    FENIX & SCISSON:   COMPANY
 WELL.        NPR #75-S-3:   WELL
 FLD .             TEAPOT:   FIELD
 LOC .       S3 T38N R78W:   LOCATION
 CNTY.            NATRONA:   COUNTY
 STAT.            WYOMING:   STATE
 CTRY. UNITED STATES OF AMERICA:   COUNTRY
 SRVC.              Welex:   SERVICE COMPANY
 DATE.        08-MAR-1977:   LOGDATE
 API .       490251030900:   API NUMBER
~CURVE INFORMATION
#MNEM.UNIT       API CODE    CURVE DESCRIPTION
#----------   ------------   ------------------------------
 DEPT.F                  :   
 SPR .MV     07 010 01 00:   SPONTANEOUS POTENTIAL
 ILD .OHMM   07 120 46 00:   INDUCTION LOG DEEP RES
 ILM .OHMM   07 120 44 00:   INDUCTION LOG MEDIUM RES
 SGRD.OHMM   07 220 05 00:   SHALLOW  GUARD RESISTIVITY
 CALD.IN     45 280 60 00:   CALIPER FROM DENSITY
 GRD .GAPI   45 310 01 00:   GAMMA RAY FROM DENSITY LOG
 CORR.G/C3   45 356 01 00:   DENSITY CORRECTION
 DPHI.DEC    45 890 12 00:   DENSITY POROSITY SANDSTONE
 RHOB.G/C3   45 350 01 00:   BULK DENSITY
~PARAMETER INFORMATION
#MNEM.UNIT          VALUE    DESCRIPTION
#----------   ------------   ------------------------------
 PD  .                 GL:   PERMANENT DATUM
 EPD .F              5141:   ELEVATION PERMANENT DATUM
 LMF .                 GL:   LOG MEASURED FROM
 DMF .                 GL:   DRILLING MEASURED FROM
 EGL .F              5141:   GROUND LEVEL
 DATE.         03-08-1977:   RUN DATE
 RUN .                  1:   RUN NUMBER
 DD  .F               521:   DEPTH DRILLER
 DL  .F               521:   DEPTH LOGGER
 BLI .F               519:   BOTTOM LOG INTERVAL
 TLI .F                35:   TOP LOG INTERVAL
 CS  .IN            8.625:   CASING SIZE
 CBD .F                40:   CASING BOTTOM DRILLER
 CBL .F                42:   CASING BOTTOM LOGGER
 BS  .IN            7.875:   BIT SIZE
 BSD .F               521:   BIT SIZE AT DEPTH
 DFT .            KCL MUD:   DRILLING FLUID TYPE
 DFD .                8.5:   DRILLING FLUID DENSITY
 DFV .                 32:   DRILLING FLUID VISCOSITY
 DFPH.                  8:   DRILLING FLUID PH
 DFL .                8.5:   DRILLING FLUID LOSS
 MSS .            MUD PIT:   MUD SAMPLE SOURCE
 RMS .OHMM            .65:   RESISTIVITY MUD SAMPLE
 MST .F                53:   MUD SAMPLE TEMPERATURE
 RMF .OHMM            .51:   RESISTIVITY MUD FILTRATE SAMPLE
 MFST.F                58:   MUD FILTRATE SAMPLE TEMPERATURE
 RMC .OHMM            .67:   RESISTIVITY MUD CAKE
 MCST.F                54:   MUD CAKE SAMPLE TEMPERATURE
 MFSS.           FANN KIT:   MUD FILTRATE SAMPLE SOURCE
 MCSS.           FANN KIT:   MUD CAKE SAMPLE SOURCE
 RMB .OHMM            .53:   RESISTIVITY MUD AT BHT
 BHT .F                64:   BOTTOM HOLE TEMPERATURE
 TCS .HRS             1.5:   TIME CURCULATED STOPPED
 MRT .F                64:   MAXIMUM RECORDED TEMPERATURE
 LUN .               8611:   LOGGING UNIT NUMBER
 LUL .           GILLETTE:   LOGGING UNIT LOCATION
 ENGI.               DOAK:   RECORDING ENGINEER
 WITN.           S. BURKE:   WITNESSED BY
 CLNT.            A2DTECH:   CLIENT CODE
 ORIG.           5" PRINT:   ORIGIN OF DATA
 UWI .       490251030900:   UNIQUE WELL ID
 DICO. A2D Technologies, Inc.:   DIGITIZING COMPANY
~OTHER INFORMATION
~A   DEPT      SPR        ILD        ILM       SGRD       CALD        GRD        CORR        DPHI       RHOB 
# ...
  214.5000   -43.4215     8.1016     9.2082    10.6514     7.9909   114.0529     0.0588     0.0933     2.4888
  215.0000   -43.5557     8.1060     9.0884    11.0318     7.9915   116.1493     0.0575     0.0954     2.4867
  215.5000   -43.6899     8.0548     9.0307    11.2693     7.9921   117.6530     0.0592     0.0974     2.4860
  216.0000   -43.8241     7.9490     8.7928    11.1989     7.9927   118.7123     0.0624     0.0977     2.4869
  216.5000   -43.9583     7.7372     8.5597    11.0524     7.9933   119.4753     0.0656     0.0974     2.4870
  217.0000   -44.0926     7.4280     8.1063    10.6111     7.9938   120.2383     0.0658     0.0991     2.4818
  217.5000   -44.3743     6.9853     7.7835    10.1175     7.9944   120.7050     0.0675     0.1010     2.4774
  218.0000   -44.6560     6.5690     7.4222     9.6468     7.9950   119.3939     0.0676     0.1043     2.4722
  218.5000   -44.9377     6.1775     7.0290     9.1980     7.9956   117.3421     0.0663     0.1076     2.4685
  219.0000   -45.2194     5.6905     6.5205     8.7099     7.9962   117.3644     0.0665     0.1105     2.4664
  219.5000   -45.6486     5.2059     5.9661     8.1347     7.9968   116.9422     0.0667     0.1144     2.4545
  220.0000   -45.9303     4.7299     5.3471     7.4935     7.9974   113.4089     0.0653     0.1217     2.4305
  220.5000   -46.2120     4.2679     4.7595     6.9505     7.9957   110.4682     0.0655     0.1285     2.4186
  221.0000   -46.6412     3.8777     4.2073     6.3150     7.9933   110.1886     0.0657     0.1391     2.4029
  221.5000   -46.7754     3.4989     3.8496     5.5815     7.9908   112.1423     0.0659     0.1492     2.3767
  222.0000   -46.7622     3.2454     3.3564     4.6685     7.9884   112.9053     0.0661     0.1620     2.3558
  222.5000   -46.6014     3.0102     3.1351     3.8513     7.9859   110.2609     0.0632     0.1858     2.3371
  223.0000   -46.2931     2.8700     3.0103     3.3180     7.9835   108.0610     0.0589     0.1946     2.3259
  223.5000   -45.9849     2.8716     2.9506     3.0533     7.9810   106.4536     0.0515     0.2005     2.3170
  224.0000   -45.5291     2.9131     3.0562     3.4714     7.9786   106.1740     0.0457     0.1995     2.3103
  224.5000   -45.2209     3.0168     3.1655     3.9963     7.9761   107.0907     0.0443     0.1884     2.3367
  225.0000   -44.9126     3.2561     3.4645     4.1965     7.9737   108.1500     0.0460     0.1703     2.3578
  225.5000   -44.7518     3.6375     3.8179     6.5279     7.9712   110.2463     0.0492     0.1348     2.4000
  226.0000   -44.5911     4.1485     4.3248     5.6127     7.9688   113.3797     0.0524     0.1171     2.4587
  226.5000   -44.2828     4.7312     5.0015     7.9276     7.9663   115.9205     0.0571     0.1113     2.4655
  227.0000   -44.2695     5.0366     5.5881     9.2317     7.9639   117.1279     0.0558     0.1092     2.4671
  227.5000   -44.1088     5.3988     6.1158     9.4957     7.9614   118.0391     0.0515     0.1067     2.4740
  228.0000   -43.9480     5.9486     6.4668     9.9029     7.9590   120.1354     0.0501     0.1001     2.4824
  228.5000   -43.9347     6.3326     6.6980    10.0466     7.9565   120.7447     0.0518     0.0970     2.4885
  229.0000   -43.9215     6.4684     6.8426     9.3831     7.9541   120.1744     0.0520     0.0958     2.4893
  229.5000   -43.9082     6.5618     6.9423     8.8851     7.9516   123.1652     0.0552     0.0954     2.4879
  230.0000   -43.8949     6.5654     6.9951     8.8296     7.9494   124.9652     0.0569     0.0981     2.4872
  230.5000   -43.8816     6.5239     6.9999     8.7744     7.9509   124.9874     0.0586     0.0972     2.4873
  231.0000   -43.8684     6.4382     7.0047     8.8405     7.9522   126.1949     0.0603     0.0935     2.4897
  231.5000   -44.1501     6.2236     6.9614     8.9688     7.9536   127.4023     0.0620     0.0923     2.4935
  232.0000   -44.5793     5.9749     6.8709     9.2253     7.9549   128.7579     0.0652     0.0955     2.4959
  232.5000   -45.0085     5.7758     6.6429     9.5548     7.9563   129.8172     0.0653     0.1048     2.4802
  233.0000   -45.4377     5.5450     6.3783     9.8280     7.9576   129.9876     0.0640     0.1123     2.4713
  233.5000   -45.5719     5.3234     6.0822    10.0397     7.9590   128.9729     0.0612     0.1207     2.4601
  234.0000   -45.7061     5.1107     5.7600     7.6775     7.9603   125.4340     0.0568     0.1290     2.4301
  234.5000   -45.6928     4.9404     5.3803     4.5808     7.9617   126.0544     0.0510     0.1449     2.3994
  235.0000   -45.5321     4.8088     5.1305     5.2613     7.9631   126.5211     0.0436     0.1557     2.3845
  235.5000   -45.2238     4.7784     5.0290     6.8412     7.9644   126.8341     0.0378     0.1605     2.3778
  236.0000   -45.2105     4.7482     5.0325     8.0771     7.9658   123.3064     0.0319     0.1614     2.3756
  236.5000   -44.7548     4.7836     5.0360     6.0922     7.9671   119.4768     0.0290     0.1568     2.3900
  237.0000   -44.5940     4.9200     5.0743     6.1806     7.9685   118.6101     0.0277     0.1504     2.3976
  237.5000   -44.2858     5.1304     5.2196     8.0366     7.9698   118.1824     0.0310     0.1459     2.4045
  238.0000   -44.1250     5.3499     5.5192     9.6202     7.9712   121.1732     0.0326     0.1408     2.4121
  238.5000   -43.9642     5.6561     5.9577     7.8819     7.9726   122.6769     0.0358     0.1353     2.4212
  239.0000   -43.9510     6.0212     6.4756     7.5152     7.9739   124.1807     0.0375     0.1320     2.4266
  239.5000   -43.9377     6.3659     6.9422     9.1841     7.9753   125.5363     0.0362     0.1301     2.4304
  240.0000   -43.9244     6.6840     7.2902     9.8457     7.9766   126.1511     0.0349     0.1274     2.4365
  240.5000   -43.9111     7.0666     7.6556    10.1973     7.9772   121.8771     0.0335     0.1246     2.4434
  241.0000   -43.6029     7.3689     7.8749    10.4169     7.9770   119.3808     0.0322     0.1210     2.4517
  241.5000   -43.4421     7.5269     8.0449    10.6411     7.9768   118.5142     0.0339     0.1158     2.4646
  242.0000   -43.4288     7.5831     8.0505    10.7956     7.9766   120.1661     0.0356     0.1104     2.4745
  242.5000   -43.5631     7.5873     8.0560    11.0280     7.9764   121.0772     0.0388     0.1055     2.4768
  243.0000   -43.6973     7.5394     8.0616    11.0349     7.9762   121.0995     0.0389     0.1028     2.4777
  243.5000   -43.6840     7.4917     8.0117    10.8905     7.9760   119.9366     0.0422     0.0995     2.4785
  244.0000   -43.8182     7.3933     7.9075    10.5280     7.9758   119.5088     0.0438     0.1027     2.4771
  244.5000   -43.8049     7.2962     7.8586    10.1776     7.9756   122.0552     0.0456     0.1033     2.4779
  245.0000   -43.7917     7.1509     7.7564     9.9070     7.9754   122.6700     0.0457     0.0990     2.4810
  245.5000   -43.7784     6.9603     7.6556     9.8450     7.9751   122.8404     0.0474     0.0969     2.4841
  246.0000   -43.7651     6.8217     7.5042     9.8511     7.9749   122.2701     0.0506     0.0987     2.4797
  246.5000   -43.7518     6.6400     7.3557     9.8572     7.9747   121.5516     0.0523     0.1016     2.4753
  247.0000   -43.8861     6.4187     7.2601     9.7283     7.9745   120.6850     0.0525     0.1049     2.4739
  247.5000   -44.1678     6.2048     7.1165     9.2120     7.9743   122.3369     0.0527     0.1076     2.4717
  248.0000   -44.3020     5.9980     6.9278     8.7231     7.9741   127.8406     0.0529     0.1099     2.4673
  248.5000   -44.4362     5.7583     6.6979     8.3748     7.9739   129.9369     0.0500     0.1141     2.4607
  249.0000   -44.5704     5.3780     6.3870     8.0961     7.9737   130.2555     0.0472     0.1180     2.4555
  249.5000   -44.7046     4.9883     6.0487     7.9353     7.9735   129.5370     0.0443     0.1218     2.4458
  250.0000   -44.8389     4.9910     5.7283     5.2871     7.9733   124.8148     0.0415     0.1287     2.4354
  250.5000   -44.7507     5.0637     5.4999     4.9711     7.9736   124.0903     0.0397     0.1329     2.4242
