~VERSION INFORMATION
 VERS.                2.0:   CWLS LOG ASCII STANDARD - VERSION 2.0
 WRAP.                 NO:   ONE LINE PER DEPTH STEP
~WELL INFORMATION
#MNEM.UNIT      DATA TYPE    INFORMATION
#----------   ------------   ------------------------------
 STRT.F           20.0000:   START DEPTH
 STOP.F         2420.0000:   STOP DEPTH
 STEP.F            0.5000:   STEP LENGTH
 NULL.          -999.2500:   NO VALUE
 COMP. FENIX & SCISSON INC:   COMPANY
 WELL.    SHX 15 #71-1-15:   WELL
 FLD .             TEAPOT:   FIELD
 LOC .      S15 T38N R78W:   LOCATION
 CNTY.            NATRONA:   COUNTY
 STAT.            WYOMING:   STATE
 CTRY. UNITED STATES OF AMERICA:   COUNTRY
 SRVC.           BIRDWELL:   SERVICE COMPANY
 DATE.        03-SEP-1978:   LOGDATE
 API .       490251081800:   API NUMBER
~CURVE INFORMATION
#MNEM.UNIT       API CODE    CURVE DESCRIPTION
#----------   ------------   ------------------------------
 DEPT.F                  :   
 CALD.IN     45 280 60 00:   CALIPER
 GRD .GAPI   45 310 01 00:   GAMMA RAY FROM DENSITY LOG
 RHOB.G/C3   45 350 01 00:   BULK DENSITY
 DPHI.DEC    45 890 12 00:   DENSITY POROSITY SANDSTONE
 CORR.G/C3   45 356 01 00:   DENSITY CORRECTION
 NPHI.DEC    42 890 03 00:   NEUTRON POROSITY
~PARAMETER INFORMATION
#MNEM.UNIT          VALUE    DESCRIPTION
#----------   ------------   ------------------------------
 PD  .                 GL:   PERMANENT DATUM
 EPD .F              5249:   ELEVATION PERMANENT DATUM
 LMF .                 KB:   LOG MEASURED FROM
 DAPD.F                10:   FEET ABOVE PERMANENT DATUM
 DMF .                 KB:   DRILLING MEASURED FROM
 EKB .F              5259:   KELLING BUSHING
 EGL .F              5249:   GROUND LEVEL
 DATE.             9-3-78:   RUN DATE
 RUN .                  1:   RUN NUMBER
 DD  .F              2450:   DEPTH DRILLER
 DL  .F              2422:   DEPTH LOGGER
 BLI .F              2420:   BOTTOM LOG INTERVAL
 TLI .F                50:   TOP LOG INTERVAL
 CS  .IN            9.625:   CASING SIZE
 CBD .F               650:   CASING BOTTOM DRILLER
 CBL .F               676:   CASING BOTTOM LOGGER
 BS  .IN             8.75:   BIT SIZE
 BSD .F              2450:   BIT SIZE AT DEPTH
 DFT .           AIR MIST:   DRILLING FLUID TYPE
 LUN .               2958:   LOGGING UNIT NUMBER
 LUL .               CASP:   LOGGING UNIT LOCATION
 ENGI.             MILLER:   RECORDING ENGINEER
 WITN.           MCGINLEY:   WITNESSED BY
 CLNT.            A2DTECH:   CLIENT CODE
 ORIG.         2.5" PRINT:   ORIGIN OF DATA
 UWI .       490251081800:   UNIQUE WELL ID
 DICO. A2D Technologies, Inc.:   DIGITIZING COMPANY
~OTHER INFORMATION
~A   DEPT     CALD        GRD       RHOB       DPHI       CORR         NPHI 
# ...
 1008.0000    13.8601   126.3022     2.5175     0.0876     0.1009  -999.2500
 1008.5000    13.8600   128.6444     2.5094     0.0902     0.0962  -999.2500
 1009.0000    13.8600   128.9676     2.4959     0.0928     0.0935  -999.2500
 1009.5000    13.8603   127.0357     2.4876     0.0948     0.0971  -999.2500
 1010.0000    13.8562   123.9670     2.4859     0.0890     0.1019  -999.2500
 1010.5000    13.8467   120.6940     2.4940     0.0792     0.1094  -999.2500
 1011.0000    13.8376   121.2965     2.4992     0.0806     0.1072  -999.2500
 1011.5000    13.8284   122.2512     2.5230     0.0820     0.1022  -999.2500
 1012.0000    13.8192   122.8152     2.5158     0.0821     0.1030  -999.2500
 1012.5000    13.8100   122.5342     2.5199     0.0687     0.1043  -999.2500
 1013.0000    13.8008   122.5611     2.5251     0.0661     0.1055  -999.2500
 1013.5000    13.7916   122.9959     2.5298     0.0681     0.1060  -999.2500
 1014.0000    13.7824   121.0689     2.5426     0.0701     0.1040  -999.2500
 1014.5000    13.7733   119.7635     2.5385     0.0741     0.1019  -999.2500
 1015.0000    13.7641   121.8408     2.5406     0.0797     0.0950  -999.2500
 1015.5000    13.7549   124.8324     2.5425     0.0853     0.0879  -999.2500
 1016.0000    13.7457   125.2615     2.5240     0.0909     0.0804  -999.2500
 1016.5000    13.7365   124.6505     2.5073     0.0965     0.0742  -999.2500
 1017.0000    13.7273   123.9806     2.4964     0.0969     0.0771  -999.2500
 1017.5000    13.7182   124.9232     2.4952     0.0953     0.0811  -999.2500
 1018.0000    13.7090   126.8074     2.4920     0.0938     0.0854  -999.2500
 1018.5000    13.6998   128.7194     2.4921     0.0924     0.0893  -999.2500
 1019.0000    13.6908   128.7301     2.5062     0.0890     0.0936  -999.2500
 1019.5000    13.6813   127.1033     2.5022     0.0859     0.0917  -999.2500
 1020.0000    13.6724   124.3995     2.5016     0.0849     0.0894  -999.2500
 1020.5000    13.6640   122.9388     2.5112     0.0892     0.0868  -999.2500
 1021.0000    13.6473   122.4362     2.5157     0.0918     0.0843  -999.2500
 1021.5000    13.6301   121.6301     2.5047     0.0892     0.0822  -999.2500
 1022.0000    13.5853   120.5080     2.5061     0.0866     0.0812  -999.2500
 1022.5000    13.5276   121.1403     2.5191     0.0840     0.0796  -999.2500
 1023.0000    13.4644   121.2812     2.5203     0.0825     0.0779  -999.2500
 1023.5000    13.4611   121.5712     2.5196     0.0845     0.0718  -999.2500
 1024.0000    13.4588   120.1291     2.4903     0.0865     0.0663  -999.2500
 1024.5000    13.4603   117.2470     2.4983     0.0885     0.0700  -999.2500
 1025.0000    13.4609   114.2826     2.5105     0.0908     0.0738  -999.2500
 1025.5000    13.4579   113.3651     2.5134     0.0945     0.0661  -999.2500
 1026.0000    13.4600   114.2685     2.5008     0.0982     0.0575  -999.2500
 1026.5000    13.3859   117.0604     2.4900     0.1020     0.0551  -999.2500
 1027.0000    13.3619   120.9373     2.4931     0.0916     0.0576  -999.2500
 1027.5000    13.3396   122.1042     2.5182     0.0945     0.0580  -999.2500
 1028.0000    13.3216   118.7387     2.5123     0.1024     0.0552  -999.2500
 1028.5000    13.3014   117.2204     2.4896     0.1104     0.0561  -999.2500
 1029.0000    13.2809   118.9194     2.4734     0.1243     0.0631  -999.2500
 1029.5000    13.2590   125.1528     2.4598     0.1192     0.0693  -999.2500
 1030.0000    13.2051   127.9516     2.4524     0.1037     0.0762  -999.2500
 1030.5000    13.1445   125.8991     2.4707     0.0869     0.0693  -999.2500
 1031.0000    13.0868   124.1839     2.4959     0.0838     0.0563  -999.2500
 1031.5000    13.0243   120.5412     2.5144     0.0842     0.0437  -999.2500
 1032.0000    13.0206   115.8414     2.5092     0.0886     0.0310  -999.2500
 1032.5000    13.0190   114.3931     2.5021     0.0966     0.0193  -999.2500
 1033.0000    13.0203   114.9479     2.4910     0.1062     0.0102  -999.2500
 1033.5000    13.0198   115.8061     2.4800     0.1171     0.0125  -999.2500
 1034.0000    13.0199   118.3606     2.4694     0.1130     0.0165  -999.2500
 1034.5000    13.0200   120.4661     2.4616     0.1041     0.0206  -999.2500
 1035.0000    13.0199   118.9667     2.4765     0.0953     0.0245  -999.2500
 1035.5000    13.0200   117.2196     2.4953     0.0884     0.0299  -999.2500
 1036.0000    13.0200   115.5586     2.5058     0.0932     0.0372  -999.2500
 1036.5000    13.0200   114.5270     2.4971     0.1020     0.0184  -999.2500
 1037.0000    13.0200   116.0268     2.4953     0.1023     0.0141  -999.2500
 1037.5000    13.0200   118.4566     2.4935     0.1027     0.0136  -999.2500
 1038.0000    13.0200   122.2010     2.4964     0.1004     0.0143  -999.2500
 1038.5000    13.0200   124.5034     2.4881     0.0975     0.0147  -999.2500
 1039.0000    13.0200   123.5423     2.4784     0.0945     0.0258  -999.2500
 1039.5000    13.0200   122.3897     2.4791     0.0940     0.0256  -999.2500
 1040.0000    13.0200   119.8171     2.4882     0.0954     0.0262  -999.2500
 1040.5000    13.0200   116.5368     2.4945     0.0969     0.0264  -999.2500
 1041.0000    13.0200   114.9352     2.4901     0.0985     0.0318  -999.2500
 1041.5000    13.0200   115.9616     2.4863     0.1003     0.0367  -999.2500
 1042.0000    13.0200   119.3257     2.4890     0.1021     0.0417  -999.2500
 1042.5000    13.0200   121.8782     2.4955     0.1039     0.0458  -999.2500
 1043.0000    13.0200   121.7577     2.4990     0.1032     0.0453  -999.2500
 1043.5000    13.0200   120.7409     2.4974     0.1017     0.0449  -999.2500
 1044.0000    13.0200   121.3947     2.4960     0.1012     0.0443  -999.2500
 1044.5000    13.0200   123.0477     2.4944     0.1066     0.0437  -999.2500
 1045.0000    13.0200   123.9899     2.4841     0.1133     0.0431  -999.2500
 1045.5000    13.0200   123.7558     2.4743     0.1133     0.0428  -999.2500
 1046.0000    13.0200   120.0283     2.4672     0.1074     0.0423  -999.2500
 1046.5000    13.0200   116.4296     2.4680     0.0990     0.0534  -999.2500
 1047.0000    13.0200   113.7490     2.4839     0.1015     0.0583  -999.2500
 1047.5000    13.0200   115.0020     2.4886     0.1040     0.0581  -999.2500
 1048.0000    13.0200   118.1976     2.4796     0.1068     0.0572  -999.2500
 1048.5000    13.0200   121.3693     2.4796     0.1068     0.0675  -999.2500
 1049.0000    13.0200   124.4581     2.4861     0.1056     0.0873  -999.2500
 1049.5000    13.0200   127.4696     2.4929     0.1036     0.0900  -999.2500
 1050.0000    13.0200   128.0280     2.4901     0.1027     0.0884  -999.2500
 1050.5000    13.0200   128.5331     2.4855     0.1026     0.0866  -999.2500
 1051.0000    13.0200   128.8873     2.4777     0.1069     0.0864  -999.2500
 1051.5000    13.0200   130.2781     2.4651     0.1116     0.0907  -999.2500
 1052.0000    13.0200   133.2766     2.4764     0.1116     0.0994  -999.2500
 1052.5000    13.0200   133.2142     2.5060     0.0693     0.1104  -999.2500
 1053.0000    13.0200   131.1580     2.5156     0.0682     0.0992  -999.2500
 1053.5000    13.0200   129.0202     2.5329     0.0669     0.0754  -999.2500
 1054.0000    13.0200   127.2841     2.5154     0.0743     0.0552  -999.2500
 1054.5000    13.0200   127.0327     2.5050     0.0872     0.0174  -999.2500
 1055.0000    13.0200   126.7007     2.4958     0.0980     0.0107  -999.2500
 1055.5000    13.0200   124.4989     2.4850     0.1031     0.0017  -999.2500
 1056.0000    13.0200   121.4746     2.4807     0.1068    -0.0054  -999.2500
 1056.5000    13.0199   118.9102     2.4776     0.1083    -0.0106  -999.2500
 1057.0000    13.0200   119.8116     2.4724     0.1096    -0.0114  -999.2500
 1057.5000    13.0198   119.4660     2.4712     0.1100    -0.0127  -999.2500
 1058.0000    13.0201   118.2964     2.4721     0.1098    -0.0140  -999.2500
 1058.5000    13.0200   118.8141     2.4728     0.1095    -0.0125  -999.2500
 1059.0000    13.0189   121.4025     2.4726     0.1093    -0.0113  -999.2500
 1059.5000    13.0352   120.5935     2.4715     0.1083    -0.0104  -999.2500
