~VERSION INFORMATION
 VERS.                2.0:   CWLS LOG ASCII STANDARD - VERSION 2.0
 WRAP.                 NO:   ONE LINE PER DEPTH STEP
~WELL INFORMATION
#MNEM.UNIT      DATA TYPE    INFORMATION
#----------   ------------   ------------------------------
 STRT.F           19.5000:   START DEPTH
 STOP.F          690.5000:   STOP DEPTH
 STEP.F            0.5000:   STEP LENGTH
 NULL.          -999.2500:   NO VALUE
 COMP. FENIX & SCISSON INC:   COMPANY
 WELL. 37-22 SX 11 WI #3-11:   WELL
 FLD .             TEAPOT:   FIELD
 LOC .      S11 T38N R78W:   LOCATION
 CNTY.            NATRONA:   COUNTY
 STAT.            WYOMING:   STATE
 CTRY. UNITED STATES OF AMERICA:   COUNTRY
 SRVC.      Dresser Atlas:   SERVICE COMPANY
 DATE.        11-AUG-1980:   LOGDATE
 API .       490251084400:   API NUMBER
~CURVE INFORMATION
#MNEM.UNIT       API CODE    CURVE DESCRIPTION
#----------   ------------   ------------------------------
 DEPT.F                  :   
 SPR .MV     07 010 01 00:   SPONTANEOUS POTENTIAL
 SFL .OHMM   07 220 01 00:   SHALLOW FOCUSED LOG RESISTIVITY
 ILD .OHMM   07 120 46 00:   INDUCTION LOG DEEP
 ILM .OHMM   07 120 44 00:   INDUCTION LOG MEDIUM
 GRD .GAPI   45 310 01 00:   GAMMA RAY FROM DENSITY LOG
 CALD.IN     45 280 60 00:   CALIPER
 CORR.G/C3   45 356 01 00:   DENSITY CORRECTION
 RHOB.G/C3   45 350 01 00:   BULK DENSITY
 NPHI.DEC    42 890 12 00:   NEUTRON POROSITY SANDSTONE
 DPHI.DEC    45 890 12 00:   DENSITY POROSITY SANDSTONE
~PARAMETER INFORMATION
#MNEM.UNIT          VALUE    DESCRIPTION
#----------   ------------   ------------------------------
 PD  .                 GL:   PERMANENT DATUM
 EPD .F              5191:   ELEVATION PERMANENT DATUM
 LMF .                 KB:   LOG MEASURED FROM
 DAPD.F                 5:   FEET ABOVE PERMANENT DATUM
 DMF .                 KB:   DRILLING MEASURED FROM
 EKB .F              5196:   KELLING BUSHING
 EGL .F              5191:   GROUND LEVEL
 DATE.            8-11-80:   RUN DATE
 RUN .                  1:   RUN NUMBER
 DD  .F               680:   DEPTH DRILLER
 DL  .F               689:   DEPTH LOGGER
 BLI .F               687:   BOTTOM LOG INTERVAL
 TLI .F                20:   TOP LOG INTERVAL
 CS  .IN            8.625:   CASING SIZE
 BS  .IN            7.875:   BIT SIZE
 BSD .F               680:   BIT SIZE AT DEPTH
 DFT .           CHEM GEL:   DRILLING FLUID TYPE
 DFD .                9.9:   DRILLING FLUID DENSITY
 DFV .                 52:   DRILLING FLUID VISCOSITY
 DFPH.               11.5:   DRILLING FLUID PH
 DFL .                104:   DRILLING FLUID LOSS
 MSS .           FLOWLINE:   MUD SAMPLE SOURCE
 RMS .OHMM             .2:   RESISTIVITY MUD SAMPLE
 MST .F                74:   MUD SAMPLE TEMPERATURE
 RMF .OHMM            .15:   RESISTIVITY MUD FILTRATE SAMPLE
 MFST.F                74:   MUD FILTRATE SAMPLE TEMPERATURE
 RMC .OHMM            .25:   RESISTIVITY MUD CAKE
 MCST.F                74:   MUD CAKE SAMPLE TEMPERATURE
 MFSS.               CALC:   MUD FILTRATE SAMPLE SOURCE
 MCSS.               CALC:   MUD CAKE SAMPLE SOURCE
 TCS .HRS               3:   TIME CURCULATED STOPPED
 LUN .             HL6150:   LOGGING UNIT NUMBER
 LUL .                 FM:   LOGGING UNIT LOCATION
 ENGI.            BRANNEY:   RECORDING ENGINEER
 WITN.           MCINTYRE:   WITNESSED BY
 CLNT.            A2DTECH:   CLIENT CODE
 ORIG.           5" PRINT:   ORIGIN OF DATA
 UWI .       490251084400:   UNIQUE WELL ID
 DICO. A2D Technologies, Inc.:   DIGITIZING COMPANY
~OTHER INFORMATION
~A   DEPT      SPR        SFL        ILD        ILM        GRD       CALD       CORR       RHOB       NPHI       DPHI   
# ...
  354.5000   -52.4120     9.4790     8.3870     7.6620   107.4910     8.0570     0.0150     2.4510     0.2410     0.1390
  355.0000   -52.4120     9.4750     8.3900     7.6590   106.1820     8.0580     0.0230     2.4490     0.2420     0.1420
  355.5000   -52.3060     9.4700     8.5460     7.6550   107.5820     8.0590     0.0320     2.4570     0.2410     0.1370
  356.0000   -52.1990     9.4660     8.5080     7.6370   105.1300     8.0600     0.0400     2.4620     0.2460     0.1330
  356.5000   -52.0920     9.4620     8.4780     7.6020   105.7700     8.0600     0.0420     2.4550     0.2560     0.1400
  357.0000   -51.9840     9.4570     8.4470     7.5670   103.8380     8.0610     0.0400     2.4490     0.2670     0.1380
  357.5000   -51.8760     9.4260     8.4170     7.5310   105.8370     8.0620     0.0360     2.4620     0.2640     0.1330
  358.0000   -51.7690     9.3660     8.3860     7.4960   106.8310     8.0620     0.0330     2.4730     0.2610     0.1300
  358.5000   -51.6610     9.3070     8.3560     7.4610   107.7530     8.0630     0.0370     2.4520     0.2590     0.1390
  359.0000   -51.5540     9.2470     8.3250     7.4260   108.9600     8.0640     0.0440     2.4650     0.2600     0.1330
  359.5000   -51.4470     9.1880     8.2950     7.3900   109.5590     8.0650     0.0510     2.4740     0.2590     0.1270
  360.0000   -51.3390     9.1280     8.2640     7.3550   107.4150     8.0650     0.0400     2.4700     0.2610     0.1340
  360.5000   -51.2790     9.0690     8.2340     7.3200   106.5870     8.0660     0.0430     2.4670     0.2550     0.1310
  361.0000   -51.2580     9.0090     8.2040     7.2840   109.2100     8.0670     0.0460     2.4760     0.2570     0.1260
  361.5000   -51.2370     8.9500     8.1730     7.2490   108.1740     8.0670     0.0490     2.4810     0.2590     0.1230
  362.0000   -51.2160     8.8900     8.1430     7.2020   106.2620     8.0680     0.0450     2.4630     0.2570     0.1360
  362.5000   -51.1950     8.8310     8.1120     7.1520   106.3620     8.0690     0.0390     2.4560     0.2550     0.1330
  363.0000   -51.1740     8.7710     8.0820     7.1020   106.3980     8.0690     0.0320     2.4720     0.2560     0.1270
  363.5000   -51.1530     8.7120     8.0510     7.0530   102.4570     8.0700     0.0260     2.4600     0.2610     0.1330
  364.0000   -51.1320     8.6570     8.0210     7.0030    99.2990     8.0710     0.0190     2.4430     0.2650     0.1410
  364.5000   -51.1100     8.6020     7.9900     6.9530   100.6730     8.0720     0.0120     2.4320     0.2680     0.1500
  365.0000   -51.1080     8.5480     7.9600     6.9040   103.3150     8.0720     0.0210     2.4510     0.2610     0.1420
  365.5000   -51.4610     8.4940     7.9300     6.8540   105.9390     8.0730     0.0330     2.4670     0.2530     0.1340
  366.0000   -51.8120     8.4390     7.8990     6.8040   106.6720     8.0740     0.0440     2.4830     0.2450     0.1230
  366.5000   -52.1630     8.3850     7.8680     6.7540   104.7560     8.0740     0.0370     2.4780     0.2410     0.1320
  367.0000   -52.5130     8.3310     7.8680     6.7050   105.2820     8.0750     0.0290     2.4680     0.2410     0.1300
  367.5000   -52.8630     8.2760     7.7610     6.6550   105.0910     8.0760     0.0220     2.4560     0.2450     0.1280
  368.0000   -53.2130     8.2220     7.6700     6.6050   108.4180     8.0760     0.0250     2.4710     0.2520     0.1370
  368.5000   -53.5620     8.1670     7.5790     6.5550   107.5850     8.0770     0.0340     2.5030     0.2600     0.1110
  369.0000   -53.9130     8.1130     7.4880     6.5060   108.1000     8.0780     0.0320     2.4940     0.2560     0.1150
  369.5000   -54.0370     8.0590     7.3970     6.4560   104.9200     8.0780     0.0120     2.4700     0.2530     0.1270
  370.0000   -53.8660     8.0040     7.3060     6.4060   102.3760     8.0790     0.0020     2.4490     0.2500     0.1410
  370.5000   -53.6950     7.9500     7.2160     6.3570   100.2060     8.0800     0.0260     2.4680     0.2460     0.1300
  371.0000   -53.5250     7.8960     7.1250     6.3070   103.6880     8.0810     0.0380     2.4620     0.2480     0.1320
  371.5000   -53.3530     7.8410     7.0340     6.1950   105.1660     8.0810     0.0290     2.4540     0.2500     0.1380
  372.0000   -53.1820     7.7870     6.8540     6.2190   107.0070     8.0820     0.0230     2.4480     0.2530     0.1430
  372.5000   -53.0110     7.7320     6.8850     6.2520   110.1410     8.0830     0.0280     2.4530     0.2530     0.1360
  373.0000   -52.8390     7.6540     6.9450     6.2850   108.6910     8.0830     0.0120     2.4470     0.2520     0.1420
  373.5000   -52.6820     7.6970     7.0050     6.3180   110.8180     8.0840     0.0290     2.4590     0.2480     0.1330
  374.0000   -52.6780     7.7770     7.0640     6.3510   109.0340     8.0850     0.0440     2.4820     0.2430     0.1250
  374.5000   -52.6790     7.8560     7.1240     6.3850   106.7390     8.0850     0.0330     2.4740     0.2440     0.1300
  375.0000   -52.6750     7.9360     7.1830     6.4180   106.3050     8.0860     0.0280     2.4520     0.2460     0.1370
  375.5000   -52.6050     8.0150     7.2430     6.4510   108.4040     8.0870     0.0310     2.4610     0.2460     0.1310
  376.0000   -52.5380     8.0950     7.3030     6.4840   109.0400     8.0880     0.0330     2.4770     0.2470     0.1260
  376.5000   -52.4710     8.1750     7.3620     6.5180   108.7090     8.0880     0.0340     2.4620     0.2480     0.1340
  377.0000   -52.4040     8.2540     7.4220     6.5510   109.6060     8.0890     0.0340     2.4700     0.2500     0.1290
  377.5000   -52.3380     8.3340     7.4810     6.5840   106.5670     8.0900     0.0330     2.4810     0.2510     0.1210
  378.0000   -52.2800     8.4130     7.5410     6.6170   103.8370     8.0900     0.0260     2.4860     0.2490     0.1250
  378.5000   -52.3000     8.4930     7.6010     6.6510   106.4430     8.0910     0.0260     2.4680     0.2450     0.1300
  379.0000   -52.3480     8.5720     7.6600     6.6840   109.2070     8.0920     0.0390     2.4790     0.2410     0.1240
  379.5000   -52.3960     8.6520     7.7240     6.7170   109.6230     8.0930     0.0420     2.4890     0.2470     0.1190
  380.0000   -52.4430     8.7050     7.7010     6.7500   109.4890     8.0930     0.0300     2.4750     0.2530     0.1260
  380.5000   -52.4810     8.5750     7.6770     6.7830   109.9370     8.0940     0.0190     2.4610     0.2600     0.1340
  381.0000   -52.4630     8.4780     7.6520     6.7950   110.3410     8.0950     0.0140     2.4520     0.2670     0.1390
  381.5000   -52.4370     8.3820     7.6270     6.7990   113.6710     8.0950     0.0230     2.4620     0.2650     0.1340
  382.0000   -52.4100     8.2850     7.6020     6.8040   113.1030     8.0960     0.0330     2.4720     0.2630     0.1300
  382.5000   -52.3840     8.1880     7.5770     6.8080   114.7770     8.0960     0.0320     2.4820     0.2650     0.1250
  383.0000   -52.3580     8.0910     7.5530     6.8130   116.8870     8.0970     0.0330     2.4900     0.2680     0.1210
  383.5000   -52.3310     7.9940     7.5280     6.8170   117.9070     8.0980     0.0400     2.4920     0.2780     0.1180
  384.0000   -52.3050     7.9400     7.5030     6.8220   115.4270     8.0980     0.0360     2.4810     0.2720     0.1230
  384.5000   -52.2780     7.9470     7.4780     6.8260   111.1710     8.0990     0.0270     2.4720     0.2640     0.1280
  385.0000   -52.2520     7.9580     7.4540     6.8310   107.8790     8.1000     0.0240     2.4630     0.2670     0.1310
  385.5000   -52.2260     7.9690     7.4290     6.8350   109.9970     8.1010     0.0330     2.4730     0.2770     0.1250
  386.0000   -52.1990     7.9800     7.4040     6.8400   111.8000     8.1010     0.0410     2.4840     0.2740     0.1180
  386.5000   -52.1730     7.9910     7.3770     6.8440   109.1080     8.1020     0.0420     2.4890     0.2680     0.1200
  387.0000   -52.1460     8.0020     7.3570     6.8480   108.6120     8.1030     0.0330     2.4790     0.2620     0.1240
  387.5000   -52.1200     8.0130     7.3350     6.8540   109.0960     8.1030     0.0230     2.4700     0.2560     0.1280
