~VERSION INFORMATION
 VERS.                2.0:   CWLS LOG ASCII STANDARD - VERSION 2.0
 WRAP.                 NO:   ONE LINE PER DEPTH STEP
~WELL INFORMATION
#MNEM.UNIT      DATA TYPE    INFORMATION
#----------   ------------   ------------------------------
 STRT.F           14.0000:   START DEPTH
 STOP.F          513.0000:   STOP DEPTH
 STEP.F            0.1000:   STEP LENGTH
 NULL.          -999.2500:   NO VALUE
 COMP.       F D SERV INC:   COMPANY
 WELL.    52-1 SX-3 #52-3:   WELL
 FLD .             TEAPOT:   FIELD
 LOC .       S3 T38N R78W:   LOCATION
 CNTY.            NATRONA:   COUNTY
 STAT.            WYOMING:   STATE
 CTRY. UNITED STATES OF AMERICA:   COUNTRY
 SRVC.     Atlas Wireline:   SERVICE COMPANY
 DATE.        21-APR-1992:   LOGDATE
 API .       490252251400:   API NUMBER
~CURVE INFORMATION
#MNEM.UNIT       API CODE    CURVE DESCRIPTION
#----------   ------------   ------------------------------
 DEPT.F                  :   
 GRR .GAPI   07 310 01 00:   GAMMA RAY
 RILD.OHMM   07 120 46 00:   INDUCTION LOG DEEP RESISTIVITY
 RILM.OHMM   07 120 44 00:   INDUCTION LOG MEDIUM RESISTIVITY
~PARAMETER INFORMATION
#MNEM.UNIT          VALUE    DESCRIPTION
#----------   ------------   ------------------------------
 PD  .                 GL:   PERMANENT DATUM
 EPD .F              5115:   ELEVATION PERMANENT DATUM
 LMF .                 KB:   LOG MEASURED FROM
 DAPD.F                 5:   FEET ABOVE PERMANENT DATUM
 DMF .                 KB:   DRILLING MEASURED FROM
 EKB .F              5120:   KELLING BUSHING
 EDF .F              5119:   DRILLING FLOOR
 EGL .F              5115:   GROUND LEVEL
 DATE.        21-APR-1992:   RUN DATE
 RUN .                  1:   RUN NUMBER
 DD  .F               515:   DEPTH DRILLER
 DL  .F               520:   DEPTH LOGGER
 BLI .F               517:   BOTTOM LOG INTERVAL
 TLI .F                50:   TOP LOG INTERVAL
 CS  .IN            9.625:   CASING SIZE
 CBD .F                45:   CASING BOTTOM DRILLER
 CBL .F                50:   CASING BOTTOM LOGGER
 BS  .IN            7.875:   BIT SIZE
 BSD .F               515:   BIT SIZE AT DEPTH
 DFT .                AIR:   DRILLING FLUID TYPE
 LUN .            HL-6272:   LOGGING UNIT NUMBER
 LUL .             CASPER:   LOGGING UNIT LOCATION
 ENGI.       P. RASMUSSEN:   RECORDING ENGINEER
 WITN.          G. STRONG:   WITNESSED BY
 CLNT.            A2DTECH:   CLIENT CODE
 ORIG.           5" PRINT:   ORIGIN OF DATA
 UWI .       490252251400:   UNIQUE WELL ID
 DICO. A2D Technologies, Inc.:   DIGITIZING COMPANY
~OTHER INFORMATION
~A   DEPT      GRR       RILD       RILM   
# ...
  250.6000   140.1665     6.6834     6.6810
  250.7000   139.7313     6.6456     6.6432
  250.8000   139.3966     6.5988     6.5989
  250.9000   139.2532     6.5249     6.5377
  251.0000   139.1500     6.4880     6.5076
  251.1000   138.6441     6.4512     6.4939
  251.2000   138.4000     6.3940     6.4519
  251.3000   138.1508     6.3341     6.3730
  251.4000   138.0326     6.2939     6.3399
  251.5000   137.9547     6.2155     6.3287
  251.6000   137.7257     6.1525     6.2956
  251.7000   137.7229     6.1063     6.2328
  251.8000   137.7208     6.0410     6.1975
  251.9000   137.8745     5.9538     6.1624
  252.0000   138.1188     5.9201     6.1004
  252.1000   138.4538     5.8533     6.0315
  252.2000   139.2216     5.7872     5.9634
  252.3000   140.1660     5.7041     5.8961
  252.4000   141.8756     5.6283     5.8215
  252.5000   143.4693     5.5900     5.7353
  252.6000   144.6300     5.4840     5.6593
  252.7000   145.5843     5.4567     5.5821
  252.8000   146.1555     5.3860     5.5001
  252.9000   146.1535     5.3206     5.4681
  253.0000   146.1511     5.2783     5.3785
  253.1000   145.9573     5.1871     5.3101
  253.2000   145.5017     5.1584     5.2502
  253.3000   145.2373     5.1292     5.1995
  253.4000   144.5402     5.1001     5.1681
  253.5000   144.1500     5.0712     5.1005
  253.6000   143.7800     5.0448     5.0762
  253.7000   143.3496     5.0448     5.0650
  253.8000   143.1107     5.0448     5.0539
  253.9000   143.7119     5.0630     5.0252
  254.0000   143.9114     5.0800     4.9949
  254.1000   144.3017     5.0853     4.9948
  254.2000   144.8834     5.1155     4.9947
  254.3000   145.6565     5.1434     4.9947
  254.4000   146.7213     5.1727     4.9946
  254.5000   147.8520     5.2022     4.9953
  254.6000   149.0832     5.2404     5.0293
  254.7000   150.3144     5.2984     5.0292
  254.8000   151.6060     5.3335     5.0456
  254.9000   153.0639     5.3589     5.0642
  255.0000   153.5549     5.4083     5.0712
  255.1000   153.6532     5.4580     5.1349
  255.2000   153.6507     5.4942     5.1874
  255.3000   153.6483     5.5608     5.2067
  255.4000   153.6459     5.6205     5.2329
  255.5000   153.6432     5.6617     5.2925
  255.6000   153.6411     5.7099     5.3532
  255.7000   153.4725     5.7751     5.3833
  255.8000   153.3341     5.8410     5.4374
  255.9000   153.2209     5.9201     5.4825
  256.0000   152.7250     5.9477     5.5234
  256.1000   152.4759     6.0018     5.5862
  256.2000   152.0354     6.0704     5.6589
  256.3000   151.5396     6.1296     5.6864
  256.4000   150.9631     6.1296     5.7393
  256.5000   150.2206     6.2266     5.7912
  256.6000   149.3870     6.2837     5.8359
  256.7000   148.5190     6.3364     5.9406
  256.8000   147.2074     6.4088     6.0051
  256.9000   145.9361     6.4812     6.0987
  257.0000   144.9971     6.5181     6.1679
  257.1000   144.2392     6.5553     6.2223
  257.2000   143.7534     6.6142     6.3270
  257.3000   143.0712     6.6765     6.4121
  257.4000   142.3286     6.7145     6.4720
  257.5000   141.6616     6.7566     6.5457
  257.6000   141.1456     6.7912     6.6203
  257.7000   140.2969     6.8299     6.6902
  257.8000   139.6604     6.8688     6.7314
  257.9000   139.2300     6.9080     6.7663
  258.0000   138.9809     6.9473     6.8313
  258.1000   138.7317     6.9869     6.8730
  258.2000   138.4724     6.9958     6.8912
  258.3000   138.9433     7.0178     6.9693
  258.4000   139.6157     7.0446     7.0088
  258.5000   140.4794     7.0487     7.0486
  258.6000   141.2524     7.0938     7.0663
  258.7000   141.4817     7.0938     7.0793
  258.8000   141.4788     7.1202     7.1195
  258.9000   142.5090     7.1608     7.1649
  259.0000   144.1934     7.1932     7.2004
  259.1000   145.5907     7.1932     7.2413
  259.2000   146.0016     7.1932     7.2649
  259.3000   145.9987     7.2241     7.2648
  259.4000   145.9964     7.2434     7.2647
  259.5000   145.9940     7.2434     7.3046
  259.6000   145.7499     7.2434     7.3460
  259.7000   145.2539     7.2434     7.3661
  259.8000   144.7479     7.2434     7.3781
  259.9000   143.8690     7.2434     7.4173
  260.0000   143.0613     7.2434     7.4171
  260.1000   142.2181     7.2434     7.4171
  260.2000   141.4755     7.2434     7.4170
  260.3000   140.7681     7.2830     7.4168
  260.4000   140.2318     7.2940     7.4167
  260.5000   139.5499     7.2940     7.4166
  260.6000   139.1497     7.2940     7.4165
  260.7000   138.9005     7.2940     7.4164
  260.8000   138.7118     7.2940     7.3963
  260.9000   138.7094     7.3288     7.3649
  261.0000   138.7069     7.3449     7.3648
  261.1000   138.7045     7.3449     7.3647
  261.2000   138.7021     7.3449     7.3646
  261.3000   138.6997     7.3449     7.3644
  261.4000   138.6671     7.3449     7.3500
  261.5000   138.3925     7.3449     7.3132
  261.6000   138.1688     7.3449     7.3131
  261.7000   137.9196     7.3560     7.3130
  261.8000   137.6705     7.3962     7.3129
  261.9000   137.3660     7.3962     7.3128
  262.0000   136.8701     7.3962     7.3216
  262.1000   136.6210     7.3962     7.3636
  262.2000   136.3718     7.3962     7.3635
  262.3000   135.9867     7.3962     7.3952
  262.4000   135.5714     7.3962     7.4147
  262.5000   135.2718     7.3962     7.4146
  262.6000   134.4384     7.3962     7.4145
  262.7000   134.2197     7.3962     7.4144
  262.8000   133.9706     7.3962     7.4143
  262.9000   133.9329     7.3962     7.4142
  263.0000   134.1772     7.3962     7.4141
  263.1000   134.4265     7.3962     7.4140
  263.2000   135.1492     7.3962     7.4139
  263.3000   136.0732     7.3962     7.4138
  263.4000   137.1886     7.3962     7.4137
  263.5000   138.5710     7.3962     7.3928
  263.6000   140.2958     7.3586     7.3509
  263.7000   142.2667     7.3449     7.3110
  263.8000   143.5337     7.3449     7.3109
  263.9000   145.1677     7.3355     7.2771
  264.0000   146.6910     7.2940     7.2600
  264.1000   147.8767     7.2940     7.2599
  264.2000   148.9014     7.2940     7.2598
  264.3000   149.6090     7.2940     7.2597
  264.4000   150.3468     7.2805     7.2596
  264.5000   150.9587     7.2434     7.2315
  264.6000   151.3792     7.2434     7.2092
  264.7000   151.6086     7.2434     7.2091
  264.8000   151.3035     7.2434     7.2090
  264.9000   151.0950     7.2434     7.2089
  265.0000   150.8459     7.2434     7.2088
  265.1000   150.4054     7.2434     7.2087
  265.2000   149.6224     7.2434     7.1954
  265.3000   148.5727     7.2434     7.1585
  265.4000   147.8755     7.2434     7.1584
  265.5000   146.9567     7.2434     7.1231
  265.6000   145.9674     7.2434     7.1086
  265.7000   145.1089     7.2434     7.1085
  265.8000   144.6031     7.2082     7.1084
  265.9000   143.7240     7.1932     7.1083
  266.0000   142.7151     7.1932     7.1082
  266.1000   142.0630     7.1932     7.1081
  266.2000   141.9952     7.1932     7.1080
  266.3000   142.2395     7.1932     7.1079
  266.4000   142.5037     7.1932     7.1078
  266.5000   142.7281     7.1932     7.1077
  266.6000   143.3149     7.1932     7.0742
  266.7000   144.0526     7.1932     7.0583
  266.8000   144.8508     7.1932     7.0582
  266.9000   145.8353     7.1932     7.0581
  267.0000   146.8197     7.1932     7.0580
  267.1000   147.6078     7.1932     7.0579
  267.2000   148.2046     7.1932     7.0578
  267.3000   148.5245     7.1932     7.0577
  267.4000   148.4919     7.1932     7.0576
  267.5000   148.2173     7.1932     7.0575
  267.6000   147.7719     7.1932     7.0574
  267.7000   147.2761     7.1932     7.0573
  267.8000   146.7802     7.1932     7.0572
  267.9000   146.3397     7.1932     7.0571
  268.0000   146.0906     7.1599     7.0570
  268.1000   145.8415     7.1433     7.0569
  268.2000   145.7837     7.1285     7.0568
  268.3000   145.6453     7.0881     7.0567
  268.4000   145.5573     7.0446     7.0393
  268.5000   145.8016     7.0446     7.0077
  268.6000   146.0758     7.0446     7.0076
  268.7000   146.2903     7.0259     7.0075
