~VERSION INFORMATION
 VERS.                2.0:   CWLS LOG ASCII STANDARD - VERSION 2.0
 WRAP.                 NO:   ONE LINE PER DEPTH STEP
~WELL INFORMATION
#MNEM.UNIT      DATA TYPE    INFORMATION
#----------   ------------   ------------------------------
 STRT.F           22.0000:   START DEPTH
 STOP.F          533.0000:   STOP DEPTH
 STEP.F            0.5000:   STEP LENGTH
 NULL.          -999.2500:   NO VALUE
 COMP. FENIX & SCISSON INC:   COMPANY
 WELL.        NPR 3 #32-3:   WELL
 FLD .        TEAPOT DOME:   FIELD
 LOC .       S3 T38N R78W:   LOCATION
 CNTY.            NATRONA:   COUNTY
 STAT.            WYOMING:   STATE
 CTRY. UNITED STATES OF AMERICA:   COUNTRY
 SRVC.            Unknown:   SERVICE COMPANY
 DATE.        19-JUL-1978:   LOGDATE
 API .       490251067200:   API NUMBER
~CURVE INFORMATION
#MNEM.UNIT       API CODE    CURVE DESCRIPTION
#----------   ------------   ------------------------------
 DEPT.F                  :   
 SPR .MV     05 010 01 00:   SPONTANEOUS POTENTIAL FROM RES.
 SN  .OHMM   05 040 16 00:   SHORT NORMAL 16"
 IL  .OHMM   05 120 00 00:   INDUCTION LOG
 RHOB.G/C3   45 350 01 00:   BULK DENSITY
 DPHI.DEC    45 890 12 00:   DENSITY POROSITY SANDSTONE
 CORR.G/C3   45 356 01 00:   DENSITY CORRECTION
 CALD.IN     45 280 60 00:   CALIPER
 GRD .GAPI   45 310 01 00:   GAMMA RAY FROM DENSITY LOG
~PARAMETER INFORMATION
#MNEM.UNIT          VALUE    DESCRIPTION
#----------   ------------   ------------------------------
 PD  .                 GL:   PERMANENT DATUM
 EPD .F              5179:   ELEVATION PERMANENT DATUM
 LMF .                 KB:   LOG MEASURED FROM
 DAPD.F                 4:   FEET ABOVE PERMANENT DATUM
 DMF .                 KB:   DRILLING MEASURED FROM
 EKB .F              5183:   KELLING BUSHING
 EGL .F              5179:   GROUND LEVEL
 DATE.            7-19-78:   RUN DATE
 RUN .                  1:   RUN NUMBER
 DD  .F               520:   DEPTH DRILLER
 DL  .F               533:   DEPTH LOGGER
 BLI .F               527:   BOTTOM LOG INTERVAL
 TLI .F                50:   TOP LOG INTERVAL
 CS  .IN            8.625:   CASING SIZE
 CBD .F                40:   CASING BOTTOM DRILLER
 BS  .IN            7.875:   BIT SIZE
 BSD .F               520:   BIT SIZE AT DEPTH
 DFT .                KCL:   DRILLING FLUID TYPE
 DFD .                8.7:   DRILLING FLUID DENSITY
 DFV .                 33:   DRILLING FLUID VISCOSITY
 DFPH.                  9:   DRILLING FLUID PH
 DFL .               12.4:   DRILLING FLUID LOSS
 MSS .          FLOW LINE:   MUD SAMPLE SOURCE
 RMS .OHMM            .28:   RESISTIVITY MUD SAMPLE
 MST .F                70:   MUD SAMPLE TEMPERATURE
 RMF .OHMM            .24:   RESISTIVITY MUD FILTRATE SAMPLE
 MFST.F                76:   MUD FILTRATE SAMPLE TEMPERATURE
 RMC .OHMM             .5:   RESISTIVITY MUD CAKE
 MCST.F                78:   MUD CAKE SAMPLE TEMPERATURE
 MFSS.               MEAS:   MUD FILTRATE SAMPLE SOURCE
 MCSS.               MEAS:   MUD CAKE SAMPLE SOURCE
 TCS .HRS               2:   TIME CURCULATED STOPPED
 LUN .               2958:   LOGGING UNIT NUMBER
 LUL .               CASP:   LOGGING UNIT LOCATION
 ENGI.             MILLER:   RECORDING ENGINEER
 WITN.           MCGINLEY:   WITNESSED BY
 CLNT.            A2DTECH:   CLIENT CODE
 ORIG.           5" PRINT:   ORIGIN OF DATA
 UWI .       490251067200:   UNIQUE WELL ID
 DICO. A2D Technologies, Inc.:   DIGITIZING COMPANY
~OTHER INFORMATION
~A   DEPT      SPR         SN         IL       RHOB       DPHI       CORR       CALD         GRD  
# ...
  305.5000   -25.2959     6.2513     7.4509     2.4530     0.1334     0.0156     8.5061    91.1038
  306.0000   -25.3314     6.1903     7.4969     2.4636     0.1288     0.0155     8.5055    90.2177
  306.5000   -25.3669     6.1300     7.5432     2.4668     0.1361     0.0122     8.5049    89.3312
  307.0000   -25.4020     6.0702     7.5708     2.4554     0.1462     0.0088     8.5042    88.4424
  307.5000   -25.4341     6.0110     6.9850     2.4522     0.1599     0.0050     8.5036    87.6014
  308.0000   -25.6427     5.9656     6.5953     2.4327     0.1715     0.0278     8.5030    88.4758
  308.5000   -25.8900     5.7798     6.2276     2.4106     0.1862     0.0559     8.5018    90.9072
  309.0000   -26.0629     5.5934     5.8813     2.3887     0.2007     0.0866     8.5102    91.1112
  309.5000   -26.1158     5.3554     5.6985     2.3605     0.1849     0.0515     8.5392    90.5679
  310.0000   -26.1704     5.1276     5.7290     2.3935     0.1692    -0.0027     8.9231    90.1382
  310.5000   -26.2246     4.9665     5.7502     2.4346     0.1540     0.0020     9.4487    90.4014
  311.0000   -26.2790     4.9665     5.7715     2.4129     0.1481     0.0090     8.5171    90.6647
  311.5000   -26.3333     4.9795     5.7929     2.4279     0.1471     0.0117     8.5227    90.9271
  312.0000   -26.3876     5.0257     5.8039     2.4369     0.1558     0.0123     8.5083    91.1841
  312.5000   -26.4419     5.0724     5.3936     2.4261     0.1736     0.0128     8.5061    91.1955
  313.0000   -26.4964     5.1194     5.4933     2.4081     0.1912     0.0133     8.5257    90.5483
  313.5000   -26.5506     5.1520     5.3260     2.3705     0.2140     0.0320     8.5447    90.3392
  314.0000   -26.6044     4.8835     5.1478     2.3300     0.2354     0.1469     8.5633    90.5295
  314.5000   -26.6078     4.6884     4.9756     2.2910     0.2179     0.1029     8.5839    88.5415
  315.0000   -26.5521     4.4903     4.8295     2.3853     0.2014     0.0342     8.5910    86.5582
  315.5000   -26.4975     4.5212     4.8122     2.4198     0.1850    -0.0017     9.0696    86.4393
  316.0000   -26.4466     4.5543     4.7875     2.3847     0.1667    -0.0001     9.4252    86.5660
  316.5000   -26.2744     4.5876     4.8490     2.4439     0.1481     0.0014     8.4694    86.6999
  317.0000   -26.0934     4.6560     5.0114     2.4738     0.1352     0.0031     8.4765    86.4880
  317.5000   -25.9118     4.9095     5.3930     2.4580     0.1380     0.0030     8.4757    85.9269
  318.0000   -25.7305     5.2661     5.8155     2.4640     0.1406     0.0024     8.4941    84.9361
  318.5000   -25.5493     5.6382     6.2706     2.4549     0.1437     0.0017     8.5129    83.7449
  319.0000   -25.3705     5.8659     6.7072     2.4443     0.1444     0.0010     8.5316    83.0613
  319.5000   -25.2554     5.9112     6.9498     2.4424     0.1450     0.0003     8.5505    83.5188
  320.0000   -25.2893     5.8538     7.2011     2.4412     0.1479    -0.0003     8.5696    85.1723
  320.5000   -25.3200     5.8134     7.2983     2.4400     0.1498    -0.0005     8.6028    86.6527
  321.0000   -25.3512     5.7733     6.6321     2.4389     0.1502    -0.0005     8.6004    86.9541
  321.5000   -25.3824     5.6803     6.2405     2.4382     0.1590    -0.0004     8.5920    87.2982
  322.0000   -25.4135     5.5232     5.9895     2.4191     0.1745     0.0099     8.5840    87.0675
  322.5000   -25.4446     5.3705     5.7486     2.3955     0.1875     0.0397     8.5760    86.6857
  323.0000   -25.4757     5.2220     5.5173     2.3760     0.1883     0.0688     8.5616    86.3662
  323.5000   -25.5069     5.0773     5.3787     2.4029     0.1582     0.0315     8.5365    86.7410
  324.0000   -25.5380     4.9366     5.2840     2.4327     0.1436     0.0352     8.4939    87.7675
  324.5000   -25.5693     4.9208     5.1994     2.4265     0.1394     0.0427     9.7801    87.8879
  325.0000   -25.5999     4.9204     5.2286     2.4743     0.1353     0.0247     8.4073    87.7027
  325.5000   -25.6341     4.9933     5.2733     2.4741     0.1312     0.0006     8.3412    90.3110
  326.0000   -25.4391     5.2509     5.5319     2.4769     0.1284     0.0095     9.1520    91.3780
  326.5000   -25.1101     5.5227     5.8113     2.4726     0.1230     0.0115     8.6442    85.3078
  327.0000   -24.7749     5.8079     6.1090     2.4788     0.1211     0.0114     8.6413    82.9608
  327.5000   -24.6555     6.1110     6.5077     2.4849     0.1169     0.0168     8.6620    84.4138
  328.0000   -24.6533     6.3604     7.1260     2.4899     0.1144     0.0154     8.6802    86.1574
  328.5000   -24.6505     6.4992     7.6405     2.4946     0.1122     0.0110     8.6979    87.9193
  329.0000   -24.4884     6.5368     7.6405     2.4992     0.1137     0.0065     8.7156    87.8723
  329.5000   -24.1123     6.5747     7.6405     2.4963     0.1220     0.0020     8.7332    84.4956
  330.0000   -23.7409     6.5984     7.6405     2.4857     0.1188     0.0001     8.7509    81.1205
  330.5000   -23.4541     6.5876     7.6405     2.4790     0.1262     0.0016     8.7686    79.7465
  331.0000   -23.4362     6.5798     7.6476     2.4765     0.1256     0.0030     8.7863    79.7888
  331.5000   -23.4140     6.5721     7.6567     2.4743     0.1331     0.0049     8.8040    83.3317
  332.0000   -23.3915     6.5643     7.6657     2.4715     0.1391     0.0069     8.8217    85.1750
  332.5000   -23.3688     6.5565     7.6748     2.4583     0.1312     0.0089     8.8394    85.0350
  333.0000   -23.3462     6.5487     7.6839     2.4627     0.1267     0.0109     8.8570    84.9025
  333.5000   -23.3238     6.5409     7.6930     2.4725     0.1293     0.0129     8.8747    84.7675
  334.0000   -23.3006     6.5280     7.7021     2.4747     0.1316     0.0149     8.8923    85.3104
  334.5000   -23.2798     6.5122     7.7107     2.4702     0.1255     0.0170     8.9107    86.0548
  335.0000   -23.0607     6.4964     7.7108     2.4726     0.1228     0.0175     8.9333    86.8070
  335.5000   -22.8827     6.4806     7.7108     2.4802     0.1230     0.0174     8.9455    87.0545
  336.0000   -22.9052     6.4649     7.7106     2.4794     0.1242     0.0173     8.9542    86.2009
  336.5000   -22.9303     6.4492     7.7108     2.4785     0.1238     0.0184     8.9632    84.7127
  337.0000   -22.9562     6.4335     7.7093     2.4776     0.1225     0.0165     8.9723    84.8580
  337.5000   -22.9817     6.4179     7.7996     2.4769     0.1227     0.0146     8.9813    85.5132
  338.0000   -23.0073     6.4023     7.9819     2.4808     0.1188     0.0126     8.9904    84.2085
  338.5000   -23.0328     6.3868     8.1701     2.4860     0.1252     0.0108     8.9995    81.3601
  339.0000   -23.0583     6.3714     8.4487     2.4776     0.1340     0.0113     9.0085    78.5243
  339.5000   -23.0839     6.3260     8.1436     2.4613     0.1434     0.0166     9.0176    75.7611
  340.0000   -23.1094     6.2215     7.4631     2.4447     0.1528     0.0218     9.0267    76.1724
  340.5000   -23.1350     6.1319     6.8440     2.4287     0.1620     0.0270     9.0360    77.6528
  341.0000   -23.1605     5.9509     6.3156     2.4233     0.1721     0.0325     9.0374    79.0553
  341.5000   -23.1860     5.7657     5.9661     2.4045     0.1853     0.0494     9.0617    83.3310
  342.0000   -23.2117     5.5864     6.0992     2.3767     0.1954     0.0888     9.1005    88.2617
  342.5000   -23.2383     5.4432     6.2440     2.3684     0.1821     0.0490     9.1399    93.2685
  343.0000   -23.2716     5.5028     6.2460     2.4350     0.1654     0.0076     9.1926    93.5016
  343.5000   -22.9446     5.5950     6.2454     2.4511     0.1487     0.0135     9.6030    91.0659
  344.0000   -22.5650     5.7509     6.4212     2.4665     0.1320     0.0186     9.3265    84.6596
  344.5000   -22.1900     6.2832     6.8819     2.4847     0.1153     0.0209     9.3905    79.4553
  345.0000   -21.8179     6.8625     7.6028     2.4934     0.1092     0.0195     9.4538    78.7609
  345.5000   -21.3604     7.1153     8.4580     2.5008     0.1196     0.0181     9.5196    78.6700
