~VERSION INFORMATION
 VERS.                2.0:   CWLS LOG ASCII STANDARD - VERSION 2.0
 WRAP.                 NO:   ONE LINE PER DEPTH STEP
~WELL INFORMATION
#MNEM.UNIT      DATA TYPE    INFORMATION
#----------   ------------   ------------------------------
 STRT.F           12.0000:   START DEPTH
 STOP.F          754.0000:   STOP DEPTH
 STEP.F            0.5000:   STEP LENGTH
 NULL.          -999.2500:   NO VALUE
 COMP. FENIX & SCISSON INC:   COMPANY
 WELL.    62 SX 34 #62-34:   WELL
 FLD .             TEAPOT:   FIELD
 LOC .      S34 T39N R78W:   LOCATION
 CNTY.            NATRONA:   COUNTY
 STAT.            WYOMING:   STATE
 CTRY. UNITED STATES OF AMERICA:   COUNTRY
 SRVC.            Unknown:   SERVICE COMPANY
 DATE.        20-AUG-1978:   LOGDATE
 API .       490251070200:   API NUMBER
~CURVE INFORMATION
#MNEM.UNIT       API CODE    CURVE DESCRIPTION
#----------   ------------   ------------------------------
 DEPT.F                  :   
 SPR .MV     05 010 01 00:   SPONTANEOUS POTENTIAL FROM RES.
 SN  .OHMM   05 040 16 00:   SHORT NORMAL 16"
 ILD .OHMM   05 120 46 00:   INDUCTION LOG DEEP
 GRD .GAPI   45 310 01 00:   GAMMA RAY FROM DENSITY LOG
 CALD.IN     45 280 60 00:   CALIPER
 RHOB.G/C3   45 350 01 00:   BULK DENSITY
 DPHI.DEC    45 890 12 00:   DENSITY POROSITY SANDSTONE
 CORR.G/C3   45 356 01 00:   DENSITY CORRECTION
~PARAMETER INFORMATION
#MNEM.UNIT          VALUE    DESCRIPTION
#----------   ------------   ------------------------------
 PD  .                 GL:   PERMANENT DATUM
 EPD .F              5039:   ELEVATION PERMANENT DATUM
 LMF .                 KB:   LOG MEASURED FROM
 DAPD.F                 4:   FEET ABOVE PERMANENT DATUM
 DMF .                 KB:   DRILLING MEASURED FROM
 EKB .F              5043:   KELLING BUSHING
 EGL .F              5039:   GROUND LEVEL
 DATE.            8-20-78:   RUN DATE
 RUN .                  1:   RUN NUMBER
 DD  .F               750:   DEPTH DRILLER
 DL  .F               755:   DEPTH LOGGER
 BLI .F               749:   BOTTOM LOG INTERVAL
 TLI .F                30:   TOP LOG INTERVAL
 CS  .IN            8.625:   CASING SIZE
 CBD .F                30:   CASING BOTTOM DRILLER
 CBL .F                34:   CASING BOTTOM LOGGER
 BS  .IN            7.875:   BIT SIZE
 BSD .F               750:   BIT SIZE AT DEPTH
 DFT .            KCL MUD:   DRILLING FLUID TYPE
 DFD .                8.6:   DRILLING FLUID DENSITY
 DFV .                 30:   DRILLING FLUID VISCOSITY
 DFPH.                9.5:   DRILLING FLUID PH
 DFL .               10.4:   DRILLING FLUID LOSS
 MSS .          FLOW LINE:   MUD SAMPLE SOURCE
 RMS .OHMM            .28:   RESISTIVITY MUD SAMPLE
 MST .F                76:   MUD SAMPLE TEMPERATURE
 RMF .OHMM            .24:   RESISTIVITY MUD FILTRATE SAMPLE
 MFST.F                80:   MUD FILTRATE SAMPLE TEMPERATURE
 RMC .OHMM            .34:   RESISTIVITY MUD CAKE
 MCST.F                82:   MUD CAKE SAMPLE TEMPERATURE
 MFSS.               MEAS:   MUD FILTRATE SAMPLE SOURCE
 MCSS.               MEAS:   MUD CAKE SAMPLE SOURCE
 BHT .F                72:   BOTTOM HOLE TEMPERATURE
 TCS .HRS               3:   TIME CURCULATED STOPPED
 MRT .F                72:   MAXIMUM RECORDED TEMPERATURE
 LUN .               2958:   LOGGING UNIT NUMBER
 LUL .               CASP:   LOGGING UNIT LOCATION
 ENGI.           REYNOLDS:   RECORDING ENGINEER
 WITN.              AMEND:   WITNESSED BY
 CLNT.            A2DTECH:   CLIENT CODE
 ORIG.           5" PRINT:   ORIGIN OF DATA
 UWI .       490251070200:   UNIQUE WELL ID
 DICO. A2D Technologies, Inc.:   DIGITIZING COMPANY
~OTHER INFORMATION
~A   DEPT      SPR         SN        ILD         GRD      CALD       RHOB       DPHI       CORR   
# ...
  417.0000   -63.4263     4.2251     4.7637    87.2719     8.4771     2.4561     0.1354     0.0080
  417.5000   -63.4159     4.3013     4.8489    89.7756     8.4330     2.4498     0.1404     0.0093
  418.0000   -63.3987     4.5971     4.9846    94.7401     8.3981     2.4449     0.1420     0.0106
  418.5000   -63.3811     4.9436     5.2871    98.5399     8.3989     2.4436     0.1437     0.0119
  419.0000   -63.3635     5.2676     5.6381    98.4656     8.3988     2.4422     0.1435     0.0131
  419.5000   -63.3459     5.4370     6.0125    98.4572     8.3802     2.4424     0.1407     0.0144
  420.0000   -63.3284     5.6258     6.3492    98.5153     8.3057     2.4489     0.1370     0.0157
  420.5000   -63.3108     5.8201     6.5830    98.6018     8.2431     2.4553     0.1333     0.0170
  421.0000   -63.2932     6.0062     6.6938    98.6904     8.1806     2.4551     0.1342     0.0182
  421.5000   -63.2757     6.0908     6.7273    98.7826     8.1172     2.4540     0.1372     0.0195
  422.0000   -63.2581     6.1781     6.7654    98.8512     8.0771     2.4532     0.1362     0.0208
  422.5000   -63.2404     6.2667     6.8036    98.3978     8.0777     2.4570     0.1326     0.0221
  423.0000   -63.2231     6.3566     6.8422    96.4211     8.0781     2.4606     0.1292     0.0233
  423.5000   -63.1565     6.4478     6.8809    95.0681     8.0782     2.4643     0.1285     0.0235
  424.0000   -63.0497     6.5403     6.9198    95.2893     8.0782     2.4691     0.1249     0.0235
  424.5000   -62.9424     6.6347     6.9590    95.4733     8.0815     2.4738     0.1208     0.0235
  425.0000   -62.8348     6.6927     6.9984    95.6548     8.0881     2.4767     0.1262     0.0235
  425.5000   -62.7272     6.7024     7.0111    97.8484     8.0935     2.4695     0.1307     0.0233
  426.0000   -62.6236     6.7113     7.0173    98.8867     8.1385     2.4623     0.1291     0.0212
  426.5000   -62.6877     6.7204     7.0234    95.7877     8.2036     2.4704     0.1174     0.0191
  427.0000   -62.7947     6.7296     7.0295    95.1272     8.2531     2.4881     0.1129     0.0170
  427.5000   -62.9021     6.7387     7.0357    95.0055     8.3213     2.4879     0.1157     0.0150
  428.0000   -63.0095     6.7477     7.0418    93.0248     8.3890     2.4871     0.1164     0.0129
  428.5000   -63.1168     6.7537     7.0480    91.6021     8.4569     2.4870     0.1139     0.0116
  429.0000   -63.2242     6.7156     7.0541    92.5678     8.5247     2.4871     0.1142     0.0121
  429.5000   -63.3315     6.6798     7.0602    93.8017     8.5925     2.4843     0.1171     0.0125
  430.0000   -63.4388     6.6443     7.0657    94.6444     8.6605     2.4807     0.1232     0.0129
  430.5000   -63.5462     6.6089     7.0731    94.5721     8.7288     2.4777     0.1231     0.0133
  431.0000   -63.6534     6.5737     6.9437    94.5161     8.7967     2.4760     0.1230     0.0138
  431.5000   -63.7606     6.4889     6.8251    94.4335     8.8001     2.4760     0.1228     0.0142
  432.0000   -63.8153     6.3982     6.7090    95.6879     8.7985     2.4769     0.1197     0.0146
  432.5000   -63.8123     6.3087     6.5950    97.3380     8.7968     2.4795     0.1168     0.0150
  433.0000   -63.8097     6.2205     6.4829    97.9885     8.7951     2.4819     0.1196     0.0155
  433.5000   -63.8069     6.1285     6.3727    97.8880     8.7935     2.4788     0.1223     0.0163
  434.0000   -63.8042     6.0268     6.2644    99.2420     8.7919     2.4745     0.1232     0.0172
  434.5000   -63.8015     5.9157     6.1580   101.6595     8.7903     2.4653     0.1259     0.0181
  435.0000   -63.7988     5.7374     6.0533   102.6388     8.7886     2.4561     0.1371     0.0190
  435.5000   -63.7960     5.5616     5.9504   101.0326     8.7870     2.4436     0.1482     0.0203
  436.0000   -63.7933     5.2745     5.8286    97.1675     8.7854     2.4301     0.1594     0.0226
  436.5000   -63.7906     4.9586     5.6264    96.3286     8.7838     2.4072     0.1705     0.0249
  437.0000   -63.7879     4.6611     5.4173    95.9715     8.7820     2.3661     0.1816     0.0271
  437.5000   -63.7851     4.2768     4.9504    94.0470     8.7803     2.3246     0.2263     0.0297
  438.0000   -63.7824     3.8918     4.4299    92.0906     8.7837     2.2832     0.2624     0.0441
  438.5000   -63.7797     3.5413     3.9542    91.5228     8.8525     2.2418     0.2873     0.0805
  439.0000   -63.7770     3.2222     3.5295    90.5779     8.9326     2.1996     0.2981     0.1165
  439.5000   -63.7743     2.9332     3.1505    88.5396     9.0131     2.1925     0.2898     0.1526
  440.0000   -63.7715     2.7275     2.8300    85.8624     9.0968     2.2588     0.2528     0.1836
  440.5000   -63.7688     2.5643     2.6168    83.1821     9.3425     2.3494     0.2023     0.1508
  441.0000   -63.7661     2.4096     2.4197    80.5553     9.8251     2.3466     0.2061     0.1199
  441.5000   -63.7634     2.3958     2.3226    79.2679    10.3554     2.3413     0.2103     0.1260
  442.0000   -63.7607     2.3876     2.3226    88.7307     8.9009     2.3617     0.1703     0.1311
  442.5000   -63.7579     2.4096     2.3876    96.6861     9.3130     2.4049     0.1315     0.1286
  443.0000   -63.7552     2.5543     2.5900    97.3190     9.2764     2.4476     0.1172     0.1259
  443.5000   -63.7525     2.7677     2.9496    96.4990     9.0621     2.4807     0.1205     0.1232
  444.0000   -63.7498     2.9989     3.3592    95.8257     9.0655     2.4787     0.1278     0.1205
  444.5000   -63.7471     3.1015     3.8257    96.3057     9.0792     2.4688     0.1348     0.1177
  445.0000   -63.7444     3.2346     4.2629    97.4604     9.0926     2.4591     0.1376     0.1173
  445.5000   -63.7416     3.8029     4.6041    99.2770     9.1058     2.4502     0.1376     0.1177
  446.0000   -63.7389     4.4435     4.9579   101.0853     9.1190     2.4506     0.1376     0.1253
  446.5000   -63.7362     4.6661     5.3162   101.9306     9.1323     2.4537     0.1352     0.1330
  447.0000   -63.7335     4.8595     5.5156   102.3413     9.1455     2.4653     0.1279     0.1337
  447.5000   -63.7308     5.1241     5.6180   102.7383     9.1587     2.4766     0.1145     0.1309
  448.0000   -63.7280     5.1186     5.4884   102.4954     9.1605     2.4799     0.1225     0.1198
  448.5000   -63.7253     5.1105     5.3741   100.9448     9.1633     2.4729     0.1309     0.1089
  449.0000   -63.7226     5.1023     5.3162    99.9800     9.1660     2.4582     0.1392     0.1020
  449.5000   -63.7199     5.0942     5.3522   100.6238     9.1687     2.4441     0.1463     0.0993
  450.0000   -63.7172     5.0861     5.4047   100.8530     9.1714     2.4256     0.1555     0.0980
  450.5000   -63.7144     5.0767     5.4577   100.3957     9.1742     2.4072     0.1698     0.1007
  451.0000   -63.7117     5.0772     5.5156    99.9441     9.1769     2.3887     0.1842     0.1033
  451.5000   -63.7090     4.9950     5.5156    99.6980     9.1797     2.3703     0.1943     0.1059
  452.0000   -63.7063     4.9335     5.4322   104.4377     9.1757     2.3537     0.1943     0.1085
  452.5000   -63.7036     4.8489     5.2011   105.3187     9.1678     2.3694     0.1852     0.1110
  453.0000   -63.7008     4.6737     4.9799   104.6940     9.1606     2.3958     0.1686     0.1136
  453.5000   -63.6981     4.4476     4.7681   105.7913     9.4771     2.4080     0.1631     0.1162
  454.0000   -63.6954     4.2238     4.5653   106.6250     9.0936     2.4088     0.1610     0.1163
  454.5000   -63.6927     4.0113     4.3711   103.8895     9.0975     2.4197     0.1478     0.1143
  455.0000   -63.6900     3.8779     4.1851   101.6517     9.1568     2.4349     0.1474     0.1123
  455.5000   -63.6872     3.8165     4.1088    99.3948     9.9313     2.4358     0.1460     0.1103
  456.0000   -63.6845     3.8824     4.1454    97.0913     9.1762     2.4455     0.1411     0.1083
  456.5000   -63.6818     3.9927     4.2747    96.8795     9.1087     2.4581     0.1293     0.1063
  457.0000   -63.6791     4.1058     4.4052    98.3310     9.1097     2.4709     0.1176     0.1043
