~VERSION INFORMATION
 VERS.                2.0:   CWLS LOG ASCII STANDARD - VERSION 2.0
 WRAP.                 NO:   ONE LINE PER DEPTH STEP
~WELL INFORMATION
#MNEM.UNIT      DATA TYPE    INFORMATION
#----------   ------------   ------------------------------
 STRT.F           28.0000:   START DEPTH
 STOP.F          856.0000:   STOP DEPTH
 STEP.F            0.5000:   STEP LENGTH
 NULL.          -999.2500:   NO VALUE
 COMP. FENIX & SCISSON INC:   COMPANY
 WELL. NPR 3  76 SX #76-27:   WELL
 FLD .             TEAPOT:   FIELD
 LOC .      S27 T39N R78W:   LOCATION
 CNTY.            NATRONA:   COUNTY
 STAT.            WYOMING:   STATE
 CTRY. UNITED STATES OF AMERICA:   COUNTRY
 SRVC.            Unknown:   SERVICE COMPANY
 DATE.        06-SEP-1978:   LOGDATE
 API .       490251069600:   API NUMBER
~CURVE INFORMATION
#MNEM.UNIT       API CODE    CURVE DESCRIPTION
#----------   ------------   ------------------------------
 DEPT.F                  :   
 SPR .MV     05 010 01 00:   SPONTANEOUS POTENTIAL FROM RES.
 SN  .OHMM   05 040 16 00:   SHORT NORMAL 16"
 ILD .OHMM   05 120 46 00:   INDUCTION LOG DEEP
 NPHI.DEC    42 890 03 00:   NEUTRON POROSITY SANDSTONE
 GRD .GAPI   45 310 01 00:   GAMMA RAY FROM DENSITY LOG
 CALD.IN     45 280 60 00:   CALIPER
 RHOB.G/C3   45 350 01 00:   BULK DENSITY
 DPHI.DEC    45 890 12 00:   DENSITY POROSITY SANDSTONE
 CORR.G/C3   45 356 01 00:   DENSITY CORRECTION
~PARAMETER INFORMATION
#MNEM.UNIT          VALUE    DESCRIPTION
#----------   ------------   ------------------------------
 PD  .                 GL:   PERMANENT DATUM
 EPD .F              5062:   ELEVATION PERMANENT DATUM
 LMF .                 KB:   LOG MEASURED FROM
 DAPD.F                 4:   FEET ABOVE PERMANENT DATUM
 DMF .                 KB:   DRILLING MEASURED FROM
 EKB .F              5066:   KELLING BUSHING
 EGL .F              5062:   GROUND LEVEL
 DATE.             9-6-78:   RUN DATE
 RUN .                  1:   RUN NUMBER
 DD  .F               865:   DEPTH DRILLER
 DL  .F               857:   DEPTH LOGGER
 BLI .F               851:   BOTTOM LOG INTERVAL
 TLI .F                40:   TOP LOG INTERVAL
 CS  .IN            8.625:   CASING SIZE
 CBD .F                43:   CASING BOTTOM DRILLER
 CBL .F                43:   CASING BOTTOM LOGGER
 BS  .IN            7.875:   BIT SIZE
 BSD .F               865:   BIT SIZE AT DEPTH
 DFT .                KCL:   DRILLING FLUID TYPE
 DFD .                8.4:   DRILLING FLUID DENSITY
 DFV .                 40:   DRILLING FLUID VISCOSITY
 DFPH.                  9:   DRILLING FLUID PH
 DFL .                  6:   DRILLING FLUID LOSS
 MSS .           FLOWLINE:   MUD SAMPLE SOURCE
 RMS .OHMM            .14:   RESISTIVITY MUD SAMPLE
 MST .F                84:   MUD SAMPLE TEMPERATURE
 RMF .OHMM             .1:   RESISTIVITY MUD FILTRATE SAMPLE
 MFST.F                94:   MUD FILTRATE SAMPLE TEMPERATURE
 RMC .OHMM            .18:   RESISTIVITY MUD CAKE
 MCST.F                92:   MUD CAKE SAMPLE TEMPERATURE
 MFSS.               MEAS:   MUD FILTRATE SAMPLE SOURCE
 MCSS.               MEAS:   MUD CAKE SAMPLE SOURCE
 RMB .OHMM           .145:   RESISTIVITY MUD AT BHT
 BHT .F                82:   BOTTOM HOLE TEMPERATURE
 TCS .HRS               3:   TIME CURCULATED STOPPED
 MRT .F                82:   MAXIMUM RECORDED TEMPERATURE
 LUN .               2958:   LOGGING UNIT NUMBER
 LUL .               CASP:   LOGGING UNIT LOCATION
 ENGI.           REYNOLDS:   RECORDING ENGINEER
 WITN.           MCGINLEY:   WITNESSED BY
 CLNT.            A2DTECH:   CLIENT CODE
 ORIG.           5" PRINT:   ORIGIN OF DATA
 UWI .       490251069600:   UNIQUE WELL ID
 DICO. A2D Technologies, Inc.:   DIGITIZING COMPANY
~OTHER INFORMATION
~A   DEPT      SPR         SN        ILD       NPHI         GRD      CALD       RHOB       DPHI       CORR   
# ...
  575.5000   -82.9344     7.2385     5.4456  -999.2500    87.5284     7.5267     2.4664     0.1375     0.0057
  576.0000   -82.9670     7.1178     5.3172  -999.2500    87.4251     7.5459     2.4554     0.1376     0.0054
  576.5000   -83.0012     6.9991     5.1918  -999.2500    88.5996     7.5652     2.4562     0.1488     0.0051
  577.0000   -83.0345     6.8828     5.0694  -999.2500    88.1480     7.5844     2.4571     0.1669     0.0050
  577.5000   -83.0652     6.6852     4.9498  -999.2500    85.9280     7.6038     2.4372     0.1972     0.0071
  578.0000   -83.1275     6.3364     4.8331  -999.2500    82.6370     7.6121     2.4055     0.2277     0.0091
  578.5000   -83.7848     6.0064     4.5464  -999.2500    80.5092     7.6230     2.3629     0.2583     0.0128
  579.0000   -84.4558     5.6927     3.9943  -999.2500    81.0797     7.6524     2.3157     0.2890     0.0165
  579.5000   -84.8459     5.1820     3.4143  -999.2500    84.1427     7.6805     2.2605     0.2914     0.0203
  580.0000   -85.0940     4.5993     2.7846  -999.2500    84.2284     7.7189     2.2052     0.2741     0.0211
  580.5000   -85.2305     4.2214     2.2708  -999.2500    82.9341     7.9702     2.1940     0.2497     0.0182
  581.0000   -84.9926     3.8728     1.8507  -999.2500    81.5791     8.2319     2.2361     0.2036     0.0154
  581.5000   -84.5681     3.5531     1.5127  -999.2500    82.7114     7.7945     2.2799     0.1759     0.0149
  582.0000   -83.9918     3.2078     1.4981  -999.2500    85.0423     8.4003     2.3235     0.1546     0.0150
  582.5000   -83.6270     3.2381     1.5047  -999.2500    87.3724     8.5051     2.3672     0.1345     0.0163
  583.0000   -83.2986     3.2758     1.5129  -999.2500    88.6683     7.3372     2.4109     0.1143     0.0216
  583.5000   -83.1940     3.3368     1.5212  -999.2500    89.7970     7.2745     2.4578     0.1090     0.0271
  584.0000   -82.9799     3.5109     1.5684  -999.2500    89.3086     7.4221     2.4739     0.1091     0.0332
  584.5000   -81.8973     3.7255     1.8426  -999.2500    88.6831     7.5676     2.4902     0.1093     0.0395
  585.0000   -80.7838     4.0382     2.1821  -999.2500    88.3144     7.6842     2.5068     0.1082     0.0409
  585.5000   -80.5920     4.5847     2.7787  -999.2500    89.1856     7.6033     2.5054     0.1054     0.0404
  586.0000   -80.4561     5.1751     3.4906  -999.2500    90.8197     7.5312     2.5036     0.1017     0.0354
  586.5000   -80.3337     5.6352     4.3023  -999.2500    92.6134     7.5473     2.5101     0.0990     0.0311
  587.0000   -80.4145     5.9019     4.5245  -999.2500    94.3759     7.5627     2.5172     0.1033     0.0241
  587.5000   -80.4998     6.1812     4.7894  -999.2500    93.3167     7.5779     2.5183     0.1078     0.0172
  588.0000   -80.5845     6.4987     4.9825  -999.2500    91.9327     7.5931     2.5130     0.1074     0.0102
  588.5000   -80.6692     6.5669     4.9418  -999.2500    91.0856     7.6081     2.5074     0.1165     0.0051
  589.0000   -80.7538     6.6837     4.9054  -999.2500    92.4026     7.6241     2.5018     0.1156     0.0120
  589.5000   -80.8384     6.6805     4.8691  -999.2500    92.7324     7.6457     2.4963     0.1153     0.0199
  590.0000   -80.9230     6.6658     4.8346  -999.2500    94.5988     7.6829     2.4945     0.1188     0.0280
  590.5000   -81.0075     6.6512     4.8043  -999.2500    96.7239     7.7030     2.4931     0.1236     0.0360
  591.0000   -81.0926     6.6368     4.8934  -999.2500    96.9162     7.7248     2.4919     0.1319     0.0440
  591.5000   -81.1392     6.6214     4.8904  -999.2500    96.4399     7.7468     2.4849     0.1440     0.0420
  592.0000   -81.1618     6.5353     4.8920  -999.2500    95.9163     7.7692     2.4768     0.1645     0.0388
  592.5000   -81.1838     6.4469     4.8941  -999.2500    96.5484     7.7819     2.4518     0.1802     0.0356
  593.0000   -81.2059     6.3601     4.7156  -999.2500    97.9805     7.8040     2.4246     0.1778     0.0322
  593.5000   -81.2280     6.2860     4.2945  -999.2500    98.3295     7.8262     2.3971     0.1713     0.0336
  594.0000   -81.2501     6.2239     3.9066  -999.2500    95.1039     7.8484     2.3846     0.1566     0.0369
  594.5000   -81.2724     5.9610     3.5537  -999.2500    92.7805     7.8698     2.4116     0.1412     0.0370
  595.0000   -81.2935     5.6671     3.2327  -999.2500    91.3597     7.8905     2.4406     0.1317     0.0323
  595.5000   -81.3220     5.3868     3.0723  -999.2500    92.9991     8.0052     2.4588     0.1314     0.0238
  596.0000   -80.9713     5.1212     2.9478  -999.2500    94.9956     8.3394     2.4586     0.1289     0.0147
  596.5000   -80.4399     5.0119     2.8284  -999.2500    93.5006     7.6108     2.4612     0.1251     0.0130
  597.0000   -79.9464     4.9825     2.7195  -999.2500    91.3079     7.6364     2.4748     0.1213     0.0129
  597.5000   -80.0492     5.1605     2.8791  -999.2500    94.3027     7.6157     2.4804     0.1176     0.0129
  598.0000   -80.1125     5.3536     3.0771  -999.2500    98.5515     7.6076     2.4832     0.1138     0.0127
  598.5000   -79.5415     5.5539     3.2898  -999.2500    99.6766     7.5856     2.4911     0.1110     0.0117
  599.0000   -78.9758     5.7616     3.5168  -999.2500    97.4462     7.5644     2.4986     0.1102     0.0110
  599.5000   -78.4202     5.9772     3.7595  -999.2500    97.1941     7.5432     2.5013     0.1110     0.0105
  600.0000   -78.3579     6.2008     4.0189     0.4459    97.4679     7.5220     2.5039     0.1121     0.0085
  600.5000   -78.3586     6.4321     4.2962     0.4286    97.2456     7.5008     2.5024     0.1137     0.0071
  601.0000   -78.3596     6.6756     4.5928     0.4197    94.8823     7.4787     2.4984     0.1153     0.0049
  601.5000   -78.3597     6.8963     4.9100     0.4213    91.9750     7.4737     2.4955     0.1154     0.0050
  602.0000   -78.3597     7.1189     5.2459     0.4359    89.0369     7.4736     2.4962     0.1143     0.0045
  602.5000   -78.3597     7.3473     5.6136     0.4551    88.2110     7.4736     2.4968     0.1133     0.0030
  603.0000   -78.3597     7.5982     5.5794     0.4670    90.4320     7.4736     2.4974     0.1139     0.0030
  603.5000   -78.3597     7.5481     5.5372     0.4726    91.4130     7.4736     2.4968     0.1181     0.0030
  604.0000   -78.3597     7.4779     5.4935     0.4823    91.6305     7.4737     2.4916     0.1223     0.0030
  604.5000   -78.3595     7.3887     5.4503     0.4935    93.5615     7.4733     2.4864     0.1265     0.0028
  605.0000   -78.3599     7.3955     5.4073     0.5046    95.6179     7.5110     2.4812     0.1305     0.0049
  605.5000   -78.3578     7.2885     5.3647     0.5158    95.2065     7.5753     2.4760     0.1303     0.0073
  606.0000   -78.5346     7.2374     5.3225     0.5270    94.2224     7.6393     2.4707     0.1301     0.0094
  606.5000   -78.8262     7.1206     5.3129     0.5362    96.4254     7.6974     2.4693     0.1389     0.0112
  607.0000   -79.1185     7.0055     5.3796     0.5209   100.1102     7.7108     2.4690     0.1536     0.0129
  607.5000   -79.3585     6.8928     5.4159     0.4945   100.6164     7.7201     2.4537     0.1684     0.0146
  608.0000   -79.3804     6.7085     5.0282     0.4730   100.3380     7.7298     2.4346     0.1688     0.0191
  608.5000   -79.4060     6.5112     4.6360     0.4728   100.9947     7.7464     2.4152     0.1436     0.0211
  609.0000   -79.4322     6.3196     4.2743     0.4832   101.7980     7.7712     2.4117     0.1256     0.0231
  609.5000   -79.4584     6.1337     3.9409     0.4961   102.3741     7.7908     2.4388     0.0994     0.0204
  610.0000   -79.4847     5.9530     3.5796     0.5220    99.3188     7.8110     2.4670     0.1022     0.0150
  610.5000   -79.5107     5.7777     3.6326     0.5559    96.2264     7.9773     2.4949     0.1068     0.0090
  611.0000   -79.5386     5.6123     3.7174     0.5620    94.4467     8.3194     2.5171     0.1114     0.0049
  611.5000   -79.4132     5.7445     3.8027     0.5372    95.2498     7.7180     2.5099     0.1160     0.0044
