~VERSION INFORMATION
 VERS.                2.0:   CWLS LOG ASCII STANDARD - VERSION 2.0
 WRAP.                 NO:   ONE LINE PER DEPTH STEP
~WELL INFORMATION
#MNEM.UNIT      DATA TYPE    INFORMATION
#----------   ------------   ------------------------------
 STRT.F           33.5000:   START DEPTH
 STOP.F          680.0000:   STOP DEPTH
 STEP.F            0.5000:   STEP LENGTH
 NULL.          -999.2500:   NO VALUE
 COMP. FENIX & SCISSON INC:   COMPANY
 WELL.       NPR 3 #66-34:   WELL
 FLD .             TEAPOT:   FIELD
 LOC .      S34 T39N R78W:   LOCATION
 CNTY.            NATRONA:   COUNTY
 STAT.            WYOMING:   STATE
 CTRY. UNITED STATES OF AMERICA:   COUNTRY
 SRVC.           BIRDWELL:   SERVICE COMPANY
 DATE.        12-AUG-1978:   LOGDATE
 API .       490251068400:   API NUMBER
~CURVE INFORMATION
#MNEM.UNIT       API CODE    CURVE DESCRIPTION
#----------   ------------   ------------------------------
 DEPT.F                  :   
 SPR .MV     05 010 01 00:   SPONTANEOUS POTENTIAL FROM RES.
 SN  .OHMM   05 040 16 00:   SHORT NORMAL 16"
 IL  .OHMM   05 120 00 00:   INDUCTION LOG
 CORR.G/C3   45 356 01 00:   DENSITY CORRECTION
 GRD .GAPI   45 310 01 00:   GAMMA RAY FROM DENSITY LOG
 RHOB.G/C3   45 350 01 00:   BULK DENSITY
 DPHI.DEC    45 890 12 00:   DENSITY POROSITY SANDSTONE
 CALD.IN     45 280 60 00:   CALIPER
~PARAMETER INFORMATION
#MNEM.UNIT          VALUE    DESCRIPTION
#----------   ------------   ------------------------------
 PD  .                 GL:   PERMANENT DATUM
 EPD .F              5078:   ELEVATION PERMANENT DATUM
 LMF .                 KB:   LOG MEASURED FROM
 DAPD.F                 4:   FEET ABOVE PERMANENT DATUM
 DMF .                 KB:   DRILLING MEASURED FROM
 EKB .F              5082:   KELLING BUSHING
 EGL .F              5078:   GROUND LEVEL
 DATE.            8-12-78:   RUN DATE
 RUN .                  1:   RUN NUMBER
 DD  .F               675:   DEPTH DRILLER
 DL  .F               686:   DEPTH LOGGER
 BLI .F               680:   BOTTOM LOG INTERVAL
 TLI .F                50:   TOP LOG INTERVAL
 CS  .IN            8.625:   CASING SIZE
 CBD .F                40:   CASING BOTTOM DRILLER
 BS  .IN            7.875:   BIT SIZE
 BSD .F               675:   BIT SIZE AT DEPTH
 DFT .                KCL:   DRILLING FLUID TYPE
 DFL .               10.4:   DRILLING FLUID LOSS
 MSS .          FLOW LINE:   MUD SAMPLE SOURCE
 RMS .OHMM            .18:   RESISTIVITY MUD SAMPLE
 MST .F                90:   MUD SAMPLE TEMPERATURE
 RMF .OHMM            .16:   RESISTIVITY MUD FILTRATE SAMPLE
 MFST.F                90:   MUD FILTRATE SAMPLE TEMPERATURE
 RMC .OHMM            .32:   RESISTIVITY MUD CAKE
 MCST.F                90:   MUD CAKE SAMPLE TEMPERATURE
 MFSS.               MEAS:   MUD FILTRATE SAMPLE SOURCE
 TCS .HRS               3:   TIME CURCULATED STOPPED
 LUN .               3006:   LOGGING UNIT NUMBER
 LUL .               CASP:   LOGGING UNIT LOCATION
 ENGI.             MILLER:   RECORDING ENGINEER
 WITN.           MCGINLEY:   WITNESSED BY
 CLNT.            A2DTECH:   CLIENT CODE
 ORIG.           5" PRINT:   ORIGIN OF DATA
 UWI .       490251068400:   UNIQUE WELL ID
 DICO. A2D Technologies, Inc.:   DIGITIZING COMPANY
~OTHER INFORMATION
~A   DEPT      SPR         SN         IL       CORR         GRD      RHOB       DPHI       CALD   
# ...
  114.5000   -42.8557    10.0445     8.0014     0.0206    60.6841     2.3605     0.1969     7.6875
  115.0000   -42.8819    10.1278     7.9841     0.0233    60.4154     2.3624     0.1913     7.7871
  115.5000   -42.7840    10.2139     8.0778     0.0261    63.0705     2.3628     0.1949     7.8873
  116.0000   -42.6893    10.3250     8.1925     0.0254    65.2035     2.3615     0.1950     7.9875
  116.5000   -42.5938    10.2911     8.3088     0.0255    66.5278     2.3634     0.1924     8.0878
  117.0000   -42.5052    10.2443     8.3592     0.0331    64.8155     2.3727     0.1847     8.1873
  117.5000   -42.6002    10.1976     8.3592     0.0407    62.5147     2.3872     0.1734     8.2360
  118.0000   -42.7093    10.1395     8.4472     0.0465    62.6193     2.3951     0.1750     8.2752
  118.5000   -42.9639    10.1548     8.5833     0.0463    63.6213     2.3995     0.1680     8.2947
  119.0000   -43.2146    10.1806     8.7215     0.0524    64.6192     2.4055     0.1600     8.2761
  119.5000   -43.4645    10.2064     8.8327     0.0609    65.6224     2.4210     0.1518     8.2582
  120.0000   -43.7129    10.2306     8.8944     0.0643    66.6622     2.4282     0.1506     8.2400
  120.5000   -43.8881    10.2306     8.9560     0.0612    66.1046     2.4274     0.1556     8.2223
  121.0000   -43.8074    10.0505     8.9971     0.0564    64.0357     2.4146     0.1667     8.2448
  121.5000   -43.7343     9.9307     8.9967     0.0514    62.6733     2.4009     0.1763     8.2404
  122.0000   -43.7913     9.7715     8.9964     0.0495    63.3029     2.3872     0.1833     8.1882
  122.5000   -44.0536     9.7993     8.9964     0.0483    64.1125     2.3744     0.1859     8.1361
  123.0000   -44.3116     9.8421     8.9089     0.0471    64.0326     2.3616     0.1936     8.0838
  123.5000   -44.4627     9.8617     8.7842     0.0459    63.6509     2.3489     0.2033     8.0813
  124.0000   -44.2764     9.4445     8.6612     0.0447    63.6378     2.3446     0.2041     8.0824
  124.5000   -44.1124     9.1442     8.5927     0.0406    64.6258     2.3448     0.2032     8.0545
  125.0000   -44.4095     8.9176     8.6239     0.0355    65.7341     2.3452     0.2019     8.0215
  125.5000   -44.7375     9.0683     8.6457     0.0254    66.4853     2.3431     0.2065     7.9885
  126.0000   -45.0617     9.2477     8.6676     0.0141    66.1922     2.3313     0.2153     7.9553
  126.5000   -45.1015     9.1696     8.6720     0.0076    65.5509     2.3237     0.2158     7.9422
  127.0000   -45.1006     9.0794     8.4873     0.0046    64.8991     2.3250     0.2157     7.9483
  127.5000   -45.0843     9.1184     8.3585     0.0059    64.7216     2.3297     0.2137     7.9558
  128.0000   -45.0065     9.1632     8.2322     0.0078    65.0763     2.3297     0.2137     7.9600
  128.5000   -46.5406     9.0565     8.1321     0.0097    65.4672     2.3255     0.2167     7.9415
  129.0000   -47.7180     8.9205     8.1321     0.0116    63.2097     2.3234     0.2183     7.9231
  129.5000   -47.4113     8.7869     8.1321     0.0121    59.7431     2.3324     0.2127     7.9045
  130.0000   -47.1353     8.6560     8.1321     0.0095    59.3025     2.3344     0.2109     7.9200
  130.5000   -48.1118     8.5937     8.0200     0.0069    62.1591     2.3288     0.2184     7.9456
  131.0000   -49.1504     8.6990     7.9022     0.0045    65.3648     2.3291     0.2132     7.9717
  131.5000   -49.6448     8.7785     7.8385     0.0044    68.5955     2.3375     0.2089     7.9819
  132.0000   -50.0438     8.8250     7.8394     0.0067    68.8550     2.3458     0.2044     7.9821
  132.5000   -50.6082     8.3769     7.8394     0.0099    68.4773     2.3544     0.1997     7.9819
  133.0000   -51.5193     8.0431     7.5498     0.0077    70.1552     2.3639     0.1935     7.9824
  133.5000   -52.9601     7.7225     7.1727     0.0091    72.4671     2.3737     0.1871     8.0076
  134.0000   -54.4213     7.4147     6.8145     0.0153    74.6183     2.3832     0.1760     8.0351
  134.5000   -55.8765     7.1192     6.4741     0.0227    75.9272     2.4077     0.1623     8.0622
  135.0000   -57.1384     6.8309     6.1507     0.0228    76.8561     2.4212     0.1511     8.0794
  135.5000   -56.9704     6.7226     5.8435     0.0199    77.7766     2.4381     0.1443     8.0676
  136.0000   -56.7958     6.6174     5.6493     0.0169    78.6622     2.4556     0.1376     8.0568
  136.5000   -56.7389     6.4640     5.5226     0.0177    81.6531     2.4599     0.1331     8.0457
  137.0000   -56.8261     6.4805     5.4569     0.0179    84.8565     2.4574     0.1354     8.0463
  137.5000   -56.9123     6.5117     5.4291     0.0162    83.0201     2.4549     0.1360     8.0531
  138.0000   -56.9990     6.5599     5.4697     0.0146    80.9577     2.4625     0.1327     8.0606
  138.5000   -57.0855     6.6191     5.5204     0.0179    80.2635     2.4723     0.1288     8.0462
  139.0000   -57.1720     6.6789     5.5715     0.0203    79.3651     2.4821     0.1182     8.0256
  139.5000   -57.2585     6.7059     5.6231     0.0146    75.0494     2.4900     0.1104     8.0048
  140.0000   -57.3454     6.6794     5.6842     0.0090    72.0775     2.4870     0.1209     7.9839
  140.5000   -57.4317     6.5553     5.6426     0.0044    74.6946     2.4715     0.1290     7.9631
  141.0000   -57.4924     6.4335     5.5929     0.0064    77.8800     2.4595     0.1359     7.9712
  141.5000   -57.4391     6.3139     5.5433     0.0113    78.5446     2.4560     0.1370     7.9813
  142.0000   -57.3882     6.1739     5.4941     0.0162    80.3539     2.4547     0.1364     7.9913
  142.5000   -57.3376     6.1846     5.4292     0.0203    83.2868     2.4541     0.1348     8.0014
  143.0000   -57.2869     6.2021     5.4477     0.0187    83.3134     2.4541     0.1335     7.9865
  143.5000   -57.2362     6.2196     5.4771     0.0170    83.7596     2.4541     0.1345     7.9691
  144.0000   -57.1854     6.2309     5.5064     0.0169    85.7110     2.4576     0.1343     7.9520
  144.5000   -57.1357     6.1905     5.5359     0.0176    88.8064     2.4620     0.1311     7.9467
  145.0000   -57.1152     6.1739     5.5658     0.0183    89.6226     2.4641     0.1285     7.9572
  145.5000   -57.1697     6.2309     5.5808     0.0159    84.1633     2.4607     0.1312     7.9675
  146.0000   -57.2228     6.2083     5.5216     0.0105    78.8515     2.4543     0.1349     7.9781
  146.5000   -57.2761     6.1772     5.4820     0.0035    74.8475     2.4483     0.1374     7.9689
  147.0000   -57.3293     6.1461     5.4427     0.0049    76.8719     2.4475     0.1400     7.9473
  147.5000   -57.3826     6.1151     5.4291     0.0055    80.2536     2.4460     0.1428     7.9253
  148.0000   -57.4359     6.0844     5.4291     0.0037    82.4042     2.4434     0.1474     7.9034
  148.5000   -57.4908     6.0537     5.4291     0.0030    83.3017     2.4318     0.1530     7.9130
  149.0000   -57.4785     6.0234     5.4708     0.0102    83.4192     2.4267     0.1450     7.9247
  149.5000   -57.4513     5.9905     5.5249     0.0196    82.9984     2.4520     0.1315     7.9362
  150.0000   -57.4239     5.9551     5.5796     0.0286    82.6908     2.4714     0.1263     7.9387
  150.5000   -57.3966     5.9198     5.6348     0.0288    82.9072     2.4725     0.1250     7.9312
  151.0000   -57.3694     5.8969     5.6901     0.0266    83.2253     2.4712     0.1255     7.9233
  151.5000   -57.3421     5.9634     5.7366     0.0245    83.1101     2.4700     0.1268     7.9412
  152.0000   -57.3147     6.0132     5.7895     0.0266    77.5889     2.4706     0.1245     7.9650
  152.5000   -57.2882     6.0616     5.7324     0.0371    72.5279     2.4779     0.1194     7.9800
  153.0000   -57.2624     6.0319     5.6920     0.0445    72.7051     2.4831     0.1181     7.9699
  153.5000   -57.2365     6.0034     5.6518     0.0426    73.5270     2.4825     0.1194     7.9647
  154.0000   -57.2107     5.9753     5.6322     0.0374    76.0979     2.4750     0.1262     7.9825
  154.5000   -57.1848     5.9514     5.6322     0.0326    78.7620     2.4665     0.1315     8.0005
