~VERSION INFORMATION
 VERS.                2.0:   CWLS LOG ASCII STANDARD - VERSION 2.0
 WRAP.                 NO:   ONE LINE PER DEPTH STEP
~WELL INFORMATION
#MNEM.UNIT      DATA TYPE    INFORMATION
#----------   ------------   ------------------------------
 STRT.F           20.0000:   START DEPTH
 STOP.F          468.0000:   STOP DEPTH
 STEP.F            0.1000:   STEP LENGTH
 NULL.          -999.2500:   NO VALUE
 COMP. LAWRENCE/ALLISON INC:   COMPANY
 WELL.    63-51 SX #10-10:   WELL
 FLD .             TEAPOT:   FIELD
 LOC .      S10 T38N R78W:   LOCATION
 CNTY.            NATRONA:   COUNTY
 STAT.            WYOMING:   STATE
 CTRY. UNITED STATES OF AMERICA:   COUNTRY
 SRVC.           Gearhart:   SERVICE COMPANY
 DATE.        01-OCT-1988:   LOGDATE
 API .       490251125100:   API NUMBER
~CURVE INFORMATION
#MNEM.UNIT       API CODE    CURVE DESCRIPTION
#----------   ------------   ------------------------------
 DEPT.F                  :   
 GRR .GAPI   07 310 01 00:   GAMMA RAY
 RILD.OHMM   07 120 46 00:   INDUCTION LOG DEEP RESISTIVITY
 RILM.OHMM   07 120 44 00:   INDUCTION LOG MEDIUM RESISTIVITY
~PARAMETER INFORMATION
#MNEM.UNIT          VALUE    DESCRIPTION
#----------   ------------   ------------------------------
 PD  .                 GL:   PERMANENT DATUM
 EPD .F              5157:   ELEVATION PERMANENT DATUM
 LMF .                 KB:   LOG MEASURED FROM
 DAPD.F                 5:   FEET ABOVE PERMANENT DATUM
 DMF .                 KB:   DRILLING MEASURED FROM
 EKB .F              5162:   KELLING BUSHING
 EGL .F              5157:   GROUND LEVEL
 DATE.        01-OCT-1988:   RUN DATE
 RUN .                  1:   RUN NUMBER
 DD  .F               475:   DEPTH DRILLER
 DL  .F               476:   DEPTH LOGGER
 BLI .F               468:   BOTTOM LOG INTERVAL
 TLI .F                20:   TOP LOG INTERVAL
 CS  .IN            9.625:   CASING SIZE
 CBD .F                45:   CASING BOTTOM DRILLER
 CBL .F                46:   CASING BOTTOM LOGGER
 BS  .IN             7.87:   BIT SIZE
 BSD .F               475:   BIT SIZE AT DEPTH
 TLAB.HRS            1630:   TIME LOGGER AT BOTTOM
 MRT .F                75:   MAXIMUM RECORDED TEMPERATURE
 LUN .               7597:   LOGGING UNIT NUMBER
 LUL .           GILLETTE:   LOGGING UNIT LOCATION
 ENGI.              BENCK:   RECORDING ENGINEER
 WITN.             STRONG:   WITNESSED BY
 CLNT.            A2DTECH:   CLIENT CODE
 ORIG.           5" PRINT:   ORIGIN OF DATA
 UWI .       490251125100:   UNIQUE WELL ID
 DICO. A2D Technologies, Inc.:   DIGITIZING COMPANY
~OTHER INFORMATION
~A   DEPT       GRR      RILD       RILM   
# ...
  238.4000   114.8699    13.9794    10.7413
  238.5000   112.9900    14.1733    10.9257
  238.6000   111.1101    14.4022    11.1398
  238.7000   109.2302    14.5762    11.3612
  238.8000   107.3503    14.7337    11.5811
  238.9000   105.4704    15.0241    11.8065
  239.0000   103.5905    15.2869    12.0775
  239.1000   101.7105    15.4616    12.3801
  239.2000    99.8306    15.6388    12.6402
  239.3000    97.9507    15.9078    12.8813
  239.4000    96.0708    16.1117    13.1360
  239.5000    94.1909    16.3453    13.4221
  239.6000    92.8767    16.5716    13.6618
  239.7000    91.9878    16.6753    13.9645
  239.8000    91.2114    17.0166    14.2269
  239.9000    90.1380    17.3366    14.5234
  240.0000    89.6896    17.7112    14.8777
  240.1000    89.0322    18.0722    15.2320
  240.2000    88.5040    18.4332    15.5863
  240.3000    88.2572    18.7942    15.9406
  240.4000    87.9975    19.1552    16.2949
  240.5000    87.9970    19.5162    16.6492
  240.6000    87.8225    19.8773    17.0035
  240.7000    87.6904    20.2383    17.3578
  240.8000    87.6344    20.5993    17.7121
  240.9000    87.3838    20.9603    18.0664
  241.0000    87.3832    21.3213    18.4207
  241.1000    87.1997    21.6823    18.7750
  241.2000    87.0767    22.0433    19.1293
  241.3000    87.0760    22.4043    19.4836
  241.4000    87.0754    22.7654    19.8378
  241.5000    87.0748    23.1264    20.1921
  241.6000    86.8820    23.4874    20.5464
  241.7000    86.5025    23.8484    20.9007
  241.8000    86.0097    24.2094    21.2550
  241.9000    85.5021    24.5704    21.6093
  242.0000    84.6289    24.9314    21.9636
  242.1000    84.0246    25.2613    22.3179
  242.2000    83.1434    25.4182    22.6722
  242.3000    82.2410    25.6819    23.0265
  242.4000    81.4786    25.8763    23.3808
  242.5000    80.3511    26.0233    23.7351
  242.6000    79.7190    26.1710    24.0894
  242.7000    78.8287    26.3257    24.4437
  242.8000    77.9358    26.4693    24.7980
  242.9000    77.1970    26.6196    25.1270
  243.0000    76.3786    26.7709    25.4137
  243.1000    75.7189    26.9230    25.7347
  243.2000    75.1405    27.0778    25.8656
  243.3000    74.5466    27.3880    26.0126
  243.4000    73.8497    27.5784    26.0979
  243.5000    73.3221    27.7351    26.0971
  243.6000    72.6351    27.8926    26.0963
  243.7000    72.0659    28.0511    26.2364
  243.8000    71.5730    28.2375    26.2794
  243.9000    71.1311    28.3708    26.2787
  244.0000    70.8763    28.5320    26.2779
  244.1000    70.3999    28.7530    26.2772
  244.2000    70.0857    29.0415    26.2765
  244.3000    70.0781    29.0399    26.3892
  244.4000    70.3235    29.1858    26.4608
  244.5000    70.5699    29.3517    26.5024
  244.6000    71.0614    29.5185    26.6465
  244.7000    71.9290    29.6860    26.6455
  244.8000    72.7843    29.8652    26.6449
  244.9000    73.5912    29.8640    26.6442
  245.0000    74.5647    29.8628    26.6937
  245.1000    75.4496    29.8615    26.8312
  245.2000    76.0404    29.8602    26.8302
  245.3000    76.7779    29.8589    26.9606
  245.4000    77.5157    29.8577    27.0186
  245.5000    78.2538    29.8564    27.0178
  245.6000    79.1107    29.8551    27.0389
  245.7000    79.3164    29.8336    27.2072
  245.8000    79.2679    29.7601    27.3472
  245.9000    79.0211    29.6866    27.3982
  246.0000    78.7745    29.6131    27.3974
  246.1000    78.4970    29.5396    27.3966
  246.2000    78.2812    29.4661    27.3958
  246.3000    77.8783    29.3926    27.5444
  246.4000    77.4823    29.3191    27.7009
  246.5000    77.2356    29.2457    27.7824
  246.6000    76.9673    29.1135    27.8199
  246.7000    76.7422    29.0106    27.9778
  246.8000    76.4955    29.0093    28.1369
  246.9000    76.2488    29.0080    28.1735
  247.0000    76.0021    28.8560    28.1727
  247.1000    75.7429    28.6905    28.2187
  247.2000    75.5086    28.5979    28.3789
  247.3000    75.4363    28.5967    28.5700
  247.4000    75.3205    28.5954    28.7025
  247.5000    75.1298    28.5942    28.8656
  247.6000    75.1292    28.5930    28.9732
  247.7000    75.1286    28.5918    28.9893
  247.8000    75.1279    28.5907    29.1764
  247.9000    75.2516    28.5931    29.3198
  248.0000    75.5625    28.7556    29.4864
  248.1000    76.0422    28.7894    29.6539
  248.2000    76.0415    28.8787    29.8223
  248.3000    76.4265    28.9909    30.0063
  248.4000    76.9182    29.0023    30.1624
  248.5000    77.3354    29.1936    30.3338
  248.6000    77.6108    29.3329    30.5060
  248.7000    78.4811    29.4996    30.6792
  248.8000    78.8844    29.6671    30.8598
  248.9000    79.3761    29.8577    31.0289
  249.0000    79.8676    30.2359    31.2054
  249.1000    80.3591    30.5450    31.3827
  249.2000    80.9208    30.7785    31.5609
  249.3000    80.9203    31.1034    31.7424
  249.4000    80.9197    31.5716    32.1057
  249.5000    80.9191    31.7605    32.3290
  249.6000    80.9185    32.2794    32.5126
  249.7000    80.9178    32.7021    32.6973
  249.8000    80.2566    33.0761    32.8950
  249.9000    79.1954    33.4543    33.3367
  250.0000    78.2085    33.8363    33.4314
  250.1000    77.5683    34.0502    33.5461
  250.2000    76.9282    34.2641    33.6608
  250.3000    76.2880    34.4780    33.7755
  250.4000    75.6478    34.6919    33.8903
  250.5000    75.0076    34.9058    34.0050
  250.6000    74.3675    35.1197    34.1197
  250.7000    73.7273    35.3336    34.2345
  250.8000    73.0871    35.5475    34.3492
  250.9000    72.4470    35.7971    34.4639
  251.0000    71.8068    35.7966    34.5786
  251.1000    71.1666    35.6787    34.6934
  251.2000    70.5265    35.4772    34.7697
  251.3000    69.9394    35.2934    34.7693
  251.4000    69.9410    35.2928    34.7687
  251.5000    69.9420    35.2924    34.7683
  251.6000    69.9432    35.4085    34.7678
  251.7000    69.9444    35.6084    34.7022
  251.8000    69.9456    35.8094    34.5227
  251.9000    69.9471    36.0455    34.5221
  252.0000    69.9481    36.2152    34.5217
  252.1000    69.9493    36.5405    34.4082
  252.2000    69.9505    36.8153    34.2783
  252.3000    69.9721    36.8322    34.2619
  252.4000    70.2585    37.0750    34.0366
  252.5000    70.2595    37.0745    34.0362
  252.6000    70.4031    37.1965    33.9243
  252.7000    70.6487    37.3361    33.7962
  252.8000    70.8942    37.3356    33.7958
  252.9000    71.1807    37.3349    33.7952
  253.0000    71.5887    37.3345    33.9541
  253.1000    72.0784    37.2115    34.0333
  253.2000    72.6495    37.0709    34.0969
  253.3000    73.3835    37.0704    34.2730
  253.4000    74.2402    37.0698    34.2724
  253.5000    75.0551    37.0693    34.2720
  253.6000    75.8911    36.9472    34.3846
  253.7000    76.4624    36.8076    34.5784
  253.8000    76.6875    36.8071    34.7570
  253.9000    76.3837    36.8065    34.7564
  254.0000    76.1813    36.8060    34.9198
  254.1000    75.7958    36.8055    35.1167
  254.2000    75.3084    36.8050    35.2483
  254.3000    74.8212    36.8045    35.2479
  254.4000    74.2524    36.8039    35.2473
  254.5000    74.0500    36.8034    35.4130
  254.6000    73.6645    36.9245    35.6127
  254.7000    73.0958    37.0630    35.8135
  254.8000    72.4047    37.0800    36.0153
  254.9000    72.1211    37.3244    36.2524
  255.0000    71.9187    37.5001    36.2519
  255.1000    71.8180    37.7120    36.3710
  255.2000    71.8192    37.9249    36.5761
  255.3000    71.8610    38.1390    36.7996
  255.4000    72.4326    38.3904    37.2862
  255.5000    73.0440    38.5711    37.2857
  255.6000    73.9204    38.7890    37.4082
  255.7000    74.8174    39.0081    37.6191
  255.8000    75.5515    39.2283    37.8311
  255.9000    76.4081    39.4869    38.0801
  256.0000    77.0196    39.4864    38.2592
  256.1000    77.6113    39.4859    38.4750
  256.2000    78.1011    39.5598    38.6919
  256.3000    78.5705    39.7644    38.8917
  256.4000    78.8570    39.7637    38.8910
  256.5000    78.8580    39.9510    39.0738
