~VERSION INFORMATION
 VERS.                2.0:   CWLS LOG ASCII STANDARD - VERSION 2.0
 WRAP.                 NO:   ONE LINE PER DEPTH STEP
~WELL INFORMATION
#MNEM.UNIT      DATA TYPE    INFORMATION
#----------   ------------   ------------------------------
 STRT.F            0.0000:   START DEPTH
 STOP.F         2758.0000:   STOP DEPTH
 STEP.F            0.5000:   STEP LENGTH
 NULL.          -999.2500:   NO VALUE
 COMP. FENIX & SCISSON INC:   COMPANY
 WELL.       402A #402-20:   WELL
 FLD .             TEAPOT:   FIELD
 LOC .      S20 T39N R78W:   LOCATION
 CNTY.            NATRONA:   COUNTY
 STAT.            WYOMING:   STATE
 CTRY. UNITED STATES OF AMERICA:   COUNTRY
 SRVC.      NL McCullough:   SERVICE COMPANY
 DATE.        15-JUL-1965:   LOGDATE
 API .       490251021100:   API NUMBER
~CURVE INFORMATION
#MNEM.UNIT       API CODE    CURVE DESCRIPTION
#----------   ------------   ------------------------------
 DEPT.F                  :   
 GR  .GAPI   30 310 01 00:   GAMMA RAY
 CALI.IN     70 280 01 00:   CALIPER
~PARAMETER INFORMATION
#MNEM.UNIT          VALUE    DESCRIPTION
#----------   ------------   ------------------------------
 PD  .                 GL:   PERMANENT DATUM
 LMF .                 GL:   LOG MEASURED FROM
 DMF .                 GL:   DRILLING MEASURED FROM
 DATE.            7-15-65:   RUN DATE
 RUN .                  1:   RUN NUMBER
 DL  .F              2759:   DEPTH LOGGER
 BLI .F              2758:   BOTTOM LOG INTERVAL
 TLI .F              2100:   TOP LOG INTERVAL
 CS  .IN                7:   CASING SIZE
 ENGI. FITZSIMMONS/COWLTHORPE:   RECORDING ENGINEER
 WITN.             HUDSON:   WITNESSED BY
 CLNT.            A2DTECH:   CLIENT CODE
 ORIG.           5" PRINT:   ORIGIN OF DATA
 UWI .       490251021100:   UNIQUE WELL ID
 DICO. A2D Technologies, Inc.:   DIGITIZING COMPANY
~OTHER INFORMATION
~A    DEPT      GR         CALI 
# ...
 1944.0000  -999.2500     5.6521
 1944.5000  -999.2500     5.6521
 1945.0000  -999.2500     5.6521
 1945.5000  -999.2500     5.6521
 1946.0000  -999.2500     5.6521
 1946.5000  -999.2500     5.6521
 1947.0000  -999.2500     5.6521
 1947.5000  -999.2500     5.6521
 1948.0000  -999.2500     5.6521
 1948.5000  -999.2500     5.6521
 1949.0000  -999.2500     5.6521
 1949.5000  -999.2500     5.6521
 1950.0000  -999.2500     5.6521
 1950.5000  -999.2500     5.6522
 1951.0000  -999.2500     5.6518
 1951.5000  -999.2500     5.6407
 1952.0000  -999.2500     5.6323
 1952.5000  -999.2500     5.6347
 1953.0000  -999.2500     5.6368
 1953.5000  -999.2500     5.6389
 1954.0000  -999.2500     5.6409
 1954.5000  -999.2500     5.6430
 1955.0000  -999.2500     5.6451
 1955.5000  -999.2500     5.6472
 1956.0000  -999.2500     5.6493
 1956.5000  -999.2500     5.6514
 1957.0000  -999.2500     5.6521
 1957.5000  -999.2500     5.6521
 1958.0000  -999.2500     5.6521
 1958.5000  -999.2500     5.6521
 1959.0000  -999.2500     5.6520
 1959.5000  -999.2500     5.6521
 1960.0000  -999.2500     5.6553
 1960.5000  -999.2500     5.6722
 1961.0000  -999.2500     5.6721
 1961.5000  -999.2500     5.6721
 1962.0000  -999.2500     5.6721
 1962.5000  -999.2500     5.6722
 1963.0000  -999.2500     5.6719
 1963.5000  -999.2500     5.6578
 1964.0000  -999.2500     5.6223
 1964.5000  -999.2500     5.6144
 1965.0000  -999.2500     5.6174
 1965.5000  -999.2500     5.6208
 1966.0000  -999.2500     5.6241
 1966.5000  -999.2500     5.6273
 1967.0000  -999.2500     5.6306
 1967.5000  -999.2500     5.6224
 1968.0000  -999.2500     5.6052
 1968.5000  -999.2500     5.5920
 1969.0000  -999.2500     5.5940
 1969.5000  -999.2500     5.5956
 1970.0000  -999.2500     5.5972
 1970.5000  -999.2500     5.5988
 1971.0000  -999.2500     5.6004
 1971.5000  -999.2500     5.6020
 1972.0000  -999.2500     5.6036
 1972.5000  -999.2500     5.6052
 1973.0000  -999.2500     5.6068
 1973.5000  -999.2500     5.6084
 1974.0000  -999.2500     5.6100
 1974.5000  -999.2500     5.6116
 1975.0000  -999.2500     5.6165
 1975.5000  -999.2500     5.6223
 1976.0000  -999.2500     5.6280
 1976.5000  -999.2500     5.6279
 1977.0000  -999.2500     5.6137
 1977.5000  -999.2500     5.5999
 1978.0000  -999.2500     5.5939
 1978.5000  -999.2500     5.6033
 1979.0000  -999.2500     5.6123
 1979.5000  -999.2500     5.6214
 1980.0000  -999.2500     5.6308
 1980.5000  -999.2500     5.6263
 1981.0000  -999.2500     5.6193
 1981.5000  -999.2500     5.6122
 1982.0000  -999.2500     5.6075
 1982.5000  -999.2500     5.6028
 1983.0000  -999.2500     5.5980
 1983.5000  -999.2500     5.5931
 1984.0000  -999.2500     5.5916
 1984.5000  -999.2500     5.6106
 1985.0000  -999.2500     5.6343
 1985.5000  -999.2500     5.6386
 1986.0000  -999.2500     5.5912
 1986.5000  -999.2500     5.5852
 1987.0000  -999.2500     5.5776
 1987.5000  -999.2500     5.5718
 1988.0000  -999.2500     5.5729
 1988.5000  -999.2500     5.5773
 1989.0000  -999.2500     5.5815
 1989.5000  -999.2500     5.5857
 1990.0000  -999.2500     5.5898
 1990.5000  -999.2500     5.5923
 1991.0000  -999.2500     5.5733
 1991.5000  -999.2500     5.5510
 1992.0000  -999.2500     5.5344
 1992.5000  -999.2500     5.5455
 1993.0000  -999.2500     5.5661
 1993.5000  -999.2500     5.5877
 1994.0000  -999.2500     5.5905
 1994.5000  -999.2500     5.5885
 1995.0000  -999.2500     5.5865
 1995.5000  -999.2500     5.5844
 1996.0000  -999.2500     5.5824
 1996.5000  -999.2500     5.5804
 1997.0000  -999.2500     5.5784
 1997.5000  -999.2500     5.5764
 1998.0000  -999.2500     5.5744
 1998.5000  -999.2500     5.5723
 1999.0000  -999.2500     5.5739
 1999.5000  -999.2500     5.5763
 2000.0000  -999.2500     5.5787
 2000.5000  -999.2500     5.5812
 2001.0000  -999.2500     5.5836
 2001.5000  -999.2500     5.5860
 2002.0000  -999.2500     5.5885
 2002.5000  -999.2500     5.5910
 2003.0000  -999.2500     5.5828
 2003.5000  -999.2500     5.5663
 2004.0000  -999.2500     5.5497
 2004.5000  -999.2500     5.5325
 2005.0000  -999.2500     5.5423
 2005.5000  -999.2500     5.5568
 2006.0000  -999.2500     5.5713
 2006.5000  -999.2500     5.5859
 2007.0000  -999.2500     5.6008
 2007.5000  -999.2500     5.6083
 2008.0000  -999.2500     5.5643
 2008.5000  -999.2500     5.5517
 2009.0000  -999.2500     5.5625
 2009.5000  -999.2500     5.5747
 2010.0000  -999.2500     5.5869
 2010.5000  -999.2500     5.5991
 2011.0000  -999.2500     5.6113
 2011.5000  -999.2500     5.5847
 2012.0000  -999.2500     5.5722
 2012.5000  -999.2500     5.5719
 2013.0000  -999.2500     5.5719
 2013.5000  -999.2500     5.5720
 2014.0000  -999.2500     5.5720
 2014.5000  -999.2500     5.5720
 2015.0000  -999.2500     5.5720
 2015.5000  -999.2500     5.5720
 2016.0000  -999.2500     5.5720
 2016.5000  -999.2500     5.5698
 2017.0000  -999.2500     5.5579
 2017.5000  -999.2500     5.5462
 2018.0000  -999.2500     5.5340
 2018.5000  -999.2500     5.5453
 2019.0000  -999.2500     5.5626
 2019.5000  -999.2500     5.5720
 2020.0000  -999.2500     5.5720
 2020.5000  -999.2500     5.5720
 2021.0000  -999.2500     5.5720
 2021.5000  -999.2500     5.5720
 2022.0000  -999.2500     5.5720
 2022.5000  -999.2500     5.5720
 2023.0000  -999.2500     5.5720
 2023.5000  -999.2500     5.5720
 2024.0000  -999.2500     5.5720
 2024.5000  -999.2500     5.5720
 2025.0000  -999.2500     5.5720
 2025.5000  -999.2500     5.5720
 2026.0000  -999.2500     5.5720
 2026.5000  -999.2500     5.5720
 2027.0000  -999.2500     5.5720
 2027.5000  -999.2500     5.5720
 2028.0000  -999.2500     5.5720
 2028.5000  -999.2500     5.5720
 2029.0000  -999.2500     5.5720
 2029.5000  -999.2500     5.5720
 2030.0000  -999.2500     5.5720
 2030.5000  -999.2500     5.5720
 2031.0000  -999.2500     5.5720
 2031.5000  -999.2500     5.5720
 2032.0000  -999.2500     5.5720
 2032.5000  -999.2500     5.5720
 2033.0000  -999.2500     5.5720
 2033.5000  -999.2500     5.5720
 2034.0000  -999.2500     5.5720
 2034.5000  -999.2500     5.5720
 2035.0000  -999.2500     5.5720
 2035.5000  -999.2500     5.5720
 2036.0000  -999.2500     5.5720
 2036.5000  -999.2500     5.5720
 2037.0000  -999.2500     5.5720
 2037.5000  -999.2500     5.5720
 2038.0000  -999.2500     5.5719
 2038.5000  -999.2500     5.5718
 2039.0000  -999.2500     5.5768
 2039.5000  -999.2500     5.5825
 2040.0000  -999.2500     5.5882
 2040.5000  -999.2500     5.5939
 2041.0000  -999.2500     5.5997
 2041.5000  -999.2500     5.6054
 2042.0000  -999.2500     5.6111
 2042.5000  -999.2500     5.6168
 2043.0000  -999.2500     5.6225
 2043.5000  -999.2500     5.6282
 2044.0000  -999.2500     5.6321
 2044.5000  -999.2500     5.6320
 2045.0000  -999.2500     5.6321
 2045.5000  -999.2500     5.6321
 2046.0000  -999.2500     5.6321
 2046.5000  -999.2500     5.6321
 2047.0000  -999.2500     5.6320
 2047.5000  -999.2500     5.6321
 2048.0000  -999.2500     5.6320
 2048.5000  -999.2500     5.6435
 2049.0000  -999.2500     5.6641
 2049.5000  -999.2500     5.6860
 2050.0000  -999.2500     5.6113
 2050.5000  -999.2500     5.5953
 2051.0000  -999.2500     5.6254
 2051.5000  -999.2500     5.6315
 2052.0000  -999.2500     5.6079
 2052.5000  -999.2500     5.5915
 2053.0000  -999.2500     5.6074
 2053.5000  -999.2500     5.6265
 2054.0000  -999.2500     5.6460
 2054.5000  -999.2500     5.6513
 2055.0000  -999.2500     5.6353
 2055.5000  -999.2500     5.6194
 2056.0000  -999.2500     5.6141
 2056.5000  -999.2500     5.6200
 2057.0000  -999.2500     5.6261
 2057.5000  -999.2500     5.6319
 2058.0000  -999.2500     5.6321
 2058.5000  -999.2500     5.6321
 2059.0000  -999.2500     5.6321
 2059.5000  -999.2500     5.6321
 2060.0000  -999.2500     5.6321
 2060.5000  -999.2500     5.6321
 2061.0000  -999.2500     5.6321
 2061.5000  -999.2500     5.6321
 2062.0000  -999.2500     5.6321
 2062.5000  -999.2500     5.6321
 2063.0000  -999.2500     5.6320
 2063.5000  -999.2500     5.6320
 2064.0000  -999.2500     5.6323
 2064.5000  -999.2500     5.6377
 2065.0000  -999.2500     5.6431
