~VERSION INFORMATION
 VERS.                2.0:   CWLS LOG ASCII STANDARD - VERSION 2.0
 WRAP.                 NO:   ONE LINE PER DEPTH STEP
~WELL INFORMATION
#MNEM.UNIT      DATA TYPE    INFORMATION
#----------   ------------   ------------------------------
 STRT.F           28.0000:   START DEPTH
 STOP.F          546.5000:   STOP DEPTH
 STEP.F            0.5000:   STEP LENGTH
 NULL.          -999.2500:   NO VALUE
 COMP. LAWRENCE/ALLISON INC:   COMPANY
 WELL.    55-66 SX #10-10:   WELL
 FLD .            WILDCAT:   FIELD
 LOC .      S10 T38N R78W:   LOCATION
 CNTY.            NATRONA:   COUNTY
 STAT.            WYOMING:   STATE
 CTRY. UNITED STATES OF AMERICA:   COUNTRY
 SRVC.            Unknown:   SERVICE COMPANY
 DATE.        20-AUG-1984:   LOGDATE
 API .       490251098000:   API NUMBER
~CURVE INFORMATION
#MNEM.UNIT       API CODE    CURVE DESCRIPTION
#----------   ------------   ------------------------------
 DEPT.F                  :   
 CNC .DEC    42 890 03 00:   NEUTRON POROSITY SANDSTONE
 CALD.IN     45 280 60 00:   CALIPER FROM DENSITY LOG
 DEN .G/C3   45 350 01 00:   COMPENSATED BULK DENSTIY
 PORD.DEC    45 890 12 00:   POROSITY DENSITY STONESTONE
 CORR.G/C3   45 356 01 00:   DENSITY CORRECTION
 SPR .MV     07 010 01 00:   SPONTANEOUS POTENTIAL
 RFOC.OHMM   07 220 04 00:   RESISTIVITY FOCUSED LOG
 RILD.OHMM   07 120 46 00:   INDUCTION LOG DEEP RESISTIVITY
 RILM.OHMM   07 120 44 00:   INDUCTION LOG MEDIUM RESISTIVITY
 AC  .US/F   60 520 00 00:   ACCOUSTIC
 GRD .GAPI   45 310 01 00:   GAMMA RAY FROM DENSITY LOG
~PARAMETER INFORMATION
#MNEM.UNIT          VALUE    DESCRIPTION
#----------   ------------   ------------------------------
 PD  .                 GL:   PERMANENT DATUM
 EPD .F              5200:   ELEVATION PERMANENT DATUM
 LMF .                 GL:   LOG MEASURED FROM
 DMF .                 GL:   DRILLING MEASURED FROM
 EGL .F              5200:   GROUND LEVEL
 DATE.        20-AUG-1984:   RUN DATE
 RUN .                  1:   RUN NUMBER
 DD  .F               554:   DEPTH DRILLER
 DL  .F               548:   DEPTH LOGGER
 BLI .F               546:   BOTTOM LOG INTERVAL
 TLI .F                30:   TOP LOG INTERVAL
 CS  .IN            9.625:   CASING SIZE
 CBD .F                46:   CASING BOTTOM DRILLER
 CBL .F                41:   CASING BOTTOM LOGGER
 BS  .IN            7.875:   BIT SIZE
 BSD .F               554:   BIT SIZE AT DEPTH
 DFT .          KCL WATER:   DRILLING FLUID TYPE
 MSS .           FLOWLINE:   MUD SAMPLE SOURCE
 RMS .OHMM           .691:   RESISTIVITY MUD SAMPLE
 MST .F                82:   MUD SAMPLE TEMPERATURE
 MRT .F               100:   MAXIMUM RECORDED TEMPERATURE
 LUN .               6307:   LOGGING UNIT NUMBER
 LUL .               GLTE:   LOGGING UNIT LOCATION
 ENGI.           FAHLSING:   RECORDING ENGINEER
 WITN.           JENNINGS:   WITNESSED BY
 CLNT.            A2DTECH:   CLIENT CODE
 ORIG.       2", 5" PRINT:   ORIGIN OF DATA
 UWI .       490251098000:   UNIQUE WELL ID
 DICO. A2D Technologies, Inc.:   DIGITIZING COMPANY
~OTHER INFORMATION
~A   DEPT      CNC       CALD        DEN       PORD       CORR        SPR       RFOC       RILD       RILM         AC        GRD   
# ...
  180.5000     0.0449     7.8460     2.4430     0.1430     0.0140   -16.1930    37.0100     6.1860     7.8290   185.6870   127.2680
  181.0000     0.0557     7.8320     2.4340     0.1460     0.0150   -23.5180    33.9890     5.9690     7.2960   198.2340   127.6920
  181.5000     0.0685     7.8190     2.4230     0.1520     0.0110   -30.8480    30.1110     5.7510     6.9810   221.4750   126.6040
  182.0000     0.1708     7.8050     2.4120     0.1590     0.0170   -38.2440    24.5470     5.5340     6.9810   239.5630   118.6740
  182.5000     0.3299     7.7920     2.3990     0.1670     0.0240   -41.5310    23.2750     5.3970     6.9810   239.6050   110.2870
  183.0000     0.3311     7.7780     2.4160     0.1580     0.0310   -42.4070    30.2030     5.7140     7.1110   239.6470   105.6030
  183.5000     0.3159     7.7640     2.4410     0.1450     0.0370   -42.6020    44.2930     5.9850     7.1770   239.6880   109.0110
  184.0000     0.3001     7.7510     2.4660     0.1320     0.0320   -42.7940    37.6030     6.2560     7.3690   239.7300   110.4150
  184.5000     0.3016     7.7430     2.4680     0.1260     0.0270   -42.9190    28.8630     6.5270     8.1350   239.7710   107.4710
  185.0000     0.3148     7.7440     2.4700     0.1260     0.0290   -42.6620    22.7800     6.7980     8.6610   239.8130   104.6070
  185.5000     0.3244     7.7460     2.4720     0.1240     0.0350   -42.4060    21.6250     7.0690     8.7630   239.8500   103.2080
  186.0000     0.3384     7.7470     2.4770     0.1220     0.0400   -42.1510    23.5060     7.3400     8.8640   239.8500   104.9080
  186.5000     0.3486     7.7490     2.4810     0.1200     0.0450   -41.8970    25.7250     7.6110     8.9650   211.6500   107.2270
  187.0000     0.3605     7.7510     2.4850     0.1180     0.0430   -41.6430    26.9480     7.8820     9.0660   177.8390   109.5450
  187.5000     0.3530     7.7520     2.4890     0.1160     0.0390   -41.3910    27.6050     8.1520     9.1670   140.0500   111.6220
  188.0000     0.3208     7.7540     2.4920     0.1140     0.0360   -41.1650    28.2620     8.4230     9.2680   135.2470   110.0880
  188.5000     0.3051     7.7560     2.4900     0.1140     0.0380   -41.2500    28.9190     8.6230     9.3690   128.3860   108.5970
  189.0000     0.3028     7.7580     2.4880     0.1170     0.0370   -41.3360    29.5760     8.8460     9.4700   121.5240   108.3620
  189.5000     0.3005     7.7590     2.4870     0.1170     0.0250   -41.4210    30.2330     9.0020     9.5710   114.6630   108.1750
  190.0000     0.2961     7.7610     2.4890     0.1160     0.0130   -41.5060    30.9490     9.1010     9.6730   108.6130   107.9880
  190.5000     0.2968     7.7630     2.4890     0.1140     0.0240   -41.5910    30.7970     9.2000     9.7740   104.4830   107.7920
  191.0000     0.2984     7.7650     2.4830     0.1190     0.0440   -41.6760    30.6660     9.2990     9.8750   104.0220   106.6240
  191.5000     0.3071     7.7660     2.4780     0.1260     0.0300   -41.7590    32.8420     9.3970     9.9760   103.5610   105.2990
  192.0000     0.3080     7.7680     2.4730     0.1240     0.0110   -41.6290    33.9290     9.4960    10.0840   103.4690   104.6990
  192.5000     0.3070     7.7700     2.4800     0.1190     0.0260   -41.4820    33.4860     9.5430    10.0840   103.5590   104.9550
  193.0000     0.3098     7.7720     2.4860     0.1150     0.0450   -41.3360    33.0110     9.5400    10.0770   103.6230   105.8420
  193.5000     0.3206     7.7730     2.4930     0.1150     0.0410   -41.1910    32.5350     9.5200    10.0550   103.0650   106.8360
  194.0000     0.3230     7.7750     2.4900     0.1160     0.0270   -41.0430    32.4050     9.4990    10.0330   102.2030   106.4890
  194.5000     0.3226     7.7770     2.4870     0.1180     0.0130   -41.1550    33.7540     9.4790    10.0120   101.4270   104.6300
  195.0000     0.3213     7.7790     2.4830     0.1200     0.0030   -41.5000    34.2420     9.4580     9.9900   101.4270   102.7710
  195.5000     0.3168     7.7800     2.4820     0.1190     0.0100   -41.8440    33.3110     9.4380     9.9690   101.9030   102.9240
  196.0000     0.2946     7.7820     2.4860     0.1160     0.0350   -42.1880    30.0980     9.4170     9.9470   102.5840   105.2640
  196.5000     0.2986     7.7840     2.4900     0.1130     0.0600   -42.5330    26.2100     9.3970     9.9250   102.8690   107.1590
  197.0000     0.3150     7.7860     2.4940     0.1100     0.0530   -42.8780    22.3220     9.3760     9.9040   102.7580   103.5680
  197.5000     0.3199     7.7870     2.4980     0.1100     0.0460   -43.2240    18.4340     9.3560     9.8820   102.7740   101.6470
  198.0000     0.3016     7.7890     2.4960     0.1140     0.0390   -43.5690    14.5460     9.3350     9.8600   102.8460   104.9780
  198.5000     0.2913     7.7910     2.4870     0.1190     0.0320   -43.9140    13.1860     9.3150     9.8390   102.9240   109.4640
  199.0000     0.2991     7.7930     2.4780     0.1240     0.0240   -44.2590    12.8720     9.2940     9.8170   103.2240   110.7270
  199.5000     0.3020     7.7940     2.4790     0.1220     0.0250   -44.6040    12.5580     9.2740     9.7950   103.5560   108.6600
  200.0000     0.3196     7.7960     2.4830     0.1200     0.0280   -44.9490    12.2430     9.2530     9.7740   103.8890   110.0590
  200.5000     0.3187     7.7980     2.4870     0.1170     0.0300   -45.2950    11.8980     9.2330     9.7520   104.1220   110.3140
  201.0000     0.3195     7.7990     2.4850     0.1180     0.0130   -45.6400    11.7690     9.2120     9.7300   104.1220   109.0210
  201.5000     0.3269     7.8010     2.4840     0.1200    -0.0040   -45.9850    11.6250     9.1080     9.6310   104.1220   109.5380
  202.0000     0.3161     7.8030     2.4840     0.1200     0.0020   -46.3300    11.4690     8.8140     9.3780   104.1220   110.7410
  202.5000     0.3120     7.8030     2.4840     0.1200     0.0160   -46.6740    11.1540     8.5200     9.0990   104.3760   110.3780
  203.0000     0.3194     7.8040     2.4830     0.1210     0.0290   -47.0160    10.8080     8.2250     8.8190   104.9160   108.5420
  203.5000     0.3215     7.8040     2.4790     0.1230     0.0370   -47.2240    10.4610     7.9310     8.5400   105.5190   110.0620
  204.0000     0.3388     7.8050     2.4750     0.1250     0.0280   -46.5140    10.1150     7.6370     8.2380   106.6160   108.7910
  204.5000     0.3452     7.8050     2.4740     0.1250     0.0300   -46.5410     9.7510     7.2820     7.6380   107.8160   107.5090
  205.0000     0.3492     7.8060     2.4740     0.1250     0.0390   -47.2520     9.2530     6.4690     6.9840   109.1120   106.6580
  205.5000     0.3440     7.8060     2.4740     0.1240     0.0480   -47.9680     8.7550     5.6800     6.3290   110.0780   108.9230
  206.0000     0.3311     7.8070     2.4680     0.1260     0.0580   -47.5880     8.2580     5.0550     5.6670   111.2080   111.1750
  206.5000     0.3286     7.8070     2.4510     0.1390     0.0450   -46.9180     7.7600     4.4310     4.9450   113.0230   113.4960
  207.0000     0.3406     7.8080     2.4300     0.1570     0.0220   -46.3090     7.2620     3.8060     4.1720   114.9870   113.8670
  207.5000     0.3747     7.8080     2.4070     0.1780     0.0180   -46.3780     6.7290     3.1380     3.7830   117.3000   111.4980
  208.0000     0.4745     7.8090     2.3820     0.1990     0.0250   -46.4710     6.0650     2.9360     3.3630   121.9540   108.1770
  208.5000     0.4822     7.8090     2.3420     0.2230     0.0310   -46.5590     5.3500     2.6990     2.9150   126.6080   103.2760
  209.0000     0.4682     7.8100     2.2980     0.2470     0.0210   -46.6370     4.6350     2.4940     2.9860   131.0790   100.4650
  209.5000     0.4434     7.8100     2.2540     0.2710     0.0310   -46.5240     3.8770     2.4940     3.0610   135.6590    99.0690
  210.0000     0.4168     7.8110     2.2150     0.2790     0.0420   -46.0300     3.8410     2.5400     3.2230   135.6590    97.8940
  210.5000     0.4211     7.8110     2.2260     0.2510     0.0530   -45.1790     4.3960     2.7450     3.8340   131.3670    97.0460
