~VERSION INFORMATION
 VERS.                2.0:   CWLS LOG ASCII STANDARD - VERSION 2.0
 WRAP.                 NO:   ONE LINE PER DEPTH STEP
~WELL INFORMATION
#MNEM.UNIT      DATA TYPE    INFORMATION
#----------   ------------   ------------------------------
 STRT.F          371.0000:   START DEPTH
 STOP.F         1998.0000:   STOP DEPTH
 STEP.F            0.5000:   STEP LENGTH
 NULL.          -999.2500:   NO VALUE
 COMP.       ANADARKO PET:   COMPANY
 WELL. StX-21 NPR #3 #17-21:   WELL
 FLD .             TEAPOT:   FIELD
 LOC .      S21 T39N R78W:   LOCATION
 CNTY.            NATRONA:   COUNTY
 STAT.            WYOMING:   STATE
 CTRY. UNITED STATES OF AMERICA:   COUNTRY
 SRVC.            Unknown:   SERVICE COMPANY
 DATE.        11-OCT-1994:   LOGDATE
 API .       490252266400:   API NUMBER
~CURVE INFORMATION
#MNEM.UNIT       API CODE    CURVE DESCRIPTION
#----------   ------------   ------------------------------
 DEPT.F                  :   
 ROP .MIN/FT 91 810 01 00:   RATE OF DRILLING PENETRATION
 TGAS.UNITS  91 830 01 00:   TOTAL GAS FROM HOTWIRE
~PARAMETER INFORMATION
#MNEM.UNIT          VALUE    DESCRIPTION
#----------   ------------   ------------------------------
 DATE.         10-11-1994:   RUN DATE
 RUN .                  1:   RUN NUMBER
 DD  .F              1997:   DEPTH DRILLER
 BLI .F              2000:   BOTTOM LOG INTERVAL
 TLI .F               360:   TOP LOG INTERVAL
 CS  .IN                7:   CASING SIZE
 CBD .F               344:   CASING BOTTOM DRILLER
 ENGI.   C. TOWER R. HUSK:   RECORDING ENGINEER
 CLNT.            A2DTECH:   CLIENT CODE
 ORIG.         2.5" PRINT:   ORIGIN OF DATA
 UWI .       490252266400:   UNIQUE WELL ID
 DICO. A2D Technologies, Inc.:   DIGITIZING COMPANY
~OTHER INFORMATION
~A   DEPT        ROP       TGAS 
# ...
 1343.0000     0.5877    16.5237
 1343.5000     0.5387    16.5255
 1344.0000     0.5390    16.5274
 1344.5000     0.5392    16.5292
 1345.0000     0.5395    16.5310
 1345.5000     0.5398    16.5329
 1346.0000     0.5401    16.5199
 1346.5000     0.5403    16.1362
 1347.0000     0.5223    15.4226
 1347.5000     0.5226    15.4246
 1348.0000     0.5228    15.4264
 1348.5000     0.5231    15.4283
 1349.0000     0.5234    15.4302
 1349.5000     0.5052    15.4320
 1350.0000     0.5055    15.5580
 1350.5000     0.5242    15.8076
 1351.0000     0.5244    15.8095
 1351.5000     0.5247    15.8114
 1352.0000     0.5250    15.8132
 1352.5000     0.5253    15.8151
 1353.0000     0.5256    15.8169
 1353.5000     0.5258    15.8188
 1354.0000     0.5261    15.4488
 1354.5000     0.5448    15.4509
 1355.0000     0.5451    15.4528
 1355.5000     0.5454    15.4546
 1356.0000     0.5456    15.4564
 1356.5000     0.5459    15.4582
 1357.0000     0.5645    15.4601
 1357.5000     0.5648    15.4619
 1358.0000     0.5651    15.4637
 1358.5000     0.5657    15.4655
 1359.0000     0.5840    15.4674
 1359.5000     0.5843    15.4692
 1360.0000     0.5846    15.4711
 1360.5000     0.5848    15.4729
 1361.0000     0.5851    15.4748
 1361.5000     0.5924    15.4767
 1362.0000     0.6040    15.4785
 1362.5000     0.6043    15.4804
 1363.0000     0.6046    15.4822
 1363.5000     0.6233    15.4841
 1364.0000     0.6236    15.4860
 1364.5000     0.6238    15.4878
 1365.0000     0.6241    15.4897
 1365.5000     0.6244    15.4915
 1366.0000     0.6246    15.4934
 1366.5000     0.6249    15.4952
 1367.0000     0.6252    15.4971
 1367.5000     0.6255    15.4993
 1368.0000     0.6257    15.5011
 1368.5000     0.6260    15.5030
 1369.0000     0.6263    15.5048
 1369.5000     0.6266    15.5066
 1370.0000     0.6268    15.5084
 1370.5000     0.6271    15.5103
 1371.0000     0.6274    15.5121
 1371.5000     0.6277    15.5139
 1372.0000     0.6280    15.5158
 1372.5000     0.6283    15.5176
 1373.0000     0.6285    15.5194
 1373.5000     0.6288    15.5213
 1374.0000     0.6291    15.5231
 1374.5000     0.6293    15.5250
 1375.0000     0.6296    15.5269
 1375.5000     0.6299    15.5287
 1376.0000     0.6301    15.5306
 1376.5000     0.6304    15.5324
 1377.0000     0.6307    15.5343
 1377.5000     0.6310    15.9081
 1378.0000     0.6313    15.9099
 1378.5000     0.6315    15.9118
 1379.0000     0.6318    15.9136
 1379.5000     0.6321    15.9155
 1380.0000     0.6324    15.9174
 1380.5000     0.6327    15.9192
 1381.0000     0.6329    15.9214
 1381.5000     0.6332    15.9233
 1382.0000     0.6335    15.9251
 1382.5000     0.6337    15.9269
 1383.0000     0.6340    15.9287
 1383.5000     0.6343    15.9306
 1384.0000     0.6346    15.9324
 1384.5000     0.6348    15.9342
 1385.0000     0.6351    15.9360
 1385.5000     0.6354    15.9379
 1386.0000     0.6173    15.9397
 1386.5000     0.6176    15.9415
 1387.0000     0.6178    15.9434
 1387.5000     0.6150    15.9452
 1388.0000     0.6000    15.9471
 1388.5000     0.5819    15.9490
 1389.0000     0.5638    15.9508
 1389.5000     0.5641    15.9527
 1390.0000     0.5643    15.8554
 1390.5000     0.5462    15.5842
 1391.0000     0.5465    15.9583
 1391.5000     0.5284    15.9601
 1392.0000     0.5287    15.9620
 1392.5000     0.5308    15.7965
 1393.0000     0.5476    15.7295
 1393.5000     0.5519    15.9676
 1394.0000     0.5665    15.9694
 1394.5000     0.5668    15.9716
 1395.0000     0.5671    15.9735
 1395.5000     0.5674    15.9753
 1396.0000     0.5676    15.9771
 1396.5000     0.5679    15.9790
 1397.0000     0.5682    15.9808
 1397.5000     0.5869    15.9826
 1398.0000     0.5872    15.9844
 1398.5000     0.5874    15.6143
 1399.0000     0.6061    15.6162
 1399.5000     0.6247    15.6180
 1400.0000     0.6250    15.9917
 1400.5000     0.6067    15.9707
 1401.0000     0.6068    15.6161
 1401.5000     0.6043    15.6139
 1402.0000     0.5886    15.6121
 1402.5000     0.5887    15.6103
 1403.0000     0.5888    15.6085
 1403.5000     0.5889    15.6068
 1404.0000     0.6074    15.6050
 1404.5000     0.6074    15.6031
 1405.0000     0.6075    15.6012
 1405.5000     0.5892    15.5994
 1406.0000     0.5607    15.5975
 1406.5000     0.5159    15.5957
 1407.0000     0.4976    15.5938
 1407.5000     0.4977    15.5916
 1408.0000     0.4978    15.5898
 1408.5000     0.4795    15.5880
 1409.0000     0.4796    15.5862
 1409.5000     0.4797    15.5845
 1410.0000     0.4798    15.5826
 1410.5000     0.4799    15.5808
 1411.0000     0.4800    15.5789
 1411.5000     0.4801    15.5771
 1412.0000     0.4985    15.5752
 1412.5000     0.4986    15.5733
 1413.0000     0.4987    15.5714
 1413.5000     0.5036    15.5693
 1414.0000     0.5173    15.5678
 1414.5000     0.5174    15.5659
 1415.0000     0.5175    15.5639
 1415.5000     0.5176    15.5622
 1416.0000     0.5176    15.5603
 1416.5000     0.5177    15.5585
 1417.0000     0.5178    15.5565
 1417.5000     0.5179    15.5544
 1418.0000     0.5364    15.5526
 1418.5000     0.5365    15.5509
 1419.0000     0.5366    15.5491
 1419.5000     0.5367    15.5473
 1420.0000     0.5184    15.5452
 1420.5000     0.5185    15.5434
 1421.0000     0.5370    15.5416
 1421.5000     0.5554    15.5399
 1422.0000     0.5361    15.5380
 1422.5000     0.5188    15.5362
 1423.0000     0.5189    15.5343
 1423.5000     0.5190    15.5324
 1424.0000     0.5191    15.5306
 1424.5000     0.5192    15.5287
 1425.0000     0.5193    15.5269
 1425.5000     0.5194    15.5250
 1426.0000     0.5195    15.5229
 1426.5000     0.5196    15.5213
 1427.0000     0.5197    15.5194
 1427.5000     0.5198    15.5176
 1428.0000     0.5199    15.5157
 1428.5000     0.5200    15.5137
 1429.0000     0.5384    15.5116
 1429.5000     0.5385    15.5098
 1430.0000     0.5386    15.5081
 1430.5000     0.5387    15.5064
 1431.0000     0.5388    15.5042
 1431.5000     0.5389    15.5024
 1432.0000     0.5390    15.5006
 1432.5000     0.5391    15.4988
 1433.0000     0.5392    15.4971
 1433.5000     0.5392    15.4952
 1434.0000     0.5393    15.4934
 1434.5000     0.5394    15.4915
 1435.0000     0.5395    15.4896
 1435.5000     0.5396    15.4875
 1436.0000     0.5397    15.4860
 1436.5000     0.5398    15.4841
 1437.0000     0.5399    15.4819
 1437.5000     0.5400    15.4804
 1438.0000     0.5401    15.4785
 1438.5000     0.5402    15.4767
 1439.0000     0.5403    15.4748
 1439.5000     0.5404    15.4727
 1440.0000     0.5405    15.4711
 1440.5000     0.5405    15.4692
 1441.0000     0.5406    15.4674
 1441.5000     0.5407    15.4652
 1442.0000     0.5408    15.4635
 1442.5000     0.5225    15.4618
 1443.0000     0.5410    15.4599
 1443.5000     0.5411    15.4581
 1444.0000     0.5412    15.4562
 1444.5000     0.5413    15.4542
 1445.0000     0.5414    15.4525
 1445.5000     0.5415    15.4506
 1446.0000     0.5415    15.4488
 1446.5000     0.5416    15.4469
 1447.0000     0.5417    15.4450
 1447.5000     0.5418    15.4432
 1448.0000     0.5507    15.4413
 1448.5000     0.5604    15.4395
 1449.0000     0.5605    15.4376
 1449.5000     0.5606    15.4355
 1450.0000     0.5607    15.4339
 1450.5000     0.5608    15.4320
 1451.0000     0.5609    15.4299
 1451.5000     0.5426    15.4283
 1452.0000     0.5427    15.4264
 1452.5000     0.5427    15.4245
 1453.0000     0.5428    15.4227
 1453.5000     0.5429    15.4209
 1454.0000     0.5430    15.4189
 1454.5000     0.5431    15.4171
 1455.0000     0.5248    15.4153
 1455.5000     0.5249    15.4134
 1456.0000     0.5250    15.4114
 1456.5000     0.5251    15.4097
 1457.0000     0.5252    15.4079
 1457.5000     0.5253    15.4060
 1458.0000     0.5254    15.4041
 1458.5000     0.5255    15.4019
 1459.0000     0.5256    15.4004
 1459.5000     0.5256    15.3986
 1460.0000     0.5258    15.3967
 1460.5000     0.5442    15.3948
 1461.0000     0.5443    15.3930
 1461.5000     0.5444    15.3911
 1462.0000     0.5445    15.3893
 1462.5000     0.5446    15.3874
 1463.0000     0.5447    15.3853
 1463.5000     0.5448    15.3837
 1464.0000     0.5449    15.3817
