~VERSION INFORMATION
 VERS.                2.0:   CWLS LOG ASCII STANDARD - VERSION 2.0
 WRAP.                 NO:   ONE LINE PER DEPTH STEP
~WELL INFORMATION
#MNEM.UNIT      DATA TYPE    INFORMATION
#----------   ------------   ------------------------------
 STRT.F            0.0000:   START DEPTH
 STOP.F         1008.0000:   STOP DEPTH
 STEP.F            0.5000:   STEP LENGTH
 NULL.          -999.2500:   NO VALUE
 COMP. LAWRENCE/ALLISON INC:   COMPANY
 WELL. NPR 3 #51-61-SX-14:   WELL
 FLD .             TEAPOT:   FIELD
 LOC .      S14 T38N R78W:   LOCATION
 CNTY.            NATRONA:   COUNTY
 STAT.            WYOMING:   STATE
 CTRY. UNITED STATES OF AMERICA:   COUNTRY
 SRVC.      Dresser Atlas:   SERVICE COMPANY
 DATE.        05-FEB-1986:   LOGDATE
 API .       490251106600:   API NUMBER
~CURVE INFORMATION
#MNEM.UNIT       API CODE    CURVE DESCRIPTION
#----------   ------------   ------------------------------
 DEPT.F                  :   
 GRR .GAPI   07 310 01 00:   GAMMA RAY FROM RES. LOG.
 RILD.OHMM   10 120 46 00:   INDUCTION LOG DEEP RESISTIVITY
 RILM.OHMM   07 120 44 00:   INDUCTION LOG MEDIUM RESISTIVITY
 CALD.IN     45 280 60 00:   CALIPER
 DEN .G/C3   45 350 01 00:   COMPENSATED BULK DENSTIY
 CORR.G/C3   45 356 01 00:   DENSITY CORRECTION
 PORD.DEC    45 890 10 00:   POROSITY DENSITY LIMESTONE
~PARAMETER INFORMATION
#MNEM.UNIT          VALUE    DESCRIPTION
#----------   ------------   ------------------------------
 PD  .                 GL:   PERMANENT DATUM
 EPD .F              5225:   ELEVATION PERMANENT DATUM
 LMF .                 GL:   LOG MEASURED FROM
 DMF .                 GL:   DRILLING MEASURED FROM
 EGL .F              5225:   GROUND LEVEL
 DATE.             2-5-86:   RUN DATE
 RUN .                  1:   RUN NUMBER
 DD  .F              1010:   DEPTH DRILLER
 DL  .F              1008:   DEPTH LOGGER
 BLI .F              1008:   BOTTOM LOG INTERVAL
 CS  .IN            8.625:   CASING SIZE
 CBD .F                86:   CASING BOTTOM DRILLER
 CBL .F                84:   CASING BOTTOM LOGGER
 BS  .IN             6.25:   BIT SIZE
 BSD .F              1010:   BIT SIZE AT DEPTH
 DFT .                AIR:   DRILLING FLUID TYPE
 LUN .            HL 6264:   LOGGING UNIT NUMBER
 LUL .           GILLETTE:   LOGGING UNIT LOCATION
 ENGI.           FAHLSING:   RECORDING ENGINEER
 WITN.              FIVAS:   WITNESSED BY
 CLNT.            A2DTECH:   CLIENT CODE
 ORIG.       2", 5" PRINT:   ORIGIN OF DATA
 UWI .       490251106600:   UNIQUE WELL ID
 DICO. A2D Technologies, Inc.:   DIGITIZING COMPANY
~OTHER INFORMATION
~A    DEPT      GRR      RILD       RILM       CALD        DEN       CORR       PORD   
# ...
  500.5000   118.5370     6.5896     6.3587     6.6887     2.4901     0.1222     0.1123
  501.0000   118.0662     6.4647     6.2014     6.6837     2.4801     0.1186     0.1179
  501.5000   120.5499     6.3420     6.0479     6.6729     2.4701     0.1180     0.1235
  502.0000   123.7532     6.2502     5.9369     6.6621     2.4615     0.1251     0.1291
  502.5000   126.1010     6.1961     5.9369     6.6512     2.4561     0.1318     0.1332
  503.0000   122.5438     6.1594     6.1254     6.6403     2.4573     0.1011     0.1322
  503.5000   119.0053     6.3647     6.2509     6.6302     2.4650     0.0673     0.1290
  504.0000   115.4588     6.5532     6.3791     6.6299     2.4726     0.0594     0.1229
  504.5000   113.2737     6.7472     6.5099     6.6300     2.4804     0.0802     0.1178
  505.0000   113.5719     6.9328     6.6434     6.6300     2.4798     0.1003     0.1195
  505.5000   113.9845     7.1157     6.7796     6.6300     2.4771     0.1203     0.1204
  506.0000   111.9829     7.2018     6.9186     6.6300     2.4847     0.1350     0.1160
  506.5000   109.2405     7.2034     7.0062     6.6300     2.5111     0.1312     0.0965
  507.0000   111.6952     7.2024     6.9774     6.6300     2.5400     0.1154     0.0750
  507.5000   114.8396     7.2023     6.9532     6.6300     2.5723     0.1030     0.0668
  508.0000   117.0898     7.2024     6.9291     6.6300     2.5538     0.0889     0.0789
  508.5000   118.4267     7.2024     6.9051     6.6300     2.5255     0.0746     0.0930
  509.0000   119.7465     7.2029     6.8812     6.6300     2.4968     0.0646     0.1071
  509.5000   121.8699     7.1805     6.8573     6.6300     2.4739     0.0573     0.1213
  510.0000   124.1850     7.1529     6.8335     6.6300     2.4714     0.0629     0.1248
  510.5000   126.4774     7.1255     6.8098     6.6300     2.4686     0.0766     0.1259
  511.0000   128.3367     7.0982     6.7862     6.6300     2.4696     0.0959     0.1252
  511.5000   128.6362     7.0709     6.7627     6.6319     2.4728     0.1126     0.1231
  512.0000   127.1811     7.0438     6.7274     6.6349     2.4760     0.1202     0.1207
  512.5000   125.7159     7.0168     6.6842     6.6379     2.4792     0.1112     0.1173
  513.0000   125.7221     6.9899     6.6412     6.6410     2.4862     0.1005     0.1139
  513.5000   126.4023     6.9631     6.5984     6.6440     2.4944     0.0963     0.1105
  514.0000   127.1586     6.9364     6.5560     6.6470     2.4961     0.0935     0.1084
  514.5000   125.3958     6.9098     6.5138     6.6501     2.4936     0.0908     0.1105
  515.0000   123.0083     6.8833     6.4719     6.6531     2.4913     0.0951     0.1125
  515.5000   121.3801     6.8569     6.4494     6.6561     2.4909     0.0997     0.1128
  516.0000   122.1995     6.8306     6.4599     6.6591     2.4974     0.1097     0.1077
  516.5000   122.9610     6.8044     6.4751     6.6622     2.5072     0.1201     0.1016
  517.0000   123.7105     6.7783     6.4903     6.6652     2.5034     0.1234     0.1046
  517.5000   124.4250     6.7530     6.5056     6.6682     2.4961     0.0997     0.1084
  518.0000   122.8705     6.7736     6.5209     6.6712     2.4945     0.1079     0.1098
  518.5000   119.8839     6.7982     6.5362     6.6743     2.4967     0.1155     0.1084
  519.0000   118.4615     6.8230     6.5516     6.6773     2.4973     0.1101     0.1085
  519.5000   119.2861     6.8479     6.5670     6.6803     2.4933     0.0954     0.1108
  520.0000   120.7877     6.8728     6.5824     6.6834     2.4894     0.0900     0.1132
  520.5000   121.7372     6.8978     6.5979     6.6864     2.4854     0.0889     0.1161
  521.0000   122.1623     6.9229     6.6134     6.6896     2.4814     0.0879     0.1191
  521.5000   122.5810     6.9481     6.6299     6.6841     2.4817     0.0869     0.1183
  522.0000   122.9972     6.9734     6.6696     6.6768     2.4842     0.0832     0.1168
  522.5000   123.4026     6.9988     6.7122     6.6694     2.4838     0.0762     0.1185
  523.0000   123.2297     7.0243     6.7551     6.6621     2.4768     0.0725     0.1231
  523.5000   122.2448     7.0498     6.7983     6.6548     2.4699     0.0853     0.1248
  524.0000   121.2682     7.0755     6.8415     6.6474     2.4697     0.0978     0.1245
  524.5000   120.2881     7.1013     6.8789     6.6402     2.4749     0.1100     0.1205
  525.0000   119.3085     7.1271     6.8683     6.6325     2.4844     0.1007     0.1168
  525.5000   118.3236     7.1530     6.8577     6.6598     2.4848     0.0900     0.1166
  526.0000   117.3162     7.1791     6.8472     6.7075     2.4830     0.0919     0.1181
  526.5000   118.3235     7.2025     6.8365     6.6631     2.4834     0.0969     0.1176
  527.0000   119.5764     7.2017     6.8254     6.6308     2.4839     0.1020     0.1157
  527.5000   120.8077     7.2015     6.8158     6.6299     2.4821     0.1069     0.1184
  528.0000   121.4139     7.3623     6.9707     6.6299     2.4730     0.1107     0.1239
  528.5000   124.4314     7.5003     7.1311     6.6300     2.4638     0.1083     0.1295
  529.0000   130.7035     7.6409     7.2951     6.6300     2.4627     0.1018     0.1308
  529.5000   133.1819     7.6961     7.4724     6.6300     2.4685     0.0945     0.1260
  530.0000   129.9868     7.7165     7.4724     6.6300     2.4769     0.0873     0.1211
  530.5000   126.6921     7.7370     7.4724     6.6300     2.4842     0.0819     0.1160
  531.0000   123.6786     7.7576     7.4724     6.6300     2.4845     0.0933     0.1160
  531.5000   127.7483     7.7782     7.4722     6.6300     2.4851     0.1047     0.1160
  532.0000   132.2667     7.7988     7.4722     6.6300     2.4886     0.1135     0.1140
  532.5000   134.0456     7.8193     7.4711     6.6300     2.4924     0.0918     0.1116
  533.0000   135.0847     7.8789     7.5513     6.6300     2.4893     0.0766     0.1132
  533.5000   136.1572     7.9496     7.6198     6.6300     2.4845     0.0770     0.1165
  534.0000   134.4304     8.0212     7.6890     6.6300     2.4809     0.0839     0.1196
  534.5000   131.4172     8.1008     7.7588     6.6300     2.4825     0.0910     0.1186
  535.0000   128.2486     8.2168     7.8292     6.6300     2.4843     0.0968     0.1174
  535.5000   128.9545     8.3347     7.9003     6.6300     2.4861     0.0951     0.1162
  536.0000   130.6881     8.4541     7.9695     6.6300     2.4878     0.0812     0.1150
  536.5000   129.7680     8.5752     8.1204     6.6289     2.4896     0.0635     0.1140
  537.0000   127.5418     8.6980     8.3034     6.6253     2.4915     0.0698     0.1118
  537.5000   125.2663     8.8226     8.4997     6.6218     2.4948     0.0891     0.1096
  538.0000   123.0059     8.9490     8.6725     6.6183     2.5037     0.1018     0.1054
  538.5000   121.4015     9.0772     8.7557     6.6149     2.5113     0.0798     0.1014
  539.0000   122.5148     9.2113     8.8398     6.6112     2.5098     0.0624     0.1012
  539.5000   123.5962     9.3523     8.9246     6.6178     2.5081     0.0823     0.1021
  540.0000   121.8731     9.4955     9.0102     6.6300     2.5064     0.1110     0.1030
  540.5000   118.4988     9.6409     9.0967     6.6422     2.5075     0.1394     0.1031
  541.0000   116.3956     9.7636     9.1840     6.6534     2.5087     0.1585     0.1027
  541.5000   118.3612     9.7928     9.2721     6.6729     2.5100     0.1365     0.1023
  542.0000   121.3037     9.8221     9.3188     6.6898     2.5094     0.1029     0.1019
  542.5000   121.9335     9.8478     9.1911     6.6691     2.5088     0.1038     0.1016
  543.0000   122.2711     9.7199     9.1054     6.6456     2.5081     0.1029     0.1028
  543.5000   123.6552     9.6076     9.0206     6.6223     2.5069     0.0931     0.1048
  544.0000   126.7844     9.4967     8.9365     6.6099     2.5015     0.0833     0.1068
  544.5000   128.4033     9.3870     8.8532     6.6101     2.4962     0.0787     0.1088
  545.0000   125.6201     9.2785     8.7707     6.6143     2.4918     0.0809     0.1108
  545.5000   122.1860     9.1710     8.6890     6.6262     2.4913     0.0874     0.1124
