~VERSION INFORMATION
 VERS.                2.0:   CWLS LOG ASCII STANDARD - VERSION 2.0
 WRAP.                 NO:   ONE LINE PER DEPTH STEP
~WELL INFORMATION
#MNEM.UNIT      DATA TYPE    INFORMATION
#----------   ------------   ------------------------------
 STRT.F           27.0000:   START DEPTH
 STOP.F          713.0000:   STOP DEPTH
 STEP.F            0.5000:   STEP LENGTH
 NULL.          -999.2500:   NO VALUE
 COMP. FENIX & SCISSON INC:   COMPANY
 WELL.       NPR 3 #44-34:   WELL
 FLD .        TEAPOT DOME:   FIELD
 LOC .      S34 T39N R78W:   LOCATION
 CNTY.            NATRONA:   COUNTY
 STAT.            WYOMING:   STATE
 CTRY. UNITED STATES OF AMERICA:   COUNTRY
 SRVC.           BIRDWELL:   SERVICE COMPANY
 DATE.        24-AUG-1978:   LOGDATE
 API .       490251070000:   API NUMBER
~CURVE INFORMATION
#MNEM.UNIT       API CODE    CURVE DESCRIPTION
#----------   ------------   ------------------------------
 DEPT.F                  :   
 SPR .MV     05 010 01 00:   SPONTANEOUS POTENTIAL FROM RES.
 ILD .OHMM   05 120 46 00:   INDUCTION LOG DEEP
 SN  .OHMM   05 040 16 00:   SHORT NORMAL 16"
 CALD.IN     45 280 60 00:   CALIPER
 GRD .GAPI   45 310 01 00:   GAMMA RAY FROM DENSITY LOG
 DEN .G/C3   45 350 01 00:   COMPENSATED BULK DENSTIY
 DPHI.DEC    45 890 12 00:   DENSITY POROSITY SANDSTONE
 CORR.G/C3   45 356 01 00:   DENSITY CORRECTION
~PARAMETER INFORMATION
#MNEM.UNIT          VALUE    DESCRIPTION
#----------   ------------   ------------------------------
 PD  .                 GL:   PERMANENT DATUM
 EPD .F              5124:   ELEVATION PERMANENT DATUM
 LMF .                 KB:   LOG MEASURED FROM
 DAPD.F                 4:   FEET ABOVE PERMANENT DATUM
 DMF .                 KB:   DRILLING MEASURED FROM
 EKB .F              5128:   KELLING BUSHING
 EGL .F              5124:   GROUND LEVEL
 DATE.            8-24-78:   RUN DATE
 RUN .                  1:   RUN NUMBER
 DD  .F               716:   DEPTH DRILLER
 DL  .F               713:   DEPTH LOGGER
 BLI .F               707:   BOTTOM LOG INTERVAL
 TLI .F                50:   TOP LOG INTERVAL
 CS  .IN            8.625:   CASING SIZE
 CBD .F                40:   CASING BOTTOM DRILLER
 BS  .IN            7.875:   BIT SIZE
 BSD .F               716:   BIT SIZE AT DEPTH
 DFT .            MUD KCL:   DRILLING FLUID TYPE
 DFD .                8.6:   DRILLING FLUID DENSITY
 DFV .                 34:   DRILLING FLUID VISCOSITY
 DFL .                7.4:   DRILLING FLUID LOSS
 MSS .          FLOW LINE:   MUD SAMPLE SOURCE
 RMS .OHMM            .18:   RESISTIVITY MUD SAMPLE
 MST .F                76:   MUD SAMPLE TEMPERATURE
 RMF .OHMM            .16:   RESISTIVITY MUD FILTRATE SAMPLE
 MFST.F                92:   MUD FILTRATE SAMPLE TEMPERATURE
 RMC .OHMM             .3:   RESISTIVITY MUD CAKE
 MCST.F                86:   MUD CAKE SAMPLE TEMPERATURE
 MFSS.               MEAS:   MUD FILTRATE SAMPLE SOURCE
 TCS .HRS               3:   TIME CURCULATED STOPPED
 MRT .F                72:   MAXIMUM RECORDED TEMPERATURE
 LUN .               2958:   LOGGING UNIT NUMBER
 LUL .               CASP:   LOGGING UNIT LOCATION
 ENGI.           REYNOLDS:   RECORDING ENGINEER
 WITN.              AMEND:   WITNESSED BY
 CLNT.            A2DTECH:   CLIENT CODE
 ORIG.           5" PRINT:   ORIGIN OF DATA
 UWI .       490251070000:   UNIQUE WELL ID
 DICO. A2D Technologies, Inc.:   DIGITIZING COMPANY
~OTHER INFORMATION
~A   DEPT      SPR        ILD         SN       CALD         GRD       DEN       DPHI       CORR   
# ...
  634.5000   -50.3430    15.0349    12.6503     8.3172    65.2717     2.3482     0.2111     0.0663
  635.0000   -50.6026    15.0767    12.5622     8.2141    66.1333     2.3595     0.2058     0.0659
  635.5000   -50.8617    15.1264    12.4747     8.1842    66.7351     2.3656     0.2001     0.0654
  636.0000   -51.0941    14.9210    12.3878     8.1530    66.8388     2.3703     0.1943     0.0685
  636.5000   -51.0965    14.6722    12.3016     8.0501    67.4413     2.3769     0.1916     0.0714
  637.0000   -51.0942    14.4492    12.2159     7.9410    67.7966     2.3751     0.1937     0.0683
  637.5000   -51.1023    14.4676    12.1431     7.9681    67.6135     2.3731     0.1946     0.0653
  638.0000   -51.3323    14.4832    12.1431     8.0328    67.7830     2.3712     0.1999     0.0639
  638.5000   -51.5716    14.4989    12.1431     8.0544    68.5747     2.3718     0.1968     0.0652
  639.0000   -51.6934    14.5146    12.1431     8.0341    68.8295     2.3764     0.1955     0.0666
  639.5000   -51.6933    14.5302    12.1431     7.7554    69.5882     2.3828     0.1897     0.0679
  640.0000   -51.6934    14.5459    12.1431     7.8273    71.8931     2.3835     0.1891     0.0692
  640.5000   -51.6932    14.5616    12.1434     7.9283    72.0653     2.3839     0.1911     0.0647
  641.0000   -51.6932    14.5814    12.1422     8.0269    70.7529     2.3844     0.1911     0.0570
  641.5000   -51.6932    14.5397    12.1460     8.0431    70.0824     2.3848     0.1911     0.0513
  642.0000   -51.6931    14.4707    11.8434     7.9414    70.4225     2.3857     0.1894     0.0516
  642.5000   -51.6935    14.4317    11.6988     8.0065    75.2709     2.3897     0.1861     0.0586
  643.0000   -51.7136    14.4054    11.6838     7.8359    76.1791     2.3909     0.1862     0.0661
  643.5000   -51.7682    14.3791    11.6687     7.7355    72.2740     2.3905     0.1875     0.0700
  644.0000   -51.8224    14.3528    11.6538     7.6689    71.1594     2.3907     0.1868     0.0705
  644.5000   -51.8769    14.3266    11.6389     7.5964    71.4693     2.3953     0.1847     0.0712
  645.0000   -51.9843    14.1458    11.6240     7.5629    71.5854     2.3998     0.1807     0.0820
  645.5000   -52.1406    13.9001    11.6093     7.5309    68.7692     2.4037     0.1791     0.0958
  646.0000   -52.4360    13.6582    11.5623     7.5067    68.3646     2.4057     0.1791     0.0966
  646.5000   -52.7313    13.4317    11.4662     7.4885    69.0083     2.4072     0.1762     0.0935
  647.0000   -53.0262    13.2647    11.3709     7.4467    69.9632     2.4103     0.1730     0.0851
  647.5000   -53.3210    13.0709    11.2828     7.3324    75.6779     2.4133     0.1707     0.0624
  648.0000   -53.6208    12.8799    11.2687     7.3345    76.5395     2.4137     0.1736     0.0305
  648.5000   -53.8295    12.6916    11.2532     7.3629    76.5284     2.4140     0.1735     0.0220
  649.0000   -54.0139    12.5062    11.2380     7.4154    76.8171     2.4200     0.1661     0.0200
  649.5000   -54.4331    12.3235    11.2227     7.4686    79.1579     2.4270     0.1647     0.0181
  650.0000   -54.9684    12.1433    11.2074     7.4527    81.3336     2.4258     0.1721     0.0211
  650.5000   -55.5096    11.9659    11.1922     7.4253    81.0643     2.4147     0.1795     0.0255
  651.0000   -56.0493    11.7803    11.0510     7.4199    80.5266     2.4042     0.1795     0.0242
  651.5000   -56.5130    11.5941    10.7805     7.5615    79.7794     2.4030     0.1791     0.0231
  652.0000   -56.6513    11.4109    10.7805     7.8355    76.1340     2.4043     0.1776     0.0220
  652.5000   -56.7833    11.3471    10.7805     8.0020    76.7626     2.4098     0.1759     0.0209
  653.0000   -56.9049    11.2993    10.7805     8.1498    77.6809     2.4096     0.1759     0.0199
  653.5000   -57.1427    11.2518    10.7805     8.2224    77.6319     2.4092     0.1758     0.0187
  654.0000   -57.3848    11.2044    10.7233     8.2368    77.3138     2.4161     0.1653     0.0176
  654.5000   -57.4688    11.1573    10.6537     8.2497    78.2625     2.4330     0.1583     0.0194
  655.0000   -57.4701    11.1100    10.5845     8.2628    79.4291     2.4391     0.1559     0.0217
  655.5000   -57.4878    11.0809    10.5157     8.2757    79.4894     2.4388     0.1566     0.0240
  656.0000   -57.6230    11.0808    10.4834     8.2474    73.7907     2.4385     0.1573     0.0255
  656.5000   -57.7584    11.0807    10.4759     8.2157    72.6812     2.4381     0.1575     0.0255
  657.0000   -57.8935    11.0807    10.4681     8.1890    73.0359     2.4393     0.1565     0.0255
  657.5000   -58.0325    11.0807    10.4603     8.1229    73.7589     2.4412     0.1553     0.0255
  658.0000   -58.1675    11.0807    10.4525     7.9968    74.4962     2.4446     0.1528     0.0255
  658.5000   -58.3074    11.0807    10.4447     8.1850    76.1518     2.4492     0.1493     0.0255
  659.0000   -58.4473    11.0807    10.4369     8.2864    76.3632     2.4539     0.1460     0.0255
  659.5000   -58.5873    11.0807    10.4291     8.3093    75.9222     2.4581     0.1449     0.0255
  660.0000   -58.7269    11.0807    10.4213     8.3280    75.4511     2.4607     0.1431     0.0255
  660.5000   -58.8675    11.0807    10.4135     8.3673    76.1536     2.4632     0.1416     0.0255
  661.0000   -59.0050    11.0807    10.4057     8.1197    76.7584     2.4655     0.1391     0.0263
  661.5000   -59.3745    11.0807    10.3982     8.2996    74.5381     2.4709     0.1342     0.0284
  662.0000   -59.8898    11.0807    10.3936     8.2578    71.5742     2.4752     0.1336     0.0305
  662.5000   -60.4084    11.0808    10.4322     8.2386    70.4741     2.4681     0.1404     0.0311
  663.0000   -60.9429    11.0808    10.4615     8.2949    73.8449     2.4619     0.1435     0.0303
  663.5000   -61.1339    11.0824    10.4878     8.3606    75.4341     2.4643     0.1368     0.0296
  664.0000   -61.2722    11.0212    10.4529     8.5553    76.4947     2.4779     0.1257     0.0289
  664.5000   -61.4115    10.9046    10.4202     8.5974    77.3943     2.4894     0.1248     0.0281
  665.0000   -61.3994    10.7891    10.3876     8.5977    77.4995     2.4882     0.1280     0.0274
  665.5000   -61.3214    10.6823    10.3551     8.5972    77.8845     2.4859     0.1286     0.0266
  666.0000   -61.2410    10.6823    10.3227     8.6052    82.1495     2.4850     0.1280     0.0259
  666.5000   -61.1620    10.6823    10.2904     8.6211    84.5940     2.4869     0.1239     0.0265
  667.0000   -61.0774    10.6823    10.2582     8.6376    83.1696     2.4953     0.1188     0.0288
  667.5000   -61.2919    10.6760    10.2261     8.6539    81.0661     2.5033     0.1184     0.0310
  668.0000   -61.6329    10.6615    10.1941     8.6611    84.5304     2.4988     0.1241     0.0319
  668.5000   -61.9866    10.6470    10.1622     8.4381    86.6966     2.4843     0.1293     0.0324
  669.0000   -62.0524    10.6325    10.1304     8.4185    85.2764     2.4831     0.1295     0.0329
  669.5000   -62.0526    10.6180    10.1113     8.5547    83.7569     2.4818     0.1298     0.0334
  670.0000   -62.0515    10.6035    10.1307     8.3035    84.4167     2.4810     0.1298     0.0374
  670.5000   -62.0464    10.5890    10.1445     8.3516    85.9887     2.4835     0.1285     0.0416
  671.0000   -62.2914    10.5591    10.1583     8.4097    86.1419     2.4867     0.1273     0.0415
  671.5000   -62.6088    10.5231    10.1722     8.4673    86.0340     2.4894     0.1263     0.0414
  672.0000   -62.8626    10.4872    10.1860     8.5219    85.9345     2.4910     0.1252     0.0351
  672.5000   -62.8988    10.4515    10.2034     8.7008    85.8237     2.4922     0.1242     0.0253
  673.0000   -62.9384    10.4159    10.1711     8.7762    85.1833     2.4934     0.1231     0.0260
  673.5000   -62.9778    10.3422    10.1221     8.7779    82.3281     2.4947     0.1187     0.0264
  674.0000   -63.0178    10.1997    10.0738     8.7778    80.7798     2.4961     0.1168     0.0269
  674.5000   -63.0778    10.0591    10.0258     8.7893    82.5771     2.4939     0.1295     0.0273
