~VERSION INFORMATION
 VERS.                2.0:   CWLS LOG ASCII STANDARD - VERSION 2.0
 WRAP.                 NO:   ONE LINE PER DEPTH STEP
~WELL INFORMATION
#MNEM.UNIT      DATA TYPE    INFORMATION
#----------   ------------   ------------------------------
 STRT.F            0.0000:   START DEPTH
 STOP.F         4535.0000:   STOP DEPTH
 STEP.F            0.5000:   STEP LENGTH
 NULL.          -999.2500:   NO VALUE
 COMP. LAWRENCE - ALLISON & ASSOCIATES:   COMPANY
 WELL.    NPR ##3 56-X-15:   WELL
 FLD .   TEAPOT NAVAL RES:   FIELD
 LOC .      S15 T38N R78W:   LOCATION
 CNTY.            NATRONA:   COUNTY
 STAT.            WYOMING:   STATE
 CTRY. UNITED STATES OF AMERICA:   COUNTRY
 SRVC.      Dresser Atlas:   SERVICE COMPANY
 DATE.        03-MAY-1984:   LOGDATE
 API .       490251095900:   API NUMBER
~CURVE INFORMATION
#MNEM.UNIT       API CODE    CURVE DESCRIPTION
#----------   ------------   ------------------------------
 DEPT.F                  :   
 CORR.G/C3   45 356 01 00:   DENSITY CORRECTION
 DEN .G/C3   45 350 01 00:   COMPENSATED BULK DENSTIY
 PORD.DEC    45 890 12 00:   POROSITY DENSITY SANDSTONE
 CNC .DEC    42 890 03 00:   NEUTRON POROSITY SANDSTONE
 GRR .GAPI   07 310 01 00:   GAMMA RAY
 CALR.IN     07 280 01 00:   CALIPER FROM RESISTIVITY
 SPR .MV     07 010 01 00:   SPONTANEOUS POTENTIAL
 RILD.OHMM   07 120 46 00:   INDUCTION LOG DEEP RESISTIVITY
 RILM.OHMM   07 120 44 00:   INDUCTION LOG MEDIUM RESISTIVITY
 RFOC.OHMM   07 220 04 00:   RESISTIVITY FOCUSED LOG
 AC  .US/F   60 520 00 00:   ACCOUSTIC
~PARAMETER INFORMATION
#MNEM.UNIT          VALUE    DESCRIPTION
#----------   ------------   ------------------------------
 PD  .                 GL:   PERMANENT DATUM
 EPD .F              5326:   ELEVATION PERMANENT DATUM
 LMF .                 KB:   LOG MEASURED FROM
 DAPD.F                12:   FEET ABOVE PERMANENT DATUM
 DMF .                 KB:   DRILLING MEASURED FROM
 EKB .F              5338:   KELLING BUSHING
 EDF .F              5337:   DRILLING FLOOR
 EGL .F              5326:   GROUND LEVEL
 DATE.        03-MAY-1984:   RUN DATE
 RUN .                  1:   RUN NUMBER
 DD  .F              4547:   DEPTH DRILLER
 DL  .F              4539:   DEPTH LOGGER
 BLI .F              4536:   BOTTOM LOG INTERVAL
 CS  .IN            8.625:   CASING SIZE
 CBD .F              1027:   CASING BOTTOM DRILLER
 CBL .F              1021:   CASING BOTTOM LOGGER
 BS  .IN            7.875:   BIT SIZE
 BSD .F              4547:   BIT SIZE AT DEPTH
 DFT .            KCL GEL:   DRILLING FLUID TYPE
 DFD .                9.1:   DRILLING FLUID DENSITY
 DFV .                 44:   DRILLING FLUID VISCOSITY
 DFPH.                  8:   DRILLING FLUID PH
 DFL .               14.5:   DRILLING FLUID LOSS
 MSS .           MUD TANK:   MUD SAMPLE SOURCE
 RMS .OHMM           0.56:   RESISTIVITY MUD SAMPLE
 MST .F                73:   MUD SAMPLE TEMPERATURE
 RMF .OHMM           0.42:   RESISTIVITY MUD FILTRATE SAMPLE
 MFST.F                73:   MUD FILTRATE SAMPLE TEMPERATURE
 RMC .OHMM           0.71:   RESISTIVITY MUD CAKE
 MCST.F                73:   MUD CAKE SAMPLE TEMPERATURE
 MFSS.               MEAS:   MUD FILTRATE SAMPLE SOURCE
 MCSS.               CALC:   MUD CAKE SAMPLE SOURCE
 RMB .OHMM           0.29:   RESISTIVITY MUD AT BHT
 BHT .F               141:   BOTTOM HOLE TEMPERATURE
 TCS .HRS             3.5:   TIME CURCULATED STOPPED
 MRT .F               125:   MAXIMUM RECORDED TEMPERATURE
 LUN .               6302:   LOGGING UNIT NUMBER
 LUL .               CODY:   LOGGING UNIT LOCATION
 ENGI.              GETTY:   RECORDING ENGINEER
 WITN.           JENNINGS:   WITNESSED BY
 CLNT.            A2DTECH:   CLIENT CODE
 ORIG.           5" PRINT:   ORIGIN OF DATA
 UWI .       490251095900:   UNIQUE WELL ID
 DICO. A2D Technologies, Inc.:   DIGITIZING COMPANY
~OTHER INFORMATION
~A    DEPT    CORR        DEN       PORD        CNC        GRR       CALR        SPR       RILD       RILM       RFOC         AC   
# ...
 2897.5000     0.1222     2.5864     0.0389     0.2468   109.9352     8.6393    -6.8771     3.6922     4.0134     4.3280    89.7556
 2898.0000     0.1412     2.5886     0.0374     0.2497   112.2262     8.6385    -7.3335     3.8739     4.0954     4.4383    89.2318
 2898.5000     0.1444     2.5915     0.0377     0.2515   110.4097     8.6378    -7.6398     4.1214     4.1791     4.2839    89.0839
 2899.0000     0.1050     2.5877     0.0405     0.2418   107.0895     8.6220    -7.9460     4.2057     4.2350     4.3727    88.7871
 2899.5000     0.0884     2.5830     0.0414     0.2322   106.1754     8.6212    -8.7027     4.2324     4.2916     4.6542    87.5851
 2900.0000     0.1018     2.5920     0.0323     0.2237   106.4794     8.6355    -9.4595     4.2889     4.3189     4.9194    86.3078
 2900.5000     0.1484     2.6034     0.0263     0.2222   106.6282     8.6351   -10.0726     4.3162     4.3772     5.0924    85.3318
 2901.0000     0.1498     2.6152     0.0224     0.2321   106.7612     8.6346   -10.6857     4.3436     4.4064     5.0898    85.0332
 2901.5000     0.1256     2.6092     0.0242     0.2386   106.4567     8.6342   -11.1207     4.4016     4.4353     4.9133    85.5654
 2902.0000     0.1164     2.5931     0.0363     0.2317   106.4538     8.6337   -11.5741     4.4621     4.4639     4.7761    86.4734
 2902.5000     0.1133     2.5825     0.0445     0.2282   106.4508     8.6333   -12.0275     4.5537     4.5246     4.7409    86.9293
 2903.0000     0.1071     2.5733     0.0487     0.2420   106.7493     8.6328   -12.3308     4.6834     4.5860     4.8055    87.0837
 2903.5000     0.0949     2.5695     0.0502     0.2498   107.6479     8.6324   -12.6340     4.7764     4.6812     4.8715    87.2382
 2904.0000     0.0948     2.5686     0.0484     0.2565   110.0509     8.6168   -12.7872     4.8909     4.8107     5.0068    87.0912
 2904.5000     0.1098     2.5731     0.0475     0.2493   114.2585     8.6163   -12.9403     5.0054     4.9443     5.1464    86.7915
 2905.0000     0.1021     2.5707     0.0533     0.2384   116.3607     8.6159   -13.2435     5.1200     5.1171     5.3269    86.4104
 2905.5000     0.0929     2.5608     0.0612     0.2284   116.3578     8.6154   -13.3966     5.2345     5.2592     5.5138    85.9641
 2906.0000     0.0883     2.5449     0.0648     0.2254   114.2495     8.5999   -13.5497     5.3918     5.4053     5.7471    85.5015
 2906.5000     0.0867     2.5456     0.0606     0.2296   113.3443     8.5995   -13.8530     5.5031     5.5179     5.9487    84.9718
 2907.0000     0.0745     2.5493     0.0585     0.2333   112.7398     8.5991   -13.8559     5.6166     5.6340     6.1573    84.3263
 2907.5000     0.0744     2.5544     0.0570     0.2294   112.7267     8.5986   -14.1592     5.7725     5.7524     6.2413    83.8025
 2908.0000     0.0946     2.5596     0.0573     0.2127   112.4093     8.5831   -14.4625     5.8965     5.9144     6.2386    83.5039
 2908.5000     0.1512     2.5573     0.0594     0.2058   111.7905     8.5827   -14.6156     6.0545     6.0702     6.2360    83.7346
 2909.0000     0.1524     2.5534     0.0588     0.2091   110.9233     8.5672   -14.7897     6.1373     6.1526     6.2772    84.0398
 2909.5000     0.1104     2.5541     0.0549     0.2264   109.7167     8.5667   -15.0727     6.2206     6.1936     6.3185    84.1942
 2910.0000     0.0873     2.5596     0.0516     0.2385   109.4130     8.5663   -15.2258     6.2175     6.2342     6.4047    84.1979
 2910.5000     0.0872     2.5690     0.0510     0.2325   112.1168     8.5508   -15.3789     6.2149     6.2310     6.4920    84.0509
 2911.0000     0.0856     2.5659     0.0553     0.2280   116.9258     8.5503   -15.5320     6.2557     6.2726     6.5347    83.5272
 2911.5000     0.0749     2.5597     0.0592     0.2283   119.9304     8.5498   -15.5349     6.2967     6.3137     6.3961    82.6266
 2912.0000     0.0672     2.5521     0.0568     0.2289   119.6267     8.5493   -15.6880     6.3828     6.3551     6.3490    82.3280
 2912.5000     0.0505     2.5581     0.0565     0.2277   117.2177     8.5338   -15.6910     6.5139     6.5307     6.2584    82.3326
 2913.0000     0.0428     2.5557     0.0604     0.2250   118.7185     8.5032   -15.8441     6.6483     6.8536     6.2558    82.6378
 2913.5000     0.0443     2.5541     0.0565     0.2211   120.5200     8.4727   -16.1474     7.1732     7.2425     6.2970    82.8676
 2914.0000     0.0984     2.5653     0.0411     0.2105   118.1110     8.4421   -16.3005     7.7936     7.8148     6.6094    82.7206
 2914.5000     0.1692     2.5803     0.0381     0.2066   109.3862     8.4266   -16.3034     8.0674     8.0878     7.0842    82.1968
 2915.0000     0.1978     2.5833     0.0405     0.2067    97.9547     8.4262   -16.3064     8.1752     8.1417     8.1417    80.5427
 2915.5000     0.1825     2.5892     0.0293     0.2126    87.4254     8.4409   -15.8589     7.9938     8.0252     9.8255    76.9292
 2916.0000     0.1703     2.6140     0.0187     0.2174    88.3247     8.4554   -15.4075     7.7800     7.8019    11.4509    73.0897
 2916.5000     0.1566     2.6155     0.0255     0.2197    97.9458     8.4700   -14.9505     7.5637     7.5323    11.4667    72.7167
 2917.0000     0.1158     2.5950     0.0436     0.2212   103.9578     8.4846   -14.4935     7.3535     7.2217     8.7156    73.7156
 2917.5000     0.0825     2.5768     0.0469     0.2230   106.3609     8.4992   -14.0689     6.9532     6.8282     7.0175    77.0049
 2918.0000     0.0686     2.5737     0.0461     0.2255   108.1707     8.5289   -13.7716     6.4390     6.4562     6.4951    82.2761
 2918.5000     0.0823     2.5704     0.0521     0.2276   110.3198     8.5305   -13.3248     6.3476     6.3644     6.2709    84.5315
 2919.0000     0.0957     2.5595     0.0567     0.2303   113.0326     8.5431   -12.8773     6.3899     6.4073     6.3565    84.8682
 2919.5000     0.1093     2.5583     0.0539     0.2303   115.0708     8.5425   -12.4298     6.4766     6.4517     6.4500    84.7972
 2920.0000     0.1151     2.5680     0.0488     0.2310   114.1648     8.5421   -11.8322     6.5191     6.4905     6.6684    84.1981
 2920.5000     0.1087     2.5679     0.0485     0.2343   108.7483     8.5568   -11.3847     6.5158     6.4878     6.8543    83.5779
 2921.0000     0.0991     2.5686     0.0473     0.2370   100.3243     8.5563   -11.0866     6.4680     6.4396     7.0948    83.0532
 2921.5000     0.0785     2.5723     0.0434     0.2401    99.1183     8.5710   -10.9394     6.3757     6.3481     7.3436    82.4715
 2922.0000     0.0889     2.5850     0.0407     0.2392   103.0251     8.5704   -10.9431     6.1526     6.2579     7.4445    82.1778
 2922.5000     0.1265     2.5774     0.0492     0.2316   110.5409     8.5700   -10.7958     5.9786     6.0416     7.1356    82.7496
 2923.0000     0.1204     2.5607     0.0558     0.2268   115.9515     8.5545   -10.7994     5.7776     5.8329     6.6985    84.2231
 2923.5000     0.1127     2.5485     0.0643     0.2293   123.4673     8.5390   -10.9525     5.6956     5.7500     6.0726    87.5403
 2924.0000     0.1262     2.5356     0.0698     0.2413   132.4869     8.5235   -11.1056     5.6933     5.7476     5.1701    88.1469
 2924.5000     0.1064     2.5340     0.0695     0.2438   134.2892     8.5080   -11.2587     5.8108     5.8663     4.8534    87.0203
 2925.0000     0.1124     2.5415     0.0604     0.2341   126.1652     8.4925   -11.5619     6.0556     6.0713     5.1658    84.9140
 2925.5000     0.1439     2.5633     0.0507     0.2220   112.3276     8.4920   -11.8652     6.5337     6.6427     6.4106    80.2455
 2926.0000     0.1242     2.5873     0.0389     0.1945   102.3998     8.4916   -12.1684     6.9523     7.1180     8.1236    78.5160
 2926.5000     0.0894     2.5842     0.0399     0.1899    99.9908     8.4910   -12.3216     7.2452     7.2650     8.3509    78.2927
 2927.0000     0.0832     2.5750     0.0467     0.1918   100.2886     8.4906   -12.7750     7.2935     7.2620     7.8934    79.0510
 2927.5000     0.0861     2.5712     0.0478     0.1963   102.6917     8.5053   -13.3785     7.2393     7.2590     7.5667    80.2604
