~VERSION INFORMATION
 VERS.                2.0:   CWLS LOG ASCII STANDARD - VERSION 2.0
 WRAP.                 NO:   ONE LINE PER DEPTH STEP
~WELL INFORMATION
#MNEM.UNIT      DATA TYPE    INFORMATION
#----------   ------------   ------------------------------
 STRT.F           28.0000:   START DEPTH
 STOP.F          856.0000:   STOP DEPTH
 STEP.F            0.5000:   STEP LENGTH
 NULL.          -999.2500:   NO VALUE
 COMP. FENIX & SCISSON INC:   COMPANY
 WELL. NPR 3  76 SX #76-27:   WELL
 FLD .             TEAPOT:   FIELD
 LOC .      S27 T39N R78W:   LOCATION
 CNTY.            NATRONA:   COUNTY
 STAT.            WYOMING:   STATE
 CTRY. UNITED STATES OF AMERICA:   COUNTRY
 SRVC.            Unknown:   SERVICE COMPANY
 DATE.        06-SEP-1978:   LOGDATE
 API .       490251069600:   API NUMBER
~CURVE INFORMATION
#MNEM.UNIT       API CODE    CURVE DESCRIPTION
#----------   ------------   ------------------------------
 DEPT.F                  :   
 SPR .MV     05 010 01 00:   SPONTANEOUS POTENTIAL FROM RES.
 SN  .OHMM   05 040 16 00:   SHORT NORMAL 16"
 ILD .OHMM   05 120 46 00:   INDUCTION LOG DEEP
 NPHI.DEC    42 890 03 00:   NEUTRON POROSITY SANDSTONE
 GRD .GAPI   45 310 01 00:   GAMMA RAY FROM DENSITY LOG
 CALD.IN     45 280 60 00:   CALIPER
 RHOB.G/C3   45 350 01 00:   BULK DENSITY
 DPHI.DEC    45 890 12 00:   DENSITY POROSITY SANDSTONE
 CORR.G/C3   45 356 01 00:   DENSITY CORRECTION
~PARAMETER INFORMATION
#MNEM.UNIT          VALUE    DESCRIPTION
#----------   ------------   ------------------------------
 PD  .                 GL:   PERMANENT DATUM
 EPD .F              5062:   ELEVATION PERMANENT DATUM
 LMF .                 KB:   LOG MEASURED FROM
 DAPD.F                 4:   FEET ABOVE PERMANENT DATUM
 DMF .                 KB:   DRILLING MEASURED FROM
 EKB .F              5066:   KELLING BUSHING
 EGL .F              5062:   GROUND LEVEL
 DATE.             9-6-78:   RUN DATE
 RUN .                  1:   RUN NUMBER
 DD  .F               865:   DEPTH DRILLER
 DL  .F               857:   DEPTH LOGGER
 BLI .F               851:   BOTTOM LOG INTERVAL
 TLI .F                40:   TOP LOG INTERVAL
 CS  .IN            8.625:   CASING SIZE
 CBD .F                43:   CASING BOTTOM DRILLER
 CBL .F                43:   CASING BOTTOM LOGGER
 BS  .IN            7.875:   BIT SIZE
 BSD .F               865:   BIT SIZE AT DEPTH
 DFT .                KCL:   DRILLING FLUID TYPE
 DFD .                8.4:   DRILLING FLUID DENSITY
 DFV .                 40:   DRILLING FLUID VISCOSITY
 DFPH.                  9:   DRILLING FLUID PH
 DFL .                  6:   DRILLING FLUID LOSS
 MSS .           FLOWLINE:   MUD SAMPLE SOURCE
 RMS .OHMM            .14:   RESISTIVITY MUD SAMPLE
 MST .F                84:   MUD SAMPLE TEMPERATURE
 RMF .OHMM             .1:   RESISTIVITY MUD FILTRATE SAMPLE
 MFST.F                94:   MUD FILTRATE SAMPLE TEMPERATURE
 RMC .OHMM            .18:   RESISTIVITY MUD CAKE
 MCST.F                92:   MUD CAKE SAMPLE TEMPERATURE
 MFSS.               MEAS:   MUD FILTRATE SAMPLE SOURCE
 MCSS.               MEAS:   MUD CAKE SAMPLE SOURCE
 RMB .OHMM           .145:   RESISTIVITY MUD AT BHT
 BHT .F                82:   BOTTOM HOLE TEMPERATURE
 TCS .HRS               3:   TIME CURCULATED STOPPED
 MRT .F                82:   MAXIMUM RECORDED TEMPERATURE
 LUN .               2958:   LOGGING UNIT NUMBER
 LUL .               CASP:   LOGGING UNIT LOCATION
 ENGI.           REYNOLDS:   RECORDING ENGINEER
 WITN.           MCGINLEY:   WITNESSED BY
 CLNT.            A2DTECH:   CLIENT CODE
 ORIG.           5" PRINT:   ORIGIN OF DATA
 UWI .       490251069600:   UNIQUE WELL ID
 DICO. A2D Technologies, Inc.:   DIGITIZING COMPANY
~OTHER INFORMATION
~A   DEPT      SPR         SN        ILD       NPHI         GRD      CALD       RHOB       DPHI       CORR   
# ...
  174.0000   -80.4040     6.8160     6.0718  -999.2500    78.3459     7.5343     2.4118     0.1520     0.0687
  174.5000   -80.2215     6.8359     6.0618  -999.2500    77.8696     7.5666     2.4111     0.1528     0.0588
  175.0000   -80.0395     6.8559     6.0519  -999.2500    77.3993     7.6129     2.4346     0.1532     0.0500
  175.5000   -79.8570     6.8759     6.0420  -999.2500    78.3362     7.6192     2.4314     0.1510     0.0412
  176.0000   -79.6754     6.8959     6.0321  -999.2500    79.8614     7.6274     2.4306     0.1504     0.0324
  176.5000   -79.5374     6.9161     6.0222  -999.2500    80.7758     7.6359     2.4328     0.1538     0.0237
  177.0000   -79.5168     6.9362     6.0124  -999.2500    79.9476     7.6444     2.4306     0.1548     0.0149
  177.5000   -79.4948     6.9565     6.0025  -999.2500    78.7067     7.6529     2.4283     0.1454     0.0135
  178.0000   -79.4727     6.9767     5.9927  -999.2500    78.0473     7.6614     2.4318     0.1384     0.0176
  178.5000   -79.4506     6.9971     5.9858  -999.2500    80.9741     7.6699     2.4430     0.1314     0.0192
  179.0000   -79.4285     7.0175     6.0193  -999.2500    83.7710     7.6784     2.4540     0.1287     0.0210
  179.5000   -79.4064     7.0380     6.0568  -999.2500    84.1918     7.6869     2.4634     0.1298     0.0184
  180.0000   -79.3842     7.0585     6.0944  -999.2500    78.2342     7.6954     2.4688     0.1320     0.0142
  180.5000   -79.3621     7.0791     6.1323  -999.2500    73.8004     7.7039     2.4685     0.1374     0.0126
  181.0000   -79.3400     7.0997     6.1705  -999.2500    71.4183     7.7124     2.4641     0.1428     0.0109
  181.5000   -79.3179     7.1204     6.2088  -999.2500    76.3684     7.7209     2.4582     0.1472     0.0092
  182.0000   -79.2958     7.1412     6.2474  -999.2500    80.5412     7.7294     2.4504     0.1479     0.0092
  182.5000   -79.2737     7.1620     6.2726  -999.2500    79.4535     7.7379     2.4427     0.1476     0.0096
  183.0000   -79.2515     7.1829     6.2918  -999.2500    78.8781     7.7464     2.4404     0.1456     0.0100
  183.5000   -79.2294     7.2039     6.3110  -999.2500    79.1986     7.7550     2.4438     0.1423     0.0103
  184.0000   -79.2073     7.2249     6.3304  -999.2500    79.5015     7.7635     2.4472     0.1390     0.0107
  184.5000   -79.1852     7.2460     6.3498  -999.2500    79.8091     7.7686     2.4507     0.1366     0.0110
  185.0000   -79.1633     7.2671     6.3692  -999.2500    83.0423     7.7572     2.4541     0.1346     0.0102
  185.5000   -79.1551     7.2883     6.3829  -999.2500    84.0194     7.7460     2.4576     0.1333     0.0087
  186.0000   -79.1677     7.3096     6.3828  -999.2500    84.5291     7.7350     2.4609     0.1384     0.0072
  186.5000   -79.1799     7.3226     6.3829  -999.2500    84.9534     7.7238     2.4620     0.1455     0.0057
  187.0000   -79.1922     7.3002     6.3828  -999.2500    82.6070     7.7127     2.4511     0.1532     0.0042
  187.5000   -79.2046     7.2817     6.3828  -999.2500    78.9968     7.7017     2.4404     0.1507     0.0031
  188.0000   -79.2169     7.2631     6.3828  -999.2500    78.3094     7.6905     2.4297     0.1465     0.0041
  188.5000   -79.2291     7.2446     6.3829  -999.2500    78.9064     7.6794     2.4284     0.1424     0.0050
  189.0000   -79.2414     7.2262     6.3828  -999.2500    79.2751     7.6683     2.4371     0.1454     0.0060
  189.5000   -79.2538     7.2078     6.3829  -999.2500    78.8080     7.6573     2.4456     0.1468     0.0069
  190.0000   -79.2661     7.1895     6.3702  -999.2500    78.3626     7.6556     2.4444     0.1457     0.0079
  190.5000   -79.2784     7.1712     6.3448  -999.2500    77.9025     7.6721     2.4417     0.1419     0.0088
  191.0000   -79.2907     7.1529     6.3196  -999.2500    77.6655     7.6879     2.4424     0.1384     0.0097
  191.5000   -79.3030     7.1347     6.2945  -999.2500    77.4871     7.7036     2.4483     0.1414     0.0107
  192.0000   -79.3152     7.0974     6.2695  -999.2500    77.3169     7.7194     2.4543     0.1458     0.0110
  192.5000   -79.3274     7.0413     6.1589  -999.2500    77.3933     7.7352     2.4504     0.1496     0.0110
  193.0000   -79.3405     6.9856     6.0410  -999.2500    77.9926     7.7510     2.4421     0.1447     0.0110
  193.5000   -79.4043     6.9304     5.9255  -999.2500    78.5906     7.7673     2.4359     0.1380     0.0105
  194.0000   -79.5698     6.8756     5.8121  -999.2500    79.0858     7.7660     2.4458     0.1341     0.0098
  194.5000   -79.7338     6.8212     5.7010  -999.2500    77.0968     7.7606     2.4555     0.1365     0.0092
  195.0000   -79.8979     6.7673     5.5919  -999.2500    77.3943     7.7550     2.4592     0.1390     0.0086
  195.5000   -80.0619     6.7137     5.4849  -999.2500    77.8151     7.7494     2.4522     0.1415     0.0079
  196.0000   -80.2260     6.6606     5.4045  -999.2500    78.2318     7.7439     2.4468     0.1466     0.0073
  196.5000   -80.3900     6.6080     5.3373  -999.2500    78.2857     7.7383     2.4476     0.1482     0.0066
  197.0000   -80.5540     6.5609     5.2710  -999.2500    78.0599     7.7328     2.4435     0.1472     0.0060
  197.5000   -80.7181     6.5183     5.2644  -999.2500    77.8567     7.7273     2.4394     0.1489     0.0053
  198.0000   -80.8817     6.4713     5.2644  -999.2500    76.6427     7.7217     2.4384     0.1504     0.0050
  198.5000   -81.0462     6.4246     5.2644  -999.2500    75.2916     7.7162     2.4380     0.1461     0.0050
  199.0000   -81.1430     6.3782     5.1963  -999.2500    73.9357     7.7106     2.4394     0.1455     0.0052
  199.5000   -81.1798     6.3322     5.1215  -999.2500    72.9770     7.7051     2.4429     0.1470     0.0059
  200.0000   -81.2152     6.2865     5.0478  -999.2500    73.6269     7.6995     2.4438     0.1480     0.0067
  200.5000   -81.2505     6.2411     4.9812  -999.2500    74.7231     7.6940     2.4418     0.1457     0.0075
  201.0000   -81.2864     6.2096     4.9685  -999.2500    75.8338     7.6884     2.4399     0.1448     0.0082
  201.5000   -81.3217     6.2598     4.9559  -999.2500    76.6133     7.6829     2.4433     0.1460     0.0090
  202.0000   -81.2471     6.3160     4.9381  -999.2500    74.7337     7.6774     2.4462     0.1472     0.0097
  202.5000   -81.1617     6.3728     4.9983  -999.2500    72.8662     7.6716     2.4433     0.1421     0.0105
  203.0000   -81.0765     6.4301     5.0513  -999.2500    71.1735     7.6626     2.4451     0.1403     0.0112
  203.5000   -80.9914     6.4879     5.1052  -999.2500    71.2587     7.6531     2.4469     0.1449     0.0120
  204.0000   -80.9062     6.5463     5.1596  -999.2500    72.2193     7.6437     2.4471     0.1455     0.0130
  204.5000   -80.8204     6.6051     5.2145  -999.2500    74.1121     7.6342     2.4462     0.1469     0.0110
  205.0000   -80.7358     6.6791     5.2644  -999.2500    77.0781     7.6247     2.4418     0.1533     0.0097
  205.5000   -80.7852     6.6575     5.2644  -999.2500    79.7588     7.6152     2.4349     0.1572     0.0107
  206.0000   -80.8442     6.6215     5.2644  -999.2500    80.4750     7.6058     2.4279     0.1608     0.0118
  206.5000   -80.9028     6.5859     5.2644  -999.2500    81.1566     7.5962     2.4209     0.1609     0.0130
  207.0000   -80.9612     6.5384     5.2575  -999.2500    80.5102     7.5905     2.4158     0.1611     0.0185
  207.5000   -81.0197     6.4639     5.1891  -999.2500    79.0910     7.5793     2.4150     0.1614     0.0242
  208.0000   -81.0779     6.3902     5.1215  -999.2500    77.6656     7.5682     2.4154     0.1616     0.0298
  208.5000   -81.1280     6.3173     5.0414  -999.2500    76.5205     7.5573     2.4159     0.1594     0.0354
  209.0000   -81.1346     6.2453     4.9321  -999.2500    76.4681     7.5298     2.4197     0.1565     0.0365
  209.5000   -81.1428     6.1741     4.8250  -999.2500    78.4226     7.4924     2.4235     0.1566     0.0288
  210.0000   -81.1510     6.1036     4.7203  -999.2500    78.3430     7.4547     2.4248     0.1581     0.0208
