~VERSION INFORMATION
 VERS.                2.0:   CWLS LOG ASCII STANDARD - VERSION 2.0
 WRAP.                 NO:   ONE LINE PER DEPTH STEP
~WELL INFORMATION
#MNEM.UNIT      DATA TYPE    INFORMATION
#----------   ------------   ------------------------------
 STRT.F           16.0000:   START DEPTH
 STOP.F          484.5000:   STOP DEPTH
 STEP.F            0.5000:   STEP LENGTH
 NULL.          -999.2500:   NO VALUE
 COMP. FENIX & SCISSON INC:   COMPANY
 WELL. NPR 3 #83 SX 10-10:   WELL
 FLD .             TEAPOT:   FIELD
 LOC .      S10 T38N R78W:   LOCATION
 CNTY.            NATRONA:   COUNTY
 STAT.            WYOMING:   STATE
 CTRY. UNITED STATES OF AMERICA:   COUNTRY
 SRVC.           BIRDWELL:   SERVICE COMPANY
 DATE.        25-NOV-1978:   LOGDATE
 API .       490251075200:   API NUMBER
~CURVE INFORMATION
#MNEM.UNIT       API CODE    CURVE DESCRIPTION
#----------   ------------   ------------------------------
 DEPT.F                  :   
 SPR .MV     05 010 01 00:   SPONTANEOUS POTENTIAL FROM RES.
 SN  .OHMM   05 040 16 00:   SHORT NORMAL 16"
 IL  .OHMM   05 120 00 00:   INDUCTION LOG
 CALD.IN     45 280 60 00:   CALIPER
 GRD .GAPI   45 310 01 00:   GAMMA RAY FROM DENSITY LOG
 CORR.G/C3   45 356 01 00:   DENSITY CORRECTION
 DPHI.DEC    45 890 12 00:   DENSITY POROSITY SANDSTONE
 RHOB.G/C3   45 350 01 00:   BULK DENSITY
~PARAMETER INFORMATION
#MNEM.UNIT          VALUE    DESCRIPTION
#----------   ------------   ------------------------------
 PD  .                 GL:   PERMANENT DATUM
 EPD .F              5145:   ELEVATION PERMANENT DATUM
 LMF .                 KB:   LOG MEASURED FROM
 DAPD.F                 4:   FEET ABOVE PERMANENT DATUM
 DMF .                 KB:   DRILLING MEASURED FROM
 EKB .F              5149:   KELLING BUSHING
 EGL .F              5145:   GROUND LEVEL
 DATE.           11-25-78:   RUN DATE
 RUN .                  1:   RUN NUMBER
 DD  .F               490:   DEPTH DRILLER
 DL  .F               487:   DEPTH LOGGER
 BLI .F               481:   BOTTOM LOG INTERVAL
 TLI .F                30:   TOP LOG INTERVAL
 CS  .IN            8.625:   CASING SIZE
 CBD .F                40:   CASING BOTTOM DRILLER
 CBL .F                35:   CASING BOTTOM LOGGER
 BS  .IN            7.875:   BIT SIZE
 BSD .F               490:   BIT SIZE AT DEPTH
 DFT .             SEAMUD:   DRILLING FLUID TYPE
 DFD .                8.8:   DRILLING FLUID DENSITY
 DFV .                 38:   DRILLING FLUID VISCOSITY
 DFPH.               11.1:   DRILLING FLUID PH
 DFL .                9.6:   DRILLING FLUID LOSS
 MSS .           FLOWLINE:   MUD SAMPLE SOURCE
 RMS .OHMM            .28:   RESISTIVITY MUD SAMPLE
 MST .F                58:   MUD SAMPLE TEMPERATURE
 RMF .OHMM            .25:   RESISTIVITY MUD FILTRATE SAMPLE
 MFST.F                70:   MUD FILTRATE SAMPLE TEMPERATURE
 RMC .OHMM             .3:   RESISTIVITY MUD CAKE
 MCST.F                70:   MUD CAKE SAMPLE TEMPERATURE
 MFSS.           MEASURED:   MUD FILTRATE SAMPLE SOURCE
 MCSS.           MEASURED:   MUD CAKE SAMPLE SOURCE
 BHT .F                58:   BOTTOM HOLE TEMPERATURE
 TCS .HRS               3:   TIME CURCULATED STOPPED
 MRT .F                58:   MAXIMUM RECORDED TEMPERATURE
 LUN .               3029:   LOGGING UNIT NUMBER
 LUL .               CASP:   LOGGING UNIT LOCATION
 ENGI.           REYNOLDS:   RECORDING ENGINEER
 WITN.           DINSMORE:   WITNESSED BY
 CLNT.            A2DTECH:   CLIENT CODE
 ORIG.     1", 2.5" PRINT:   ORIGIN OF DATA
 UWI .       490251075200:   UNIQUE WELL ID
 DICO. A2D Technologies, Inc.:   DIGITIZING COMPANY
~OTHER INFORMATION
~A   DEPT      SPR         SN         IL       CALD         GRD      CORR       DPHI       RHOB   
   16.0000  -999.2500  -999.2500  -999.2500  -999.2500    75.2020  -999.2500  -999.2500  -999.2500
   16.5000  -999.2500  -999.2500  -999.2500  -999.2500    75.2020  -999.2500  -999.2500  -999.2500
   17.0000  -999.2500  -999.2500  -999.2500  -999.2500    73.1850  -999.2500  -999.2500  -999.2500
   17.5000  -999.2500  -999.2500  -999.2500  -999.2500    73.8910  -999.2500  -999.2500  -999.2500
   18.0000  -999.2500  -999.2500  -999.2500  -999.2500    73.2860  -999.2500  -999.2500  -999.2500
   18.5000  -999.2500  -999.2500  -999.2500  -999.2500    73.5890  -999.2500  -999.2500  -999.2500
   19.0000  -999.2500  -999.2500  -999.2500  -999.2500    74.2940  -999.2500  -999.2500  -999.2500
   19.5000  -999.2500  -999.2500  -999.2500  -999.2500    74.7020  -999.2500  -999.2500  -999.2500
   20.0000  -999.2500  -999.2500  -999.2500  -999.2500    75.7260  -999.2500  -999.2500  -999.2500
   20.5000  -999.2500  -999.2500  -999.2500  -999.2500    73.2840  -999.2500  -999.2500  -999.2500
   21.0000  -999.2500  -999.2500  -999.2500  -999.2500    69.1480  -999.2500  -999.2500  -999.2500
   21.5000  -999.2500  -999.2500  -999.2500  -999.2500    69.5710  -999.2500  -999.2500  -999.2500
   22.0000  -999.2500  -999.2500  -999.2500  -999.2500    70.4690  -999.2500  -999.2500  -999.2500
   22.5000  -999.2500  -999.2500  -999.2500  -999.2500    73.3300  -999.2500  -999.2500  -999.2500
   23.0000  -999.2500  -999.2500  -999.2500  -999.2500    79.7690  -999.2500  -999.2500  -999.2500
   23.5000  -999.2500  -999.2500  -999.2500  -999.2500    83.2050  -999.2500  -999.2500  -999.2500
   24.0000  -999.2500  -999.2500  -999.2500  -999.2500    82.9820  -999.2500  -999.2500  -999.2500
   24.5000  -999.2500  -999.2500  -999.2500  -999.2500    83.9540  -999.2500  -999.2500  -999.2500
   25.0000  -999.2500  -999.2500  -999.2500  -999.2500    85.0530  -999.2500  -999.2500  -999.2500
   25.5000  -999.2500  -999.2500  -999.2500  -999.2500    81.5450  -999.2500  -999.2500  -999.2500
   26.0000  -999.2500  -999.2500  -999.2500  -999.2500    76.6700  -999.2500  -999.2500  -999.2500
   26.5000  -999.2500  -999.2500  -999.2500  -999.2500    71.4660  -999.2500  -999.2500  -999.2500
   27.0000  -999.2500  -999.2500  -999.2500  -999.2500    67.3470  -999.2500  -999.2500  -999.2500
   27.5000  -999.2500  -999.2500  -999.2500  -999.2500    64.0660  -999.2500  -999.2500  -999.2500
   28.0000  -999.2500  -999.2500  -999.2500  -999.2500    63.7660  -999.2500  -999.2500  -999.2500
   28.5000  -999.2500  -999.2500  -999.2500  -999.2500    62.7230  -999.2500  -999.2500  -999.2500
   29.0000  -999.2500  -999.2500  -999.2500  -999.2500    61.0510  -999.2500  -999.2500  -999.2500
   29.5000  -999.2500  -999.2500  -999.2500  -999.2500    58.6780  -999.2500  -999.2500  -999.2500
   30.0000  -999.2500  -999.2500  -999.2500  -999.2500    60.5760  -999.2500  -999.2500  -999.2500
   30.5000  -999.2500  -999.2500  -999.2500  -999.2500    64.0910  -999.2500  -999.2500  -999.2500
   31.0000  -999.2500  -999.2500  -999.2500  -999.2500    65.7690  -999.2500  -999.2500  -999.2500
   31.5000  -999.2500  -999.2500  -999.2500  -999.2500    69.2750  -999.2500  -999.2500  -999.2500
   32.0000  -999.2500  -999.2500  -999.2500  -999.2500    74.1290  -999.2500  -999.2500  -999.2500
   32.5000  -999.2500  -999.2500  -999.2500  -999.2500    76.0400  -999.2500  -999.2500  -999.2500
   33.0000  -999.2500  -999.2500  -999.2500  -999.2500    74.1480  -999.2500  -999.2500  -999.2500
   33.5000  -999.2500  -999.2500  -999.2500  -999.2500    72.8650  -999.2500  -999.2500  -999.2500
   34.0000    -5.6780  -999.2500  -999.2500  -999.2500    71.1420  -999.2500  -999.2500  -999.2500
   34.5000    -9.4380  -999.2500  -999.2500  -999.2500    70.0090  -999.2500  -999.2500  -999.2500
   35.0000    -9.8850  -999.2500  -999.2500     8.9400    66.6760  -999.2500  -999.2500  -999.2500
   35.5000   -10.3770  -999.2500  -999.2500     9.2660    61.7960  -999.2500  -999.2500  -999.2500
   36.0000   -10.8680     3.0380     2.0380     9.6650    58.6550  -999.2500     0.2560     2.2610
   36.5000   -11.3600     3.1250     2.2520     9.2480    60.7230  -999.2500     0.2410     2.2840
   37.0000   -11.8470     3.2110     2.3730     8.7380    62.8850  -999.2500     0.2740     2.2180
   37.5000   -12.6630     3.5710     2.4930     8.7110    67.0650     0.2090     0.3000     2.1760
   38.0000   -14.3870     3.9270     2.6140     8.6800    76.0980     0.1610     0.3000     2.1420
   38.5000   -16.1200     4.2830     2.9010     8.6420    90.6380     0.1250     0.3000     2.1320
   39.0000   -16.2940     4.6390     3.3180     8.6490   101.0120     0.0880     0.3000     2.1690
   39.5000   -15.5730     4.6270     3.5260     8.4790   108.3730     0.0520     0.3000     2.1650
   40.0000   -16.9180     5.1740     3.9430     8.1200   106.5050     0.0360     0.3000     2.2120
   40.5000   -18.2970     5.5300     4.3590     7.7980   104.5450     0.0450     0.2770     2.2370
   41.0000   -19.7380     5.8860     4.7760     7.7940   101.4370     0.0480     0.2540     2.2630
   41.5000   -21.1290     6.2420     5.1930     7.8150   102.3450     0.0560     0.2350     2.2900
   42.0000   -22.5540     6.5980     5.6100     7.8430   104.7560     0.0520     0.2230     2.3130
   42.5000   -23.9590     6.9540     6.0260     7.8620   106.9860     0.0490     0.2130     2.3300
   43.0000   -25.3740     7.2730     6.4430     7.8890   109.6010     0.0440     0.2030     2.3480
   43.5000   -26.7880     7.5530     6.7920     7.8740   109.4900     0.0410     0.1910     2.3670
   44.0000   -28.1680     7.8330     6.9510     7.8510   109.0000     0.0370     0.1900     2.3780
   44.5000   -29.2430     8.1130     7.1100     7.8280   108.2530     0.0380     0.1880     2.3790
   45.0000   -30.1230     8.5910     7.2700     7.8060   108.8440     0.0420     0.1830     2.3790
   45.5000   -30.9820     9.3580     7.2230     7.7830   111.6790     0.0450     0.1770     2.3910
   46.0000   -31.8430    10.1550     7.1770     7.7620   113.1970     0.0480     0.1720     2.4060
   46.5000   -32.7010    10.2170     7.1310     7.7380   111.4860     0.0520     0.1670     2.4100
   47.0000   -33.5790    10.2820     7.0840     7.7290   109.7030     0.0490     0.1660     2.4140
   47.5000   -34.2870    10.3470     7.0050     7.7300   109.5540     0.0460     0.1650     2.4150
   48.0000   -34.4490    10.4120     7.0310     7.7300   109.8470     0.0410     0.1640     2.4150
   48.5000   -34.6650    10.4770     7.1250     7.7300   109.1940     0.0350     0.1640     2.4150
   49.0000   -34.8380    10.5420     7.2180     7.7300   107.1960     0.0310     0.1630     2.4160
   49.5000   -35.0340    10.6070     7.3110     7.7300   105.3350     0.0300     0.1560     2.4250
   50.0000   -35.2170    10.6710     7.4050     7.7300   104.0770     0.0280     0.1490     2.4330
   50.5000   -35.4080    10.7370     7.4980     7.7300   106.0720     0.0270     0.1450     2.4420
   51.0000   -35.5920    10.6090     7.5920     7.7300   107.7740     0.0250     0.1440     2.4490
   51.5000   -35.7860    10.3940     7.6860     7.7300   109.6660     0.0230     0.1450     2.4490
   52.0000   -35.9380    10.1800     7.6420     7.7300   111.4200     0.0190     0.1480     2.4440
   52.5000   -36.0960     9.9650     7.5960     7.7300   113.2560     0.0160     0.1530     2.4340
   53.0000   -36.3220     9.7500     7.5510     7.7300   115.1140     0.0120     0.1590     2.4240
   53.5000   -36.5350     9.5350     7.5060     7.7300   116.5250     0.0090     0.1650     2.4150
   54.0000   -36.7540     9.3210     7.4610     7.7300   116.6400     0.0080     0.1680     2.4080
   54.5000   -36.9700     9.1060     7.4160     7.7300   114.3470     0.0080     0.1660     2.4140
   55.0000   -37.1870     8.8910     7.3710     7.7300   109.8500     0.0080     0.1630     2.4180
   55.5000   -37.4040     8.7360     7.3260     7.7300   107.1450     0.0080     0.1670     2.4120
   56.0000   -37.6210     8.6890     7.2810     7.7300   108.9240     0.0180     0.1710     2.4040
