~VERSION INFORMATION
 VERS.                2.0:   CWLS LOG ASCII STANDARD - VERSION 2.0
 WRAP.                 NO:   ONE LINE PER DEPTH STEP
~WELL INFORMATION
#MNEM.UNIT      DATA TYPE    INFORMATION
#----------   ------------   ------------------------------
 STRT.F           10.0000:   START DEPTH
 STOP.F          580.0000:   STOP DEPTH
 STEP.F            0.5000:   STEP LENGTH
 NULL.          -999.2500:   NO VALUE
 COMP. FENIX & SCISSON INC:   COMPANY
 WELL.     NPR 3 #28-S-34:   WELL
 FLD .        TEAPOT DOME:   FIELD
 LOC .      S34 T39N R78W:   LOCATION
 CNTY.            NATRONA:   COUNTY
 STAT.            WYOMING:   STATE
 CTRY. UNITED STATES OF AMERICA:   COUNTRY
 SRVC.           BIRDWELL:   SERVICE COMPANY
 DATE.        05-AUG-1978:   LOGDATE
 API .       490251068200:   API NUMBER
~CURVE INFORMATION
#MNEM.UNIT       API CODE    CURVE DESCRIPTION
#----------   ------------   ------------------------------
 DEPT.F                  :   
 SPR .MV     05 010 01 00:   SPONTANEOUS POTENTIAL FROM RES.
 IL  .OHMM   05 120 00 00:   INDUCTION LOG
 SN  .OHMM   05 040 16 00:   SHORT NORMAL 16"
 GRD .GAPI   45 310 01 00:   GAMMA RAY FROM DENSITY LOG
 CALD.IN     45 280 60 00:   CALIPER
 RHOB.G/C3   45 350 01 00:   BULK DENSITY
 DPHI.DEC    45 890 12 00:   DENSITY POROSITY SANDSTONE
 CORR.G/C3   45 356 01 00:   DENSITY CORRECTION
~PARAMETER INFORMATION
#MNEM.UNIT          VALUE    DESCRIPTION
#----------   ------------   ------------------------------
 PD  .                 GL:   PERMANENT DATUM
 EPD .F              5191:   ELEVATION PERMANENT DATUM
 LMF .                 KB:   LOG MEASURED FROM
 DAPD.F                 4:   FEET ABOVE PERMANENT DATUM
 DMF .                 KB:   DRILLING MEASURED FROM
 EKB .F              5195:   KELLING BUSHING
 EGL .F              5191:   GROUND LEVEL
 DATE.             8-5-78:   RUN DATE
 RUN .                  1:   RUN NUMBER
 DD  .F               570:   DEPTH DRILLER
 DL  .F               586:   DEPTH LOGGER
 BLI .F               580:   BOTTOM LOG INTERVAL
 TLI .F                30:   TOP LOG INTERVAL
 CS  .IN            8.625:   CASING SIZE
 BS  .IN            7.875:   BIT SIZE
 BSD .F               570:   BIT SIZE AT DEPTH
 DFT .                KCL:   DRILLING FLUID TYPE
 DFD .                8.6:   DRILLING FLUID DENSITY
 DFV .                 32:   DRILLING FLUID VISCOSITY
 DFPH.                9.5:   DRILLING FLUID PH
 MSS .          FLOW LINE:   MUD SAMPLE SOURCE
 RMS .OHMM             .9:   RESISTIVITY MUD SAMPLE
 MST .F                74:   MUD SAMPLE TEMPERATURE
 RMF .OHMM            .17:   RESISTIVITY MUD FILTRATE SAMPLE
 MFST.F                79:   MUD FILTRATE SAMPLE TEMPERATURE
 RMC .OHMM            .42:   RESISTIVITY MUD CAKE
 MCST.F                80:   MUD CAKE SAMPLE TEMPERATURE
 MFSS.               MEAS:   MUD FILTRATE SAMPLE SOURCE
 TCS .HRS               3:   TIME CURCULATED STOPPED
 LUN .               3006:   LOGGING UNIT NUMBER
 LUL .               CASP:   LOGGING UNIT LOCATION
 ENGI.             MILLER:   RECORDING ENGINEER
 WITN.           MCGINLEY:   WITNESSED BY
 CLNT.            A2DTECH:   CLIENT CODE
 ORIG.           5" PRINT:   ORIGIN OF DATA
 UWI .       490251068200:   UNIQUE WELL ID
 DICO. A2D Technologies, Inc.:   DIGITIZING COMPANY
~OTHER INFORMATION
~A   DEPT      SPR         IL         SN         GRD      CALD       RHOB       DPHI       CORR   
# ...
  415.0000    -2.7950    10.7470     8.7440    61.4930     7.3370     2.3200     0.2040    -0.0100
  415.5000    -1.6850    11.3350     9.0270    56.0580     7.2910     2.3220     0.2110    -0.0050
  416.0000    -1.3930    11.9240     9.3100    57.1660     7.2340     2.3140     0.2170     0.0000
  416.5000    -1.2550    12.5120     9.5930    63.1140     7.1820     2.2990     0.2230     0.0040
  417.0000    -1.1200    13.1010     9.8320    69.3920     7.2750     2.2840     0.2270     0.0070
  417.5000    -0.9860    13.9840     9.9250    65.7540     7.3950     2.2710     0.2270     0.0130
  418.0000    -0.8510    13.6410    10.0190    60.9360     7.4400     2.2790     0.2200     0.0250
  418.5000    -0.7170    13.5740    10.1120    56.1120     7.4260     2.3010     0.2080     0.0350
  419.0000    -0.5830    13.5070    10.2060    51.2660     7.4570     2.3220     0.1930     0.0330
  419.5000    -0.4490    13.4400    10.2990    50.0860     7.4970     2.3440     0.1770     0.0240
  420.0000    -0.3150    13.3730    10.3930    50.4320     7.5100     2.3650     0.1690     0.0150
  420.5000    -0.1810    13.3060    10.4610    51.1140     7.5180     2.3840     0.1670     0.0060
  421.0000    -0.0470    13.2400    10.4420    54.6930     7.5250     2.3870     0.1670    -0.0010
  421.5000     0.0860    13.1730    10.4240    60.1900     7.5240     2.3900     0.1670     0.0010
  422.0000     0.2190    13.1640    10.4050    63.0420     7.5190     2.3930     0.1710     0.0030
  422.5000     0.2850    13.3230    10.3870    63.5700     7.5140     2.3800     0.1830     0.0010
  423.0000     0.2490    13.4480    10.3680    63.4170     7.5090     2.3570     0.1950    -0.0050
  423.5000     0.2140    13.5730    10.3500    62.3140     7.5050     2.3350     0.2070    -0.0110
  424.0000     0.1780    13.6980    10.3320    60.0010     7.5050     2.3120     0.2180    -0.0130
  424.5000     0.1430    13.8230    10.3130    57.6710     7.4710     2.2900     0.2270    -0.0050
  425.0000     0.1070    13.9110    10.2950    55.3340     7.4150     2.2760     0.2260     0.0030
  425.5000     0.1140    13.8840    10.2710    52.1700     7.3600     2.2780     0.2300    -0.0060
  426.0000     0.1480    13.8460    10.2780    53.3710     7.3040     2.2600     0.2390    -0.0120
  426.5000     0.1830    13.8080    10.2870    55.0720     7.2490     2.2540     0.2400    -0.0090
  427.0000     0.2170    13.7700    10.2970    53.7160     7.1920     2.2520     0.2400    -0.0060
  427.5000     0.2510    13.7320    10.3070    51.8150     7.1290     2.2490     0.2370    -0.0030
  428.0000     0.2860    13.6940    10.3170    53.4100     7.0980     2.2580     0.2340    -0.0020
  428.5000     0.3200    13.6560    10.3260    57.2420     7.3670     2.2660     0.2320    -0.0060
  429.0000     0.3550    13.6180    10.3360    60.9300     7.1430     2.2670     0.2330    -0.0100
  429.5000     0.3890    13.5800    10.3460    59.2980     7.3340     2.2590     0.2420    -0.0140
  430.0000     0.4220    13.5420    10.3560    55.0870     7.2890     2.2320     0.2490     0.0060
  430.5000     0.4550    13.5220    10.3690    50.8970     7.2320     2.2320     0.2330     0.0210
  431.0000     0.4880    13.5080    10.3660    48.6560     7.1840     2.2670     0.2230     0.0080
  431.5000     0.2550    13.4940    10.6470    50.9120     7.2560     2.2840     0.2230    -0.0050
  432.0000    -0.4160    13.4800    10.8560    53.7790     7.3670     2.2830     0.2250    -0.0070
  432.5000    -1.0800    13.4660    11.1570    56.6790     7.4770     2.2670     0.2320    -0.0090
  433.0000    -1.7430    13.4520    11.1270    59.5990     7.5820     2.2510     0.2390    -0.0110
  433.5000    -2.4110    13.4390    11.0740    62.3800     7.5920     2.2490     0.2460    -0.0140
  434.0000    -2.6380    13.4250    11.0200    62.6960     7.5980     2.2410     0.2520    -0.0140
  434.5000    -2.5400    13.4110    10.9670    56.2820     7.6030     2.2290     0.2520    -0.0080
  435.0000    -2.4430    13.3970    10.9140    54.2530     7.6400     2.2290     0.2340    -0.0020
  435.5000    -2.3440    13.3830    10.8610    54.5010     7.6810     2.2600     0.2080     0.0030
  436.0000    -2.2440    13.3690    10.8080    62.0840     7.7220     2.3090     0.1810     0.0000
  436.5000    -2.1450    13.3550    10.7540    68.3360     7.7640     2.3590     0.1710    -0.0020
  437.0000    -2.0460    13.3410    10.7620    66.1650     7.8050     2.3790     0.1700    -0.0050
  437.5000    -1.9480    13.3270    10.7700    63.8350     7.8430     2.3830     0.1700    -0.0080
  438.0000    -1.9690    13.3140    10.7780    63.3530     7.8450     2.3830     0.1760    -0.0100
  438.5000    -2.4160    13.2990    10.7860    68.2100     7.8400     2.3650     0.1860    -0.0130
  439.0000    -2.8650    13.2860    10.7940    73.3060     7.8350     2.3410     0.1950    -0.0160
  439.5000    -3.3080    13.3970    10.8020    73.3810     7.8300     2.3370     0.2020    -0.0170
  440.0000    -3.7110    13.5330    10.8100    68.4290     7.8250     2.3270     0.2030    -0.0120
  440.5000    -3.6360    13.6690    10.8180    64.2630     7.8190     2.3230     0.2020    -0.0070
  441.0000    -3.5640    13.8060    10.8260    61.6490     7.8140     2.3250     0.2010    -0.0020
  441.5000    -3.4950    13.9110    10.8340    62.0790     7.8090     2.3200     0.2040     0.0030
  442.0000    -3.4260    13.9140    10.8420    67.8810     7.8040     2.3160     0.2030     0.0080
  442.5000    -3.3560    13.9280    10.8530    68.1260     7.8020     2.3200     0.1970     0.0110
  443.0000    -3.2870    13.9420    10.8460    64.8440     7.7990     2.3300     0.1920     0.0090
  443.5000    -3.2180    13.9560    10.8340    57.2610     7.7960     2.3400     0.1920     0.0060
  444.0000    -3.1530    13.9700    10.8230    56.1630     7.7930     2.3480     0.1940     0.0040
  444.5000    -3.2060    13.9840    10.8110    59.6690     7.7910     2.3450     0.1940     0.0010
  445.0000    -3.5900    13.9980    10.7990    63.0820     7.7880     2.3410     0.1930    -0.0010
  445.5000    -3.9620    14.0120    10.7880    66.4800     7.7850     2.3370     0.1930    -0.0040
  446.0000    -4.3320    14.0260    10.7760    69.6320     7.8020     2.3340     0.1950    -0.0040
  446.5000    -4.7020    14.0390    10.7650    69.8210     7.8260     2.3340     0.1930     0.0010
  447.0000    -5.0720    13.8690    10.7540    66.6830     7.8510     2.3400     0.1890     0.0060
  447.5000    -5.4400    13.7110    10.6880    63.5890     7.8550     2.3460     0.1870     0.0060
  448.0000    -5.7160    13.5530    10.6280    60.5540     7.8210     2.3520     0.1900     0.0040
  448.5000    -5.9130    13.4080    10.5670    62.8130     7.7880     2.3470     0.1920     0.0010
  449.0000    -6.1070    13.4480    10.5060    65.7130     7.7650     2.3410     0.1930    -0.0010
  449.5000    -6.3010    13.4850    10.4450    67.5430     7.7900     2.3430     0.1880     0.0000
  450.0000    -6.4950    13.5320    10.3840    66.7460     7.8140     2.3490     0.1840     0.0020
  450.5000    -6.6880    13.4570    10.3380    64.6430     7.8380     2.3540     0.1870     0.0030
  451.0000    -6.8810    13.3050    10.2970    62.5070     7.8040     2.3520     0.1890     0.0050
  451.5000    -7.0750    13.1530    10.2570    62.7040     7.7260     2.3500     0.1870     0.0070
  452.0000    -7.2680    13.0020    10.2170    63.0170     7.6480     2.3480     0.1830     0.0070
  452.5000    -7.4620    12.9100    10.1770    63.4890     7.6570     2.3550     0.1780     0.0070
  453.0000    -7.6550    12.8580    10.1370    65.3650     7.6740     2.3660     0.1780     0.0070
  453.5000    -7.8490    12.8070    10.0960    67.2580     7.6910     2.3670     0.1800     0.0070
  454.0000    -8.0480    12.7560    10.0770    69.8360     7.7070     2.3640     0.1790     0.0070
  454.5000    -8.0660    12.7050    10.0680    68.5440     7.7230     2.3670     0.1760     0.0070
  455.0000    -8.0240    12.5690    10.0580    66.0260     7.7040     2.3710     0.1760     0.0070
