~VERSION INFORMATION
 VERS.                2.0:   CWLS LOG ASCII STANDARD - VERSION 2.0
 WRAP.                 NO:   ONE LINE PER DEPTH STEP
~WELL INFORMATION
#MNEM.UNIT      DATA TYPE    INFORMATION
#----------   ------------   ------------------------------
 STRT.F            0.0000:   START DEPTH
 STOP.F          664.0000:   STOP DEPTH
 STEP.F            0.5000:   STEP LENGTH
 NULL.          -999.2500:   NO VALUE
 COMP. Fluor Daniel (NPOSR) Inc:   COMPANY
 WELL.      71-3-X-3 #3-3:   WELL
 FLD .             N.P.R.:   FIELD
 LOC .       S3 T38N R78W:   LOCATION
 CNTY.            NATRONA:   COUNTY
 STAT.            WYOMING:   STATE
 CTRY. UNITED STATES OF AMERICA:   COUNTRY
 SRVC.      Western Atlas:   SERVICE COMPANY
 DATE.        12-APR-1996:   LOGDATE
 API .       490252277200:   API NUMBER
~CURVE INFORMATION
#MNEM.UNIT       API CODE    CURVE DESCRIPTION
#----------   ------------   ------------------------------
 DEPT.F                  :   
 GRR .GAPI   07 310 01 00:   GAMMA RAY FROM RES. LOG.
 RILD.OHMM   07 120 46 00:   INDUCTION LOG DEEP RESISTIVITY
 RILM.OHMM   07 120 44 00:   INDUCTION LOG MEDIUM RESISTIVITY
~PARAMETER INFORMATION
#MNEM.UNIT          VALUE    DESCRIPTION
#----------   ------------   ------------------------------
 PD  .                 GL:   PERMANENT DATUM
 EPD .F              5118:   ELEVATION PERMANENT DATUM
 LMF .                 KB:   LOG MEASURED FROM
 DAPD.F                10:   FEET ABOVE PERMANENT DATUM
 DMF .                 KB:   DRILLING MEASURED FROM
 EKB .F              5128:   KELLING BUSHING
 EDF .F              5127:   DRILLING FLOOR
 EGL .F              5118:   GROUND LEVEL
 DATE.        12-APR-1996:   RUN DATE
 RUN .                  1:   RUN NUMBER
 DD  .F               670:   DEPTH DRILLER
 DL  .F               672:   DEPTH LOGGER
 BLI .F               664:   BOTTOM LOG INTERVAL
 CS  .IN            9.625:   CASING SIZE
 CBD .F                56:   CASING BOTTOM DRILLER
 CBL .F                57:   CASING BOTTOM LOGGER
 BS  .IN             8.75:   BIT SIZE
 BSD .F               670:   BIT SIZE AT DEPTH
 DFT .                AIR:   DRILLING FLUID TYPE
 MRT .F                84:   MAXIMUM RECORDED TEMPERATURE
 LUN .             HL6530:   LOGGING UNIT NUMBER
 LUL .             CASPER:   LOGGING UNIT LOCATION
 ENGI.             RAUTIO:   RECORDING ENGINEER
 WITN.              HARDY:   WITNESSED BY
 CLNT.            A2DTECH:   CLIENT CODE
 ORIG.       2", 5" PRINT:   ORIGIN OF DATA
 UWI .       490252277200:   UNIQUE WELL ID
 DICO. A2D Technologies, Inc.:   DIGITIZING COMPANY
~OTHER INFORMATION
~A    DEPT      GRR      RILD       RILM   
# ...
   91.0000   122.7364     6.6377     6.7657
   91.5000   119.4827     6.7472     6.9380
   92.0000   119.1146     6.8745     7.0985
   92.5000   122.1782     7.0041     7.2288
   93.0000   125.5788     7.1361     7.2820
   93.5000   127.0049     7.2459     7.3614
   94.0000   126.5093     7.3025     7.4411
   94.5000   126.0647     7.3595     7.5218
   95.0000   125.1112     7.4307     7.6033
   95.5000   122.8323     7.3619     7.6389
   96.0000   120.4903     7.2728     7.4778
   96.5000   118.5221     7.1847     7.3623
   97.0000   119.6486     7.0978     7.2486
   97.5000   120.7695     7.0312     7.1367
   98.0000   121.3531     6.9010     7.0265
   98.5000   121.6580     6.7768     6.9179
   99.0000   121.9641     6.6548     6.8206
   99.5000   122.2424     6.5922     6.7502
  100.0000   123.7983     6.5922     6.7147
  100.5000   125.8389     6.6881     6.8587
  101.0000   125.3740     6.8273     6.9718
  101.5000   122.8906     6.9693     7.0947
  102.0000   120.3101     7.0963     7.5682
  102.5000   116.9563     7.2957     7.9462
  103.0000   112.9311     7.5177     8.0237
  103.5000   109.3639     7.7449     8.0984
  104.0000   111.2650     8.1448     8.1738
  104.5000   116.2148     8.1110     8.2991
  105.0000   121.2148     8.0655     8.1951
  105.5000   123.0334     8.0189     8.1659
  106.0000   121.0746     7.9726     8.1145
  106.5000   119.8433     7.9256     7.9153
  107.0000   119.6767     7.5689     7.7222
  107.5000   122.3370     7.3646     7.5336
  108.0000   124.2978     7.1627     7.3498
  108.5000   123.2800     6.9668     7.1704
  109.0000   120.3412     6.8596     7.0098
  109.5000   118.9188     6.7284     6.9093
  110.0000   120.2055     6.6465     6.8097
  110.5000   124.3515     6.6157     6.7147
  111.0000   126.8120     6.5922     6.7147
  111.5000   126.0269     6.6393     6.8436
  112.0000   123.6200     6.7365     6.9501
  112.5000   122.7658     6.8686     7.0755
  113.0000   122.7825     7.0033     7.2566
  113.5000   121.5637     7.1407     7.4307
  114.0000   119.5574     7.2808     7.4634
  114.5000   118.6837     7.4237     7.5130
  115.0000   120.3642     7.4995     7.5629
  115.5000   122.6788     7.4995     7.6129
  116.0000   126.1083     7.5212     7.6571
  116.5000   128.4271     7.5530     7.6936
  117.0000   128.8254     7.5848     7.7306
  117.5000   128.2630     7.6170     7.7677
  118.0000   126.0443     7.6545     7.8050
  118.5000   123.8683     7.7057     7.8427
  119.0000   122.8115     7.7568     7.9056
  119.5000   123.1834     7.8083     7.9801
  120.0000   123.5375     7.8529     7.9995
  120.5000   123.7881     7.7908     7.8254
  121.0000   123.9363     7.6776     7.6744
  121.5000   122.2609     7.5661     7.5910
  122.0000   120.3992     7.4563     7.5267
  122.5000   120.1037     7.4087     7.4637
  123.0000   122.6372     7.3493     7.4005
  123.5000   123.7440     7.2903     7.3629
  124.0000   123.9498     7.2318     7.4304
  124.5000   123.9573     7.1619     7.4081
  125.0000   123.9323     7.1913     7.3795
  125.5000   125.4408     7.2282     7.3511
  126.0000   129.6573     7.1619     7.3228
  126.5000   132.1619     7.2010     7.2951
  127.0000   129.8296     7.2316     7.3065
  127.5000   126.7321     7.2402     7.3250
  128.0000   125.5482     7.2485     7.3435
  128.5000   125.4985     7.2569     7.3621
  129.0000   124.1054     7.2653     7.3808
  129.5000   121.8932     7.2737     7.3994
  130.0000   120.3410     7.2821     7.4181
  130.5000   122.8567     7.2901     7.4369
  131.0000   125.0698     7.3244     7.4557
  131.5000   125.5355     7.3858     7.4746
  132.0000   124.2169     7.4309     7.4941
  132.5000   123.5662     7.4308     7.5303
  133.0000   123.5530     7.4307     7.5754
  133.5000   123.5406     7.4694     7.6208
  134.0000   124.6976     7.5128     7.6665
  134.5000   128.1180     7.5564     7.7125
  135.0000   130.6118     7.6003     7.7587
  135.5000   131.3729     7.6635     7.7809
  136.0000   130.1207     7.8633     7.7809
  136.5000   128.6291     8.0363     7.8310
  137.0000   126.4179     8.1488     7.9257
  137.5000   124.2255     8.2628     8.0214
  138.0000   123.7065     8.3785     8.1184
  138.5000   127.0217     8.4574     8.2165
  139.0000   129.2009     8.4689     8.2991
  139.5000   130.9169     8.4799     8.3187
  140.0000   132.1708     8.4910     8.3390
  140.5000   133.3208     8.5023     8.3594
  141.0000   134.3218     8.5134     8.3798
  141.5000   133.9613     8.5250     8.4002
  142.0000   133.6193     8.5339     8.4207
  142.5000   133.2825     8.5282     8.4413
  143.0000   132.9517     8.8046     8.5263
  143.5000   132.8530     8.9703     8.7048
  144.0000   133.1944     9.1381     8.8878
  144.5000   133.5339     9.3090     9.0744
  145.0000   132.3295     9.4831     9.2648
  145.5000   130.4755     9.6605     9.4592
  146.0000   129.0635     9.8416     9.6124
  146.5000   126.6989    10.0081     9.7432
  147.0000   126.4010    10.1294     9.8757
  147.5000   127.7263    10.2518    10.0101
  148.0000   128.5755    10.3757    10.1463
  148.5000   127.6893    10.5013    10.2574
  149.0000   126.8681    10.6438    10.3660
  149.5000   126.2958    10.6387    10.4757
  150.0000   125.1973    10.6422    10.5866
  150.5000   122.0944    10.7798    10.6422
  151.0000   120.3565    10.8155    10.5192
  151.5000   119.3551    10.8400    10.4259
  152.0000   118.9093    10.6023    10.3335
  152.5000   119.3261    10.4447    10.2418
  153.0000   120.8522    10.4197    10.1632
  153.5000   123.4577    10.3947    10.1199
  154.0000   124.7512    10.3699    10.0682
  154.5000   122.0105    10.3450    10.0563
  155.0000   120.2754    10.3203    10.0444
  155.5000   121.5863    10.2956    10.0324
  156.0000   124.0001    10.2710    10.0205
  156.5000   128.3657    10.2464    10.0087
  157.0000   132.6879    10.2218     9.9968
  157.5000   134.4427    10.1975     9.9852
  158.0000   132.1199    10.1728     9.9483
  158.5000   130.4959    10.1101     9.8745
  159.0000   130.6437    10.0208     9.8008
  159.5000   129.9811     9.9328     9.7279
  160.0000   127.6536     9.8455     9.6554
  160.5000   123.0268     9.7871     9.5836
  161.0000   123.5739     9.7494     9.5286
  161.5000   128.1158     9.7118     9.5187
  162.0000   132.9274     9.6744     9.5068
  162.5000   134.6518     9.6369     9.4949
  163.0000   132.9461     9.6095     9.4830
  163.5000   131.6258     9.5795     9.4711
  164.0000   131.2991     9.5501     9.4590
  164.5000   132.5820     9.5145     9.4473
  165.0000   133.8689     9.4628     9.4017
  165.5000   133.5638     9.4113     9.3212
  166.0000   133.1461     9.3602     9.2399
  166.5000   132.7665     9.3093     9.1672
  167.0000   133.6666     9.2587     9.1107
  167.5000   135.1817     9.2084     9.0546
  168.0000   136.6300     9.0971     8.9861
  168.5000   135.9842     8.8730     8.7277
  169.0000   135.1344     8.6031     8.4768
  169.5000   134.2454     8.3415     8.2331
  170.0000   134.8987     8.0729     7.9964
  170.5000   136.4229     7.8990     7.7666
  171.0000   137.9694     7.7181     7.6495
  171.5000   140.0069     7.6211     7.5412
  172.0000   142.0271     7.5890     7.4307
  172.5000   142.5973     7.5689     7.4307
  173.0000   139.2513     7.6389     7.6540
  173.5000   136.5489     7.8727     7.7907
  174.0000   134.9380     8.1196     7.9290
  174.5000   131.8605     8.3759     8.0697
  175.0000   128.4340     8.4901     8.2108
  175.5000   126.4869     8.6066     8.4003
  176.0000   125.9125     8.7706     8.5043
  176.5000   125.7559     8.7507     8.6103
  177.0000   125.5802     8.7183     8.5787
  177.5000   125.8955     8.6860     8.5464
  178.0000   126.3566     8.6539     8.5148
  178.5000   126.6084     8.6224     8.4833
  179.0000   124.8615     8.5821     8.4534
  179.5000   123.2430     8.5200     8.4079
  180.0000   123.2919     8.4579     8.3647
  180.5000   126.6826     8.3962     8.3215
  181.0000   129.3574     8.3759     8.2978
  181.5000   129.5728     8.4395     8.2975
