~VERSION INFORMATION
 VERS.                2.0:   CWLS LOG ASCII STANDARD - VERSION 2.0
 WRAP.                 NO:   ONE LINE PER DEPTH STEP
~WELL INFORMATION
#MNEM.UNIT      DATA TYPE    INFORMATION
#----------   ------------   ------------------------------
 STRT.F            0.0000:   START DEPTH
 STOP.F          649.0000:   STOP DEPTH
 STEP.F            0.1000:   STEP LENGTH
 NULL.          -999.2500:   NO VALUE
 COMP.   FLUOR DANIEL INC:   COMPANY
 WELL.     17-1 X 2 #17-2:   WELL
 FLD .             TEAPOT:   FIELD
 LOC .       S2 T38N R78W:   LOCATION
 CNTY.            NATRONA:   COUNTY
 STAT.            WYOMING:   STATE
 CTRY. UNITED STATES OF AMERICA:   COUNTRY
 SRVC.      Western Atlas:   SERVICE COMPANY
 DATE.        20-MAY-1995:   LOGDATE
 API .       490252271000:   API NUMBER
~CURVE INFORMATION
#MNEM.UNIT       API CODE    CURVE DESCRIPTION
#----------   ------------   ------------------------------
 DEPT.F                  :   
 GRR .GAPI   07 310 01 00:   GAMMA RAY
 RILD.OHMM   07 120 46 00:   INDUCTION LOG DEEP RESISTIVITY
 RILM.OHMM   07 120 44 00:   RESITIVITY LOG MEDIUM
~PARAMETER INFORMATION
#MNEM.UNIT          VALUE    DESCRIPTION
#----------   ------------   ------------------------------
 PD  .                 GL:   PERMANENT DATUM
 EPD .F              5145:   ELEVATION PERMANENT DATUM
 LMF .                 KB:   LOG MEASURED FROM
 DAPD.F                10:   FEET ABOVE PERMANENT DATUM
 DMF .                 KB:   DRILLING MEASURED FROM
 EKB .F              5155:   KELLING BUSHING
 EDF .F              5154:   DRILLING FLOOR
 EGL .F              5145:   GROUND LEVEL
 DATE.        20-MAY-1995:   RUN DATE
 RUN .                  1:   RUN NUMBER
 DD  .F               657:   DEPTH DRILLER
 DL  .F               657:   DEPTH LOGGER
 BLI .F               649:   BOTTOM LOG INTERVAL
 CS  .IN            9.625:   CASING SIZE
 CBD .F                82:   CASING BOTTOM DRILLER
 CBL .F                82:   CASING BOTTOM LOGGER
 BS  .IN             8.75:   BIT SIZE
 BSD .F               657:   BIT SIZE AT DEPTH
 DFT .                AIR:   DRILLING FLUID TYPE
 MRT .F                92:   MAXIMUM RECORDED TEMPERATURE
 LUN .            HL 6530:   LOGGING UNIT NUMBER
 LUL .             CASPER:   LOGGING UNIT LOCATION
 ENGI.        VERN RAUTIO:   RECORDING ENGINEER
 WITN.        STEVE HARDY:   WITNESSED BY
 CLNT.            A2DTECH:   CLIENT CODE
 ORIG.           5" PRINT:   ORIGIN OF DATA
 UWI .       490252271000:   UNIQUE WELL ID
 DICO. A2D Technologies, Inc.:   DIGITIZING COMPANY
~OTHER INFORMATION
~A    DEPT      GRR      RILD       RILM   
# ...
  382.2000    64.3861    27.3804    27.5806
  382.3000    64.1407    27.3811    27.6743
  382.4000    63.8954    27.3572    27.6750
  382.5000    63.6351    27.1935    27.6758
  382.6000    63.6368    27.1942    27.6766
  382.7000    63.6386    27.0843    27.5622
  382.8000    63.6404    26.9315    27.4071
  382.9000    63.7108    26.7378    27.2973
  383.0000    63.9597    26.4445    27.2880
  383.1000    64.2495    26.2711    27.1101
  383.2000    64.6645    26.1472    26.9817
  383.3000    65.1606    25.9998    26.7364
  383.4000    65.8522    25.7956    26.4355
  383.5000    66.7994    25.5297    26.1127
  383.6000    67.5766    25.3791    25.6493
  383.7000    68.2861    25.2426    24.9723
  383.8000    69.2109    25.1003    24.1775
  383.9000    70.3280    24.9588    23.4995
  384.0000    71.5653    24.8592    23.0435
  384.1000    72.8209    24.8497    22.7839
  384.2000    74.5258    24.6889    22.4842
  384.3000    76.0013    24.6895    22.2744
  384.4000    77.7331    24.6019    22.0238
  384.5000    79.3633    24.5202    21.8703
  384.6000    80.8012    24.5209    21.8709
  384.7000    82.0761    24.5216    21.8715
  384.8000    83.2766    24.6579    21.7563
  384.9000    84.5141    24.7991    21.7214
  385.0000    85.7517    24.8661    21.7220
  385.1000    87.0656    24.9105    21.7555
  385.2000    88.5070    25.0532    21.8745
  385.3000    89.6286    25.2156    21.8753
  385.4000    90.0589    25.3410    21.8757
  385.5000    90.2353    25.4861    22.0252
  385.6000    90.2371    25.5699    22.2297
  385.7000    90.2389    25.6006    22.3568
  385.8000    90.2407    25.7493    22.4941
  385.9000    90.2425    25.8947    22.7325
  386.0000    90.4334    26.0430    22.9926
  386.1000    90.5478    26.1921    23.3836
  386.2000    90.5496    26.2936    23.8851
  386.3000    90.5004    26.3098    24.2994
  386.4000    89.9501    26.4781    24.9665
  386.5000    88.8606    26.4787    25.4310
  386.6000    87.4630    26.4795    25.8420
  386.7000    86.2004    26.5470    26.1375
  386.8000    85.1591    26.6652    26.4154
  386.9000    83.9248    26.6660    26.5794
  387.0000    82.4435    26.6667    26.5801
  387.1000    80.5765    26.7861    26.5808
  387.2000    78.8779    26.8538    26.6522
  387.3000    77.6483    26.9065    26.7675
  387.4000    76.7912    27.0605    26.7652
  387.5000    74.8871    27.2312    26.6146
  387.6000    72.8901    27.3714    26.5845
  387.7000    71.0028    27.5282    26.4992
  387.8000    70.1788    27.6858    26.3500
  387.9000    70.4278    27.8068    26.2016
  388.0000    70.6767    27.8101    26.0397
  388.1000    70.9257    27.9695    25.9075
  388.2000    71.5679    28.1297    25.8609
  388.3000    72.3112    28.2908    25.7951
  388.4000    72.9669    28.4528    25.6835
  388.5000    73.5626    28.5937    25.6842
  388.6000    74.9069    28.5946    25.6849
  388.7000    75.5861    28.7443    25.6856
  388.8000    76.6721    28.9090    25.6863
  388.9000    77.7929    29.0745    25.6870
  389.0000    78.7210    29.2410    25.6878
  389.1000    79.4564    29.4083    25.6886
  389.2000    80.0462    29.6086    25.6892
  389.3000    80.4487    29.6093    25.6899
  389.4000    81.0908    29.6101    25.6906
  389.5000    81.8340    29.6109    25.7236
  389.6000    82.6511    29.6117    25.8710
  389.7000    83.9766    29.6126    25.8717
  389.8000    84.4376    29.6134    25.8724
  389.9000    84.7586    29.6142    26.0356
  390.0000    85.0075    29.6150    26.3333
  390.1000    85.1903    29.6158    26.6186
  390.2000    85.1805    29.6167    26.7891
  390.3000    84.8926    29.6176    27.0589
  390.4000    84.0767    29.6183    27.2664
  390.5000    83.2397    29.6191    27.4901
  390.6000    81.7375    29.6851    27.8042
  390.7000    79.1429    29.8550    28.1266
  390.8000    77.0583    30.0354    28.4440
  390.9000    76.1261    30.3609    28.7696
  391.0000    75.6762    30.7090    29.0095
  391.1000    75.0575    30.9715    29.2808
  391.2000    74.1406    31.1993    29.7521
  391.3000    73.4164    31.5564    29.9447
  391.4000    72.8461    31.9753    30.2423
  391.5000    72.4314    32.1296    30.5884
  391.6000    72.2462    32.4285    30.9382
  391.7000    72.0496    32.7248    31.2565
  391.8000    71.6461    32.9122    31.4398
  391.9000    71.6483    33.1081    31.7905
  392.0000    71.4127    33.2902    32.0172
  392.1000    71.1674    33.4809    32.2002
  392.2000    71.0504    33.6727    32.3284
  392.3000    71.0522    33.8079    32.3293
  392.4000    71.0540    33.8238    32.3304
  392.5000    71.0561    34.0452    32.3311
  392.6000    71.0576    34.2125    32.3320
  392.7000    71.0594    34.4084    32.3329
  392.8000    71.0612    34.5235    32.3338
  392.9000    71.0630    34.5631    32.3347
  393.0000    71.0649    34.7657    32.1597
  393.1000    71.0667    34.7666    32.1129
  393.2000    71.0685    34.7676    32.0201
  393.3000    71.3346    34.7686    31.8399
  393.4000    72.0635    34.7695    31.6727
  393.5000    73.3240    34.7521    31.6738
  393.6000    74.9975    34.5312    31.5232
  393.7000    76.2938    34.3614    31.4563
  393.8000    77.6172    34.0417    31.4572
  393.9000    78.7480    33.6579    31.4270
  394.0000    79.6340    33.2783    31.2414
  394.1000    80.1346    32.8993    31.0743
  394.2000    80.3813    32.7155    30.8994
  394.3000    80.6303    32.3896    30.6383
  394.4000    80.8792    32.0245    30.2457
  394.5000    81.1282    31.7222    29.7259
  394.6000    81.3772    31.5238    28.9499
  394.7000    81.6539    31.1289    28.5441
  394.8000    81.8751    30.9730    28.1598
  394.9000    81.9590    30.6822    27.8428
  395.0000    82.0714    30.4131    27.5545
  395.1000    82.3204    30.2029    27.3900
  395.2000    82.5710    29.8631    27.1007
  395.3000    83.0670    29.6947    26.9045
  395.4000    83.3689    29.5274    26.7530
  395.5000    83.7577    29.4552    26.6429
  395.6000    84.1686    29.3985    26.6368
  395.7000    84.4484    29.2532    26.4602
  395.8000    84.9920    29.2542    26.4608
  395.9000    85.2171    29.2549    26.4616
  396.0000    85.4661    29.1425    26.4623
  396.1000    85.7150    29.0543    26.4630
  396.2000    86.0238    29.0551    26.4638
  396.3000    86.5146    29.0559    26.4645
  396.4000    86.8130    29.0569    26.4652
  396.5000    86.8145    28.9256    26.4660
  396.6000    87.1034    28.8575    26.4667
  396.7000    87.5105    28.8583    26.4726
  396.8000    87.7595    28.8591    26.6527
  396.9000    88.0285    28.8600    26.6533
  397.0000    88.0302    28.8607    26.6540
  397.1000    88.2047    28.7473    26.6547
  397.2000    88.4537    28.6628    26.6555
  397.3000    88.6389    28.6218    26.6563
  397.4000    88.6314    28.4603    26.6570
  397.5000    88.3412    28.2705    26.7629
  397.6000    88.1408    28.2711    26.8441
  397.7000    87.7481    28.1764    26.8449
  397.8000    87.1627    27.9582    26.8456
  397.9000    86.3845    27.6187    26.8464
  398.0000    85.3335    27.1219    26.8471
  398.1000    84.1799    26.6948    26.8478
  398.2000    83.2990    26.3506    26.8486
  398.3000    82.5592    26.0536    26.8103
  398.4000    81.8871    25.7202    26.4800
  398.5000    81.3946    25.3005    25.9441
  398.6000    80.8196    25.1340    25.3633
  398.7000    80.4096    25.0161    24.9224
  398.8000    80.0684    24.8750    24.6417
  398.9000    79.8230    24.7347    24.3656
  399.0000    79.6196    24.5952    24.2285
  399.1000    79.6218    24.4496    24.0922
  399.2000    79.6235    24.1880    23.9566
  399.3000    79.6253    24.0144    23.8217
  399.4000    79.8790    23.8104    23.6875
  399.5000    80.3751    23.5802    23.5401
  399.6000    80.9387    23.4382    23.4217
  399.7000    82.6495    23.1339    23.1928
  399.8000    84.7468    23.0234    22.9165
  399.9000    86.7549    22.8936    22.6403
  400.0000    88.1850    22.7122    22.3640
  400.1000    89.1294    22.4796    22.0877
  400.2000    89.8981    22.3484    21.8114
  400.3000    90.3773    22.1054    21.5351
