~VERSION INFORMATION
 VERS.                2.0:   CWLS LOG ASCII STANDARD - VERSION 2.0
 WRAP.                 NO:   ONE LINE PER DEPTH STEP
~WELL INFORMATION
#MNEM.UNIT      DATA TYPE    INFORMATION
#----------   ------------   ------------------------------
 STRT.F           30.5000:   START DEPTH
 STOP.F          674.0000:   STOP DEPTH
 STEP.F            0.5000:   STEP LENGTH
 NULL.          -999.2500:   NO VALUE
 COMP. FENIX & SCISSON INC:   COMPANY
 WELL. NPR 3 #37 SX 34-34:   WELL
 FLD .        TEAPOT DOME:   FIELD
 LOC .      S34 T39N R78W:   LOCATION
 CNTY.            NATRONA:   COUNTY
 STAT.            WYOMING:   STATE
 CTRY. UNITED STATES OF AMERICA:   COUNTRY
 SRVC.           BIRDWELL:   SERVICE COMPANY
 DATE.        21-JAN-1979:   LOGDATE
 API .       490251074400:   API NUMBER
~CURVE INFORMATION
#MNEM.UNIT       API CODE    CURVE DESCRIPTION
#----------   ------------   ------------------------------
 DEPT.F                  :   
 SPR .MV     05 010 01 00:   SPONTANEOUS POTENTIAL FROM RES.
 SN  .OHMM   05 040 16 00:   SHORT NORMAL 16"
 IL  .OHMM   05 120 00 00:   INDUCTION LOG
 CALD.IN     45 280 60 00:   CALIPER
 GRD .GAPI   45 310 01 00:   GAMMA RAY FROM DENSITY LOG
 RHOB.G/C3   45 350 01 00:   BULK DENSITY
 DPHI.DEC    45 890 12 00:   DENSITY POROSITY SANDSTONE
 CORR.G/C3   45 356 01 00:   DENSITY CORRECTION
~PARAMETER INFORMATION
#MNEM.UNIT          VALUE    DESCRIPTION
#----------   ------------   ------------------------------
 PD  .                 GL:   PERMANENT DATUM
 EPD .F              5175:   ELEVATION PERMANENT DATUM
 LMF .                 KB:   LOG MEASURED FROM
 DAPD.F                 4:   FEET ABOVE PERMANENT DATUM
 DMF .                 KB:   DRILLING MEASURED FROM
 EKB .F              5179:   KELLING BUSHING
 EGL .F              5175:   GROUND LEVEL
 DATE.            1-21-79:   RUN DATE
 RUN .                  1:   RUN NUMBER
 DD  .F               674:   DEPTH DRILLER
 DL  .F               673:   DEPTH LOGGER
 BLI .F               666:   BOTTOM LOG INTERVAL
 TLI .F                40:   TOP LOG INTERVAL
 CS  .IN            8.625:   CASING SIZE
 CBD .F                40:   CASING BOTTOM DRILLER
 CBL .F                30:   CASING BOTTOM LOGGER
 BS  .IN            7.875:   BIT SIZE
 BSD .F               674:   BIT SIZE AT DEPTH
 DFT .                KCL:   DRILLING FLUID TYPE
 DFD .                8.8:   DRILLING FLUID DENSITY
 DFV .                 60:   DRILLING FLUID VISCOSITY
 DFPH.                9.5:   DRILLING FLUID PH
 DFL .                  8:   DRILLING FLUID LOSS
 MSS .           FLOWLINE:   MUD SAMPLE SOURCE
 RMS .OHMM            .23:   RESISTIVITY MUD SAMPLE
 MST .F                56:   MUD SAMPLE TEMPERATURE
 MFSS.           MEASURED:   MUD FILTRATE SAMPLE SOURCE
 MCSS.           MEASURED:   MUD CAKE SAMPLE SOURCE
 RMB .OHMM            .22:   RESISTIVITY MUD AT BHT
 BHT .F                60:   BOTTOM HOLE TEMPERATURE
 TCS .HRS               4:   TIME CURCULATED STOPPED
 MRT .F                60:   MAXIMUM RECORDED TEMPERATURE
 LUN .               3006:   LOGGING UNIT NUMBER
 LUL .             CASPER:   LOGGING UNIT LOCATION
 ENGI.            ROLLINS:   RECORDING ENGINEER
 WITN.           DINSMORE:   WITNESSED BY
 CLNT.            A2DTECH:   CLIENT CODE
 ORIG.       2", 5" PRINT:   ORIGIN OF DATA
 UWI .       490251074400:   UNIQUE WELL ID
 DICO. A2D Technologies, Inc.:   DIGITIZING COMPANY
~OTHER INFORMATION
~A   DEPT      SPR         SN         IL       CALD        GRD       RHOB       DPHI       CORR   
# ...
  111.5000   -46.7260     7.0850     6.8590     8.2250   108.1800     2.4990     0.0910     0.0100
  112.0000   -46.7410     7.2450     6.9020     8.2120   104.4630     2.5090     0.0890     0.0170
  112.5000   -46.7560     7.4050     6.9450     8.1980    97.3160     2.5190     0.0970     0.0240
  113.0000   -46.7710     7.5650     6.9880     8.1850    90.0800     2.5230     0.1080     0.0240
  113.5000   -46.7870     7.6970     7.0560     8.1790    84.4400     2.5090     0.1190     0.0230
  114.0000   -46.7870     7.7790     7.0290     8.1790    83.5820     2.4940     0.1250     0.0230
  114.5000   -46.7750     7.8090     6.9610     8.1800    93.2190     2.4780     0.1250     0.0230
  115.0000   -46.7630     7.4900     6.8930     8.1810   102.2360     2.4730     0.1250     0.0220
  115.5000   -46.7510     7.2350     6.8250     8.1810   106.2450     2.4740     0.1250     0.0220
  116.0000   -46.7380     7.0590     6.7560     8.1820   106.6600     2.4710     0.1270     0.0220
  116.5000   -46.7260     6.9480     6.6770     8.1830   103.7030     2.4670     0.1320     0.0220
  117.0000   -46.7140     6.8640     6.6860     8.1830   102.1700     2.4630     0.1300     0.0210
  117.5000   -46.7020     6.8900     6.7010     8.1840   103.5880     2.4590     0.1280     0.0210
  118.0000   -46.6900     6.9120     6.7150     8.1850   106.3820     2.4600     0.1260     0.0210
  118.5000   -46.6780     6.9330     6.7300     8.1860   110.0280     2.4660     0.1240     0.0200
  119.0000   -46.6660     6.9540     6.7450     8.1860   113.5550     2.4700     0.1220     0.0200
  119.5000   -46.6530     6.9760     6.7600     8.1870   116.0880     2.4730     0.1220     0.0220
  120.0000   -46.6410     6.9970     6.7740     8.1880   116.4230     2.4750     0.1210     0.0220
  120.5000   -46.6290     7.0180     6.7890     8.1880   112.5180     2.4760     0.1220     0.0210
  121.0000   -46.6170     7.0390     6.8040     8.1890   109.0950     2.4760     0.1230     0.0210
  121.5000   -46.6050     7.0610     6.8190     8.1900   107.2190     2.4750     0.1250     0.0200
  122.0000   -46.5930     7.0820     6.8330     8.1900   107.8510     2.4720     0.1270     0.0190
  122.5000   -46.5810     7.1030     6.8480     8.1910   108.7580     2.4680     0.1290     0.0190
  123.0000   -46.5680     7.1190     6.8640     8.1920   107.3010     2.4650     0.1310     0.0200
  123.5000   -46.5560     6.9990     6.7740     8.1930   103.9070     2.4630     0.1320     0.0310
  124.0000   -46.5440     6.8920     6.6780     8.1930   107.6810     2.4610     0.1310     0.0230
  124.5000   -46.5320     6.7840     6.5820     8.1940   110.3050     2.4610     0.1300     0.0340
  125.0000   -46.5200     6.6760     6.4870     8.1950   109.2790     2.4610     0.1260     0.0340
  125.5000   -46.5080     6.5680     6.3910     8.1950   107.0950     2.4600     0.1230     0.0330
  126.0000   -46.4960     6.4610     6.2960     8.1960   105.9390     2.4660     0.1190     0.0310
  126.5000   -46.4830     6.3760     6.2020     8.1970   109.4010     2.4740     0.1190     0.0300
  127.0000   -46.4710     6.3810     6.1980     8.1980   109.7750     2.4810     0.1220     0.0300
  127.5000   -46.4590     6.3850     6.1930     8.1980   109.8740     2.4810     0.1260     0.0300
  128.0000   -46.4470     6.3890     6.1870     8.1980   110.4700     2.4770     0.1270     0.0300
  128.5000   -46.4350     6.3930     6.1820     8.1970   111.2090     2.4730     0.1250     0.0280
  129.0000   -46.4230     6.3980     6.1770     8.1970   110.5790     2.4710     0.1240     0.0260
  129.5000   -46.4110     6.4020     6.1720     8.1970   108.3400     2.4720     0.1250     0.0240
  130.0000   -46.3980     6.4060     6.1670     8.1960   104.3880     2.4720     0.1260     0.0230
  130.5000   -46.3860     6.4100     6.1620     8.1960   101.9220     2.4710     0.1290     0.0220
  131.0000   -46.3740     6.4150     6.1570     8.1950   101.9550     2.4660     0.1310     0.0230
  131.5000   -46.3620     6.4190     6.1520     8.1950   104.6430     2.4620     0.1310     0.0240
  132.0000   -46.3500     6.4230     6.1450     8.1950   107.4930     2.4620     0.1310     0.0250
  132.5000   -46.3380     6.4270     6.1890     8.1940   109.0400     2.4610     0.1300     0.0250
  133.0000   -46.3260     6.4310     6.2550     8.1940   107.7180     2.4610     0.1280     0.0260
  133.5000   -46.3130     6.4480     6.3210     8.1940   104.6520     2.4620     0.1260     0.0270
  134.0000   -46.3010     6.5260     6.3870     8.1930   104.3160     2.4670     0.1240     0.0280
  134.5000   -46.2890     6.6030     6.4530     8.1930   106.0610     2.4710     0.1230     0.0250
  135.0000   -46.2770     6.6810     6.5180     8.1920   107.3580     2.4740     0.1220     0.0200
  135.5000   -46.2650     6.7590     6.5840     8.1920   110.0440     2.4750     0.1160     0.0150
  136.0000   -46.2530     6.8360     6.6770     8.1920   112.4150     2.4770     0.1120     0.0120
  136.5000   -46.2410     6.9270     6.6720     8.1910   113.4530     2.4840     0.1120     0.0130
  137.0000   -46.2290     6.9170     6.6640     8.1910   113.6040     2.4930     0.1150     0.0140
  137.5000   -46.2160     6.9050     6.6570     8.1910   112.5620     2.4930     0.1180     0.0130
  138.0000   -46.2040     6.8940     6.6490     8.1900   107.6780     2.4880     0.1210     0.0100
  138.5000   -46.1930     6.8820     6.6420     8.1900   104.8810     2.4820     0.1240     0.0080
  139.0000   -46.1920     6.8700     6.6340     8.1890   104.3890     2.4760     0.1270     0.0060
  139.5000   -46.1920     6.8580     6.6270     8.1890   104.1200     2.4710     0.1300     0.0070
  140.0000   -46.1920     6.8460     6.6190     8.1890   103.4210     2.4650     0.1340     0.0080
  140.5000   -46.1920     6.8340     6.6070     8.1880   102.7410     2.4590     0.1370     0.0100
  141.0000   -46.1920     6.8220     6.5900     8.1880   102.2510     2.4530     0.1400     0.0140
  141.5000   -46.1920     6.8100     6.5740     8.1870   104.0590     2.4480     0.1410     0.0190
  142.0000   -46.1920     6.7980     6.5570     8.1870   106.9970     2.4470     0.1380     0.0230
  142.5000   -46.1920     6.7860     6.5410     8.1870   108.8090     2.4470     0.1310     0.0260
  143.0000   -46.1920     6.7740     6.5240     8.1860   108.6180     2.4580     0.1240     0.0260
  143.5000   -46.1920     6.7620     6.5070     8.1860   108.8360     2.4670     0.1200     0.0260
  144.0000   -46.1920     6.7500     6.4940     8.1860   111.1260     2.4730     0.1150     0.0260
  144.5000   -46.1920     6.7380     6.5860     8.1850   114.7780     2.4790     0.1140     0.0250
  145.0000   -46.1920     6.8470     6.6620     8.1850   113.4630     2.4860     0.1140     0.0220
  145.5000   -46.1920     6.9490     6.7380     8.1840   110.0820     2.4910     0.1160     0.0200
  146.0000   -46.1920     7.0520     6.8140     8.1840   107.9470     2.4900     0.1170     0.0180
  146.5000   -46.1920     7.1540     6.8900     8.1840   107.1090     2.4860     0.1200     0.0160
  147.0000   -46.1920     7.2570     6.9660     8.1830   105.7610     2.4820     0.1230     0.0130
  147.5000   -46.1920     7.3590     7.0410     8.1830   104.1490     2.4780     0.1250     0.0090
  148.0000   -46.1920     7.4620     7.1220     8.1830   104.0740     2.4740     0.1250     0.0170
  148.5000   -46.1930     7.5200     7.1050     8.1820   104.0760     2.4710     0.1250     0.0180
  149.0000   -46.1880     7.4500     7.0870     8.1820   103.8490     2.4700     0.1250     0.0220
  149.5000   -46.1820     7.3940     7.0690     8.1810   102.1770     2.4700     0.1250     0.0240
  150.0000   -46.1760     7.3380     7.0290     8.1810    98.8250     2.4700     0.1250     0.0260
  150.5000   -46.1700     7.2480     6.9330     8.1810    98.9830     2.4700     0.1250     0.0270
  151.0000   -46.1650     7.1450     6.8370     8.1800   100.6080     2.4700     0.1240     0.0270
  151.5000   -46.1590     7.0410     6.7410     8.1800   103.8910     2.4710     0.1240     0.0260
