~VERSION INFORMATION
 VERS.                2.0:   CWLS LOG ASCII STANDARD - VERSION 2.0
 WRAP.                 NO:   ONE LINE PER DEPTH STEP
~WELL INFORMATION
#MNEM.UNIT      DATA TYPE    INFORMATION
#----------   ------------   ------------------------------
 STRT.F           30.0000:   START DEPTH
 STOP.F          509.0000:   STOP DEPTH
 STEP.F            0.5000:   STEP LENGTH
 NULL.          -999.2500:   NO VALUE
 COMP. FENIX & SCISSON INC:   COMPANY
 WELL.   NPR 3 #45 SX 3-3:   WELL
 FLD .             TEAPOT:   FIELD
 LOC .       S3 T38N R78W:   LOCATION
 CNTY.            NATRONA:   COUNTY
 STAT.            WYOMING:   STATE
 CTRY. UNITED STATES OF AMERICA:   COUNTRY
 SRVC.            Unknown:   SERVICE COMPANY
 DATE.        05-OCT-1978:   LOGDATE
 API .       490251071700:   API NUMBER
~CURVE INFORMATION
#MNEM.UNIT       API CODE    CURVE DESCRIPTION
#----------   ------------   ------------------------------
 DEPT.F                  :   
 SPR .MV     05 010 01 00:   SPONTANEOUS POTENTIAL FROM RES.
 SN  .OHMM   05 040 16 00:   SHORT NORMAL 16"
 ILD .OHMM   05 120 46 00:   INDUCTION LOG DEEP
 GRD .GAPI   45 310 01 00:   GAMMA RAY FROM DENSITY LOG
 CALD.IN     45 280 60 00:   CALIPER
 RHOB.G/C3   45 350 01 00:   BULK DENSITY
 DPHI.DEC    45 890 12 00:   DENSITY POROSITY SANDSTONE
 CORR.G/C3   45 356 01 00:   DENSITY CORRECTION
~PARAMETER INFORMATION
#MNEM.UNIT          VALUE    DESCRIPTION
#----------   ------------   ------------------------------
 PD  .                 GL:   PERMANENT DATUM
 EPD .F              5188:   ELEVATION PERMANENT DATUM
 LMF .                 KB:   LOG MEASURED FROM
 DAPD.F                 4:   FEET ABOVE PERMANENT DATUM
 DMF .                 KB:   DRILLING MEASURED FROM
 EKB .F              5192:   KELLING BUSHING
 EGL .F              5188:   GROUND LEVEL
 DATE.            10-5-78:   RUN DATE
 RUN .                  1:   RUN NUMBER
 DD  .F               510:   DEPTH DRILLER
 DL  .F               509:   DEPTH LOGGER
 BLI .F               503:   BOTTOM LOG INTERVAL
 TLI .F                48:   TOP LOG INTERVAL
 CS  .IN            8.625:   CASING SIZE
 CBL .F                46:   CASING BOTTOM LOGGER
 BS  .IN            7.875:   BIT SIZE
 BSD .F               510:   BIT SIZE AT DEPTH
 DFT .                KCL:   DRILLING FLUID TYPE
 DFD .                8.7:   DRILLING FLUID DENSITY
 DFV .                 37:   DRILLING FLUID VISCOSITY
 DFPH.                  9:   DRILLING FLUID PH
 DFL .               10.4:   DRILLING FLUID LOSS
 MSS .            MUD PIT:   MUD SAMPLE SOURCE
 RMS .OHMM            .28:   RESISTIVITY MUD SAMPLE
 MST .F                58:   MUD SAMPLE TEMPERATURE
 RMF .OHMM            .32:   RESISTIVITY MUD FILTRATE SAMPLE
 MFST.F                54:   MUD FILTRATE SAMPLE TEMPERATURE
 RMC .OHMM            .24:   RESISTIVITY MUD CAKE
 MCST.F                56:   MUD CAKE SAMPLE TEMPERATURE
 MFSS.               MEAS:   MUD FILTRATE SAMPLE SOURCE
 MCSS.               MEAS:   MUD CAKE SAMPLE SOURCE
 BHT .F                64:   BOTTOM HOLE TEMPERATURE
 TCS .HRS               2:   TIME CURCULATED STOPPED
 MRT .F                64:   MAXIMUM RECORDED TEMPERATURE
 LUN .               2958:   LOGGING UNIT NUMBER
 LUL .               CASP:   LOGGING UNIT LOCATION
 ENGI.             MILLER:   RECORDING ENGINEER
 WITN.           DINSMORE:   WITNESSED BY
 CLNT.            A2DTECH:   CLIENT CODE
 ORIG.       2", 5" PRINT:   ORIGIN OF DATA
 UWI .       490251071700:   UNIQUE WELL ID
 DICO. A2D Technologies, Inc.:   DIGITIZING COMPANY
~OTHER INFORMATION
~A   DEPT      SPR         SN        ILD         GRD      CALD       RHOB       DPHI       CORR   
# ...
  435.0000   -14.5241    11.4363    11.6958    86.8599     7.5005     2.4884     0.1183     0.0066
  435.5000   -14.6840    11.3812    11.5931    86.8294     7.5048     2.4911     0.1170     0.0069
  436.0000   -14.8437    11.3267    11.4837    86.8000     7.5091     2.4938     0.1112     0.0073
  436.5000   -15.0034    11.2724    11.3755    86.7708     7.5135     2.4966     0.1104     0.0076
  437.0000   -15.1633    11.2184    11.2682    86.7430     7.5178     2.4975     0.1126     0.0077
  437.5000   -15.3230    11.1647    11.1620    86.7037     7.5222     2.4965     0.1136     0.0079
  438.0000   -15.4817    11.1112    11.0567    86.4446     7.5265     2.4956     0.1124     0.0081
  438.5000   -15.5659    11.0580    10.9525    86.1807     7.5309     2.4971     0.1111     0.0082
  439.0000   -15.5396    11.0050    10.8492    85.9268     7.5352     2.5023     0.1100     0.0084
  439.5000   -15.5148    10.9523    10.7477    86.3312     7.5395     2.5062     0.1048     0.0086
  440.0000   -15.4896    10.8998    10.6543    87.6833     7.5439     2.5066     0.1044     0.0088
  440.5000   -15.4645    10.8387    10.4989    89.0822     7.5482     2.5056     0.1066     0.0089
  441.0000   -15.4390    10.7053    10.3584    90.4951     7.5526     2.5015     0.1104     0.0091
  441.5000   -15.4144    10.5736    10.2197    90.8937     7.5568     2.4997     0.1108     0.0093
  442.0000   -15.3883    10.4379    10.0829    90.9013     7.5552     2.4993     0.1113     0.0094
  442.5000   -15.6722    10.2697     9.9479    90.4324     7.5413     2.4918     0.1137     0.0096
  443.0000   -16.2458    10.1042     9.8095    89.6402     7.5276     2.4917     0.1159     0.0098
  443.5000   -16.8195     9.9414     9.6649    90.1637     7.5138     2.4964     0.1144     0.0099
  444.0000   -17.3883     9.7812     9.5164    91.6496     7.5001     2.5009     0.1092     0.0101
  444.5000   -17.7775     9.6236     9.3703    92.8091     7.4863     2.5017     0.1077     0.0103
  445.0000   -17.8120     9.4685     9.2265    93.0933     7.4825     2.5023     0.1081     0.0105
  445.5000   -17.8533     9.3159     8.8988    93.0895     7.4867     2.5032     0.1088     0.0106
  446.0000   -17.8932     9.1009     8.5461    93.0871     7.4910     2.4961     0.1131     0.0108
  446.5000   -17.9317     8.6665     7.7741    93.0798     7.4953     2.4868     0.1175     0.0110
  447.0000   -17.8628     8.2534     7.0849    93.0943     7.4996     2.4695     0.1285     0.0111
  447.5000   -17.6415     7.8606     6.6849    93.6951     7.5039     2.4483     0.1411     0.0113
  448.0000   -17.2156     7.5161     6.3683    97.7036     7.5082     2.4300     0.1544     0.0114
  448.5000   -16.6908     7.2429     6.4584   104.1394     7.5125     2.4148     0.1623     0.0092
  449.0000   -16.1604     7.3942     6.5446   110.6335     7.5168     2.4409     0.1480     0.0068
  449.5000   -15.6354     7.5387     6.6494   112.3546     7.5211     2.4750     0.1344     0.0060
  450.0000   -15.5491     8.0163     6.8071   109.1538     7.5254     2.5002     0.1086     0.0070
  450.5000   -15.5219     8.6846     6.9661   102.3355     7.5297     2.5212     0.0990     0.0080
  451.0000   -15.4950     9.4086     7.2159    95.6890     7.5339     2.5238     0.0957     0.0090
  451.5000   -15.4673    10.1182     8.1327    94.7471     7.5384     2.5253     0.0940     0.0128
  452.0000   -15.4395    10.3782     9.1659    94.7642     7.5322     2.5271     0.0938     0.0184
  452.5000   -15.4116    10.6556     9.9678    94.8810     7.5205     2.5288     0.0927     0.0222
  453.0000   -15.3826    10.6190    10.1606    94.9937     7.5085     2.5305     0.0909     0.0236
  453.5000   -15.3937    10.5811    10.3570    95.1049     7.4966     2.5322     0.0900     0.0252
  454.0000   -15.4157    10.5433    10.5581    95.2160     7.4845     2.5339     0.0894     0.0236
  454.5000   -15.4381    10.5056    10.7029    95.2776     7.4869     2.5348     0.0887     0.0212
  455.0000   -15.4603    10.4615    10.8503    95.1808     7.4977     2.5357     0.0881     0.0187
  455.5000   -15.4825    10.6165    10.9998    94.4877     7.5086     2.5366     0.0874     0.0162
  456.0000   -15.5048    10.8081    11.1724    93.6104     7.5195     2.5356     0.0872     0.0137
  456.5000   -15.5270    11.0032    11.3618    93.4255     7.5304     2.5329     0.0900     0.0113
  457.0000   -15.5488    11.2018    11.5534    93.2276     7.5413     2.5268     0.0927     0.0088
  457.5000   -15.5682    11.4040    11.7486    93.1495     7.5521     2.5205     0.0980     0.0063
  458.0000   -15.7066    11.6098    11.9470    93.6931     7.5593     2.5174     0.0992     0.0058
  458.5000   -15.8664    11.8194    12.2699    95.5159     7.5572     2.5184     0.0989     0.0063
  459.0000   -16.0269    12.0088    12.5262    97.5124     7.5552     2.5203     0.0980     0.0067
  459.5000   -16.1874    11.9906    12.6613    98.0345     7.5532     2.5242     0.0965     0.0072
  460.0000   -16.3477    11.9754    12.8061    97.4566     7.5512     2.5280     0.0923     0.0077
  460.5000   -16.3694    11.9598    12.7843    94.3229     7.5492     2.5319     0.0893     0.0081
  461.0000   -16.3694    11.9444    12.7612    93.0026     7.5472     2.5344     0.0888     0.0086
  461.5000   -16.3691    11.9290    12.7381    92.6588     7.5452     2.5321     0.0921     0.0091
  462.0000   -16.3690    11.9136    12.7150    92.6146     7.5432     2.5251     0.0951     0.0095
  462.5000   -16.3689    11.8976    12.6920    92.5692     7.5412     2.5185     0.0982     0.0100
  463.0000   -16.3691    11.8578    12.6690    92.5234     7.5392     2.5150     0.1012     0.0104
  463.5000   -16.3686    11.8175    12.6461    92.4077     7.5372     2.5154     0.1040     0.0109
  464.0000   -16.4548    11.7773    12.6231    92.0587     7.5352     2.5184     0.0996     0.0114
  464.5000   -16.6210    11.7373    12.6003    90.3409     7.5332     2.5210     0.0975     0.0119
  465.0000   -16.8663    11.6974    12.5775    89.6949     7.5311     2.5210     0.0972     0.0123
  465.5000   -17.6009    11.6577    12.5547    89.4887     7.5292     2.5217     0.0969     0.0128
  466.0000   -17.7570    11.6180    12.5320    89.4652     7.5272     2.5255     0.0926     0.0132
  466.5000   -17.7600    11.5785    12.5093    89.4445     7.5251     2.5289     0.0902     0.0133
  467.0000   -17.7582    11.5745    12.4867    89.4233     7.5231     2.5276     0.0899     0.0130
  467.5000   -17.7579    11.5745    12.4639    89.4018     7.5212     2.5261     0.0896     0.0127
  468.0000   -17.7576    11.5746    12.4437    89.3802     7.5191     2.5300     0.0893     0.0124
  468.5000   -17.7579    11.5746    12.4246    89.3584     7.5171     2.5352     0.0881     0.0121
  469.0000   -17.7813    11.5746    12.4053    89.3359     7.5151     2.5372     0.0868     0.0117
  469.5000   -17.9128    11.5746    12.3861    89.3102     7.5131     2.5295     0.0888     0.0114
  470.0000   -18.0421    11.5746    12.3669    89.4404     7.5111     2.5208     0.0948     0.0111
  470.5000   -18.1712    11.5746    12.3477    90.2984     7.5091     2.5143     0.1001     0.0108
  471.0000   -18.3004    11.5748    12.1820    93.1393     7.5071     2.5168     0.0999     0.0105
  471.5000   -18.4298    11.5739    11.9813    94.3812     7.5051     2.5212     0.0978     0.0102
  472.0000   -18.5495    11.5718    11.7839    94.3231     7.5031     2.5264     0.0956     0.0098
  472.5000   -18.5523    11.5783    11.5898    95.6907     7.5012     2.5318     0.0935     0.0095
  473.0000   -18.5517    11.2167    11.3989    97.0549     7.5034     2.5307     0.0913     0.0092
  473.5000   -18.5516    10.9739    11.2221    97.3007     7.5115     2.5280     0.0908     0.0089
  474.0000   -18.5516    10.7540    11.0791    97.5083     7.5196     2.5254     0.0908     0.0086
  474.5000   -18.5516    10.7866    10.9378    97.7201     7.5200     2.5229     0.0927     0.0083
  475.0000   -18.5516    10.8171    10.7984    97.9327     7.5207     2.5167     0.0957     0.0080
