~VERSION INFORMATION
 VERS.                2.0:   CWLS LOG ASCII STANDARD - VERSION 2.0
 WRAP.                 NO:   ONE LINE PER DEPTH STEP
~WELL INFORMATION
#MNEM.UNIT      DATA TYPE    INFORMATION
#----------   ------------   ------------------------------
 STRT.F            4.0000:   START DEPTH
 STOP.F          528.0000:   STOP DEPTH
 STEP.F            0.1000:   STEP LENGTH
 NULL.          -999.2500:   NO VALUE
 COMP. BROWN JOHN E&C INC:   COMPANY
 WELL.    84-1 SHX- #84-3:   WELL
 FLD .        TEAPOT DOME:   FIELD
 LOC .       S3 T38N R78W:   LOCATION
 CNTY.            NATRONA:   COUNTY
 STAT.            WYOMING:   STATE
 CTRY. UNITED STATES OF AMERICA:   COUNTRY
 SRVC.     Atlas Wireline:   SERVICE COMPANY
 DATE.        18-JAN-1992:   LOGDATE
 API .       490252249900:   API NUMBER
~CURVE INFORMATION
#MNEM.UNIT       API CODE    CURVE DESCRIPTION
#----------   ------------   ------------------------------
 DEPT.F                  :   
 GRR .GAPI   07 310 01 00:   GAMMA RAY
 RILD.OHMM   07 120 46 00:   INDUCTION LOG DEEP RESISTIVITY
 RILM.OHMM   07 120 44 00:   INDUCTION LOG MEDIUM RESISTIVITY
~PARAMETER INFORMATION
#MNEM.UNIT          VALUE    DESCRIPTION
#----------   ------------   ------------------------------
 PD  .                 GL:   PERMANENT DATUM
 EPD .F              5147:   ELEVATION PERMANENT DATUM
 LMF .                 KB:   LOG MEASURED FROM
 DAPD.F                10:   FEET ABOVE PERMANENT DATUM
 DMF .                 KB:   DRILLING MEASURED FROM
 EKB .F              5157:   KELLING BUSHING
 EDF .F              5156:   DRILLING FLOOR
 EGL .F              5147:   GROUND LEVEL
 DATE.        18-JAN-1992:   RUN DATE
 RUN .                  1:   RUN NUMBER
 DD  .F               842:   DEPTH DRILLER
 DL  .F               837:   DEPTH LOGGER
 BLI .F               835:   BOTTOM LOG INTERVAL
 TLI .F                 4:   TOP LOG INTERVAL
 CS  .IN            8.625:   CASING SIZE
 CBD .F                39:   CASING BOTTOM DRILLER
 CBL .F                56:   CASING BOTTOM LOGGER
 BS  .IN             8.75:   BIT SIZE
 BSD .F               842:   BIT SIZE AT DEPTH
 DFT .                AIR:   DRILLING FLUID TYPE
 LUN .           HL- 6272:   LOGGING UNIT NUMBER
 LUL .             CASPER:   LOGGING UNIT LOCATION
 ENGI.       P. RASMUSSEN:   RECORDING ENGINEER
 WITN.          G. STRONG:   WITNESSED BY
 CLNT.            A2DTECH:   CLIENT CODE
 ORIG.           5" PRINT:   ORIGIN OF DATA
 UWI .       490252249900:   UNIQUE WELL ID
 DICO. A2D Technologies, Inc.:   DIGITIZING COMPANY
~OTHER INFORMATION
~A    DEPT      GRR      RILD       RILM   
# ...
  513.6000  -999.2500     8.4644     8.8047
  513.7000  -999.2500     8.3783     8.7455
  513.8000  -999.2500     8.2831     8.7450
  513.9000  -999.2500     8.1684     8.7155
  514.0000  -999.2500     8.0197     8.6829
  514.1000  -999.2500     7.8367     8.6767
  514.2000  -999.2500     7.6186     8.6211
  514.3000  -999.2500     7.4690     8.5355
  514.4000  -999.2500     7.3200     8.4087
  514.5000  -999.2500     7.1670     8.2667
  514.6000  -999.2500     7.0415     8.1114
  514.7000  -999.2500     6.8607     7.8697
  514.8000  -999.2500     6.6950     7.6247
  514.9000  -999.2500     6.6007     7.3703
  515.0000  -999.2500     6.5479     7.1789
  515.1000  -999.2500     6.4734     7.0665
  515.2000  -999.2500     6.3965     6.9858
  515.3000  -999.2500     6.2929     6.9076
  515.4000  -999.2500     6.1606     6.8586
  515.5000  -999.2500     6.0385     6.7797
  515.6000  -999.2500     5.9267     6.6650
  515.7000  -999.2500     5.7925     6.5506
  515.8000  -999.2500     5.6391     6.3764
  515.9000  -999.2500     5.5863     6.1759
  516.0000  -999.2500     5.5229     6.0125
  516.1000  -999.2500     5.4716     5.8997
  516.2000  -999.2500     5.4403     5.7670
  516.3000  -999.2500     5.4068     5.6208
  516.4000  -999.2500     5.3784     5.5115
  516.5000  -999.2500     5.3689     5.4070
  516.6000  -999.2500     5.3688     5.3039
  516.7000  -999.2500     5.3761     5.1941
  516.8000  -999.2500     5.4062     5.1309
  516.9000  -999.2500     5.4060     5.0508
  517.0000  -999.2500     5.4059     4.9849
  517.1000  -999.2500     5.4058     4.9411
  517.2000  -999.2500     5.4161     4.9249
  517.3000  -999.2500     5.4435     4.9530
  517.4000  -999.2500     5.4433     5.0361
  517.5000  -999.2500     5.4432     5.1880
  517.6000  -999.2500     5.4431     5.3196
  517.7000  -999.2500     5.4565     5.4188
  517.8000  -999.2500     5.4876     5.5407
  517.9000  -999.2500     5.5194     5.6538
  518.0000  -999.2500     5.5192     5.7842
  518.1000  -999.2500     5.5430     5.9304
  518.2000  -999.2500     5.5577     6.0771
  518.3000  -999.2500     5.5672     6.2435
  518.4000  -999.2500     5.5989     6.3648
  518.5000  -999.2500     5.6356     6.4268
  518.6000  -999.2500     5.6905     6.5460
  518.7000  -999.2500     5.7557     6.6803
  518.8000  -999.2500     5.8484     6.7879
  518.9000  -999.2500     5.9831     6.8710
  519.0000  -999.2500     6.1283     7.0518
  519.1000  -999.2500     6.2621     7.1695
  519.2000  -999.2500     6.4067     7.2505
  519.3000  -999.2500     6.5543     7.3237
  519.4000  -999.2500     6.6948     7.3658
  519.5000  -999.2500     6.8117     7.3653
  519.6000  -999.2500     6.9981     7.3956
  519.7000  -999.2500     7.1635     7.4370
  519.8000  -999.2500     7.3455     7.4900
  519.9000  -999.2500     7.4989     7.5733
  520.0000  -999.2500     7.6341     7.6157
  520.1000  -999.2500     7.8258     7.6929
  520.2000  -999.2500     7.9488     7.7799
  520.3000  -999.2500     8.0541     7.8677
  520.4000  -999.2500     8.1896     7.9604
  520.5000  -999.2500     8.3668     8.1165
  520.6000  -999.2500     8.5104     8.2344
  520.7000  -999.2500     8.6080     8.3748
  520.8000  -999.2500     8.7456     8.4989
  520.9000  -999.2500     8.8964     8.5949
  521.0000  -999.2500     9.0156     8.7010
  521.1000  -999.2500     9.0669     8.8815
  521.2000  -999.2500     9.1250     9.0148
  521.3000  -999.2500     9.2165     9.1167
  521.4000  -999.2500     9.2875     9.2092
  521.5000  -999.2500     9.3179     9.2626
  521.6000  -999.2500     9.3177     9.3637
  521.7000  -999.2500     9.3174     9.4305
  521.8000  -999.2500     9.2658     9.4569
  521.9000  -999.2500     9.2521     9.4700
  522.0000  -999.2500     9.2246     9.5219
  522.1000  -999.2500     9.1872     9.5212
  522.2000  -999.2500     9.1870     9.5206
  522.3000  -999.2500     9.1867     9.5199
  522.4000  -999.2500     9.1427     9.5192
  522.5000  -999.2500     9.1223     9.5185
  522.6000  -999.2500     9.1221     9.5178
  522.7000  -999.2500     9.1219     9.5173
  522.8000  -999.2500     9.1216     9.5166
  522.9000  -999.2500     9.1214     9.5159
  523.0000  -999.2500     9.1954     9.5225
  523.1000  -999.2500     9.2750     9.5812
  523.2000  -999.2500     9.3278     9.5806
  523.3000  -999.2500     9.3808     9.6521
  523.4000  -999.2500     9.4449     9.7376
  523.5000  -999.2500     9.4882     9.7921
  523.6000  -999.2500     9.5108     9.8494
  523.7000  -999.2500     9.5297     9.8488
  523.8000  -999.2500     9.5839     9.8883
  523.9000  -999.2500     9.6440     9.9437
  524.0000  -999.2500     9.6439     9.9993
  524.1000  -999.2500     9.6808    10.0546
  524.2000  -999.2500     9.7359    10.0539
  524.3000  -999.2500     9.7913    10.0974
  524.4000  -999.2500     9.8474    10.1540
  524.5000  -999.2500     9.8472    10.2109
  524.6000  -999.2500     9.8902    10.2641
  524.7000  -999.2500     9.9158    10.2632
  524.8000  -999.2500     9.9335    10.3111
  524.9000  -999.2500     9.9900    10.3688
  525.0000  -999.2500    10.0547    10.4269
  525.1000  -999.2500    10.1042    10.4852
  525.2000  -999.2500    10.1248    10.5505
  525.3000  -999.2500    10.1246    10.5499
  525.4000  -999.2500    10.1244    10.5882
  525.5000  -999.2500    10.1241    10.6223
  525.6000  -999.2500    10.1239    10.6325
  525.7000  -999.2500    10.1236    10.6953
  525.8000  -999.2500    10.1528    10.6946
  525.9000  -999.2500    10.1942    10.6938
  526.0000  -999.2500    10.1940    10.6931
  526.1000  -999.2500    10.1937    10.6923
  526.2000  -999.2500    10.1935    10.6916
  526.3000  -999.2500    10.1933    10.6909
  526.4000  -999.2500    10.1930    10.6901
  526.5000  -999.2500    10.1928    10.6893
  526.6000  -999.2500    10.1926    10.6886
  526.7000  -999.2500    10.1924    10.6914
  526.8000  -999.2500    10.1517    10.7619
  526.9000  -999.2500    10.1208    10.8115
  527.0000  -999.2500    10.1206    10.8721
  527.1000  -999.2500    10.1193    10.9330
  527.2000  -999.2500    10.0616    10.9942
  527.3000  -999.2500    10.0041    11.0632
  527.4000  -999.2500     9.9469    11.1177
  527.5000  -999.2500     9.8901    11.1799
  527.6000  -999.2500     9.8401    11.2425
  527.7000  -999.2500     9.8398    11.3055
  527.8000  -999.2500     9.7899    11.3728
  527.9000  -999.2500     9.7707    11.4325
  528.0000  -999.2500     9.7704    11.5309
