~VERSION INFORMATION
 VERS.                2.0:   CWLS LOG ASCII STANDARD - VERSION 2.0
 WRAP.                 NO:   ONE LINE PER DEPTH STEP
~WELL INFORMATION
#MNEM.UNIT      DATA TYPE    INFORMATION
#----------   ------------   ------------------------------
 STRT.F           60.0000:   START DEPTH
 STOP.F         3052.0000:   STOP DEPTH
 STEP.F            0.5000:   STEP LENGTH
 NULL.          -999.2500:   NO VALUE
 COMP.   FLUOR DANIEL INC:   COMPANY
 WELL. NAVAL PETROLEUM RESERVE 3 X-14 #57-14:   WELL
 FLD .            WILDCAT:   FIELD
 LOC .      S14 T38N R78W:   LOCATION
 CNTY.            NATRONA:   COUNTY
 STAT.            WYOMING:   STATE
 CTRY. UNITED STATES OF AMERICA:   COUNTRY
 SRVC.            Unknown:   SERVICE COMPANY
 DATE.        16-MAY-1995:   LOGDATE
 API .       490252272000:   API NUMBER
~CURVE INFORMATION
#MNEM.UNIT       API CODE    CURVE DESCRIPTION
#----------   ------------   ------------------------------
 DEPT.F                  :   
 ROP .FT/HR  91 810 01 00:   RAT OF DRILLING PENETRATION
 TGAS.TC/CC  91 830 01 00:   TOTAL GAS UNIT
~PARAMETER INFORMATION
#MNEM.UNIT          VALUE    DESCRIPTION
#----------   ------------   ------------------------------
 EKB .F              5312:   KELLING BUSHING
 EGL .F              5302:   GROUND LEVEL
 DATE.        16-MAY-1995:   RUN DATE
 RUN .                  1:   RUN NUMBER
 BLI .F              3062:   BOTTOM LOG INTERVAL
 TLI .F                60:   TOP LOG INTERVAL
 ENGI.     C.TOWER/R.HUSK:   RECORDING ENGINEER
 CLNT.            A2DTECH:   CLIENT CODE
 ORIG.           5" PRINT:   ORIGIN OF DATA
 UWI .       490252272000:   UNIQUE WELL ID
 DICO. A2D Technologies, Inc.:   DIGITIZING COMPANY
~OTHER INFORMATION
~A   DEPT        ROP       TGAS 
# ...
 2976.0000     0.5207     1.5315
 2976.5000     0.5211     1.5453
 2977.0000     0.5215     1.5563
 2977.5000     0.5219     1.3759
 2978.0000     0.5223     1.3897
 2978.5000     0.5227     1.5894
 2979.0000     0.5231     1.6004
 2979.5000     0.5235     1.4226
 2980.0000     0.5239     1.4340
 2980.5000     0.5243     1.2561
 2981.0000     0.5247     1.2699
 2981.5000     0.5251     1.0895
 2982.0000     0.5255     1.2920
 2982.5000     0.5259     1.3030
 2983.0000     0.5263     1.3140
 2983.5000     0.5267     1.3250
 2984.0000     0.5271     1.3361
 2984.5000     0.5275     1.1584
 2985.0000     0.5279     1.1698
 2985.5000     0.5283     0.9918
 2986.0000     0.5287     1.1943
 2986.5000     0.5291     1.2053
 2987.0000     0.5295     1.2163
 2987.5000     0.5299     1.2264
 2988.0000     0.5303     1.2384
 2988.5000     0.5308     1.2494
 2989.0000     0.4372     1.2604
 2989.5000     0.4469     1.2717
 2990.0000     0.4474     1.0938
 2990.5000     0.4478     1.2963
 2991.0000     0.4479     1.1158
 2991.5000     0.4479     1.1296
 2992.0000     0.4479     1.1407
 2992.5000     0.4478     1.1517
 2993.0000     0.4478     1.3514
 2993.5000     0.4477     1.3624
 2994.0000     0.4477     1.3736
 2994.5000     0.4477     1.3849
 2995.0000     0.4476     1.3982
 2995.5000     0.4476     1.4093
 2996.0000     0.4475     1.6090
 2996.5000     0.4475     1.6200
 2997.0000     0.4474     1.6310
 2997.5000     0.4474     1.2619
 2998.0000     0.4474     1.0868
 2998.5000     0.4473     0.9094
 2999.0000     0.4473     0.7317
 2999.5000     0.4472     0.7455
 3000.0000     0.4472     0.7566
 3000.5000     0.4472     0.7676
 3001.0000     0.4471     0.7786
 3001.5000     0.4471     0.7896
 3002.0000     0.4470     0.8007
 3002.5000     0.4470     1.0004
 3003.0000     0.4470     1.2001
 3003.5000     0.4469     1.4000
 3004.0000     0.4469     1.6022
 3004.5000     0.4468     1.6133
 3005.0000     0.4468     1.6243
 3005.5000     0.4468     1.4439
 3006.0000     0.4467     1.4577
 3006.5000     0.4467     1.4687
 3007.0000     0.4466     1.4797
 3007.5000     0.4466     1.4908
 3008.0000     0.4466     1.5019
 3008.5000     0.4465     1.5132
 3009.0000     0.4465     1.5266
 3009.5000     0.4464     1.5376
 3010.0000     0.4464     1.3600
 3010.5000     0.4464     1.3710
 3011.0000     0.4463     1.3820
 3011.5000     0.4463     1.2044
 3012.0000     0.4462     1.2154
 3012.5000     0.4462     1.2264
 3013.0000     0.4462     1.2581
 3013.5000     0.4461     1.4399
 3014.0000     0.4461     1.4509
 3014.5000     0.4460     1.4620
 3015.0000     0.4460     1.4730
 3015.5000     0.4460     1.4830
 3016.0000     0.4459     1.4950
 3016.5000     0.4459     1.5061
 3017.0000     0.4458     1.5171
 3017.5000     0.4458     1.5283
 3018.0000     0.4458     1.7283
 3018.5000     0.4457     1.7416
 3019.0000     0.4457     1.7526
 3019.5000     0.4456     1.5722
 3020.0000     0.4456     1.5860
 3020.5000     0.4456     1.4084
 3021.0000     0.4455     1.4194
 3021.5000     0.5210     1.4304
 3022.0000     0.5440     1.4415
 3022.5000     0.5500     1.2638
 3023.0000     0.5505     1.0889
 3023.5000     0.5509     1.0999
 3024.0000     0.5513     1.1094
 3024.5000     0.5517     0.9305
 3025.0000     0.5522     0.9443
 3025.5000     0.5526     0.9547
 3026.0000     0.5530     0.9664
 3026.5000     0.5534     0.9774
 3027.0000     0.5539     1.1774
 3027.5000     0.5543     1.1909
 3028.0000     0.5547     1.2019
 3028.5000     0.5551     1.2129
 3029.0000     0.5555     1.2240
 3029.5000     0.5560     1.2350
 3030.0000     0.5564     1.2460
 3030.5000     0.5568     1.2570
 3031.0000     0.5572     1.2681
 3031.5000     0.5577     1.2792
 3032.0000     0.5581     1.2906
 3032.5000     0.5585     1.1125
 3033.0000     0.5589     1.1263
 3033.5000     0.5596     0.9486
 3034.0000     0.6726     0.9596
 3034.5000     0.6730     0.9707
 3035.0000     0.6639     0.9811
 3035.5000     0.6644     0.8040
 3036.0000     0.6648     0.8151
 3036.5000     0.6657     0.8264
 3037.0000     0.6669     0.8399
 3037.5000     0.6682     0.8509
 3038.0000     0.6694     0.8619
 3038.5000     0.6707     0.8729
 3039.0000     0.6719     0.8840
 3039.5000     0.6731     0.8950
 3040.0000     0.6744     1.0947
 3040.5000     0.6756     1.2944
 3041.0000     0.6768     1.4943
 3041.5000     0.6781     1.5079
 3042.0000     0.6793     1.5189
 3042.5000     0.5294     1.5300
 3043.0000     0.5392     1.5410
 3043.5000     0.5396     1.5520
 3044.0000     0.5400     1.5630
 3044.5000     0.5405     1.5741
 3045.0000     0.5409     1.5851
 3045.5000     0.5507     1.5962
 3046.0000     0.5547     1.4185
 3046.5000     0.6549     1.4322
 3047.0000     0.6648     1.4433
 3047.5000     0.6746     1.4543
 3048.0000     0.6657     1.4653
 3048.5000     0.6661     1.4764
 3049.0000     0.6665     1.2959
 3049.5000     0.6575     1.3097
 3050.0000     0.6203     1.1321
 3050.5000     0.6208     1.1434
 3051.0000     0.6212     1.3456
 3051.5000     0.6216     1.3566
 3052.0000     0.6220     1.5547
