~VERSION INFORMATION
 VERS.                2.0:   CWLS LOG ASCII STANDARD - VERSION 2.0
 WRAP.                 NO:   ONE LINE PER DEPTH STEP
~WELL INFORMATION
#MNEM.UNIT      DATA TYPE    INFORMATION
#----------   ------------   ------------------------------
 STRT.F           21.0000:   START DEPTH
 STOP.F          543.0000:   STOP DEPTH
 STEP.F            0.5000:   STEP LENGTH
 NULL.          -999.2500:   NO VALUE
 COMP. FENIX & SCISSON INC:   COMPANY
 WELL.      NPR #3 #46-10:   WELL
 FLD .             TEAPOT:   FIELD
 LOC .      S10 T38N R78W:   LOCATION
 CNTY.            NATRONA:   COUNTY
 STAT.            WYOMING:   STATE
 CTRY. UNITED STATES OF AMERICA:   COUNTRY
 SRVC.              Welex:   SERVICE COMPANY
 DATE.        08-MAY-1980:   LOGDATE
 API .       490251081100:   API NUMBER
~CURVE INFORMATION
#MNEM.UNIT       API CODE    CURVE DESCRIPTION
#----------   ------------   ------------------------------
 DEPT.F                  :   
 SGRD.OHMM   07 220 05 00:   SHALLOW GUARD RESISTIVITY
 ILD .OHMM   07 120 46 00:   INDUCTION LOG DEEP RESISTIVITY
 ILM .OHMM   07 120 44 00:   INDUCTION LOG MEDIUM
 SPR .MV     07 010 01 00:   SPONTANEOUS POTENTIAL
 CALD.IN     45 280 60 00:   CALIPER
 GRD .GAPI   45 310 01 00:   GAMMA RAY FROM DENSITY LOG
 CORR.G/C3   45 356 01 00:   DENSITY CORRECTION
 RHOB.G/C3   45 350 01 00:   BULK DENSITY
 DPHI.DEC    45 890 12 00:   DENSITY POROSITY SANDSTONE
~PARAMETER INFORMATION
#MNEM.UNIT          VALUE    DESCRIPTION
#----------   ------------   ------------------------------
 PD  .                 GL:   PERMANENT DATUM
 EPD .F              5206:   ELEVATION PERMANENT DATUM
 LMF .                 KB:   LOG MEASURED FROM
 DAPD.F                 5:   FEET ABOVE PERMANENT DATUM
 DMF .                 KB:   DRILLING MEASURED FROM
 EKB .F              5211:   KELLING BUSHING
 EGL .F              5206:   GROUND LEVEL
 DATE.             5-8-80:   RUN DATE
 RUN .                  1:   RUN NUMBER
 DD  .F               530:   DEPTH DRILLER
 DL  .F               543:   DEPTH LOGGER
 BLI .F               541:   BOTTOM LOG INTERVAL
 TLI .F                30:   TOP LOG INTERVAL
 BS  .IN            7.875:   BIT SIZE
 BSD .F               530:   BIT SIZE AT DEPTH
 DFT .            KCL MUD:   DRILLING FLUID TYPE
 DFD .                9.1:   DRILLING FLUID DENSITY
 DFV .                 43:   DRILLING FLUID VISCOSITY
 MSS .                PIT:   MUD SAMPLE SOURCE
 RMS .OHMM            .89:   RESISTIVITY MUD SAMPLE
 MST .F                75:   MUD SAMPLE TEMPERATURE
 RMF .OHMM            .71:   RESISTIVITY MUD FILTRATE SAMPLE
 MFST.F                75:   MUD FILTRATE SAMPLE TEMPERATURE
 RMC .OHMM           1.08:   RESISTIVITY MUD CAKE
 MCST.F                75:   MUD CAKE SAMPLE TEMPERATURE
 MFSS.           MEASURED:   MUD FILTRATE SAMPLE SOURCE
 MCSS.           MEASURED:   MUD CAKE SAMPLE SOURCE
 BHT .F               100:   BOTTOM HOLE TEMPERATURE
 TCS .HRS               2:   TIME CURCULATED STOPPED
 MRT .F               100:   MAXIMUM RECORDED TEMPERATURE
 LUN .               9685:   LOGGING UNIT NUMBER
 LUL .             CASPER:   LOGGING UNIT LOCATION
 ENGI.            TOTHILL:   RECORDING ENGINEER
 WITN.              AMEND:   WITNESSED BY
 CLNT.            A2DTECH:   CLIENT CODE
 ORIG.           5" PRINT:   ORIGIN OF DATA
 UWI .       490251081100:   UNIQUE WELL ID
 DICO. A2D Technologies, Inc.:   DIGITIZING COMPANY
~OTHER INFORMATION
~A   DEPT     SGRD        ILD        ILM        SPR        CALD        GRD        CORR       RHOB     DPHI   
   21.0000  -999.2500  -999.2500  -999.2500  -999.2500    10.6819    73.8024     0.0674     1.8232  -999.2500
   21.5000  -999.2500  -999.2500  -999.2500  -999.2500    10.6819    74.4012     0.0624     1.8123  -999.2500
   22.0000  -999.2500  -999.2500  -999.2500  -999.2500    10.7783    75.0620     0.0585     1.8178  -999.2500
   22.5000  -999.2500  -999.2500  -999.2500  -999.2500    10.8189    75.8527     0.0699     1.8244  -999.2500
   23.0000  -999.2500  -999.2500  -999.2500  -999.2500    10.9044    76.6737     0.0774     1.8300  -999.2500
   23.5000  -999.2500  -999.2500  -999.2500  -999.2500    10.9901    77.4060     0.0693     1.8227  -999.2500
   24.0000  -999.2500  -999.2500  -999.2500  -999.2500    10.8447    77.9595     0.0583     1.8151  -999.2500
   24.5000  -999.2500  -999.2500  -999.2500  -999.2500    10.5646    77.6670     0.0507     1.8075  -999.2500
   25.0000  -999.2500  -999.2500  -999.2500  -999.2500    10.3440    77.3911     0.0498     1.8042  -999.2500
   25.5000  -999.2500  -999.2500  -999.2500  -999.2500    10.3423    77.0338     0.0469     1.8067  -999.2500
   26.0000  -999.2500  -999.2500  -999.2500  -999.2500    10.4805    76.7772     0.0474     1.8104  -999.2500
   26.5000  -999.2500  -999.2500  -999.2500  -999.2500    10.6624    76.5459     0.0552     1.8141  -999.2500
   27.0000  -999.2500  -999.2500  -999.2500  -999.2500    10.8452    76.4881     0.0616     1.8160  -999.2500
   27.5000  -999.2500  -999.2500  -999.2500  -999.2500    10.8790    76.1769     0.0659     1.8098  -999.2500
   28.0000  -999.2500  -999.2500  -999.2500  -999.2500    10.9115    76.1719     0.0714     1.8078  -999.2500
   28.5000  -999.2500  -999.2500  -999.2500  -999.2500    11.0485    76.0855     0.0734     1.7989  -999.2500
   29.0000  -999.2500  -999.2500  -999.2500  -999.2500    11.1832    75.9958     0.0717     1.7947  -999.2500
   29.5000  -999.2500  -999.2500  -999.2500  -999.2500    10.5742    75.9066     0.0682     1.7934  -999.2500
   30.0000     8.9487     2.2495     3.5999   -48.1517     9.6201    75.8174     0.0675     1.8075  -999.2500
   30.5000     6.4348     2.2703     3.6669   -48.7354     8.9336    75.7285     0.0678     1.8328  -999.2500
   31.0000     8.5030     2.2288     3.6669   -48.9706     8.6818    75.6389     0.0683     1.8202  -999.2500
   31.5000    10.6542     2.2567     3.6759   -49.1536     8.8100    75.5999     0.0603     1.8008  -999.2500
   32.0000    14.6515     2.2810     3.6669   -49.3246     9.0188    75.5999     0.0521     1.7998  -999.2500
   32.5000    17.6040     2.3055     3.9048   -49.1158     9.6529    75.5770     0.0560     1.8181  -999.2500
   33.0000    16.9432     2.3302     4.0787   -48.9276     9.8271    75.3558     0.0652     1.8577  -999.2500
   33.5000    17.1031     2.3551     4.2604   -48.3591     9.9445    75.0831     0.0652     1.8641  -999.2500
   34.0000    17.1045     2.3803     4.4502   -47.6049     9.9806    75.3311     0.0583     1.8691  -999.2500
   34.5000    15.7365     2.3994     4.3583   -46.8297     9.9974    75.9108     0.0520     1.8903  -999.2500
   35.0000    14.6954     2.3899     4.2497   -46.3476     9.9714    75.7554     0.0477     1.9198  -999.2500
   35.5000    13.7226     2.3822     4.1438   -45.7841     9.8880    75.0024     0.0456     1.9353  -999.2500
   36.0000    12.8481     2.3670     4.0582   -45.2649     9.8014    74.2682     0.0501     1.9536  -999.2500
   36.5000    12.4976     2.3388     3.9841   -44.6756     9.8849    73.5965     0.0627     1.9844  -999.2500
   37.0000    12.1035     2.3110     4.0210   -44.0865     9.8984    73.1338     0.0645     1.9783  -999.2500
   37.5000    11.7165     2.2907     4.0582   -43.4983     9.4160    72.9145     0.0606     1.9708  -999.2500
   38.0000    11.3522     2.2901     4.0582   -42.9101     8.9545    72.9016     0.0582     1.9652  -999.2500
   38.5000    10.8699     2.3188     4.0582   -42.3219     8.7691    72.8964     0.0583     1.9557  -999.2500
   39.0000    10.4826     2.3630     4.1793   -41.7331     8.7846    72.5514     0.0551     1.9353  -999.2500
   39.5000    10.1096     2.4065     4.2506   -41.1425     8.8344    71.9906     0.0506     1.9157  -999.2500
   40.0000     9.6924     2.4511     4.2887   -40.7080     8.7812    71.7077     0.0505     1.9012  -999.2500
   40.5000     8.9276     2.4964     4.4115   -40.3461     8.7328    70.2904     0.0556     1.8887  -999.2500
   41.0000     8.2233     2.5426     4.5321   -39.9919     8.8618    68.9171     0.0624     1.8743  -999.2500
   41.5000     7.5745     2.5896     4.3929   -39.9780     9.2045    67.7213     0.0718     1.8642  -999.2500
   42.0000     6.9768     2.6672     4.2873   -39.9803     9.5436    67.3680     0.0850     1.8623  -999.2500
   42.5000     6.3727     2.7648     4.5226   -39.9805     9.8911    67.2006     0.0986     1.8691  -999.2500
   43.0000     6.4323     2.8661     4.7550   -39.9805    10.0385    67.9073     0.1043     1.8814  -999.2500
   43.5000     6.6786     2.9710     4.9994   -39.9805    10.1495    68.9951     0.1044     1.8915  -999.2500
   44.0000     7.4457     3.0776     5.2533   -39.9800    10.5685    71.0737     0.1010     1.8998  -999.2500
   44.5000     8.3005     3.2263     5.8581   -39.9790    10.8226    73.1797     0.0777     1.8866  -999.2500
   45.0000     9.0091     3.3792     6.3746   -40.0188    10.9765    75.1249     0.0648     1.8882  -999.2500
   45.5000     8.6049     3.5393     6.4065   -40.3391    11.0025    76.8330     0.0520     1.9072  -999.2500
   46.0000     8.1367     3.7069     6.4348   -40.6225    10.8526    77.5588     0.0487     1.9156  -999.2500
   46.5000     7.8798     3.8826     7.0265   -40.9089    10.6266    79.5811     0.0594     1.9493  -999.2500
   47.0000     8.4508     4.0159     7.7646   -41.1753    10.4574    82.1811     0.0511     1.9861  -999.2500
   47.5000     8.8129     4.0887     8.2536   -41.4341    10.2398    84.6142     0.0426     2.0022  -999.2500
   48.0000     8.0929     4.1629     7.5285   -41.6943    10.0274    87.0505     0.0368     2.0501  -999.2500
   48.5000     7.3892     4.2107     6.9205   -41.9545     9.6037    89.4831     0.0398     2.1366  -999.2500
   49.0000     7.2542     4.1846     6.5504   -42.2138     9.0301    91.8927     0.0454     2.2237  -999.2500
   49.5000     7.5267     4.1402     6.2001   -42.4686     8.4514    93.9431     0.0496     2.3138  -999.2500
   50.0000     7.0910     4.0964     6.2437   -42.9124     7.8852    94.6112     0.0520     2.4015     0.1656
   50.5000     6.6756     4.0533     6.3090   -42.9600     7.6052    95.9372     0.0609     2.4224     0.1496
   51.0000     6.8801     4.0105     6.3739   -43.0126     7.7436    96.5474     0.0600     2.4269     0.1504
   51.5000     6.9923     3.9683     6.4348   -43.0669     7.8733    97.5867     0.0483     2.4049     0.1601
   52.0000     6.6219     3.9264     6.1879   -43.0778     7.9545    98.1790     0.0441     2.4022     0.1645
   52.5000     6.3758     3.8851     5.9656   -42.9485     7.9431    98.0833     0.0472     2.4042     0.1604
   53.0000     6.1449     3.8441     5.8681   -42.9013     7.9259    99.1177     0.0442     2.4028     0.1644
   53.5000     6.1555     3.8037     5.8681   -42.8950     7.9094    99.5907     0.0463     2.3987     0.1636
   54.0000     6.2624     3.7699     5.9449   -42.7499     7.9133    99.6819     0.0408     2.3891     0.1704
   54.5000     6.3712     3.7705     6.0916   -42.7037     7.9536    99.7628     0.0426     2.3921     0.1719
   55.0000     6.4945     3.7697     6.1449   -42.3411     7.9756    99.8701     0.0412     2.3873     0.1715
   55.5000     6.4258     3.7351     6.0252   -41.7898     7.9681   100.6021     0.0399     2.3826     0.1739
   56.0000     6.3195     3.7351     5.9773   -41.2283     7.9610   101.3607     0.0385     2.3781     0.1762
   56.5000     6.3142     3.7614     5.9773   -40.6716     7.9538   102.1134     0.0318     2.3679     0.1847
   57.0000     6.4627     3.8227     6.1011   -40.3178     7.9467   102.8785     0.0343     2.3686     0.1847
