~VERSION INFORMATION
 VERS.                2.0:   CWLS LOG ASCII STANDARD - VERSION 2.0
 WRAP.                 NO:   ONE LINE PER DEPTH STEP
~WELL INFORMATION
#MNEM.UNIT      DATA TYPE    INFORMATION
#----------   ------------   ------------------------------
 STRT.F           28.0000:   START DEPTH
 STOP.F          563.0000:   STOP DEPTH
 STEP.F            0.1000:   STEP LENGTH
 NULL.          -999.2500:   NO VALUE
 COMP.       F D SERV INC:   COMPANY
 WELL.    SX-3 62-4 #62-3:   WELL
 FLD .          N.P.R. #3:   FIELD
 LOC .       S3 T38N R78W:   LOCATION
 CNTY.            NATRONA:   COUNTY
 STAT.            WYOMING:   STATE
 CTRY. UNITED STATES OF AMERICA:   COUNTRY
 SRVC.     Atlas Wireline:   SERVICE COMPANY
 DATE.        03-MAY-1992:   LOGDATE
 API .       490252252100:   API NUMBER
~CURVE INFORMATION
#MNEM.UNIT       API CODE    CURVE DESCRIPTION
#----------   ------------   ------------------------------
 DEPT.F                  :   
 RILD.OHMM   07 120 46 00:   INDUCTION LOG DEEP RESISTIVITY
 RILM.OHMM   07 120 44 00:   INDUCTION LOG MEDIUM RESISTIVITY
 CALD.IN     45 280 60 00:   CALIPER FROM DENSITY LOG
 CORR.G/C3   45 356 01 00:   DENSITY CORRECTION
 DEN .G/C3   45 350 01 00:   COMPENSATED BULK DENSTIY
 GRD .GAPI   45 310 01 00:   GAMMA RAY FROM DENSITY LOG
 PORD.DEC    45 890 12 00:   POROSITY DENSITY SANDSTONE
~PARAMETER INFORMATION
#MNEM.UNIT          VALUE    DESCRIPTION
#----------   ------------   ------------------------------
 PD  .                 GL:   PERMANENT DATUM
 EPD .F              5156:   ELEVATION PERMANENT DATUM
 LMF .                 KB:   LOG MEASURED FROM
 DAPD.F                 5:   FEET ABOVE PERMANENT DATUM
 DMF .                 KB:   DRILLING MEASURED FROM
 EKB .F              5161:   KELLING BUSHING
 EGL .F              5156:   GROUND LEVEL
 DATE.        03-MAY-1992:   RUN DATE
 RUN .                  1:   RUN NUMBER
 DD  .F               565:   DEPTH DRILLER
 DL  .F               566:   DEPTH LOGGER
 BLI .F               564:   BOTTOM LOG INTERVAL
 TLI .F                50:   TOP LOG INTERVAL
 CS  .IN            8.625:   CASING SIZE
 CBD .F                49:   CASING BOTTOM DRILLER
 CBL .F                50:   CASING BOTTOM LOGGER
 BS  .IN            7.875:   BIT SIZE
 BSD .F               565:   BIT SIZE AT DEPTH
 DFT .        AIR DRILLED:   DRILLING FLUID TYPE
 LUN .             HL 632:   LOGGING UNIT NUMBER
 LUL .           RK. SPGS:   LOGGING UNIT LOCATION
 ENGI.               RALL:   RECORDING ENGINEER
 WITN.             STRONG:   WITNESSED BY
 CLNT.            A2DTECH:   CLIENT CODE
 ORIG.           5" PRINT:   ORIGIN OF DATA
 UWI .       490252252100:   UNIQUE WELL ID
 DICO. A2D Technologies, Inc.:   DIGITIZING COMPANY
~OTHER INFORMATION
~A   DEPT     RILD       RILM       CALD       CORR        DEN        GRD       PORD   
# ...
  410.2000    22.5633    22.8460     8.2823     0.0124     2.2461   115.6736     0.2455
  410.3000    22.6117    22.9587     8.2822     0.0097     2.2476   115.1136     0.2448
  410.4000    22.7187    23.0914     8.2757     0.0057     2.2486   114.3588     0.2443
  410.5000    22.7175    23.2248     8.2668     0.0057     2.2491   113.7614     0.2437
  410.6000    22.7166    23.3590     8.2666     0.0048     2.2494   113.3456     0.2435
  410.7000    22.8209    23.5055     8.2664     0.0035     2.2500   112.9969     0.2432
  410.8000    22.8728    23.8088     8.2547     0.0027     2.2506   112.7427     0.2430
  410.9000    22.9263    23.9316     8.2510     0.0025     2.2506   112.4884     0.2427
  411.0000    23.0589    24.0699     8.2508     0.0012     2.2511   112.2343     0.2422
  411.1000    23.1894    24.2090     8.2506     0.0012     2.2518   111.9406     0.2419
  411.2000    23.1882    24.3488     8.2505     0.0002     2.2524   111.9391     0.2413
  411.3000    23.2994    24.4894     8.2503    -0.0003     2.2530   111.9373     0.2403
  411.4000    23.3478    24.6408     8.2501    -0.0003     2.2536   112.0500     0.2396
  411.5000    23.3469    24.7733     8.2405    -0.0003     2.2544   112.3659     0.2391
  411.6000    23.3459    24.8096     8.2347    -0.0003     2.2544   112.8851     0.2389
  411.7000    23.3524    24.8872     8.2345    -0.0016     2.2539   113.7397     0.2395
  411.8000    23.5063    25.0310     8.2364    -0.0028     2.2527   114.6150     0.2399
  411.9000    23.6236    25.1522     8.2492    -0.0034     2.2510   115.4527     0.2406
  412.0000    23.7603    25.1505     8.2490    -0.0039     2.2497   116.2081     0.2416
  412.1000    23.8978    25.2913     8.2586    -0.0051     2.2476   116.8921     0.2429
  412.2000    23.9966    25.4375     8.2637    -0.0064     2.2459   117.3510     0.2441
  412.3000    24.0080    25.4976     8.2635    -0.0064     2.2440   117.3488     0.2452
  412.4000    24.1615    25.4962     8.2658    -0.0064     2.2421   117.5725     0.2465
  412.5000    24.2868    25.5244     8.2782    -0.0064     2.2404   117.6471     0.2477
  412.6000    24.4273    25.6708     8.2780    -0.0064     2.2393   117.7719     0.2483
  412.7000    24.5687    25.6691     8.2778    -0.0064     2.2393   118.0225     0.2486
  412.8000    24.7108    25.6680     8.2777    -0.0064     2.2393   118.2451     0.2488
  412.9000    24.8538    25.6665     8.2827    -0.0064     2.2401   118.2430     0.2488
  413.0000    25.0079    25.6651     8.2923    -0.0054     2.2414   118.4726     0.2486
  413.1000    25.1423    25.6992     8.2922    -0.0049     2.2431   118.5412     0.2483
  413.2000    25.2879    25.8409     8.2919    -0.0044     2.2455   118.5394     0.2478
  413.3000    25.3541    25.8392     8.2918    -0.0031     2.2475   118.5376     0.2470
  413.4000    25.4045    25.8380     8.2916    -0.0019     2.2505   118.5016     0.2459
  413.5000    25.5515    25.9361     8.2914    -0.0004     2.2531   118.2322     0.2446
  413.6000    25.7050    26.0149     8.2912    -0.0004     2.2557   118.2305     0.2434
  413.7000    25.8481    26.0553     8.2911     0.0004     2.2580   117.8526     0.2418
  413.8000    25.9977    26.1932     8.2909     0.0016     2.2600   117.4848     0.2400
  413.9000    26.0608    26.1915     8.2907     0.0026     2.2626   117.0516     0.2384
  414.0000    26.1177    26.3263     8.2905     0.0027     2.2644   116.3329     0.2368
  414.1000    26.2688    26.4784     8.2903     0.0041     2.2663   115.8081     0.2347
  414.2000    26.4215    26.5530     8.2902     0.0052     2.2682   115.0762     0.2324
  414.3000    26.4202    26.6001     8.2900     0.0056     2.2705   114.1231     0.2304
  414.4000    26.5429    26.7537     8.2898     0.0062     2.2737   113.1119     0.2278
  414.5000    26.6965    26.9193     8.2784     0.0074     2.2769   112.0051     0.2244
  414.6000    26.7861    27.0638     8.2744     0.0087     2.2806   110.8337     0.2192
  414.7000    26.7850    27.2202     8.2742     0.0101     2.2868   110.0657     0.2087
  414.8000    26.7884    27.3775     8.2702     0.0090     2.2945   109.3158     0.1999
  414.9000    26.9690    27.5357     8.2588     0.0069     2.3047   108.5567     0.1937
  415.0000    26.9680    27.6693     8.2586     0.0032     2.3208   108.0995     0.1895
  415.1000    26.9669    27.6674     8.2585    -0.0008     2.3485   107.8453     0.1822
  415.2000    27.0363    27.8221     8.2491    -0.0022     2.3620   107.5912     0.1702
  415.3000    27.1523    27.9828     8.2431    -0.0050     2.3666   107.3400     0.1637
  415.4000    27.1512    28.0493     8.2386    -0.0061     2.3727   107.3378     0.1631
  415.5000    27.1499    28.1115     8.2277    -0.0065     2.3774   107.3363     0.1627
  415.6000    27.1489    28.2738     8.2275    -0.0065     2.3796   107.1776     0.1623
  415.7000    27.2547    28.4371     8.2273    -0.0065     2.3808   107.0311     0.1621
  415.8000    27.3356    28.6323     8.2176    -0.0065     2.3808   107.0293     0.1620
  415.9000    27.3345    28.7668     8.2119    -0.0065     2.3808   107.0365     0.1625
  416.0000    27.3486    28.9331     8.2117    -0.0054     2.3780   107.3270     0.1634
  416.1000    27.5223    29.1002     8.2115    -0.0041     2.3730   107.3255     0.1647
  416.2000    27.5213    29.2281     8.2114    -0.0028     2.3646   107.3237     0.1671
  416.3000    27.5201    29.2339     8.2112    -0.0016     2.3479   107.4355     0.1700
  416.4000    27.5190    29.4280     8.2011    -0.0003     2.3356   107.6217     0.1735
  416.5000    27.5178    29.5727     8.1958     0.0010     2.3226   107.6350     0.1789
  416.6000    27.5374    29.6298     8.2006     0.0033     2.3100   107.9195     0.1855
  416.7000    27.7070    29.6282     8.2105     0.0049     2.2978   108.1361     0.1911
  416.8000    27.7059    29.6265     8.2103     0.0062     2.2832   108.5557     0.2018
  416.9000    27.7047    29.6389     8.2101     0.0079     2.2654   108.9390     0.2128
  417.0000    27.7036    29.8292     8.2099     0.0102     2.2527   109.2599     0.2226
  417.1000    27.7024    29.8277     8.2175     0.0115     2.2494   109.7418     0.2327
  417.2000    27.7013    29.8261     8.2246     0.0139     2.2460   110.0203     0.2383
  417.3000    27.7001    29.8244     8.2273     0.0164     2.2435   110.6913     0.2405
  417.4000    27.6990    29.8228     8.2397     0.0182     2.2416   111.6215     0.2434
  417.5000    27.6978    29.8005     8.2541     0.0200     2.2397   112.6294     0.2459
  417.6000    27.6967    29.6133     8.2540     0.0221     2.2384   113.7138     0.2473
  417.7000    27.6955    29.6117     8.2619     0.0221     2.2406   115.0009     0.2478
  417.8000    27.6630    29.4840     8.2686     0.0221     2.2436   116.6460     0.2483
  417.9000    27.5018    29.3114     8.2717     0.0221     2.2471   117.5654     0.2483
  418.0000    27.5005    29.1398     8.2833     0.0220     2.2515   118.5731     0.2479
  418.1000    27.3707    28.9428     8.2831     0.0220     2.2570   119.5808     0.2470
  418.2000    27.3083    28.5945     8.2829     0.0218     2.2625   120.5062     0.2458
  418.3000    27.1741    28.4330     8.2828     0.0205     2.2660   121.2949     0.2443
  418.4000    26.8942    28.0149     8.2826     0.0193     2.2697   122.3667     0.2411
  418.5000    26.7371    27.7140     8.2824     0.0180     2.2742   123.0738     0.2356
  418.6000    26.5566    27.5517     8.2822     0.0175     2.2795   124.2033     0.2324
  418.7000    26.4260    27.3289     8.2820     0.0170     2.2851   125.3256     0.2300
  418.8000    26.2718    26.8548     8.2819     0.0157     2.2911   126.3333     0.2266
  418.9000    26.1185    26.6679     8.2817     0.0145     2.2971   127.4197     0.2208
  419.0000    25.9267    26.4170     8.2815     0.0130     2.3067   128.9924     0.2109
  419.1000    25.6258    26.1100     8.2853     0.0120     2.3142   130.4447     0.2058
  419.2000    25.2918    25.8702     8.2962     0.0107     2.3200   131.5709     0.2001
