~VERSION INFORMATION
 VERS.                2.0:   CWLS LOG ASCII STANDARD - VERSION 2.0
 WRAP.                 NO:   ONE LINE PER DEPTH STEP
~WELL INFORMATION
#MNEM.UNIT      DATA TYPE    INFORMATION
#----------   ------------   ------------------------------
 STRT.F            2.0000:   START DEPTH
 STOP.F          564.0000:   STOP DEPTH
 STEP.F            0.5000:   STEP LENGTH
 NULL.          -999.2500:   NO VALUE
 COMP.       F D SERV INC:   COMPANY
 WELL. NAVAL PETROLEUM RESERVE 3 SX-3 #88-2-3:   WELL
 FLD .             TEAPOT:   FIELD
 LOC .       S3 T38N R78W:   LOCATION
 CNTY.            NATRONA:   COUNTY
 STAT.            WYOMING:   STATE
 CTRY. UNITED STATES OF AMERICA:   COUNTRY
 SRVC.      Western Atlas:   SERVICE COMPANY
 DATE.        29-OCT-1992:   LOGDATE
 API .       490252255900:   API NUMBER
~CURVE INFORMATION
#MNEM.UNIT       API CODE    CURVE DESCRIPTION
#----------   ------------   ------------------------------
 DEPT.F                  :   
 GRR .GAPI   07 310 01 00:   GAMMA RAY
 RILD.OHMM   07 120 46 00:   INDUCTION LOG DEEP RESISTIVITY
 RILM.OHMM   07 120 44 00:   INDUCTION LOG MEDIUM RESISTIVITY
~PARAMETER INFORMATION
#MNEM.UNIT          VALUE    DESCRIPTION
#----------   ------------   ------------------------------
 PD  .                 GL:   PERMANENT DATUM
 EPD .F              5138:   ELEVATION PERMANENT DATUM
 LMF .                 KB:   LOG MEASURED FROM
 DAPD.F                10:   FEET ABOVE PERMANENT DATUM
 DMF .                 KB:   DRILLING MEASURED FROM
 EKB .F              5148:   KELLING BUSHING
 EDF .F              5147:   DRILLING FLOOR
 EGL .F              5138:   GROUND LEVEL
 DATE.        29-OCT-1992:   RUN DATE
 RUN .                  1:   RUN NUMBER
 DD  .F               570:   DEPTH DRILLER
 DL  .F               572:   DEPTH LOGGER
 BLI .F               564:   BOTTOM LOG INTERVAL
 CS  .IN            8.625:   CASING SIZE
 CBD .F                98:   CASING BOTTOM DRILLER
 CBL .F                98:   CASING BOTTOM LOGGER
 BS  .IN            7.875:   BIT SIZE
 BSD .F               570:   BIT SIZE AT DEPTH
 DFT .           AIR FOAM:   DRILLING FLUID TYPE
 TCS .HRS               2:   TIME CURCULATED STOPPED
 MRT .F                60:   MAXIMUM RECORDED TEMPERATURE
 LUN .            HL-6274:   LOGGING UNIT NUMBER
 LUL .             CASPER:   LOGGING UNIT LOCATION
 ENGI.             RAUTIO:   RECORDING ENGINEER
 WITN.     BRUCE ANDERSON:   WITNESSED BY
 CLNT.            A2DTECH:   CLIENT CODE
 ORIG.           5" PRINT:   ORIGIN OF DATA
 UWI .       490252255900:   UNIQUE WELL ID
 DICO. A2D Technologies, Inc.:   DIGITIZING COMPANY
~OTHER INFORMATION
~A    DEPT      GRR      RILD       RILM   
# ...
  184.0000   127.0813     9.5150     9.7261
  184.5000   128.5782     9.8349     9.8610
  185.0000   125.8518     9.9765    10.0232
  185.5000   124.0020    10.1771    10.2068
  186.0000   122.2062    10.2514    10.4924
  186.5000   119.7815    10.5312    10.7118
  187.0000   117.3568    10.7495    11.0117
  187.5000   114.9321    10.9728    11.2419
  188.0000   113.1079    11.1236    11.4812
  188.5000   111.8898    11.4329    11.7168
  189.0000   110.6718    11.6705    11.8793
  189.5000   111.8670    11.8314    12.0440
  190.0000   114.9523    11.9107    12.1269
  190.5000   116.9695    11.9909    12.2103
  191.0000   119.0697    11.9880    12.2093
  191.5000   120.5666    11.9856    12.0407
  192.0000   119.3484    11.8186    11.9569
  192.5000   118.1276    11.6538    11.7904
  193.0000   119.3228    11.5706    11.6287
  193.5000   121.7247    11.5684    11.4682
  194.0000   124.1265    11.4863    11.3098
  194.5000   121.3973    11.2481    11.1536
  195.0000   119.2743    11.0913    11.0658
  195.5000   118.9641    10.9362    10.9228
  196.0000   120.1569    10.7838    10.8468
  196.5000   119.2157    10.7817    10.8461
  197.0000   117.1142    10.7795    10.9207
  197.5000   115.8961    10.8523    10.9958
  198.0000   115.2842    10.9255    11.0714
  198.5000   118.2865    11.0755    11.2250
  199.0000   119.2338    11.2272    11.3805
  199.5000   116.7525    11.3114    11.7083
  200.0000   112.5611    11.3791    11.9437
  200.5000   103.1603    11.2225    11.6168
  201.0000   100.4397    11.1451    11.4564
  201.5000   102.5456    11.0683    11.2980
  202.0000   110.9863    10.9162    11.1993
  202.5000   117.3140    10.7661    11.0888
  203.0000   119.1183    10.6181    10.9874
  203.5000   119.1126    10.4722    10.5397
  204.0000   118.2019    10.2571    10.3225
  204.5000   116.9593    10.1161    10.1799
  205.0000   116.0775     9.9770    10.0393
  205.5000   115.7701     9.8399     9.9007
  206.0000   115.7644     9.7047     9.8316
  206.5000   116.0604     9.7047     9.7632
  207.0000   116.6566     9.6377     9.6952
  207.5000   119.0641     9.5713     9.6277
  208.0000   120.2665     9.4397     9.4948
  208.5000   118.7511     9.4258     9.4940
  209.0000   116.3307     9.3746     9.4934
  209.5000   115.4200     9.3373     9.4927
  210.0000   114.5093     9.3100     9.3617
  210.5000   115.1069     9.3100     9.2965
  211.0000   116.0062     9.2458     9.2957
  211.5000   115.6974     9.1820     9.2952
  212.0000   114.7868     9.1820     9.2945
  212.5000   114.7811     9.1820     9.2939
  213.0000   114.7753     9.1820     9.3578
  213.5000   114.1649     9.1820     9.3570
  214.0000   112.3493     9.2458     9.3564
  214.5000   110.8353     9.1820     9.3558
  215.0000   112.6395     9.1187     9.3552
  215.5000   117.4589     9.0558     9.3544
  216.0000   119.5648     8.9934     9.3538
  216.5000   120.4641     8.8086     9.0979
  217.0000   118.9501     8.6276     8.7879
  217.5000   118.6413     8.4504     8.5395
  218.0000   119.5406     8.2197     8.3711
  218.5000   121.0432     8.0508     8.3128
  219.0000   122.9281     7.9953     8.2550
  219.5000   120.5792     7.8854     8.1975
  220.0000   114.3882     7.7770     8.1968
  220.5000   112.2709     7.7770     8.1398
  221.0000   111.9635     7.7770     8.1392
  221.5000   112.2595     7.8310     8.1387
  222.0000   116.4756     7.8854     8.0820
  222.5000   121.5981     7.9401     8.1376
  223.0000   123.7040     7.9953     8.1370
  223.5000   124.0000     8.0508     8.2500
  224.0000   124.8978     8.1315     8.3642
  224.5000   126.0987     8.1630     8.3637
  225.0000   123.3781     8.2197     8.4212
  225.5000   121.2608     8.3342     8.5379
  226.0000   119.1031     8.3921     8.5373
  226.5000   117.9297     8.4504     8.5960
  227.0000   120.3373     8.5681     8.7756
  227.5000   123.0465     8.6875     8.8361
  228.0000   125.1524     8.6875     8.8969
  228.5000   123.3354     8.7479     9.0201
  229.0000   122.7263     8.7479     9.0195
  229.5000   123.0223     8.7479     9.0188
  230.0000   125.4299     8.6875     9.0182
  230.5000   126.6308     8.6276     8.9554
  231.0000   126.3220     8.5090     8.7104
  231.5000   126.9196     8.4504     8.4720
  232.0000   127.8189     8.3921     8.4713
  232.5000   129.6217     8.3921     8.4708
  233.0000   128.7111     8.3921     8.4702
  233.5000   126.8954     8.3921     8.5877
  234.0000   125.6831     8.3921     8.6468
  234.5000   126.6124     8.3921     8.5864
  235.0000   127.4816     8.3921     8.5859
  235.5000   128.6811     8.4504     8.5853
  236.0000   129.5804     8.4504     8.5847
  236.5000   129.8764     8.4504     8.5840
  237.0000   129.5676     8.4504     8.5835
  237.5000   127.4503     8.4504     8.5237
  238.0000   124.1263     8.4504     8.4644
  238.5000   124.1206     8.3921     8.4001
  239.0000   128.9400     8.3921     8.2893
  239.5000   133.4592     8.2767     8.2888
  240.0000   134.6616     8.2121     8.2882
  240.5000   127.1130     8.1067     8.2305
  241.0000   124.0101     8.0508     8.1167
  241.5000   122.2736     7.9401     8.0602
  242.0000   119.2513     7.7749     7.8396
  242.5000   116.8323     7.5125     7.6781
  243.0000   114.9764     7.2570     7.4151
  243.5000   113.5013     6.9619     7.0652
  244.0000   117.1155     6.6788     6.8245
  244.5000   119.8247     6.4964     6.6377
  245.0000   120.4223     6.4071     6.4561
  245.5000   120.4152     6.3191     6.3669
  246.0000   120.7126     6.3191     6.2789
  246.5000   119.4988     6.2755     6.4547
  247.0000   118.5881     6.3191     6.5897
  247.5000   117.9777     6.4071     6.8212
  248.0000   124.0052     6.5415     7.0122
  248.5000   128.5244     6.7251     7.1587
  249.0000   131.2336     7.0102     7.2581
  249.5000   132.1329     7.2070     7.3587
  250.0000   129.6131     7.4555     7.4607
  250.5000   128.2018     7.6172     7.5376
  251.0000   126.3890     7.6172     7.6153
  251.5000   124.2444     7.6172     7.6179
  252.0000   120.9527     7.6172     7.6659
  252.5000   120.3465     7.6701     7.6647
  253.0000   122.1537     7.6172     7.6637
  253.5000   124.8657     7.6172     7.6627
  254.0000   128.4821     7.5125     7.6086
  254.5000   124.8593     7.4093     7.4513
  255.0000   121.5382     7.2570     7.2973
  255.5000   120.8416     7.0589     7.1960
  256.0000   123.1212     6.8662     7.0470
  256.5000   124.2446     6.6327     6.8538
  257.0000   124.8444     6.3191     6.5943
  257.5000   128.7631     6.0106     6.0860
  258.0000   134.2705     5.5406     5.5666
  258.5000   133.8849     5.2060     5.3395
  259.0000   127.8488     5.0639     5.1930
  259.5000   123.3211     4.9943     5.0506
  260.0000   121.2066     5.0290     5.0498
  260.5000   120.9021     5.1345     5.4485
  261.0000   125.1218     5.3893     5.8786
  261.5000   129.3422     5.9375     6.2559
  262.0000   132.0542     6.3630     6.5650
  262.5000   134.4640     6.6788     6.8899
  263.0000   133.5561     6.9139     7.0824
  263.5000   130.5367     7.0589     7.2300
  264.0000   128.1206     7.2070     7.4317
  264.5000   126.5792     7.3074     7.5345
  265.0000   125.0976     7.4093     7.6385
  265.5000   124.7931     7.5125     7.6903
  266.0000   124.4885     7.5125     7.7962
  266.5000   124.4857     7.6172     7.7952
  267.0000   122.9738     7.6701     7.8485
  267.5000   119.6527     7.7234     7.9566
  268.0000   116.9350     7.7770     8.0662
  268.5000   118.7421     7.9401     8.1211
  269.0000   121.4534     7.9953     8.2335
  269.5000   124.7688     8.0508     8.2894
  270.0000   129.2909     8.1067     8.3458
  270.5000   132.3046     8.1630     8.4027
  271.0000   133.2067     8.2197     8.4599
  271.5000   128.3766     8.3342     8.4585
  272.0000   125.9605     8.3342     8.5753
  272.5000   124.7510     8.3352     8.6337
  273.0000   124.1448     8.3921     8.6925
  273.5000   128.6662     8.3342     8.6312
  274.0000   128.3617     8.3342     8.6298
  274.5000   127.7555     8.3342     8.5691
