~VERSION INFORMATION
 VERS.                2.0:   CWLS LOG ASCII STANDARD - VERSION 2.0
 WRAP.                 NO:   ONE LINE PER DEPTH STEP
~WELL INFORMATION
#MNEM.UNIT      DATA TYPE    INFORMATION
#----------   ------------   ------------------------------
 STRT.F            7.0000:   START DEPTH
 STOP.F          480.0000:   STOP DEPTH
 STEP.F            0.1000:   STEP LENGTH
 NULL.          -999.2500:   NO VALUE
 COMP.       F D SERV INC:   COMPANY
 WELL.    67-2 SX-3 #67-3:   WELL
 FLD .          N.P.R. #3:   FIELD
 LOC .       S3 T38N R78W:   LOCATION
 CNTY.            NATRONA:   COUNTY
 STAT.            WYOMING:   STATE
 CTRY. UNITED STATES OF AMERICA:   COUNTRY
 SRVC.     Atlas Wireline:   SERVICE COMPANY
 DATE.        12-FEB-1992:   LOGDATE
 API .       490252250400:   API NUMBER
~CURVE INFORMATION
#MNEM.UNIT       API CODE    CURVE DESCRIPTION
#----------   ------------   ------------------------------
 DEPT.F                  :   
 SPR .MV     07 010 01 00:   SPONTANEOUS POTENTIAL
 GRR .GAPI   07 310 01 00:   GAMMA RAY
 RILD.OHMM   07 120 46 00:   INDUCTION LOG DEEP RESISTIVITY
 RILM.OHMM   07 120 44 00:   INDUCTION LOG MEDIUM RESISTIVITY
 RFOC.OHMM   07 220 04 00:   RESISTIVITY FOCUSED LOG
~PARAMETER INFORMATION
#MNEM.UNIT          VALUE    DESCRIPTION
#----------   ------------   ------------------------------
 PD  .                 GL:   PERMANENT DATUM
 EPD .F              5165:   ELEVATION PERMANENT DATUM
 LMF .                 KB:   LOG MEASURED FROM
 DAPD.F                10:   FEET ABOVE PERMANENT DATUM
 DMF .                 KB:   DRILLING MEASURED FROM
 EKB .F              5175:   KELLING BUSHING
 EDF .F              5174:   DRILLING FLOOR
 EGL .F              5165:   GROUND LEVEL
 DATE.        12-FEB-1992:   RUN DATE
 RUN .                  1:   RUN NUMBER
 DD  .F               487:   DEPTH DRILLER
 DL  .F               485:   DEPTH LOGGER
 BLI .F               482:   BOTTOM LOG INTERVAL
 CS  .IN            8.625:   CASING SIZE
 CBD .F               183:   CASING BOTTOM DRILLER
 CBL .F               186:   CASING BOTTOM LOGGER
 BS  .IN            7.875:   BIT SIZE
 BSD .F               487:   BIT SIZE AT DEPTH
 DFT .           CHEM GEL:   DRILLING FLUID TYPE
 DFD .               16.1:   DRILLING FLUID DENSITY
 DFV .                 43:   DRILLING FLUID VISCOSITY
 DFPH.                9.5:   DRILLING FLUID PH
 DFL .               11.8:   DRILLING FLUID LOSS
 MSS .           MUD TANK:   MUD SAMPLE SOURCE
 RMS .OHMM           2.36:   RESISTIVITY MUD SAMPLE
 MST .F                65:   MUD SAMPLE TEMPERATURE
 RMF .OHMM           1.17:   RESISTIVITY MUD FILTRATE SAMPLE
 MFST.F                65:   MUD FILTRATE SAMPLE TEMPERATURE
 RMC .OHMM           5.18:   RESISTIVITY MUD CAKE
 MCST.F                65:   MUD CAKE SAMPLE TEMPERATURE
 MFSS.               MEAS:   MUD FILTRATE SAMPLE SOURCE
 MCSS.               CALC:   MUD CAKE SAMPLE SOURCE
 RMB .OHMM           1.67:   RESISTIVITY MUD AT BHT
 BHT .F                92:   BOTTOM HOLE TEMPERATURE
 TCS .HRS               2:   TIME CURCULATED STOPPED
 MRT .F                92:   MAXIMUM RECORDED TEMPERATURE
 LUN .           HL- 6224:   LOGGING UNIT NUMBER
 LUL .             CASPER:   LOGGING UNIT LOCATION
 ENGI.        VERN RAUTIO:   RECORDING ENGINEER
 WITN.        GARY STRONG:   WITNESSED BY
 CLNT.            A2DTECH:   CLIENT CODE
 ORIG.           5" PRINT:   ORIGIN OF DATA
 UWI .       490252250400:   UNIQUE WELL ID
 DICO. A2D Technologies, Inc.:   DIGITIZING COMPANY
~OTHER INFORMATION
~A    DEPT     SPR        GRR       RILD       RILM       RFOC   
# ...
  312.0000   -38.8508    73.6672    21.1482    19.5209    18.6866
  312.1000   -38.9710    73.6719    21.0280    19.4221    18.6858
  312.2000   -39.0912    73.8875    21.0011    19.4580    18.6074
  312.3000   -39.2290    73.9796    21.0011    19.5193    18.5542
  312.4000   -39.4917    73.9838    21.0011    19.5435    18.5534
  312.5000   -39.6021    74.0380    21.0011    19.6547    18.5526
  312.6000   -39.7223    74.2921    21.0011    19.6541    18.5517
  312.7000   -39.7850    74.2962    21.0011    19.7412    18.5510
  312.8000   -39.8127    74.3004    20.9232    19.8535    18.4874
  312.9000   -39.9329    74.3046    20.8551    19.9665    18.4203
  313.0000   -40.0531    74.3088    20.8551    20.0671    18.4195
  313.1000   -39.9781    74.3391    20.8551    20.0664    18.4187
  313.2000   -39.7130    74.6176    20.7391    19.9641    18.3222
  313.3000   -39.3426    74.6213    20.6213    19.9260    18.2890
  313.4000   -38.9725    74.6255    20.5661    19.8745    18.2882
  313.5000   -38.5643    74.6297    20.5303    19.7609    18.2874
  313.6000   -38.4520    74.6339    20.4231    19.6479    18.2858
  313.7000   -38.3270    74.6381    20.4231    19.5357    18.1813
  313.8000   -38.2020    74.6423    20.4231    19.5111    18.1578
  313.9000   -38.0770    74.6465    20.3497    19.3860    18.1570
  314.0000   -37.9520    74.6507    20.2811    19.2401    18.1563
  314.1000   -37.9496    74.6549    20.2811    19.2264    18.1555
  314.2000   -37.8520    74.6591    20.2811    19.1054    18.1547
  314.3000   -37.7946    74.6636    20.2811    19.1049    18.1540
  314.4000   -37.7922    74.8914    20.1964    19.1044    18.1532
  314.5000   -37.7898    75.1414    20.1400    19.0993    18.1525
  314.6000   -37.7871    75.3915    20.1400    19.0889    18.1319
  314.7000   -37.7850    75.7035    20.1400    19.0785    18.0245
  314.8000   -37.7826    76.1915    20.1400    19.0681    18.0238
  314.9000   -37.8328    76.4883    20.1400    19.0577    18.0230
  315.0000   -37.9279    77.0915    20.1400    19.0473    17.9700
  315.1000   -37.9255    77.6874    20.1400    19.0369    17.8960
  315.2000   -38.0432    78.0914    20.1400    19.0265    17.8895
  315.3000   -38.1635    78.3415    20.1400    19.0161    17.7698
  315.4000   -38.2837    78.6078    20.1400    19.0057    17.7692
  315.5000   -38.4039    78.8416    20.2223    18.9953    17.7684
  315.6000   -38.5143    79.0916    20.2811    18.9849    17.7677
  315.7000   -38.5114    79.3417    20.2811    18.9745    17.7519
  315.8000   -38.7196    79.5238    20.2811    18.9643    17.6424
  315.9000   -38.8848    79.5280    20.2811    18.9638    17.6417
  316.0000   -39.0050    79.5329    20.3758    19.0499    17.6410
  316.1000   -39.1252    79.5364    20.4231    19.0953    17.6403
  316.2000   -39.2504    79.5406    20.4231    19.0948    17.6154
  316.3000   -39.4833    79.5448    20.4231    19.0943    17.5159
  316.4000   -39.6360    79.5490    20.4231    19.0937    17.5152
  316.5000   -39.7562    79.5534    20.4231    19.0932    17.5933
  316.6000   -39.8765    79.3215    20.5042    19.1681    17.6366
  316.7000   -39.9966    79.0798    20.5661    19.2256    17.6358
  316.8000   -40.1365    78.8382    20.5661    19.2251    17.6351
  316.9000   -40.2371    78.5965    20.5686    19.2274    17.6343
  317.0000   -40.2823    78.3349    20.6861    19.3583    17.7222
  317.1000   -40.3274    77.7799    20.7101    19.4470    17.7565
  317.2000   -40.4476    77.3598    20.7101    19.4927    17.7989
  317.3000   -40.5752    76.8721    20.7512    19.4921    17.8998
  317.4000   -40.6880    76.3845    20.8551    19.4916    18.0041
  317.5000   -40.7207    75.9470    20.8551    19.4910    18.1034
  317.6000   -40.7784    75.7014    20.8551    19.4905    18.1289
  317.7000   -40.8986    75.2218    20.8551    19.4899    18.1817
  317.8000   -41.0188    74.7343    20.9087    19.4894    18.2848
  317.9000   -41.1611    74.3807    21.0011    19.4889    18.3884
  318.0000   -41.2592    74.2189    21.0011    19.4883    18.5097
  318.1000   -41.3069    74.1971    21.0011    19.4877    18.5091
  318.2000   -41.3495    73.9279    21.0011    19.4872    18.5083
  318.3000   -41.4526    73.7138    21.0673    19.4867    18.5075
  318.4000   -41.4497    73.6360    21.1482    19.4861    18.5232
  318.5000   -41.4475    73.7501    21.1482    19.4856    18.6357
  318.6000   -41.4451    73.9442    21.1482    19.4850    18.6350
  318.7000   -41.4426    73.9484    21.1482    19.4845    18.5600
  318.8000   -41.4102    73.9526    21.1482    19.4840    18.5037
  318.9000   -41.2877    73.9568    21.1482    19.4834    18.4769
  319.0000   -41.2853    74.1010    21.1482    19.4829    18.3733
  319.1000   -41.2829    74.3510    21.1482    19.4823    18.3725
  319.2000   -41.2105    74.6651    21.1482    19.4817    18.2890
  319.3000   -41.0854    75.4732    21.1482    19.3907    18.2430
  319.4000   -40.9604    76.1486    21.0845    19.2799    18.2071
  319.5000   -40.8226    76.7206    21.0011    19.2106    18.1145
  319.6000   -40.8204    77.1007    21.0011    19.1934    18.1136
  319.7000   -40.7354    77.3508    21.0011    19.0761    18.0219
  319.8000   -40.6654    77.5928    20.8989    19.0756    17.9861
  319.9000   -40.6356    77.5978    20.7802    18.9981    17.9413
  320.0000   -40.5105    77.4013    20.6621    18.9422    17.8593
  320.1000   -40.3854    77.1596    20.5446    18.9416    17.8585
  320.2000   -40.2604    76.9180    20.4231    18.9362    17.7587
  320.3000   -40.2030    76.6763    20.3118    18.8090    17.7327
  320.4000   -40.1606    76.4189    20.1964    18.8085    17.6793
  320.5000   -40.0480    76.1929    20.0817    18.8080    17.6077
  320.6000   -40.0453    75.7752    19.9675    18.7668    17.6001
  320.7000   -40.0432    75.4097    19.8609    18.6764    17.4835
  320.8000   -39.9607    75.1001    19.8609    18.6758    17.4829
  320.9000   -39.8883    74.6265    19.7666    18.6754    17.4211
  321.0000   -39.8859    74.3455    19.7228    18.6748    17.3597
  321.1000   -39.8834    73.9371    19.7228    18.6743    17.3590
  321.2000   -40.0012    73.6016    19.7228    18.6738    17.3582
  321.3000   -40.0288    73.4579    19.7228    18.6678    17.3575
  321.4000   -40.0264    73.4621    19.6177    18.5430    17.2871
  321.5000   -40.0240    73.4664    19.5857    18.5426    17.2352
  321.6000   -40.0216    73.4705    19.5857    18.5421    17.2345
  321.7000   -40.0189    73.4747    19.5857    18.5416    17.2312
  321.8000   -40.1220    73.4789    19.5811    18.5235    17.1327
  321.9000   -40.1646    73.4831    19.4495    18.4118    17.1123
  322.0000   -40.1621    73.4873    19.4495    18.4113    17.1116
  322.1000   -40.1598    73.4920    19.4495    18.3351    17.1109
  322.2000   -40.1573    73.4957    19.4495    18.2825    17.0987
  322.3000   -40.1549    73.3419    19.4495    18.2528    16.9902
  322.4000   -40.0625    73.2042    19.4495    18.1545    16.9896
  322.5000   -40.0000    73.2084    19.4495    18.1539    16.9889
  322.6000   -39.9976    73.2127    19.5267    18.1535    16.9882
  322.7000   -39.9877    73.2168    19.5857    18.0895    16.9875
  322.8000   -39.8422    73.4089    19.5857    18.0265    16.9867
  322.9000   -39.8402    73.5250    19.5857    18.0083    16.9860
  323.0000   -39.7627    73.4493    19.5857    17.9003    16.9853
  323.1000   -39.6377    73.2331    19.5857    17.8998    16.9846
  323.2000   -39.5327    73.2383    19.6497    17.8251    16.9839
  323.3000   -39.5302    73.2420    19.7228    17.7745    16.9759
  323.4000   -39.4128    73.2462    19.7228    17.7451    16.8641
  323.5000   -39.3754    73.3604    19.7228    17.6502    16.8635
  323.6000   -39.3130    73.5544    19.7228    17.6496    16.8033
  323.7000   -39.1879    73.5586    19.7228    17.6492    16.7447
  323.8000   -39.0679    73.5628    19.6725    17.5863    16.7440
  323.9000   -39.0650    73.5670    19.5607    17.5257    16.7432
  324.0000   -38.9629    73.5712    19.4495    17.5073    16.7426
  324.1000   -38.8379    73.5754    19.3391    17.4030    16.7419
