~VERSION INFORMATION
 VERS.                2.0:   CWLS LOG ASCII STANDARD - VERSION 2.0
 WRAP.                 NO:   ONE LINE PER DEPTH STEP
~WELL INFORMATION
#MNEM.UNIT      DATA TYPE    INFORMATION
#----------   ------------   ------------------------------
 STRT.F            0.0000:   START DEPTH
 STOP.F          890.0000:   STOP DEPTH
 STEP.F            0.1000:   STEP LENGTH
 NULL.          -999.2500:   NO VALUE
 COMP.   FLUOR DANIEL INC:   COMPANY
 WELL.   35-1 X 14 #35-14:   WELL
 FLD .             TEAPOT:   FIELD
 LOC .      S14 T38N R78W:   LOCATION
 CNTY.            NATRONA:   COUNTY
 STAT.            WYOMING:   STATE
 CTRY. UNITED STATES OF AMERICA:   COUNTRY
 SRVC.      Western Atlas:   SERVICE COMPANY
 DATE.        23-JUL-1995:   LOGDATE
 API .       490252273300:   API NUMBER
~CURVE INFORMATION
#MNEM.UNIT       API CODE    CURVE DESCRIPTION
#----------   ------------   ------------------------------
 DEPT.F                  :   
 RILM.OHMM   07 120 44 00:   RESITIVITY LONG MEDIUM
 RILD.OHMM   07 120 46 00:   INDUCTION LOG DEEP RESISTIVITY
 GRR .GAPI   07 310 01 00:   GAMMA RAY
~PARAMETER INFORMATION
#MNEM.UNIT          VALUE    DESCRIPTION
#----------   ------------   ------------------------------
 PD  .                 GL:   PERMANENT DATUM
 EPD .F              5238:   ELEVATION PERMANENT DATUM
 LMF .                 KB:   LOG MEASURED FROM
 DAPD.F                10:   FEET ABOVE PERMANENT DATUM
 DMF .                 KB:   DRILLING MEASURED FROM
 EKB .F              5248:   KELLING BUSHING
 EDF .F              5247:   DRILLING FLOOR
 EGL .F              5238:   GROUND LEVEL
 DATE.        23-JUL-1995:   RUN DATE
 RUN .                  1:   RUN NUMBER
 DD  .F               898:   DEPTH DRILLER
 DL  .F               898:   DEPTH LOGGER
 BLI .F               890:   BOTTOM LOG INTERVAL
 CS  .IN            9.625:   CASING SIZE
 CBD .F                78:   CASING BOTTOM DRILLER
 CBL .F                80:   CASING BOTTOM LOGGER
 BS  .IN             8.75:   BIT SIZE
 BSD .F               898:   BIT SIZE AT DEPTH
 DFT .                AIR:   DRILLING FLUID TYPE
 MRT .F                94:   MAXIMUM RECORDED TEMPERATURE
 LUN .            HL 6530:   LOGGING UNIT NUMBER
 LUL .             CASPER:   LOGGING UNIT LOCATION
 ENGI.       VERRN RAUTIO:   RECORDING ENGINEER
 WITN.        GARY STRONG:   WITNESSED BY
 CLNT.            A2DTECH:   CLIENT CODE
 ORIG.           5" PRINT:   ORIGIN OF DATA
 UWI .       490252273300:   UNIQUE WELL ID
 DICO. A2D Technologies, Inc.:   DIGITIZING COMPANY
~OTHER INFORMATION
~A    DEPT    RILM       RILD         GRR  
# ...
  345.8000     7.9436     7.8483   134.1390
  345.9000     7.9584     7.8671   134.1390
  346.0000     7.9999     7.8676   134.1390
  346.1000     8.0003     7.8680   134.1390
  346.2000     8.0008     7.8685   134.1390
  346.3000     8.0374     7.8689   134.0607
  346.4000     8.0575     7.8693   133.8096
  346.5000     8.0579     7.9030   133.5347
  346.6000     8.0584     7.9251   133.5347
  346.7000     8.0588     7.9255   133.3587
  346.8000     8.0593     7.9259   133.2326
  346.9000     8.0597     7.9264   133.2326
  347.0000     8.0928     7.9269   133.2326
  347.1000     8.1168     7.9273   133.2326
  347.2000     8.1173     7.9277   133.4552
  347.3000     8.1177     7.9281   133.5347
  347.4000     8.1182     7.9286   133.6550
  347.5000     8.1186     7.9290   133.8369
  347.6000     8.1191     7.9295   133.8550
  347.7000     8.1195     7.9299   134.1390
  347.8000     8.1200     7.9304   134.1390
  347.9000     8.1204     7.9308   133.9720
  348.0000     8.1209     7.9312   133.8369
  348.1000     8.1214     7.9317   133.7721
  348.2000     8.1218     7.9346   133.5075
  348.3000     8.1222     7.9879   132.9305
  348.4000     8.1227     7.9883   132.2900
  348.5000     8.1231     7.9887   131.6994
  348.6000     8.1236     7.9892   131.0861
  348.7000     8.1241     8.0059   130.3932
  348.8000     8.0683     8.0457   129.8822
  348.9000     8.1069     7.9905   129.0030
  349.0000     8.1254     7.9910   128.7941
  349.1000     8.1259     7.9914   128.5430
  349.2000     8.1263     7.9918   128.3988
  349.3000     8.1268     7.9923   128.4544
  349.4000     8.1273     8.0060   128.7009
  349.5000     8.1277     8.0489   128.7009
  349.6000     8.1281     8.0494   128.9053
  349.7000     8.1286     8.0498   129.1563
  349.8000     8.1290     8.0858   129.8162
  349.9000     8.1381     8.1068   131.0712
  350.0000     8.1866     8.1072   132.3263
  350.1000     8.1872     8.1077   133.8323
  350.2000     8.2272     8.1100   135.1385
  350.3000     8.2763     8.1652   136.3935
  350.4000     8.3031     8.1656   137.5508
  350.5000     8.3173     8.1990   138.5549
  350.6000     8.3668     8.2234   139.5770
  350.7000     8.4208     8.2398   140.0700
  350.8000     8.4212     8.2890   140.5720
  350.9000     8.4585     8.3398   140.9297
  351.0000     8.5089     8.3883   141.1808
  351.1000     8.5405     8.3989   141.3897
  351.2000     8.5510     8.4301   141.0876
  351.3000     8.6020     8.4805   140.8456
  351.4000     8.6616     8.5178   140.0221
  351.5000     8.7049     8.5226   138.7387
  351.6000     8.7568     8.5782   137.3213
  351.7000     8.7843     8.6053   136.1038
  351.8000     8.8002     8.6351   135.0453
  351.9000     8.8465     8.6649   134.0957
  352.0000     8.8470     8.6947   133.4696
  352.1000     8.8475     8.7031   132.9747
  352.2000     8.8876     8.7330   132.4799
  352.3000     8.9102     8.7857   131.9850
  352.4000     8.9107     8.8267   131.7511
  352.5000     8.9112     8.8304   131.7523
  352.6000     8.9117     8.8895   131.8452
  352.7000     8.9123     8.9372   132.3601
  352.8000     8.9127     8.9526   132.6624
  352.9000     8.9488     8.9827   132.8774
  353.0000     8.9758     9.0163   133.3052
  353.1000     8.9763     9.0283   133.6967
  353.2000     8.9840     9.0804   133.9553
  353.3000     9.0400     9.0811   134.1789
  353.4000     9.0405     9.1290   134.1801
  353.5000     9.0824     9.1840   134.4290
  353.6000     9.1365     9.2100   134.8907
  353.7000     9.1910     9.2308   135.2484
  353.8000     9.2458     9.2864   135.3934
  353.9000     9.2979     9.3407   135.4635
  354.0000     9.2985     9.3415   135.7220
  354.1000     9.3470     9.3899   136.0013
  354.2000     9.4028     9.4078   136.2392
  354.3000     9.4588     9.4377   136.3057
  354.4000     9.5152     9.4946   136.4543
  354.5000     9.5633     9.5414   136.6103
  354.6000     9.5638     9.5429   136.6115
  354.7000     9.6194     9.6093   136.6127
  354.8000     9.6768     9.6583   136.6140
  354.9000     9.6993     9.6776   136.6151
  355.0000     9.7247     9.7075   136.6163
  355.1000     9.7681     9.7660   136.4809
  355.2000     9.7686     9.8248   136.2247
  355.3000     9.7692     9.8841   135.9214
  355.4000     9.8255     9.9538   135.4029
  355.5000     9.8384    10.0036   134.2056
  355.6000     9.9117    10.0639   133.3464
  355.7000     9.9772    10.1246   132.3180
  355.8000     9.9943    10.1661   131.2896
  355.9000    10.0544    10.1761   130.2612
  356.0000    10.1186    10.2384   129.3052
  356.1000    10.1192    10.2392   128.7747
  356.2000    10.1660    10.2398   128.0291
  356.3000    10.2272    10.2405   127.4622
  356.4000    10.2625    10.2703   126.9486
  356.5000    10.2789    10.3133   126.3201
  356.6000    10.3353    10.3140   125.6193
  356.7000    10.3359    10.3148   125.0802
  356.8000    10.3929    10.3156   124.2514
  356.9000    10.4091    10.3162   123.0620
  357.0000    10.4097    10.3169   122.1632
  357.1000    10.4103    10.3176   121.3923
  357.2000    10.4108    10.3183   120.6212
  357.3000    10.4073    10.3190   119.9686
  357.4000    10.3399    10.3198   119.7268
  357.5000    10.3405    10.3205   119.7282
  357.6000    10.3410    10.3212   119.7293
  357.7000    10.3416    10.3219   119.7305
  357.8000    10.3422    10.3226   120.0072
  357.9000    10.3295    10.3063   120.5232
  358.0000    10.2716    10.2525   120.9909
  358.1000    10.2723    10.2534   121.2533
  358.2000    10.2728    10.2540   121.8516
  358.3000    10.2734    10.2547   122.2853
  358.4000    10.3068    10.2189   122.8013
  358.5000    10.3238    10.1852   123.4443
  358.6000    10.2750    10.1859   124.1354
  358.7000    10.2757    10.1809   124.6513
  358.8000    10.2763    10.1168   125.1819
  358.9000    10.2247    10.1175   125.6833
  359.0000    10.1647    10.0729   126.1993
  359.1000    10.1361    10.0488   126.7154
  359.2000    10.1158    10.0495   127.1154
  359.3000    10.0669    10.0354   127.4453
  359.4000    10.0675     9.9813   127.9347
  359.5000     9.9984     9.9821   128.2116
  359.6000     9.9989     9.9289   128.6912
  359.7000     9.9995     9.9143   128.8181
  359.8000    10.0000     9.8814   128.8193
  359.9000    10.0006     9.8236   128.7153
  360.0000     9.9919     9.7661   128.2172
  360.1000     9.9324     9.7089   126.9314
  360.2000     9.8642     9.6461   125.5010
  360.3000     9.8170     9.6467   124.5886
  360.4000     9.7222     9.6059   123.7438
  360.5000     9.6350     9.5496   123.3897
  360.6000     9.5784     9.4937   123.2967
  360.7000     9.5222     9.4381   123.0898
  360.8000     9.4644     9.3828   123.0912
  360.9000     9.4108     9.3214   123.0926
  361.0000     9.3556     9.3219   123.3112
  361.1000     9.3352     9.3226   123.3970
  361.2000     9.3358     9.3232   123.6544
  361.3000     9.3363     9.3239   124.0870
  361.4000     9.3304     9.3245   124.3843
  361.5000     9.2727     9.3252   124.9124
  361.6000     9.2732     9.3259   125.8202
  361.7000     9.2737     9.2787   126.4411
  361.8000     9.2742     9.2626   127.3764
  361.9000     9.2508     9.2632   128.1728
  362.0000     9.2110     9.2639   128.7613
  362.1000     9.2063     9.2645   129.5069
  362.2000     9.1482     9.2651   130.0569
  362.3000     9.1487     9.2017   130.5390
  362.4000     9.1083     9.2023   130.8592
  362.5000     9.0863     9.2029   131.1178
  362.6000     9.0868     9.1756   131.2701
  362.7000     9.0873     9.1405   131.2097
  362.8000     9.0878     9.1411   130.9703
  362.9000     9.0884     9.1418   130.9717
  363.0000     9.0889     9.1425   130.7432
  363.1000     9.0894     9.1430   130.6719
  363.2000     9.0899     9.1437   130.6731
  363.3000     9.0904     9.1443   130.6743
  363.4000     9.0909     9.1449   130.7262
  363.5000     9.0914     9.1456   130.9849
  363.6000     9.0919     9.1462   131.2824
  363.7000     9.0924     9.1470   131.7209
  363.8000     9.0929     9.1475   132.0629
  363.9000     9.0934     9.1481   132.4508
