~VERSION INFORMATION
 VERS.                2.0:   CWLS LOG ASCII STANDARD - VERSION 2.0
 WRAP.                 NO:   ONE LINE PER DEPTH STEP
~WELL INFORMATION
#MNEM.UNIT      DATA TYPE    INFORMATION
#----------   ------------   ------------------------------
 STRT.F           12.0000:   START DEPTH
 STOP.F          793.0000:   STOP DEPTH
 STEP.F            0.5000:   STEP LENGTH
 NULL.          -999.2500:   NO VALUE
 COMP.   FLUOR DANIEL INC:   COMPANY
 WELL.   35-1-X-10 #35-10:   WELL
 FLD .            WILDCAT:   FIELD
 LOC .      S10 T38N R78W:   LOCATION
 CNTY.            NATRONA:   COUNTY
 STAT.            WYOMING:   STATE
 CTRY. UNITED STATES OF AMERICA:   COUNTRY
 SRVC.      Western Atlas:   SERVICE COMPANY
 DATE.        20-AUG-1996:   LOGDATE
 API .       490252282200:   API NUMBER
~CURVE INFORMATION
#MNEM.UNIT       API CODE    CURVE DESCRIPTION
#----------   ------------   ------------------------------
 DEPT.F                  :   
 RFOC.OHMM   07 220 04 00:   RESISTIVITY FOCUSED LOG
 RILD.OHMM   07 120 46 00:   INDUCTION LOG DEEP RESISTIVITY
 RILM.OHMM   07 120 44 00:   INDUCTION LOG MEDIUM RESISTIVITY
 SPR .MV     07 010 01 00:   SPONTANEOUS POTENTIAL
 CALD.IN     45 280 60 00:   CALIPER FROM DENSITY LOG
 GRD .GAPI   45 310 01 00:   GAMMA RAY FROM DENSITY LOG
 ZCOR.G/C3   45 356 01 00:   DENSITY CORRECTION
 ZDEN.G/C3   45 350 01 00:   BULK DENSITY
 PORZ.DEC    45 890 12 00:   DENSITY POROSITY SANDSTONE
 CNC .DEC    42 890 03 00:   NEUTRON POROSITY SANDSTONE
~PARAMETER INFORMATION
#MNEM.UNIT          VALUE    DESCRIPTION
#----------   ------------   ------------------------------
 PD  .                 GL:   PERMANENT DATUM
 EPD .F              5228:   ELEVATION PERMANENT DATUM
 LMF .                 KB:   LOG MEASURED FROM
 DAPD.F                10:   FEET ABOVE PERMANENT DATUM
 DMF .                 KB:   DRILLING MEASURED FROM
 EKB .F              5238:   KELLING BUSHING
 EGL .F              5228:   GROUND LEVEL
 DATE.        20-AUG-1996:   RUN DATE
 RUN .                  1:   RUN NUMBER
 DD  .F               794:   DEPTH DRILLER
 DL  .F               794:   DEPTH LOGGER
 BLI .F               793:   BOTTOM LOG INTERVAL
 TLI .F                12:   TOP LOG INTERVAL
 CS  .IN           13.375:   CASING SIZE
 CBD .F                58:   CASING BOTTOM DRILLER
 CBL .F                59:   CASING BOTTOM LOGGER
 BS  .IN            12.25:   BIT SIZE
 BSD .F               794:   BIT SIZE AT DEPTH
 DFT .           SPUD MUD:   DRILLING FLUID TYPE
 DFD .                9.2:   DRILLING FLUID DENSITY
 DFV .                 50:   DRILLING FLUID VISCOSITY
 DFPH.                  9:   DRILLING FLUID PH
 DFL .               13.8:   DRILLING FLUID LOSS
 MSS .              CIRC.:   MUD SAMPLE SOURCE
 RMS .OHMM           1.14:   RESISTIVITY MUD SAMPLE
 MST .F                77:   MUD SAMPLE TEMPERATURE
 RMF .OHMM           0.90:   RESISTIVITY MUD FILTRATE SAMPLE
 MFST.F                77:   MUD FILTRATE SAMPLE TEMPERATURE
 RMC .OHMM            1.4:   RESISTIVITY MUD CAKE
 MCST.F                77:   MUD CAKE SAMPLE TEMPERATURE
 MFSS.               CALC:   MUD FILTRATE SAMPLE SOURCE
 MCSS.               CALC:   MUD CAKE SAMPLE SOURCE
 RMB .OHMM            .84:   RESISTIVITY MUD AT BHT
 BHT .F               104:   BOTTOM HOLE TEMPERATURE
 TCS .HRS               3:   TIME CURCULATED STOPPED
 MRT .F               104:   MAXIMUM RECORDED TEMPERATURE
 LUN .            HL-6530:   LOGGING UNIT NUMBER
 LUL .             CASPER:   LOGGING UNIT LOCATION
 ENGI.           BROWNLOW:   RECORDING ENGINEER
 WITN.      SCHULTE/HARDY:   WITNESSED BY
 CLNT.            A2DTECH:   CLIENT CODE
 ORIG.           5" PRINT:   ORIGIN OF DATA
 UWI .       490252282200:   UNIQUE WELL ID
 DICO. A2D Technologies, Inc.:   DIGITIZING COMPANY
~OTHER INFORMATION
~A   DEPT     RFOC       RILD       RILM        SPR       CALD        GRD       ZCOR       ZDEN       PORZ        CNC   
# ...
  146.0000     8.0356     9.1236     8.7852   -13.1862    12.4308    85.7765     0.0322     2.4879     0.1019     0.3561
  146.5000     8.1488     9.2535     8.8473   -13.3346    12.4310    83.0604     0.0276     2.4720     0.1067     0.3495
  147.0000     8.2635     9.3855     8.9721   -13.6342    12.4311    82.7611     0.0276     2.4682     0.1088     0.3447
  147.5000     8.2641     9.5191     9.0355   -13.6303    12.4464    82.1605     0.0276     2.4660     0.1094     0.3404
  148.0000     8.2723     9.6545     9.0993   -13.6277    12.4616    80.9548     0.0310     2.4667     0.1106     0.3374
  148.5000     8.3230     9.7239     9.2276   -13.7765    12.4769    80.0514     0.0397     2.4683     0.1112     0.3362
  149.0000     8.3817     9.7938     9.2927   -13.7731    12.4922    80.9613     0.0352     2.4713     0.1079     0.3331
  149.5000     8.4997     9.8642     9.3583   -13.6182    12.4923    81.8705     0.0352     2.4789     0.1043     0.3265
  150.0000     8.5744     9.8662     9.4244   -13.6006    12.5096    83.3839     0.0337     2.4849     0.0998     0.3223
  150.5000     8.6671     9.9372     9.4263   -13.4089    12.5228    80.9735     0.0307     2.4902     0.0962     0.3202
  151.0000     8.7599    10.0091     9.4283   -13.2172    12.5390    80.6757     0.0276     2.4932     0.0947     0.3256
  151.5000     8.7418    10.0112     9.4303   -13.0060    12.5533    80.6829     0.0291     2.4865     0.0959     0.3323
  152.0000     8.7425    10.0576     9.4325   -12.8391    12.5535    80.6888     0.0314     2.4842     0.1009     0.3326
  152.5000     8.6824    10.0010     9.3684   -12.5489    12.5234    80.6958     0.0329     2.4842     0.1008     0.3313
  153.0000     8.6229    10.0004     9.2411   -12.5475    12.5085    80.7016     0.0435     2.4842     0.0996     0.3307
  153.5000     8.5043     9.9303     9.1787   -12.5460    12.5093    81.3116     0.0646     2.4835     0.0993     0.3380
  154.0000     8.4461     9.9295     9.1168   -12.5446    12.5239    82.2237     0.1024     2.4760     0.1020     0.3452
  154.5000     8.3881     9.9289     9.0558   -12.5431    12.5391    82.8338     0.1206     2.4707     0.1080     0.3473
  155.0000     8.3305     9.7909     8.9943   -12.5413    12.5393    83.4451     0.0903     2.4692     0.1089     0.3452
  155.5000     8.3310     9.7224     8.9965   -12.5399    12.5394    83.4509     0.0707     2.4752     0.1068     0.3413
  156.0000     8.3316     9.6543     8.9983   -12.6897    12.5396    82.8524     0.0661     2.4805     0.1026     0.3373
  156.5000     8.2744     9.5865     9.0005   -12.6883    12.5398    81.6497     0.0646     2.4797     0.1023     0.3343
  157.0000     8.3328     9.5859     9.0023   -12.8381    12.5399    81.3533     0.0616     2.4776     0.1035     0.3328
  157.5000     8.3334     9.6524     9.0041   -12.9880    12.5400    81.6627     0.0521     2.4798     0.1041     0.3355
  158.0000     8.3339     9.6516     9.0059   -12.9862    12.5402    81.0642     0.0404     2.4874     0.0984     0.3464
  158.5000     8.3345     9.5838     9.0077   -12.9847    12.5403    79.5594     0.0389     2.4935     0.0951     0.3521
  159.0000     8.3934     9.5167     9.0099   -12.9833    12.5254    78.9607     0.0480     2.4935     0.0954     0.3521
  159.5000     8.3939     9.4500     9.0117   -12.8305    12.5255    79.5921     0.0540     2.5033     0.0942     0.3518
  160.0000     8.3363     9.3839     8.8888   -12.8290    12.5257    79.5767     0.0508     2.5124     0.0869     0.3566
  160.5000     8.3368     9.3181     8.7675   -12.6760    12.5258    79.2817     0.0374     2.5086     0.0830     0.3629
  161.0000     8.2796     9.2527     8.5283   -12.6746    12.5411    79.8917     0.0268     2.4943     0.0857     0.3656
  161.5000     8.2227     9.1879     8.3540   -12.5218    12.5413    81.4081     0.0208     2.4829     0.0930     0.3659
  162.0000     8.1098     9.1236     8.4141   -12.5204    12.5414    82.9406     0.0238     2.4732     0.1032     0.3650
  162.5000     8.1103     9.1230     8.4746   -12.5189    12.5416    82.6295     0.0268     2.4702     0.1069     0.3644
  163.0000     8.1109     9.1224     8.5355   -12.5171    12.5417    81.1247     0.0283     2.4679     0.1093     0.3656
  163.5000     8.1680     9.1216     8.5969   -12.5157    12.5267    80.5248     0.0283     2.4679     0.1093     0.3725
  164.0000     8.2257     9.1849     8.5389   -12.3630    12.5269    82.0425     0.0268     2.4702     0.1084     0.3843
  164.5000     8.2263     9.1841     8.4813   -12.3615    12.5271    82.6526     0.0253     2.4710     0.1075     0.3905
  165.0000     8.2268     9.1835     8.3660   -12.3601    12.5272    82.6597     0.0238     2.4657     0.1069     0.3933
  165.5000     8.1703     9.1192     8.3096   -12.3583    12.5122    83.2697     0.0208     2.4604     0.1078     0.3930
  166.0000     8.1105     9.1185     8.2498   -12.3568    12.5275    84.1818     0.0178     2.4597     0.1117     0.3933
  166.5000     8.0026     9.0546     8.1414   -12.2041    12.5276    85.6981     0.0147     2.4582     0.1166     0.3951
  167.0000     7.8926     8.9912     8.1430   -12.2026    12.5278    86.9124     0.0132     2.4559     0.1160     0.4012
  167.5000     7.8384     8.8663     8.0877   -12.2011    12.5431    84.2005     0.0163     2.4514     0.1169     0.4165
  168.0000     7.8391     8.7366     8.0897   -12.1994    12.5583    82.3936     0.0345     2.4522     0.1193     0.4198
  168.5000     7.8943     8.5617     8.0913   -12.1980    12.5585    81.7937     0.0450     2.4552     0.1202     0.4156
  169.0000     7.8950     8.3842     8.0933   -12.1965    12.5909    82.7072     0.0404     2.4554     0.1177     0.4141
  169.5000     7.8406     8.2103     7.9825   -12.1951    12.6192    83.0151     0.0314     2.4492     0.1166     0.4113
  170.0000     7.5732     8.0401     7.8193   -12.0423    12.6194    83.6265     0.0238     2.4470     0.1169     0.4081
  170.5000     7.2137     7.7570     7.6060   -12.0408    12.6195    85.1429     0.0208     2.4462     0.1211     0.3945
  171.0000     7.0652     7.4983     7.4467   -12.0391    12.6196    86.6592     0.0178     2.4463     0.1229     0.3896
  171.5000     7.0658     7.3428     7.1969   -12.0376    12.6349    85.7586     0.0253     2.4478     0.1226     0.3939
  172.0000     7.0172     7.2408     7.0983   -12.0362    12.6502    83.9517     0.0314     2.4493     0.1217     0.4025
  172.5000     6.9690     7.1402     7.0504   -12.0348    12.6352    84.8652     0.0344     2.4539     0.1205     0.4125
  173.0000     6.8733     7.0901     7.0522   -12.0333    12.6354    86.9858     0.0359     2.4584     0.1187     0.4098
  173.5000     6.8261     7.1392     7.1029   -12.0315    12.6204    87.5958     0.0406     2.4629     0.1166     0.3929
  174.0000     6.8743     7.2388     7.2547   -12.0301    12.6054    86.3931     0.0480     2.4713     0.1147     0.3929
  174.5000     6.9711     7.3911     7.3580   -12.1803    12.5905    84.2840     0.0586     2.4841     0.1045     0.4014
  175.0000     7.0692     7.5466     7.5149   -12.1785    12.5755    81.5722     0.0722     2.4789     0.1009     0.4134
  175.5000     7.2692     7.7590     7.6219   -12.1805    12.5605    79.1610     0.0813     2.4766     0.1021     0.4152
  176.0000     7.4264     7.9223     7.7881   -12.3269    12.5607    77.0520     0.0828     2.4766     0.1048     0.4071
  176.5000     7.6330     8.1454     8.0064   -12.4767    12.5458    76.7542     0.0843     2.4744     0.1057     0.3962
  177.0000     7.7405     8.2591     8.0080   -12.4749    12.5459    77.9698     0.0858     2.4706     0.1070     0.3928
  177.5000     7.7950     8.3743     7.8439   -12.6251    12.5461    80.7856     0.0828     2.4660     0.1094     0.3902
  178.0000     7.6878     8.3736     7.6832   -12.6233    12.5462    81.3046     0.0722     2.4706     0.1106     0.3883
  178.5000     7.5786     8.3150     7.5784   -12.6215    12.5464    79.8013     0.0616     2.4790     0.1063     0.3793
  179.0000     7.3747     8.2568     7.4754   -12.6200    12.5465    79.2014     0.0538     2.4858     0.0997     0.3792
