~VERSION INFORMATION
 VERS.                2.0:   CWLS LOG ASCII STANDARD - VERSION 2.0
 WRAP.                 NO:   ONE LINE PER DEPTH STEP
~WELL INFORMATION
#MNEM.UNIT      DATA TYPE    INFORMATION
#----------   ------------   ------------------------------
 STRT.F           20.0000:   START DEPTH
 STOP.F          710.0000:   STOP DEPTH
 STEP.F            0.5000:   STEP LENGTH
 NULL.          -999.2500:   NO VALUE
 COMP. FENIX & SCISSON INC:   COMPANY
 WELL.     NPR-3 #42SX-34:   WELL
 FLD .             TEAPOT:   FIELD
 LOC .      S34 T39N R78W:   LOCATION
 CNTY.            NATRONA:   COUNTY
 STAT.            WYOMING:   STATE
 CTRY. UNITED STATES OF AMERICA:   COUNTRY
 SRVC.           BIRDWELL:   SERVICE COMPANY
 DATE.        30-AUG-1978:   LOGDATE
 API .       490251070800:   API NUMBER
~CURVE INFORMATION
#MNEM.UNIT       API CODE    CURVE DESCRIPTION
#----------   ------------   ------------------------------
 DEPT.F                  :   
 SPR .MV     05 010 01 00:   SPONTANEOUS POTENTIAL
 SN  .OHMM   05 040 16 00:   SHORT NORMAL 16'
 ILD .OHMM   05 120 46 00:   INDUCTION LOG DEEP RESISTIVITY
 GRD .GAPI   45 310 01 00:   GAMMA RAY FROM DENSITY LOG
 CALD.IN     45 280 60 00:   CALIPER
 RHOB.G/C3   45 350 01 00:   BULK DENSITY
 DPHI.DEC    45 890 12 00:   DENSITY POROSITY SANDSTONE
 CORR.G/C3   45 356 01 00:   DENSITY CORRECTION
~PARAMETER INFORMATION
#MNEM.UNIT          VALUE    DESCRIPTION
#----------   ------------   ------------------------------
 PD  .                 GL:   PERMANENT DATUM
 EPD .F              5079:   ELEVATION PERMANENT DATUM
 LMF .                 KB:   LOG MEASURED FROM
 DAPD.F                 4:   FEET ABOVE PERMANENT DATUM
 DMF .                 KB:   DRILLING MEASURED FROM
 EKB .F              5083:   KELLING BUSHING
 EGL .F              5079:   GROUND LEVEL
 DATE.            8-30-78:   RUN DATE
 RUN .                  1:   RUN NUMBER
 DD  .F               705:   DEPTH DRILLER
 DL  .F               708:   DEPTH LOGGER
 BLI .F               702:   BOTTOM LOG INTERVAL
 TLI .F                50:   TOP LOG INTERVAL
 CS  .IN            8.625:   CASING SIZE
 CBD .F                40:   CASING BOTTOM DRILLER
 CBL .F                40:   CASING BOTTOM LOGGER
 BS  .IN            7.875:   BIT SIZE
 BSD .F               705:   BIT SIZE AT DEPTH
 DFT .                KCL:   DRILLING FLUID TYPE
 DFD .                8.6:   DRILLING FLUID DENSITY
 DFV .                 34:   DRILLING FLUID VISCOSITY
 DFPH.                  9:   DRILLING FLUID PH
 DFL .                7.4:   DRILLING FLUID LOSS
 MSS .           FLOWLINE:   MUD SAMPLE SOURCE
 RMS .OHMM             .3:   RESISTIVITY MUD SAMPLE
 MST .F                80:   MUD SAMPLE TEMPERATURE
 RMF .OHMM             .4:   RESISTIVITY MUD FILTRATE SAMPLE
 MFST.F                80:   MUD FILTRATE SAMPLE TEMPERATURE
 RMC .OHMM             .5:   RESISTIVITY MUD CAKE
 MCST.F                82:   MUD CAKE SAMPLE TEMPERATURE
 MFSS.               MEAS:   MUD FILTRATE SAMPLE SOURCE
 MCSS.               MEAS:   MUD CAKE SAMPLE SOURCE
 RMB .OHMM            .32:   RESISTIVITY MUD AT BHT
 BHT .F                73:   BOTTOM HOLE TEMPERATURE
 TCS .HRS               3:   TIME CURCULATED STOPPED
 MRT .F                73:   MAXIMUM RECORDED TEMPERATURE
 LUN .               3006:   LOGGING UNIT NUMBER
 LUL .               CASP:   LOGGING UNIT LOCATION
 ENGI.            POINTER:   RECORDING ENGINEER
 WITN.              AMEND:   WITNESSED BY
 CLNT.            A2DTECH:   CLIENT CODE
 ORIG.           5" PRINT:   ORIGIN OF DATA
 UWI .       490251070800:   UNIQUE WELL ID
 DICO. A2D Technologies, Inc.:   DIGITIZING COMPANY
~OTHER INFORMATION
~A   DEPT      SPR         SN        ILD         GRD      CALD       RHOB       DPHI       CORR   
# ...
  506.0000   -32.3720    20.5603    23.2327    55.1568     8.8411     2.3741     0.1899     0.0677
  506.5000   -32.4148    20.9477    23.8622    52.0199     8.8249     2.3660     0.1935     0.0667
  507.0000   -32.4577    21.2822    24.5087    48.9217     8.8087     2.3562     0.1977     0.0640
  507.5000   -32.5005    21.6220    25.5114    45.5441     8.7913     2.3635     0.1909     0.0591
  508.0000   -32.5434    22.1325    25.4551    44.0958     8.7657     2.3786     0.1801     0.0547
  508.5000   -32.5863    22.0081    24.8316    43.1804     8.7379     2.3929     0.1695     0.0506
  509.0000   -32.6291    21.7740    24.2257    45.2757     8.7102     2.4028     0.1764     0.0543
  509.5000   -32.6720    21.5424    23.6311    47.2423     8.6823     2.3926     0.1832     0.0573
  510.0000   -32.7146    21.3133    23.0507    51.0534     8.6547     2.3735     0.1900     0.0500
  510.5000   -32.7573    21.0866    22.4842    54.5173     8.6271     2.3582     0.1968     0.0435
  511.0000   -32.8000    20.8623    21.9314    55.1473     8.5988     2.3534     0.2036     0.0363
  511.5000   -32.8420    20.6404    21.3925    57.7852     8.5931     2.3406     0.2105     0.0290
  512.0000   -32.8859    20.4209    20.8675    61.6587     8.6063     2.3266     0.2164     0.0257
  512.5000   -32.9278    20.2037    20.5603    61.1989     8.6186     2.3277     0.2153     0.0257
  513.0000   -32.9669    19.9888    20.5603    57.2369     8.6309     2.3285     0.2144     0.0256
  513.5000   -33.0946    19.7762    20.5603    57.0953     8.6434     2.3300     0.2135     0.0253
  514.0000   -33.3781    19.5658    20.5603    60.8285     8.6557     2.3331     0.2092     0.0252
  514.5000   -33.6567    19.3577    20.5603    63.5322     8.6678     2.3396     0.2044     0.0250
  515.0000   -33.9379    19.1518    20.5603    62.4248     8.6707     2.3421     0.2078     0.0248
  515.5000   -34.2187    18.9481    20.5603    61.2067     8.6711     2.3387     0.2107     0.0246
  516.0000   -34.4996    18.7512    20.1851    60.6697     8.6695     2.3357     0.2132     0.0245
  516.5000   -34.7819    18.6404    20.1931    62.5931     8.6714     2.3351     0.2098     0.0243
  517.0000   -35.0582    18.5326    20.0693    64.5612     8.6762     2.3351     0.2068     0.0241
  517.5000   -35.3385    18.4255    19.9306    62.4366     8.7345     2.3405     0.2038     0.0239
  518.0000   -35.3853    18.3191    19.7961    59.8024     8.7751     2.3470     0.2008     0.0237
  518.5000   -35.3591    18.2132    19.6612    57.0281     8.8214     2.3536     0.1977     0.0236
  519.0000   -35.3321    18.1079    19.5261    54.1626     8.8321     2.3570     0.1948     0.0234
  519.5000   -35.3088    18.0033    19.4512    54.1483     8.8313     2.3555     0.1988     0.0232
  520.0000   -35.2838    17.8993    19.4576    55.9071     8.8261     2.3505     0.2026     0.0230
  520.5000   -35.2588    17.7958    19.3086    57.5071     8.8203     2.3454     0.2029     0.0228
  521.0000   -35.2342    17.6930    19.1942    58.5321     8.8142     2.3485     0.1993     0.0226
  521.5000   -35.2094    17.5907    19.0805    57.7523     8.8081     2.3549     0.1956     0.0225
  522.0000   -35.1850    17.4891    18.9675    56.9686     8.8021     2.3616     0.1917     0.0223
  522.5000   -35.1601    17.3880    18.8552    56.4934     8.7960     2.3667     0.1909     0.0219
  523.0000   -35.1355    17.2875    18.7512    57.1983     8.7900     2.3663     0.1964     0.0242
  523.5000   -35.1111    17.1876    18.7512    60.3564     8.7839     2.3555     0.2013     0.0308
  524.0000   -35.0850    17.1013    18.8413    63.9024     8.7779     2.3443     0.2062     0.0370
  524.5000   -35.0625    17.1769    18.9410    62.2922     8.7719     2.3370     0.2096     0.0428
  525.0000   -35.0377    17.2404    19.0413    57.8791     8.7659     2.3349     0.2096     0.0533
  525.5000   -35.0031    17.3042    19.0998    56.1571     8.7599     2.3402     0.2041     0.0675
  526.0000   -35.0941    17.3686    18.8821    56.7040     8.7536     2.3480     0.1978     0.0812
  526.5000   -35.3375    17.4338    18.5485    59.2151     8.7505     2.3590     0.1915     0.0948
  527.0000   -35.5701    17.4994    18.2209    60.6096     8.7544     2.3700     0.1852     0.1085
  527.5000   -35.8022    17.5652    18.0730    60.2006     8.7643     2.3815     0.1780     0.1222
  528.0000   -36.0372    17.6311    18.0718    59.9960     8.7737     2.3887     0.1769     0.1359
  528.5000   -36.2704    17.6974    18.0718    60.0745     8.7833     2.3922     0.1756     0.1495
  529.0000   -36.5049    17.7640    18.2155    60.3844     8.7914     2.3961     0.1636     0.1631
  529.5000   -36.7366    17.8307    18.3908    60.5812     8.7866     2.4170     0.1507     0.1673
  530.0000   -36.9956    17.8978    18.5684    62.7942     8.7747     2.4490     0.1364     0.1690
  530.5000   -37.3450    17.9650    18.7481    60.9773     8.7630     2.4526     0.1345     0.1706
  531.0000   -37.7444    18.0730    18.9297    59.1414     8.7514     2.4588     0.1292     0.1829
  531.5000   -38.1484    18.0154    19.1102    57.1741     8.7396     2.4757     0.1175     0.1814
  532.0000   -38.5239    17.8732    19.6739    59.4831     8.7279     2.5200     0.1059     0.1717
  532.5000   -38.9666    17.7431    20.0277    62.6858     8.7162     2.5265     0.0933     0.1619
  533.0000   -39.0931    17.8571    20.5603    61.9966     8.7045     2.5263     0.0980     0.1425
  533.5000   -39.3917    17.9635    20.1891    61.1174     8.6928     2.5178     0.1109     0.1238
  534.0000   -39.3642    18.0730    19.5032    59.9671     8.6811     2.4830     0.1353     0.1033
  534.5000   -39.3358    18.0730    18.8406    59.5061     8.6693     2.4462     0.1571     0.1023
  535.0000   -39.2958    17.8414    18.2006    58.9212     8.6577     2.4227     0.1580     0.1016
  535.5000   -39.2580    17.3099    17.6323    58.4356     8.6461     2.4245     0.1580     0.1021
  536.0000   -39.2219    16.7943    17.2183    58.2693     8.6338     2.4237     0.1570     0.1019
  536.5000   -39.1835    16.2939    16.8140    60.9697     8.6341     2.4226     0.1556     0.1017
  537.0000   -39.1472    15.8866    16.4191    63.4477     8.6414     2.4224     0.1561     0.0965
  537.5000   -39.1104    15.7120    16.0336    65.9765     8.6481     2.4216     0.1564     0.0906
  538.0000   -39.0704    15.5633    15.5966    64.8131     8.6545     2.4206     0.1684     0.0859
  538.5000   -39.0391    15.4161    15.6225    62.9071     8.6612     2.4141     0.1663     0.0877
  539.0000   -39.0090    15.3328    15.6535    60.9256     8.6679     2.4059     0.1619     0.0911
  539.5000   -39.1836    15.4059    15.6845    59.0941     8.6745     2.4151     0.1575     0.0936
  540.0000   -39.3636    15.4792    15.7156    59.3470     8.6811     2.4254     0.1531     0.0885
  540.5000   -39.5520    15.5966    15.7467    60.9754     8.6880     2.4330     0.1525     0.0845
  541.0000   -39.7367    15.5396    15.7779    62.5549     8.6941     2.4330     0.1457     0.0777
  541.5000   -39.9214    15.4017    15.8092    64.1463     8.7007     2.4331     0.1483     0.0687
  542.0000   -40.1071    15.2651    15.8405    65.2114     8.7094     2.4356     0.1505     0.0614
  542.5000   -40.2923    15.1297    15.8719    65.8486     8.6908     2.4382     0.1464     0.0582
  543.0000   -40.4774    14.9955    15.8866    64.2123     8.6408     2.4383     0.1472     0.0550
  543.5000   -40.6625    14.8624    15.8866    62.7294     8.5930     2.4371     0.1480     0.0518
  544.0000   -40.8475    14.7448    15.7520    61.1217     8.5450     2.4360     0.1488     0.0475
  544.5000   -41.0326    14.6812    15.6165    59.4085     8.5086     2.4349     0.1496     0.0414
  545.0000   -41.2176    14.6179    15.4821    59.2378     8.5248     2.4337     0.1512     0.0352
  545.5000   -41.4029    14.5549    15.3489    60.6606     8.5572     2.4305     0.1535     0.0294
  546.0000   -41.5880    14.4887    15.2168    61.1771     8.5885     2.4215     0.1559     0.0224
