~VERSION INFORMATION
 VERS.                2.0:   CWLS LOG ASCII STANDARD - VERSION 2.0
 WRAP.                 NO:   ONE LINE PER DEPTH STEP
~WELL INFORMATION
#MNEM.UNIT      DATA TYPE    INFORMATION
#----------   ------------   ------------------------------
 STRT.F            0.0000:   START DEPTH
 STOP.F          464.0000:   STOP DEPTH
 STEP.F            0.5000:   STEP LENGTH
 NULL.          -999.2500:   NO VALUE
 COMP. BROWN JOHN E&C INC:   COMPANY
 WELL. NPR 3 SX-10 #64-3-10:   WELL
 FLD .             TEAPOT:   FIELD
 LOC .      S10 T38N R78W:   LOCATION
 CNTY.            NATRONA:   COUNTY
 STAT.            WYOMING:   STATE
 CTRY. UNITED STATES OF AMERICA:   COUNTRY
 SRVC.     Atlas Wireline:   SERVICE COMPANY
 DATE.        14-MAY-1991:   LOGDATE
 API .       490251133800:   API NUMBER
~CURVE INFORMATION
#MNEM.UNIT       API CODE    CURVE DESCRIPTION
#----------   ------------   ------------------------------
 DEPT.F                  :   
 RILD.OHMM   07 120 46 00:   INDUCTION LOG DEEP RESISTIVITY
 RILM.OHMM   07 120 44 00:   INDUCTION LOG MEDIUM RESISTIVITY
 GRR .GAPI   07 310 01 00:   GAMMA RAY
~PARAMETER INFORMATION
#MNEM.UNIT          VALUE    DESCRIPTION
#----------   ------------   ------------------------------
 PD  .                 GL:   PERMANENT DATUM
 EPD .F              5182:   ELEVATION PERMANENT DATUM
 LMF .                 KB:   LOG MEASURED FROM
 DAPD.F                 5:   FEET ABOVE PERMANENT DATUM
 DMF .                 KB:   DRILLING MEASURED FROM
 EKB .F              5187:   KELLING BUSHING
 EGL .F              5182:   GROUND LEVEL
 DATE.        01-MAY-1991:   RUN DATE
 RUN .                  1:   RUN NUMBER
 DD  .F               470:   DEPTH DRILLER
 DL  .F               470:   DEPTH LOGGER
 BLI .F               468:   BOTTOM LOG INTERVAL
 CS  .IN            8.625:   CASING SIZE
 CBD .F                45:   CASING BOTTOM DRILLER
 CBL .F                45:   CASING BOTTOM LOGGER
 BS  .IN            7.875:   BIT SIZE
 BSD .F               470:   BIT SIZE AT DEPTH
 DFT .                AIR:   DRILLING FLUID TYPE
 LUN .           HL- 6272:   LOGGING UNIT NUMBER
 LUL .             CASPER:   LOGGING UNIT LOCATION
 ENGI.             KINNET:   RECORDING ENGINEER
 WITN.             STRONG:   WITNESSED BY
 CLNT.            A2DTECH:   CLIENT CODE
 ORIG.           5" PRINT:   ORIGIN OF DATA
 UWI .       490251133800:   UNIQUE WELL ID
 DICO. A2D Technologies, Inc.:   DIGITIZING COMPANY
~OTHER INFORMATION
~A    DEPT    RILD       RILM         GRR  
# ...
  364.0000    17.0312    17.6446    86.5909
  364.5000    16.9290    17.1658    86.8182
  365.0000    16.8118    16.9290    87.5000
  365.5000    16.5799    16.6955    90.0000
  366.0000    16.2380    16.4651    91.3667
  366.5000    15.9031    16.2380    89.0538
  367.0000    15.6837    16.0140    90.4545
  367.5000    15.4674    15.7930    92.2727
  368.0000    15.1484    15.5752    94.3182
  368.5000    14.8360    15.4674    92.0455
  369.0000    14.6313    15.1484    91.8182
  369.5000    14.4295    15.1484    94.0909
  370.0000    14.1319    15.0435    97.0455
  370.5000    14.0341    14.9394    96.5909
  371.0000    13.9369    14.7333    95.0000
  371.5000    13.8405    14.5300    95.9091
  372.0000    13.8405    14.4295    98.1818
  372.5000    13.8405    14.5300    97.9545
  373.0000    13.8405    14.6313    97.5000
  373.5000    13.9369    14.6313    97.2727
  374.0000    14.0341    14.6313    97.5000
  374.5000    13.8405    14.6313    97.5000
  375.0000    13.6495    14.6313    97.7273
  375.5000    13.6495    14.6313    97.7273
  376.0000    13.6495    14.6313    97.9545
  376.5000    13.6495    14.5300    99.5455
  377.0000    13.6495    14.4295   103.4091
  377.5000    13.4612    14.4295   107.7727
  378.0000    13.3680    14.3296   109.0909
  378.5000    13.2755    14.1319   108.8636
  379.0000    13.1836    13.9369   107.2727
  379.5000    13.1836    13.9369   104.0909
  380.0000    13.0924    13.9369   101.3636
  380.5000    13.0924    13.9369   103.0794
  381.0000    12.9117    13.9369   106.1364
  381.5000    12.8224    13.7447   106.5909
  382.0000    12.5579    13.6495   104.5455
  382.5000    12.4710    13.5550   102.7273
  383.0000    12.4710    13.5550   105.6818
  383.5000    12.3847    13.4612   111.1364
  384.0000    12.2138    13.4612   111.3636
  384.5000    12.2138    13.3680   107.9545
  385.0000    12.2138    13.3680   108.6364
  385.5000    12.2138    13.2755   109.5455
  386.0000    12.2138    13.2755   109.5455
  386.5000    12.2138    13.2755   108.1818
  387.0000    12.2990    13.2755   105.9091
  387.5000    12.2990    13.3680   105.0000
  388.0000    12.2990    13.2755   106.1364
  388.5000    12.2138    13.2755   107.5000
  389.0000    12.2138    13.1799   105.2999
  389.5000    12.2138    12.9117    99.5455
  390.0000    12.2138    12.8224    97.5000
  390.5000    12.1293    12.8224   101.5909
  391.0000    11.9620    12.7336   104.0909
  391.5000    11.8792    12.6455   104.5455
  392.0000    11.8792    12.5474   104.5455
  392.5000    11.7969    12.2990   106.5909
  393.0000    11.6342    12.1293   112.2727
  393.5000    11.4737    11.8792   112.9545
  394.0000    11.3838    11.7153   109.5455
  394.5000    11.2371    11.4721   105.0000
  395.0000    11.0820    11.1593   106.3636
  395.5000    10.8535    11.0053   108.4091
  396.0000    10.6297    10.7784   109.7727
  396.5000    10.3348    10.5561   110.4545
  397.0000    10.0551    10.3384   110.9091
  397.5000     9.7796    10.1958   115.2119
  398.0000     9.5116    10.0551   123.1818
  398.5000     9.2510     9.8478   120.6818
  399.0000     8.9975     9.3155   118.6364
  399.5000     8.4936     8.6904   120.6818
  400.0000     7.6783     7.5632   121.5909
  400.5000     6.4582     6.9856   120.9091
  401.0000     5.4567     5.5724   122.5000
  401.5000     5.1617     5.4200   124.5455
  402.0000     5.2339     5.4204   132.2727
  402.5000     5.3814     5.4586   138.8068
  403.0000     5.4947     5.6127   142.2727
  403.5000     5.5330     5.8990   139.7727
  404.0000     5.6889     6.4055   127.2727
  404.5000     6.2265     6.9628   120.6818
  405.0000     7.0069     7.6213   118.6364
  405.5000     7.6159     8.5771   117.2727
  406.0000     8.3938     9.1947   115.8788
  406.5000     9.2510     9.4543   114.5455
  407.0000     9.7864     9.7350   114.0909
  407.5000    10.1958    10.0657   115.2273
  408.0000    10.3384    10.3500   121.5909
  408.5000    10.4105    10.5687   121.8447
  409.0000    10.5561    10.8671   119.0833
  409.5000    10.6297    11.0967   120.2273
  410.0000    10.9292    11.2527   122.0455
  410.5000    11.0820    11.5025   120.6818
  411.0000    11.2371    11.8151   119.7727
  411.5000    11.5537    12.1488   119.7727
  412.0000    11.7969    12.4054   121.1364
  412.5000    11.9620    12.7558   121.3636
  413.0000    12.2138    12.9351   119.7727
  413.5000    12.3890    13.0261   120.2273
  414.0000    12.5579    13.2095   121.1364
  414.5000    12.8224    13.3951   122.0455
  415.0000    12.9117    13.5834   123.6364
  415.5000    12.9117    13.5843   124.5455
  416.0000    12.9117    13.5852   124.5151
  416.5000    12.9117    13.6809   122.2727
  417.0000    12.9117    13.6818   120.0000
  417.5000    12.9117    13.7783   118.6364
  418.0000    13.0924    13.8753   117.2727
  418.5000    13.1836    13.8762   115.4545
  419.0000    13.1836    13.8771   112.7045
  419.5000    13.1836    13.8780   111.1364
  420.0000    13.1836    13.8790   113.1818
  420.5000    13.0017    13.8799   115.4545
  421.0000    12.9117    13.7850   114.3182
  421.5000    12.9117    13.6905   113.4091
  422.0000    12.9117    13.5964   115.4545
  422.5000    12.9117    13.5975   116.5909
  423.0000    12.7336    13.5984   114.7727
  423.5000    12.7292    13.5994   112.5000
  424.0000    12.5579    13.6005   109.3182
  424.5000    12.5579    13.5073   107.0455
  425.0000    12.5579    13.3218   108.6364
  425.5000    12.3847    13.0480   110.4545
  426.0000    12.2138    12.8686   112.1061
  426.5000    12.0453    12.7806   113.8636
  427.0000    11.7153    12.6051   116.1364
  427.5000    11.5537    12.3462   117.5000
  428.0000    11.3154    12.1765   115.6818
  428.5000    11.0820    11.8438   115.2273
  429.0000    10.8535    11.5201   116.3787
  429.5000    10.6297    11.2051   118.4091
  430.0000    10.4830    11.1283   119.7727
  430.5000    10.1852    11.0520   121.3636
  431.0000    10.0551    10.9003   124.7727
  431.5000     9.9855    10.8256   127.2727
  432.0000     9.9164    10.6032   128.4091
  432.5000     9.8478    10.5305   127.0265
  433.0000     9.7796    10.3140   128.4091
  433.5000     9.7762    10.1020   130.9091
  434.0000     9.6447    10.0328   129.7727
  434.5000     9.6447     9.9640   125.4545
  435.0000     9.6447     9.8957   125.9091
  435.5000     9.7119     9.8965   128.8636
  436.0000     9.7119     9.7606   128.7728
  436.5000     9.7796     9.7613   125.2273
  437.0000     9.7728     9.7619   124.7727
  437.5000     9.7119     9.6950   128.6364
  438.0000     9.6447     9.6286   130.4545
  438.5000     9.5116     9.5625  -999.2500
  439.0000     9.2510     9.4970  -999.2500
  439.5000     9.0602     9.4320  -999.2500
  440.0000     8.9975     9.3674  -999.2500
  440.5000     8.9352     9.2292  -999.2500
  441.0000     8.8120     9.0490  -999.2500
  441.5000     8.6904     9.0496  -999.2500
  442.0000     8.5112     8.9874  -999.2500
  442.5000     8.3938     8.9260  -999.2500
  443.0000     8.1638     8.8648  -999.2500
  443.5000     8.0483     8.8040  -999.2500
  444.0000     7.8305     8.7436  -999.2500
  444.5000     7.7763     8.6237  -999.2500
  445.0000     7.8305     8.4465  -999.2500
  445.5000     7.8851     8.2727  -999.2500
  446.0000     7.9401     8.1591  -999.2500
  446.5000     7.9401     8.2167  -999.2500
  447.0000     7.9401     8.2745  -999.2500
  447.5000     7.9954     8.3329  -999.2500
  448.0000     8.0511     8.5682  -999.2500
  448.5000     8.2780     8.8716  -999.2500
  449.0000     8.5112     9.2498  -999.2500
  449.5000     8.7510     9.5773  -999.2500
  450.0000     9.1234     9.9855  -999.2500
  450.5000     9.5216    10.2675  -999.2500
  451.0000     9.9164    10.4846  -999.2500
  451.5000    10.0551    10.6320  -999.2500
  452.0000    10.0551    10.7814  -999.2500
  452.5000    10.0551    10.8573  -999.2500
  453.0000    10.0551    10.8580  -999.2500
  453.5000    10.0551    10.8588  -999.2500
  454.0000     9.9855    10.7843  -999.2500
  454.5000     9.9855    10.6364  -999.2500
