~VERSION INFORMATION
 VERS.                2.0:   CWLS LOG ASCII STANDARD - VERSION 2.0
 WRAP.                 NO:   ONE LINE PER DEPTH STEP
~WELL INFORMATION
#MNEM.UNIT      DATA TYPE    INFORMATION
#----------   ------------   ------------------------------
 STRT.F            8.0000:   START DEPTH
 STOP.F          598.0000:   STOP DEPTH
 STEP.F            0.5000:   STEP LENGTH
 NULL.          -999.2500:   NO VALUE
 COMP. FENIX & SCISSON INC:   COMPANY
 WELL.    16-SX-11 #16-11:   WELL
 FLD .             TEAPOT:   FIELD
 LOC .      S11 T38N R78W:   LOCATION
 CNTY.            NATRONA:   COUNTY
 STAT.            WYOMING:   STATE
 CTRY. UNITED STATES OF AMERICA:   COUNTRY
 SRVC.            Unknown:   SERVICE COMPANY
 DATE.        13-DEC-1978:   LOGDATE
 API .       490251078400:   API NUMBER
~CURVE INFORMATION
#MNEM.UNIT       API CODE    CURVE DESCRIPTION
#----------   ------------   ------------------------------
 DEPT.F                  :   
 RHOB.G/C3   45 350 01 00:   BULK DENSITY
 CORR.G/C3   45 356 01 00:   DENSITY CORRECTION
 SN  .OHMM   05 040 16 00:   SHORT NORMAL 16"
 ILD .OHMM   05 120 46 00:   INDUCTION LOG DEEP
 SPR .MV     05 010 01 00:   SPONTANEOUS POTENTIAL FROM RES.
 DPHI.DEC    45 890 12 00:   DENSITY POROSITY SANDSTONE
 CALD.IN     45 280 60 00:   CALIPER
 GRD .GAPI   45 310 01 00:   GAMMA RAY FROM DENSITY LOG
~PARAMETER INFORMATION
#MNEM.UNIT          VALUE    DESCRIPTION
#----------   ------------   ------------------------------
 PD  .                 GL:   PERMANENT DATUM
 EPD .F              5209:   ELEVATION PERMANENT DATUM
 LMF .                 KB:   LOG MEASURED FROM
 DAPD.F                 4:   FEET ABOVE PERMANENT DATUM
 DMF .                 KB:   DRILLING MEASURED FROM
 EKB .F              5213:   KELLING BUSHING
 EGL .F              5209:   GROUND LEVEL
 DATE.           12-13-78:   RUN DATE
 RUN .                  1:   RUN NUMBER
 DD  .F               590:   DEPTH DRILLER
 DL  .F               598:   DEPTH LOGGER
 BLI .F               591:   BOTTOM LOG INTERVAL
 TLI .F                40:   TOP LOG INTERVAL
 CS  .IN            8.625:   CASING SIZE
 CBD .F                40:   CASING BOTTOM DRILLER
 CBL .F                25:   CASING BOTTOM LOGGER
 BS  .IN            7.875:   BIT SIZE
 BSD .F               590:   BIT SIZE AT DEPTH
 DFT .                KCL:   DRILLING FLUID TYPE
 DFD .                8.8:   DRILLING FLUID DENSITY
 DFV .                 37:   DRILLING FLUID VISCOSITY
 DFPH.                8.9:   DRILLING FLUID PH
 MSS .           FLOWLINE:   MUD SAMPLE SOURCE
 RMS .OHMM             .3:   RESISTIVITY MUD SAMPLE
 MST .F                56:   MUD SAMPLE TEMPERATURE
 RMF .OHMM            .26:   RESISTIVITY MUD FILTRATE SAMPLE
 MFST.F                66:   MUD FILTRATE SAMPLE TEMPERATURE
 RMC .OHMM            .24:   RESISTIVITY MUD CAKE
 MCST.F                66:   MUD CAKE SAMPLE TEMPERATURE
 MFSS.           MEASURED:   MUD FILTRATE SAMPLE SOURCE
 MCSS.           MEASURED:   MUD CAKE SAMPLE SOURCE
 RMB .OHMM            .29:   RESISTIVITY MUD AT BHT
 BHT .F                58:   BOTTOM HOLE TEMPERATURE
 TCS .HRS               3:   TIME CURCULATED STOPPED
 MRT .F                58:   MAXIMUM RECORDED TEMPERATURE
 LUN .               2958:   LOGGING UNIT NUMBER
 LUL .             CASPER:   LOGGING UNIT LOCATION
 ENGI.            ROLLINS:   RECORDING ENGINEER
 WITN.         RICHARDSON:   WITNESSED BY
 CLNT.            A2DTECH:   CLIENT CODE
 ORIG.       2", 5" PRINT:   ORIGIN OF DATA
 UWI .       490251078400:   UNIQUE WELL ID
 DICO. A2D Technologies, Inc.:   DIGITIZING COMPANY
~OTHER INFORMATION
~A    DEPT    RHOB       CORR         SN        ILD        SPR       DPHI       CALD         GRD  
# ...
   48.5000     2.4262    -0.0016     8.0408     6.7433    -1.8365     0.1651     7.9934   100.7836
   49.0000     2.4274    -0.0010     7.9661     6.7989    -1.8673     0.1651     7.9918   100.9597
   49.5000     2.4241    -0.0003     7.9676     6.8549    -1.8981     0.1664     7.9901   105.3124
   50.0000     2.4211     0.0021     7.9797     6.9114    -1.9289     0.1680     7.9885   108.1330
   50.5000     2.4263     0.0067     8.0179     6.9684    -1.9597     0.1695     7.9869   107.7710
   51.0000     2.4336     0.0163     8.0442     7.0258    -1.9906     0.1646     7.9852   104.0815
   51.5000     2.4409     0.0219     8.0437     7.0837    -2.0213     0.1591     7.9837   102.2041
   52.0000     2.4479     0.0221     8.0435     7.1421    -2.0522     0.1535     7.9765   103.1406
   52.5000     2.4474     0.0181     8.0434     7.2013    -2.0830     0.1486     7.9671   106.0831
   53.0000     2.4455     0.0106     8.0597     7.2651    -2.1138     0.1489     7.9577   106.6352
   53.5000     2.4441     0.0037     8.1120     7.3067    -2.1446     0.1515     7.9483   106.2372
   54.0000     2.4437     0.0031     8.1646     7.3519    -2.1754     0.1513     7.9389   104.0527
   54.5000     2.4430     0.0024     8.2176     7.4012    -2.2062     0.1511     7.9295   103.8365
   55.0000     2.4410     0.0016     8.2709     7.4229    -2.2370     0.1534     7.9201   104.0118
   55.5000     2.4394     0.0008     8.3245     7.4527    -2.2678     0.1571     7.9107   102.8520
   56.0000     2.4406     0.0000     8.3785     7.4828    -2.2986     0.1567     7.9013   102.4559
   56.5000     2.4418    -0.0002     8.4328     7.5129    -2.3294     0.1545     7.8919   100.9666
   57.0000     2.4416    -0.0004     8.5024     7.5394    -2.3602     0.1539     7.8842    99.8018
   57.5000     2.4404    -0.0006     8.3856     7.4766    -2.3910     0.1539     7.8908    99.9646
   58.0000     2.4393    -0.0009     8.3130     7.4214    -2.4218     0.1567     7.8976   100.4414
   58.5000     2.4406    -0.0011     8.2411     7.3666    -2.4526     0.1560     7.9043   100.5515
   59.0000     2.4404    -0.0013     8.1699     7.3122    -2.4834     0.1539     7.9111    99.8886
   59.5000     2.4389    -0.0015     8.0992     7.2650    -2.5143     0.1551     7.9178    99.2154
   60.0000     2.4367    -0.0017     8.0292     7.2943    -2.5451     0.1569     7.9245    98.5934
   60.5000     2.4344    -0.0020     7.9695     7.3251    -2.5759     0.1595     7.9313   100.0245
   61.0000     2.4322    -0.0003     7.9695     7.3562    -2.6067     0.1622     7.9380   102.0468
   61.5000     2.4358     0.0018     8.1102     7.4011    -2.6375     0.1641     7.9447   102.7999
   62.0000     2.4497     0.0039     8.2619     7.3855    -2.6683     0.1587     7.9514   102.8118
   62.5000     2.4631     0.0060     8.4164     7.3559    -2.6991     0.1507     7.9582   101.2168
   63.0000     2.4654     0.0060     8.5814     7.3268    -2.7299     0.1453     7.9649   101.0265
   63.5000     2.4706     0.0060     8.5814     7.2977    -2.7607     0.1416     7.9716   102.2604
   64.0000     2.4815     0.0059     8.4040     7.2688    -2.7915     0.1367     7.9783   102.6663
   64.5000     2.4983     0.0037     8.2752     7.2400    -2.8223     0.1273     7.9832   100.5795
   65.0000     2.5009     0.0014     8.1484     7.2113    -2.8533     0.1204     7.9831    94.3155
   65.5000     2.4871    -0.0009     8.0435     7.1914    -2.8842     0.1202     7.9831    88.0356
   66.0000     2.4690    -0.0032     8.0435     7.1787    -2.9066     0.1308     7.9831    84.6770
   66.5000     2.4507    -0.0050     8.0435     7.1659    -2.8606     0.1414     7.9831    82.8360
   67.0000     2.4335    -0.0044     8.0435     7.1531    -2.8136     0.1521     7.9831    89.2272
   67.5000     2.4309    -0.0004     8.0435     7.1402    -2.7669     0.1585     7.9831    98.2919
   68.0000     2.4381     0.0035     8.0435     7.1329    -2.7202     0.1615     7.9831   103.6658
   68.5000     2.4464     0.0034     8.0435     7.1995    -2.6735     0.1525     7.9831   103.4929
   69.0000     2.4503     0.0027     8.0435     7.2486    -2.6266     0.1461     7.9831   102.1517
   69.5000     2.4497     0.0021     8.0435     7.2982    -2.5789     0.1459     7.9831    99.5118
   70.0000     2.4461     0.0029     8.0428     7.3481    -2.5344     0.1510     7.9831    96.7137
   70.5000     2.4436     0.0038     8.0742     7.3983    -2.6106     0.1551     7.9831    94.2049
   71.0000     2.4444     0.0047     8.1137     7.4700    -2.7402     0.1549     7.9831    95.0974
   71.5000     2.4455     0.0056     8.1534     7.4608    -2.7765     0.1547     7.9831    96.1794
   72.0000     2.4466     0.0072     8.1937     7.4452    -2.8097     0.1546     7.9831    96.7821
   72.5000     2.4477     0.0099     8.1937     7.4297    -2.8436     0.1544     7.9831    99.8580
   73.0000     2.4483     0.0125     8.0626     7.4136    -2.8776     0.1539     7.9831   100.4214
   73.5000     2.4483     0.0151     7.9541     7.3634    -2.9116     0.1530     7.9831   100.3209
   74.0000     2.4483     0.0178     7.8469     7.1710    -2.9457     0.1521     7.9831   100.4013
   74.5000     2.4483     0.0178     7.7412     6.9837    -2.9797     0.1516     7.9831   102.0429
   75.0000     2.4483     0.0176     7.6369     6.8012    -3.0138     0.1520     7.9831   102.7570
   75.5000     2.4483     0.0173     7.5341     6.6238    -3.0480     0.1523     7.9831   103.3813
   76.0000     2.4495     0.0170     7.4326     6.6238    -3.0821     0.1527     7.9831   106.1321
   76.5000     2.4509     0.0167     7.3331     6.6343    -3.1061     0.1508     7.9830   109.1820
   77.0000     2.4522     0.0164     7.3331     6.6447    -3.0479     0.1480     7.9831   109.6729
   77.5000     2.4523     0.0161     7.3331     6.6552    -2.9885     0.1451     7.9882   106.9930
   78.0000     2.4523     0.0158     7.3331     6.6656    -2.9294     0.1454     7.9939   106.2834
   78.5000     2.4523     0.0155     7.3331     6.6761    -2.8703     0.1477     7.9996   104.2064
   79.0000     2.4523     0.0153     7.3331     6.6866    -2.8112     0.1478     8.0053   101.6429
   79.5000     2.4523     0.0150     7.3331     6.6971    -2.7524     0.1470     8.0110    99.8554
   80.0000     2.4523     0.0147     7.3331     6.7076    -2.7099     0.1461     8.0167   102.6335
   80.5000     2.4540     0.0144     7.3331     6.7182    -2.7192     0.1452     8.0223   108.2801
   81.0000     2.4535     0.0141     7.3331     6.7287    -2.7311     0.1447     8.0262   113.8738
   81.5000     2.4523     0.0144     7.3330     6.7393    -2.7431     0.1447     8.0299   114.3946
   82.0000     2.4495     0.0150     7.3330     6.7678    -2.7551     0.1474     8.0336   110.9722
   82.5000     2.4465     0.0156     7.3331     6.8580    -2.7670     0.1539     8.0373   110.0500
   83.0000     2.4446     0.0156     7.3821     6.9494    -2.7790     0.1534     8.0410   108.9864
   83.5000     2.4448     0.0143     7.4970     7.0420    -2.7909     0.1522     8.0420   106.5945
   84.0000     2.4454     0.0131     7.6136     7.1358    -2.8029     0.1526     8.0402   104.3884
   84.5000     2.4460     0.0120     7.7522     7.2309    -2.8148     0.1539     8.0385   103.8700
   85.0000     2.4480     0.0120     7.7478     7.2821    -2.8268     0.1542     8.0367   102.6594
   85.5000     2.4526     0.0115     7.8274     7.3081    -2.8387     0.1527     8.0350   100.7266
   86.0000     2.4564     0.0099     7.9695     7.3331    -2.8507     0.1475     8.0332    98.7775
   86.5000     2.4554     0.0084     7.9600     7.3331    -2.8626     0.1440     8.0315    98.0253
   87.0000     2.4530     0.0069     7.9386     7.3035    -2.8746     0.1455     8.0297    99.4265
   87.5000     2.4507     0.0063     7.9174     7.2798    -2.8866     0.1482     8.0280   100.3822
   88.0000     2.4497     0.0072     7.8961     7.2561    -2.8988     0.1503     8.0262   100.6906
   88.5000     2.4517     0.0079     7.8749     7.2326    -2.9102     0.1500     8.0245   102.7288
