~VERSION INFORMATION
 VERS.                2.0:   CWLS LOG ASCII STANDARD - VERSION 2.0
 WRAP.                 NO:   ONE LINE PER DEPTH STEP
~WELL INFORMATION
#MNEM.UNIT      DATA TYPE    INFORMATION
#----------   ------------   ------------------------------
 STRT.F            0.0000:   START DEPTH
 STOP.F          479.0000:   STOP DEPTH
 STEP.F            0.5000:   STEP LENGTH
 NULL.          -999.2500:   NO VALUE
 COMP. BROWN JOHN E&C INC:   COMPANY
 WELL.  63-3 SX-10 #63-10:   WELL
 FLD .             TEAPOT:   FIELD
 LOC .      S10 T38N R78W:   LOCATION
 CNTY.            NATRONA:   COUNTY
 STAT.            WYOMING:   STATE
 CTRY. UNITED STATES OF AMERICA:   COUNTRY
 SRVC.     Atlas Wireline:   SERVICE COMPANY
 DATE.        25-APR-1992:   LOGDATE
 API .       490252252900:   API NUMBER
~CURVE INFORMATION
#MNEM.UNIT       API CODE    CURVE DESCRIPTION
#----------   ------------   ------------------------------
 DEPT.F                  :   
 GRR .GAPI   07 310 01 00:   GAMMA RAY
 SPR .MV     07 010 01 00:   SPONTANEOUS POTENTIAL
 RILD.OHMM   07 120 46 00:   INDUCTION LOG DEEP RESISTIVITY
 RILM.OHMM   07 120 44 00:   INDUCTION LOG MEDIUM RESISTIVITY
 RFOC.OHMM   07 220 04 00:   RESISTIVITY FOCUSED LOG
 PORD.DEC    45 890 12 00:   POROSITY DENSITY SANDSTONE
 CNC .DEC    42 890 03 00:   NEUTRON POROSITY SANDSTONE
 CALD.IN     45 280 60 00:   CALIPER FROM DENSITY
 CORR.G/C3   45 356 01 00:   DENSITY CORRECTION
 DEN .G/C3   45 350 01 00:   COMPENSATED BULK DENSTIY
~PARAMETER INFORMATION
#MNEM.UNIT          VALUE    DESCRIPTION
#----------   ------------   ------------------------------
 PD  .                 GL:   PERMANENT DATUM
 EPD .F              5189:   ELEVATION PERMANENT DATUM
 LMF .                 KB:   LOG MEASURED FROM
 DAPD.F                10:   FEET ABOVE PERMANENT DATUM
 DMF .                 KB:   DRILLING MEASURED FROM
 EKB .F              5199:   KELLING BUSHING
 EGL .F              5189:   GROUND LEVEL
 DATE.        25-APR-1992:   RUN DATE
 RUN .                  1:   RUN NUMBER
 DD  .F               480:   DEPTH DRILLER
 DL  .F               482:   DEPTH LOGGER
 BLI .F               480:   BOTTOM LOG INTERVAL
 CS  .IN            8.625:   CASING SIZE
 CBD .F               130:   CASING BOTTOM DRILLER
 CBL .F               143:   CASING BOTTOM LOGGER
 BS  .IN            7.875:   BIT SIZE
 BSD .F               480:   BIT SIZE AT DEPTH
 DFT .     DISP. WEIGHTED:   DRILLING FLUID TYPE
 DFD .               15.1:   DRILLING FLUID DENSITY
 DFV .                 44:   DRILLING FLUID VISCOSITY
 DFPH.                8.4:   DRILLING FLUID PH
 DFL .                  7:   DRILLING FLUID LOSS
 MSS .           FLOWLINE:   MUD SAMPLE SOURCE
 TCS .HRS            0230:   TIME CURCULATED STOPPED
 LUN .           HL- 6272:   LOGGING UNIT NUMBER
 LUL .             CASPER:   LOGGING UNIT LOCATION
 ENGI.       P. RASMUSSEN:   RECORDING ENGINEER
 WITN.          G. STRONG:   WITNESSED BY
 CLNT.            A2DTECH:   CLIENT CODE
 ORIG.           5" PRINT:   ORIGIN OF DATA
 UWI .       490252252900:   UNIQUE WELL ID
 DICO. A2D Technologies, Inc.:   DIGITIZING COMPANY
~OTHER INFORMATION
~A    DEPT      GRR       SPR       RILD       RILM       RFOC       PORD        CNC       CALD       CORR        DEN   
# ...
  335.0000    69.0446   -65.5356    16.3412    16.1890    15.2732     0.1580     0.2894     7.6945    -0.0251     2.3812
  335.5000    68.7300   -66.1464    18.2682    17.9931    16.9545     0.1671     0.2897     7.6937    -0.0280     2.3713
  336.0000    66.2975   -66.6064    20.4224    19.9809    18.1766     0.1819     0.2918     7.6930    -0.0264     2.3396
  336.5000    64.7726   -66.9170    22.5148    21.8936    19.3515     0.1867     0.2928     7.6922    -0.0173     2.3388
  337.0000    62.9452   -67.2318    24.6491    24.2200    20.0361     0.1879     0.2906     7.6914    -0.0085     2.3456
  337.5000    61.4203   -67.5338    26.0620    25.3102    20.6009     0.1664     0.2749     7.6907    -0.0026     2.3804
  338.0000    60.1981   -67.0709    26.4277    25.4366    24.1795     0.1405     0.2442     7.7053     0.0018     2.4213
  338.5000    61.3964   -66.3188    26.4277    24.7306    27.5998     0.1161     0.2312     7.7044    -0.0120     2.4534
  339.0000    63.5024   -65.4465    26.2442    23.5472    26.5242     0.1233     0.2410     7.7036    -0.0165     2.4559
  339.5000    64.7007   -64.8506    26.2442    22.9080    24.0065     0.1306     0.2562     7.7028    -0.0151     2.4404
  340.0000    64.9942   -64.5546    26.0500    22.7491    22.7035     0.1433     0.2674     7.7021    -0.0137     2.4193
  340.5000    64.3741   -64.1114    25.7013    22.7491    22.0781     0.1529     0.2743     7.7165    -0.0153     2.4013
  341.0000    63.7570   -63.9662    25.4945    22.9080    21.4698     0.1641     0.2780     7.7006    -0.0199     2.3878
  341.5000    63.1398   -63.8228    24.8215    23.0680    20.8783     0.1689     0.2831     7.6998    -0.0215     2.3750
  342.0000    62.2201   -63.8322    24.1393    23.3915    22.0735     0.1698     0.2867     7.6990    -0.0216     2.3712
  342.5000    61.3004   -63.8396    23.4759    23.0680    23.6646     0.1689     0.2873     7.6983    -0.0172     2.3720
  343.0000    60.0781   -63.8471    23.1510    21.5167    24.6735     0.1680     0.2879     7.6823    -0.0097     2.3727
  343.5000    60.3687   -64.0054    22.9903    20.2099    23.2956     0.1674     0.2909     7.6816    -0.0037     2.3720
  344.0000    59.7516   -64.3145    22.9903    19.7922    20.2379     0.1695     0.2955     7.6808    -0.0069     2.3689
  344.5000    57.6216   -64.7745    22.8307    19.7922    18.9100     0.1720     0.2994     7.6800    -0.0205     2.3652
  345.0000    56.3993   -65.3853    22.6722    20.2099    18.6668     0.1741     0.3048     7.6793    -0.0267     2.3621
  345.5000    57.5995   -65.8453    22.2032    20.9258    19.7354     0.1763     0.3091     7.6785    -0.0253     2.3591
  346.0000    59.7275   -66.4561    21.7440    20.6365    20.4339     0.1783     0.3094     7.6930    -0.0208     2.3576
  346.5000    61.2275   -66.7652    21.1464    20.0697    20.1494     0.1780     0.3060     7.6922    -0.0179     2.3561
  347.0000    62.4028   -67.0743    21.2942    20.0697    20.5736     0.1762     0.3036     7.6914    -0.0255     2.3583
  347.5000    63.3435   -67.0818    22.2032    20.3511    20.5722     0.1693     0.3030     7.6907    -0.0271     2.3689
  348.0000    63.9475   -66.9381    22.9903    20.6365    19.6093     0.1611     0.3019     7.6899    -0.0151     2.3825
  348.5000    64.4848   -66.7949    23.6400    21.3842    18.3995     0.1475     0.2839     7.6740    -0.0062     2.4097
  349.0000    64.7754   -67.1042    24.1393    23.2292    18.1437     0.1364     0.2659     7.6732    -0.0002     2.4360
  349.5000    64.7604   -67.4133    24.1393    23.7194    20.6132     0.1180     0.2480     7.6724     0.0058     2.4929
  350.0000    63.9357   -67.2700    24.1393    23.4883    25.2896     0.0808     0.2300     7.6567     0.0087     2.5382
  350.5000    61.4018   -66.3018    23.4261    22.0856    29.9659     0.0564     0.2094     7.6766     0.0071     2.5563
  351.0000    60.8049   -65.3336    22.7129    20.4841    27.9384     0.0609     0.2100     7.6937    -0.0066     2.5366
  351.5000    64.0363   -64.5692    21.9996    19.1027    22.3537     0.0872     0.2339     7.7004    -0.0188     2.4988
  352.0000    68.1108   -64.2709    21.4246    18.5742    18.0103     0.1210     0.2671     7.6996    -0.0219     2.4579
  352.5000    68.3513   -64.1245    20.5432    18.4415    16.9146     0.1413     0.2822     7.6990    -0.0235     2.4186
  353.0000    67.4361   -64.1301    19.4256    18.0567    17.1507     0.1531     0.2906     7.6984    -0.0236     2.4034
  353.5000    68.0353   -64.1346    18.7566    17.4353    17.3902     0.1604     0.2933     7.6978    -0.0237     2.3905
  354.0000    70.4499   -63.9871    18.2374    17.1907    17.1437     0.1651     0.2954     7.6972    -0.0234     2.3784
  354.5000    71.9568   -63.9927    18.1070    16.9495    16.8997     0.1669     0.2973     7.6966    -0.0235     2.3761
  355.0000    72.8600   -63.9972    18.2308    16.8285    16.5437     0.1678     0.2991     7.6960    -0.0235     2.3753
  355.5000    72.2474   -64.4542    18.4820    16.9426    16.4429     0.1690     0.3001     7.6954    -0.0251     2.3745
  356.0000    71.3337   -64.9111    18.7373    17.2965    17.7510     0.1717     0.3013     7.6947    -0.0281     2.3699
  356.5000    70.4200   -65.3681    18.6033    17.7813    18.2517     0.1738     0.3024     7.7095    -0.0297     2.3646
  357.0000    69.2037   -65.6742    18.7296    17.7776    17.9976     0.1744     0.3030     7.7087    -0.0282     2.3623
  357.5000    67.3823   -65.9854    19.1211    17.7739    17.6242     0.1699     0.3024     7.7081    -0.0192     2.3706
  358.0000    67.0738   -66.4374    19.5246    18.2721    17.1386     0.1629     0.3009     7.7075    -0.0117     2.3849
  358.5000    67.9770   -66.7627    19.8005    18.6702    16.9003     0.1599     0.2990     7.7069    -0.0178     2.3886
  359.0000    69.1800   -67.2267    20.0643    18.9115    16.8158     0.1587     0.3006     7.6911    -0.0239     2.3901
  359.5000    70.3843   -67.6585    20.0600    19.0397    17.7720     0.1578     0.3064     7.6905    -0.0254     2.3908
  360.0000    69.1678   -67.6630    19.9157    19.0347    18.6538     0.1533     0.3066     7.6899    -0.0270     2.3998
  360.5000    68.5567   -67.6674    19.6361    18.6375    18.6474     0.1494     0.2779     7.6893    -0.0210     2.4081
  361.0000    68.2481   -67.5200    19.4957    18.1219    18.5115     0.1439     0.2746     7.6887    -0.0150     2.4149
  361.5000    68.5667   -67.2239    19.4917    17.7437    17.8716     0.1418     0.2731     7.6881    -0.0090     2.4179
  362.0000    69.1800   -66.6250    19.4877    17.4947    16.8876     0.1387     0.2725     7.6875    -0.0030     2.4209
  362.5000    70.3482   -65.5737    19.4837    17.3707    15.9661     0.1329     0.2706     7.6869     0.0000     2.4291
  363.0000    71.2484   -64.2207    19.7540    18.4891    15.8591     0.1243     0.2679     7.6862     0.0030     2.4548
  363.5000    69.4270   -63.1694    19.8880    19.4084    16.6095     0.0935     0.2552     7.6856     0.0044     2.4978
  364.0000    67.3030   -62.5705    20.3028    20.0917    19.3949     0.0639     0.2249     7.6850     0.0044     2.5575
  364.5000    66.0868   -61.9717    20.2986    20.3703    22.2870     0.0416     0.2055     7.6844     0.0074     2.5832
  365.0000    65.7782   -61.6745    20.4373    20.3650    23.0711     0.0328     0.1933     7.6686     0.0104     2.5967
  365.5000    65.7722   -61.3762    20.5759    20.2196    22.9011     0.0337     0.1961     7.6680     0.0118     2.5960
  366.0000    66.0688   -61.2308    20.5706    20.0751    21.0570     0.0401     0.2060     7.6674     0.0103     2.5831
  366.5000    67.8783   -61.2354    20.2818    19.6562    18.8294     0.0579     0.2172     7.6668     0.0072     2.5566
  367.0000    70.5955   -61.0890    19.7203    17.5806    16.9551     0.0775     0.2344     7.6815     0.0041     2.5127
  367.5000    71.8012   -61.0936    18.7778    16.5095    15.8086     0.1029     0.2555     7.6808     0.0026     2.4779
  368.0000    70.5835   -61.1000    17.3889    16.5061    15.1562     0.1270     0.2724     7.6802    -0.0005     2.4416
