~VERSION INFORMATION
 VERS.                2.0:   CWLS LOG ASCII STANDARD - VERSION 2.0
 WRAP.                 NO:   ONE LINE PER DEPTH STEP
~WELL INFORMATION
#MNEM.UNIT      DATA TYPE    INFORMATION
#----------   ------------   ------------------------------
 STRT.F           30.0000:   START DEPTH
 STOP.F          770.5000:   STOP DEPTH
 STEP.F            0.5000:   STEP LENGTH
 NULL.          -999.2500:   NO VALUE
 COMP. FENIX & SCISSON INC:   COMPANY
 WELL. TEAPOT DOME 63 SX 34 #63-34:   WELL
 FLD .             TEAPOT:   FIELD
 LOC .      S34 T39N R78W:   LOCATION
 CNTY.            NATRONA:   COUNTY
 STAT.            WYOMING:   STATE
 CTRY. UNITED STATES OF AMERICA:   COUNTRY
 SRVC.           BIRDWELL:   SERVICE COMPANY
 DATE.        18-AUG-1978:   LOGDATE
 API .       490251070300:   API NUMBER
~CURVE INFORMATION
#MNEM.UNIT       API CODE    CURVE DESCRIPTION
#----------   ------------   ------------------------------
 DEPT.F                  :   
 SPR .MV     05 010 01 00:   SPONTANEOUS POTENTIAL
 SN  .OHMM   05 040 16 00:   SHORT NORMAL 16'
 ILD .OHMM   05 120 46 00:   INDUCTION LOG DEEP RESISTIVITY
 CALD.IN     45 280 60 00:   CALIPER
 GRD .GAPI   45 310 01 00:   GAMMA RAY FROM DENSITY LOG
 RHOB.G/C3   45 350 01 00:   BULK DENSITY
 DPHI.DEC    45 890 12 00:   DENSITY POROSITY SANDSTONE
 CORR.G/C3   45 356 01 00:   DENSITY CORRECTION
~PARAMETER INFORMATION
#MNEM.UNIT          VALUE    DESCRIPTION
#----------   ------------   ------------------------------
 PD  .                 GL:   PERMANENT DATUM
 EPD .F              5063:   ELEVATION PERMANENT DATUM
 LMF .                 KB:   LOG MEASURED FROM
 DAPD.F                 4:   FEET ABOVE PERMANENT DATUM
 DMF .                 KB:   DRILLING MEASURED FROM
 EKB .F              5067:   KELLING BUSHING
 EGL .F              5063:   GROUND LEVEL
 DATE.          8-18-1978:   RUN DATE
 RUN .                  1:   RUN NUMBER
 DD  .F               760:   DEPTH DRILLER
 DL  .F               770:   DEPTH LOGGER
 BLI .F               763:   BOTTOM LOG INTERVAL
 TLI .F                40:   TOP LOG INTERVAL
 CS  .IN            8.625:   CASING SIZE
 CBD .F                40:   CASING BOTTOM DRILLER
 CBL .F                40:   CASING BOTTOM LOGGER
 BS  .IN            7.875:   BIT SIZE
 BSD .F               760:   BIT SIZE AT DEPTH
 DFT .            MUD KCL:   DRILLING FLUID TYPE
 DFL .               10.6:   DRILLING FLUID LOSS
 MSS .          FLOW LINE:   MUD SAMPLE SOURCE
 RMS .OHMM             .2:   RESISTIVITY MUD SAMPLE
 MST .F                56:   MUD SAMPLE TEMPERATURE
 RMF .OHMM             .2:   RESISTIVITY MUD FILTRATE SAMPLE
 MFST.F                64:   MUD FILTRATE SAMPLE TEMPERATURE
 RMC .OHMM            .36:   RESISTIVITY MUD CAKE
 MCST.F                64:   MUD CAKE SAMPLE TEMPERATURE
 MFSS.               MEAS:   MUD FILTRATE SAMPLE SOURCE
 MCSS.               MEAS:   MUD CAKE SAMPLE SOURCE
 TCS .HRS               3:   TIME CURCULATED STOPPED
 MRT .F                72:   MAXIMUM RECORDED TEMPERATURE
 LUN .               3006:   LOGGING UNIT NUMBER
 LUL .               CASP:   LOGGING UNIT LOCATION
 ENGI.           REYNOLDS:   RECORDING ENGINEER
 WITN.              AMEND:   WITNESSED BY
 CLNT.            A2DTECH:   CLIENT CODE
 ORIG.           5" PRINT:   ORIGIN OF DATA
 UWI .       490251070300:   UNIQUE WELL ID
 DICO. A2D Technologies, Inc.:   DIGITIZING COMPANY
~OTHER INFORMATION
~A   DEPT      SPR         SN        ILD       CALD         GRD      RHOB       DPHI       CORR   
# ...
  435.0000   -78.5812     7.1130     5.3335     7.1697    79.1224     2.4545     0.1274     0.0228
  435.5000   -77.7736     7.1766     5.3972     7.1684    80.4272     2.4505     0.1293     0.0226
  436.0000   -77.0374     7.1660     5.3868     7.1550    81.8887     2.4474     0.1293     0.0224
  436.5000   -77.3053     7.1521     5.3731     7.1415    83.3381     2.4512     0.1249     0.0222
  437.0000   -77.8287     7.1381     5.3594     7.1282    84.3346     2.4507     0.1332     0.0220
  437.5000   -77.8606     7.1242     5.3458     7.1156    84.3721     2.4407     0.1348     0.0226
  438.0000   -77.9503     7.1103     5.3321     7.1030    84.4216     2.4376     0.1365     0.0234
  438.5000   -78.3287     7.0964     5.3186     7.0904    84.4731     2.4381     0.1359     0.0241
  439.0000   -78.6778     7.0826     5.3052     7.0894    83.9795     2.4386     0.1349     0.0248
  439.5000   -78.8704     7.0689     5.2922     7.1044    83.0786     2.4368     0.1408     0.0256
  440.0000   -79.0645     7.0553     5.2802     7.1229    82.7586     2.4257     0.1475     0.0263
  440.5000   -79.2585     7.0071     5.2681     7.1416    82.8981     2.4146     0.1534     0.0270
  441.0000   -79.4526     6.8932     5.2560     7.1602    83.0416     2.4036     0.1593     0.0275
  441.5000   -79.6485     6.7818     5.1579     7.1783    83.1320     2.3925     0.1690     0.0360
  442.0000   -79.8510     6.6330     4.8911     7.1782    81.8904     2.3816     0.1733     0.0497
  442.5000   -79.7975     6.4567     4.6381     7.1487    79.9958     2.4140     0.1484     0.0787
  443.0000   -79.7269     6.2848     4.3982     7.1627    78.0703     2.4597     0.1321     0.0895
  443.5000   -79.6381     6.1175     4.2891     7.2414    76.1358     2.4510     0.1369     0.0520
  444.0000   -79.2734     5.9547     4.3677     7.1766    74.1905     2.4407     0.1329     0.0226
  444.5000   -78.9166     5.7962     4.4783     7.1100    74.2140     2.4451     0.1294     0.0205
  445.0000   -78.5470     5.5993     4.5323     7.0967    79.2064     2.4484     0.1275     0.0193
  445.5000   -78.4581     5.6759     4.5323     7.0808    82.0143     2.4494     0.1257     0.0181
  446.0000   -78.4554     5.7842     4.5323     7.0648    80.8921     2.4543     0.1239     0.0168
  446.5000   -78.4602     5.8944     4.6681     7.0502    78.9053     2.4593     0.1235     0.0155
  447.0000   -78.2784     6.1013     4.9436     7.0698    79.3409     2.4573     0.1273     0.0142
  447.5000   -78.0314     6.5358     5.2353     7.0931    80.7232     2.4555     0.1246     0.0129
  448.0000   -77.7807     7.0459     5.5443     7.1165    82.0969     2.4546     0.1265     0.0123
  448.5000   -77.5293     7.1304     5.8714     7.1394    83.1577     2.4546     0.1260     0.0138
  449.0000   -77.2788     7.1690     5.9736     7.1615    81.6460     2.4547     0.1240     0.0169
  449.5000   -77.0474     7.2078     5.9710     7.1897    79.4870     2.4597     0.1213     0.0212
  450.0000   -77.0530     7.2429     5.9716     7.1793    79.2667     2.4675     0.1168     0.0255
  450.5000   -77.0541     7.2429     5.9715     7.1588    80.5748     2.4753     0.1123     0.0297
  451.0000   -77.0541     7.3148     5.9713     7.1380    81.3473     2.4829     0.1079     0.0319
  451.5000   -77.0541     7.3958     5.9753     7.1171    80.6699     2.4908     0.1038     0.0293
  452.0000   -77.0541     7.4777     5.9797     7.0956    80.1007     2.4944     0.1050     0.0241
  452.5000   -77.0541     7.5606     5.9840     7.0906    80.4407     2.4896     0.1082     0.0189
  453.0000   -77.0541     7.6442     5.9884     7.0922    81.4066     2.4858     0.1110     0.0135
  453.5000   -77.0541     7.6651     5.9928     7.0940    84.1029     2.4855     0.1107     0.0120
  454.0000   -77.0541     7.6782     5.9971     7.0958    86.7116     2.4833     0.1117     0.0124
  454.5000   -77.0541     7.6912     6.0015     7.0975    89.3901     2.4810     0.1133     0.0143
  455.0000   -77.0541     7.7043     6.0059     7.0993    89.8032     2.4803     0.1074     0.0162
  455.5000   -77.0541     7.7174     6.0103     7.1010    87.0896     2.4922     0.0961     0.0179
  456.0000   -77.0541     7.7242     6.0146     7.1028    83.2800     2.5058     0.0848     0.0167
  456.5000   -77.0541     7.7242     6.0189     7.1046    83.8191     2.5191     0.0778     0.0111
  457.0000   -77.0541     7.7044     6.0234     7.1063    84.9738     2.5284     0.0915     0.0096
  457.5000   -77.0541     7.6322     6.0266     7.1080    82.2193     2.5055     0.1045     0.0131
  458.0000   -77.0541     7.5606     5.9360     7.1100    81.5386     2.4923     0.1140     0.0167
  458.5000   -77.0538     7.4896     5.8656     7.1206    82.3119     2.4749     0.1192     0.0180
  459.0000   -77.0540     7.4194     5.7961     7.1323    83.2915     2.4657     0.1242     0.0182
  459.5000   -77.0574     7.3498     5.7274     7.1440    83.1137     2.4607     0.1194     0.0184
  460.0000   -77.2414     7.2808     5.6595     7.1483    82.3352     2.4592     0.1213     0.0186
  460.5000   -77.6527     7.2125     5.5924     7.1418    82.3751     2.4585     0.1261     0.0188
  461.0000   -78.0612     7.1449     5.5261     7.1355    82.4859     2.4536     0.1274     0.0190
  461.5000   -78.4714     7.0779     5.4605     7.1305    81.7872     2.4486     0.1312     0.0192
  462.0000   -78.8533     7.0115     5.3958     7.1409    81.1196     2.4405     0.1419     0.0194
  462.5000   -78.9195     6.9457     5.3070     7.1510    81.7102     2.4274     0.1527     0.0196
  463.0000   -78.9753     6.8805     5.1472     7.1611    83.9742     2.4093     0.1645     0.0198
  463.5000   -79.0321     6.8160     4.9922     7.1697    86.0490     2.3829     0.1806     0.0203
  464.0000   -79.0893     6.7521     4.8418     7.1632    87.5195     2.3566     0.1968     0.0239
  464.5000   -79.1473     6.5565     4.6960     7.1566    87.0936     2.3302     0.2130     0.0300
  465.0000   -79.2075     6.2964     4.5534     7.1494    84.4821     2.3037     0.2291     0.0442
  465.5000   -79.2368     6.0467     4.3412     7.1538    82.5942     2.2775     0.2382     0.0783
  466.0000   -78.7189     5.7858     3.8969     7.2437    82.5146     2.2696     0.2415     0.1125
  466.5000   -78.1914     5.4719     3.5018     7.3293    82.6457     2.2648     0.2210     0.1600
  467.0000   -77.6659     5.1750     3.1464     7.3904    82.8779     2.3216     0.2105     0.1427
  467.5000   -77.1396     4.8942     2.8270     7.3031    80.9911     2.3113     0.2160     0.1105
  468.0000   -76.9431     4.6287     2.6442     7.1502    74.2156     2.3347     0.2047     0.0781
  468.5000   -76.8098     4.3776     2.5789     7.2264    72.7681     2.3765     0.2000     0.0413
  469.0000   -76.6808     4.1400     2.5152     7.1958    75.6098     2.3438     0.1957     0.0737
  469.5000   -76.4286     3.9154     2.4530     7.1832    79.2057     2.3884     0.1772     0.1074
  470.0000   -76.1566     3.8491     2.3924     7.2097    82.8128     2.4346     0.1587     0.0500
  470.5000   -75.8604     3.8401     2.3816     7.2230    86.5322     2.4484     0.1409     0.0115
  471.0000   -75.5521     3.9341     2.7269     7.1226    87.6047     2.4515     0.1258     0.0099
  471.5000   -75.2586     4.0110     2.9604     7.1112    88.5525     2.4530     0.1249     0.0104
  472.0000   -75.2487     4.1747     3.2140     7.1116    90.2044     2.4559     0.1256     0.0114
  472.5000   -75.2501     4.4689     3.4893     7.1132    91.8608     2.4562     0.1269     0.0123
  473.0000   -75.2500     4.7839     3.7882     7.1147    93.0967     2.4549     0.1282     0.0132
  473.5000   -75.2462     5.1211     4.1013     7.1160    93.1937     2.4536     0.1282     0.0141
  474.0000   -75.4098     5.4820     4.4323     7.1173    93.0569     2.4540     0.1255     0.0150
  474.5000   -75.5980     5.8684     4.7893     7.1187    92.9127     2.4574     0.1227     0.0160
  475.0000   -76.3687     6.2820     4.7981     7.1200    93.4489     2.4609     0.1237     0.0169
