~VERSION INFORMATION
 VERS.                2.0:   CWLS LOG ASCII STANDARD - VERSION 2.0
 WRAP.                 NO:   ONE LINE PER DEPTH STEP
~WELL INFORMATION
#MNEM.UNIT      DATA TYPE    INFORMATION
#----------   ------------   ------------------------------
 STRT.F           27.0000:   START DEPTH
 STOP.F          992.0000:   STOP DEPTH
 STEP.F            0.5000:   STEP LENGTH
 NULL.          -999.2500:   NO VALUE
 COMP. FENIX & SCISSON INC:   COMPANY
 WELL. NPR 3  77- S -27 #77-27:   WELL
 FLD .             TEAPOT:   FIELD
 LOC .      S27 T39N R78W:   LOCATION
 CNTY.            NATRONA:   COUNTY
 STAT.            WYOMING:   STATE
 CTRY. UNITED STATES OF AMERICA:   COUNTRY
 SRVC.            Unknown:   SERVICE COMPANY
 DATE.        09-SEP-1978:   LOGDATE
 API .       490251069700:   API NUMBER
~CURVE INFORMATION
#MNEM.UNIT       API CODE    CURVE DESCRIPTION
#----------   ------------   ------------------------------
 DEPT.F                  :   
 SPR .MV     05 010 01 00:   SPONTANEOUS POTENTIAL FROM RES.
 SN  .OHMM   05 040 16 00:   SHORT NORMAL 16"
 ILD .OHMM   05 120 46 00:   INDUCTION LOG DEEP
 CALD.IN     45 280 60 00:   CALIPER
 GRD .GAPI   45 310 01 00:   GAMMA RAY FROM DENSITY LOG
 RHOB.G/C3   45 350 01 00:   BULK DENSITY
 CORR.G/C3   45 356 01 00:   DENSITY CORRECTION
 DPHI.DEC    45 890 12 00:   DENSITY POROSITY SANDSTONE
~PARAMETER INFORMATION
#MNEM.UNIT          VALUE    DESCRIPTION
#----------   ------------   ------------------------------
 PD  .                 GL:   PERMANENT DATUM
 EPD .F              5069:   ELEVATION PERMANENT DATUM
 LMF .                 KB:   LOG MEASURED FROM
 DAPD.F                 4:   FEET ABOVE PERMANENT DATUM
 DMF .                 KB:   DRILLING MEASURED FROM
 EKB .F              5073:   KELLING BUSHING
 EGL .F              5069:   GROUND LEVEL
 DATE.           9-9-1978:   RUN DATE
 RUN .                  1:   RUN NUMBER
 DD  .F               990:   DEPTH DRILLER
 DL  .F               998:   DEPTH LOGGER
 BLI .F               992:   BOTTOM LOG INTERVAL
 TLI .F                50:   TOP LOG INTERVAL
 CS  .IN            8.625:   CASING SIZE
 CBD .F                40:   CASING BOTTOM DRILLER
 BS  .IN            7.875:   BIT SIZE
 BSD .F               990:   BIT SIZE AT DEPTH
 DFT .                KCL:   DRILLING FLUID TYPE
 DFD .                8.7:   DRILLING FLUID DENSITY
 DFV .                 34:   DRILLING FLUID VISCOSITY
 DFPH.                  9:   DRILLING FLUID PH
 DFL .                  8:   DRILLING FLUID LOSS
 MSS .          FLOW LINE:   MUD SAMPLE SOURCE
 RMS .OHMM             .4:   RESISTIVITY MUD SAMPLE
 MST .F                79:   MUD SAMPLE TEMPERATURE
 RMF .OHMM            .12:   RESISTIVITY MUD FILTRATE SAMPLE
 MFST.F                84:   MUD FILTRATE SAMPLE TEMPERATURE
 RMC .OHMM            .34:   RESISTIVITY MUD CAKE
 MCST.F                84:   MUD CAKE SAMPLE TEMPERATURE
 MFSS.               MEAS:   MUD FILTRATE SAMPLE SOURCE
 MCSS.               MEAS:   MUD CAKE SAMPLE SOURCE
 TCS .HRS               3:   TIME CURCULATED STOPPED
 LUN .               2958:   LOGGING UNIT NUMBER
 LUL .               CASP:   LOGGING UNIT LOCATION
 ENGI.             MILLER:   RECORDING ENGINEER
 WITN.              AMEND:   WITNESSED BY
 CLNT.            A2DTECH:   CLIENT CODE
 ORIG.           5" PRINT:   ORIGIN OF DATA
 UWI .       490251069700:   UNIQUE WELL ID
 DICO. A2D Technologies, Inc.:   DIGITIZING COMPANY
~OTHER INFORMATION
~A   DEPT      SPR         SN        ILD       CALD        GRD       RHOB       CORR       DPHI   
# ...
  391.5000   -68.7887     8.2116     9.8168     7.7072   119.7366     2.4230     0.0072     0.1475
  392.0000   -68.7763     8.3520     9.5286     7.6507   118.9965     2.4230     0.0105     0.1409
  392.5000   -68.1528     8.4948     9.6363     7.5952   119.1984     2.4319     0.0137     0.1364
  393.0000   -67.5409     8.6400     9.8165     7.5542   119.4687     2.4434     0.0095     0.1438
  393.5000   -66.9246     8.7877     9.8948     7.5559   119.7708     2.4453     0.0051     0.1507
  394.0000   -66.6688     8.9337     9.9087     7.6552   118.8179     2.4308     0.0007     0.1575
  394.5000   -66.6114     8.9359     9.9226     7.7582   117.3843     2.4167    -0.0026     0.1643
  395.0000   -66.5576     8.9381     9.9366     7.7599   116.8187     2.4034    -0.0025     0.1680
  395.5000   -66.5039     8.9403     9.9504     7.7640   117.4616     2.3972    -0.0026     0.1704
  396.0000   -66.4498     8.9425     9.9696     7.7684   119.2080     2.3907     0.0023     0.1691
  396.5000   -66.3957     8.9447     9.9710     7.7729   120.4419     2.3895     0.0077     0.1622
  397.0000   -66.3418     8.9469    10.0747     7.7773   120.3346     2.3924     0.0131     0.1459
  397.5000   -66.3013     8.9491    10.0661     7.7818   118.1897     2.4091     0.0185     0.1296
  398.0000   -66.3029     8.9513    10.4596     7.7862   115.6226     2.4397     0.0242     0.1131
  398.5000   -66.3060     8.9535    10.7337     7.7907   112.9702     2.4697     0.0223     0.1081
  399.0000   -66.2785     8.9557    11.0150     7.7952   112.0488     2.5004     0.0179     0.1106
  399.5000   -65.7978     8.9579    11.3036     7.8006   111.2069     2.5021     0.0135     0.1158
  400.0000   -65.3274     8.9601    11.5999     7.8062   111.0016     2.4917     0.0093     0.1251
  400.5000   -64.8934     8.9623    11.9958     7.8118   111.1078     2.4730     0.0075     0.1342
  401.0000   -64.8629     8.9645    11.8740     7.8174   112.1036     2.4542     0.0058     0.1434
  401.5000   -64.8233     8.9667    11.8349     7.8230   113.1247     2.4350     0.0039     0.1525
  402.0000   -64.7829     8.9689    11.7959     7.8286   113.7369     2.4273     0.0035     0.1571
  402.5000   -64.7393     8.9711    11.7571     7.8350   114.1417     2.4200     0.0035     0.1598
  403.0000   -64.5578     8.9733    11.7184     7.8059   115.5773     2.4127     0.0035     0.1626
  403.5000   -63.4554     8.9755    11.6799     7.7649   119.5397     2.4054     0.0043     0.1653
  404.0000   -61.8388     8.9777    11.6690     7.7236   118.6994     2.3978     0.0058     0.1681
  404.5000   -60.6358     8.9800    11.6801     7.6829   117.6755     2.3962     0.0074     0.1683
  405.0000   -60.6665     8.9822    11.7787     7.6548   117.2703     2.3951     0.0089     0.1652
  405.5000   -60.8953     8.9844    11.8781     7.6600   117.9129     2.3952     0.0104     0.1607
  406.0000   -61.1128     8.9866    11.9782     7.6935   118.8382     2.4016     0.0120     0.1562
  406.5000   -60.5548     8.9888    12.0791     7.7271   119.6407     2.4089     0.0135     0.1524
  407.0000   -59.9431     8.9910    12.1808     7.7609   119.6224     2.4165     0.0150     0.1529
  407.5000   -59.5168     8.9932    12.2835     7.7751   119.6187     2.4181     0.0166     0.1534
  408.0000   -59.4656     8.9954    12.3869     7.7658   119.6142     2.4181     0.0181     0.1538
  408.5000   -59.4072     8.9976    12.4913     7.7541   119.8773     2.4174     0.0196     0.1569
  409.0000   -59.3501     8.9998    12.5966     7.8212   120.2020     2.4130     0.0212     0.1608
  409.5000   -59.2928     9.0021    12.7027     7.7523   120.0268     2.4069     0.0227     0.1647
  410.0000   -59.2354     9.0043    12.8097     7.5783   118.9250     2.4009     0.0242     0.1671
  410.5000   -59.1780     9.0065    12.9176     7.4924   117.8087     2.3971     0.0255     0.1592
  411.0000   -59.1207     9.0087    13.0326     7.4946   118.1865     2.4027     0.0255     0.1415
  411.5000   -59.0633     9.0111    13.0326     7.5071   120.2886     2.4267     0.0253     0.1268
  412.0000   -59.0060     9.0131    12.6768     7.5777   122.3990     2.4522     0.0187     0.1288
  412.5000   -58.9486     9.0153    12.4317     7.6480   122.8424     2.4606     0.0117     0.1393
  413.0000   -58.8913     8.9169    12.1913     7.6664   120.7487     2.4491     0.0046     0.1497
  413.5000   -58.8339     8.6398    11.9557     7.6452   118.6676     2.4350     0.0082     0.1575
  414.0000   -58.7765     8.3712    11.7245     7.6234   116.5846     2.4209     0.0140     0.1614
  414.5000   -58.7192     8.1111    11.4978     7.6153   115.5862     2.4073     0.0177     0.1653
  415.0000   -58.6617     7.9270    11.2755     7.6152   115.7556     2.4014     0.0182     0.1691
  415.5000   -58.6043     7.8000    11.0576     7.6152   115.9478     2.3958     0.0188     0.1730
  416.0000   -58.5517     7.6751    10.8438     7.6152   116.0372     2.3902     0.0193     0.1769
  416.5000   -58.5349     7.5521    10.6341     7.6152   115.0265     2.3846     0.0199     0.1776
  417.0000   -58.7627     7.4954    10.5446     7.6152   113.8175     2.3788     0.0204     0.1743
  417.5000   -58.8333     7.4882    10.4479     7.6153   113.1581     2.3825     0.0210     0.1711
  418.0000   -58.9021     7.4809    10.4479     7.6152   114.7371     2.3878     0.0214     0.1678
  418.5000   -59.9815     7.4738    10.4600     7.6148   116.5824     2.3931     0.0208     0.1647
  419.0000   -61.5430     7.4666    10.4723     7.5910   117.4221     2.3975     0.0201     0.1647
  419.5000   -62.8767     7.4594    10.4847     7.5360   117.7726     2.3990     0.0194     0.1643
  420.0000   -63.4496     7.4523    10.4971     7.4801   118.4313     2.4005     0.0187     0.1629
  420.5000   -64.0267     7.4451    10.5096     7.5540   120.2925     2.4020     0.0180     0.1608
  421.0000   -64.6153     7.4379    10.5220     7.6460   121.6682     2.4034     0.0186     0.1586
  421.5000   -65.5837     7.4306    10.5345     7.6982   120.9976     2.4082     0.0235     0.1549
  422.0000   -67.0241     7.4296    10.5446     7.7036   120.4172     2.4147     0.0283     0.1504
  422.5000   -68.4513     7.4319    10.0920     7.7092   120.5333     2.4211     0.0331     0.1458
  423.0000   -69.5889     7.2707     9.6537     7.7148   120.3764     2.4300     0.0374     0.1413
  423.5000   -69.9412     7.1576     9.2344     7.7204   119.3299     2.4390     0.0374     0.1367
  424.0000   -70.3171     7.0463     8.8334     7.7260   118.6816     2.4480     0.0316     0.1322
  424.5000   -71.5607     6.9368     8.4497     7.7316   121.4885     2.4570     0.0197     0.1267
  425.0000   -73.7641     6.8289     8.0827     7.7371   122.3728     2.4660     0.0079     0.1209
  425.5000   -75.9479     6.7227     7.7317     7.7427   123.4994     2.4750    -0.0005     0.1151
  426.0000   -78.1569     6.6182     7.3959     7.7483   126.3690     2.4841    -0.0026     0.1089
  426.5000   -79.4167     6.5152     7.0747     7.7539   129.5800     2.4930    -0.0025     0.1086
  427.0000   -79.4291     6.4140     6.7674     7.7595   132.5853     2.4920    -0.0025     0.1109
  427.5000   -79.5780     6.3142     6.5318     7.7651   134.8944     2.4884    -0.0006     0.1120
  428.0000   -80.0812     6.2955     6.4719     7.7707   137.2990     2.4860     0.0015     0.1112
  428.5000   -80.5808     6.2881     6.4125     7.7763   138.0524     2.4859     0.0036     0.1090
  429.0000   -81.0963     6.2809     6.3516     7.7819   137.1432     2.4903     0.0057     0.1067
  429.5000   -81.2913     6.2737     6.3859     7.7874   136.5468     2.4960     0.0073     0.1044
  430.0000   -81.4010     6.2664     6.4085     7.7930   136.8539     2.5019     0.0052     0.1020
  430.5000   -81.5078     6.2592     6.4312     7.7955   136.2000     2.5077     0.0032     0.1012
  431.0000   -81.6155     6.2520     6.4541     7.7956   135.4253     2.5074     0.0012     0.1017
  431.5000   -81.7235     6.2448     6.4719     7.7956   136.1332     2.5053    -0.0008     0.1023
