~VERSION INFORMATION
 VERS.                2.0:   CWLS LOG ASCII STANDARD - VERSION 2.0
 WRAP.                 NO:   ONE LINE PER DEPTH STEP
~WELL INFORMATION
#MNEM.UNIT      DATA TYPE    INFORMATION
#----------   ------------   ------------------------------
 STRT.F           12.0000:   START DEPTH
 STOP.F          793.0000:   STOP DEPTH
 STEP.F            0.5000:   STEP LENGTH
 NULL.          -999.2500:   NO VALUE
 COMP.   FLUOR DANIEL INC:   COMPANY
 WELL.   35-1-X-10 #35-10:   WELL
 FLD .            WILDCAT:   FIELD
 LOC .      S10 T38N R78W:   LOCATION
 CNTY.            NATRONA:   COUNTY
 STAT.            WYOMING:   STATE
 CTRY. UNITED STATES OF AMERICA:   COUNTRY
 SRVC.      Western Atlas:   SERVICE COMPANY
 DATE.        20-AUG-1996:   LOGDATE
 API .       490252282200:   API NUMBER
~CURVE INFORMATION
#MNEM.UNIT       API CODE    CURVE DESCRIPTION
#----------   ------------   ------------------------------
 DEPT.F                  :   
 RFOC.OHMM   07 220 04 00:   RESISTIVITY FOCUSED LOG
 RILD.OHMM   07 120 46 00:   INDUCTION LOG DEEP RESISTIVITY
 RILM.OHMM   07 120 44 00:   INDUCTION LOG MEDIUM RESISTIVITY
 SPR .MV     07 010 01 00:   SPONTANEOUS POTENTIAL
 CALD.IN     45 280 60 00:   CALIPER FROM DENSITY LOG
 GRD .GAPI   45 310 01 00:   GAMMA RAY FROM DENSITY LOG
 ZCOR.G/C3   45 356 01 00:   DENSITY CORRECTION
 ZDEN.G/C3   45 350 01 00:   BULK DENSITY
 PORZ.DEC    45 890 12 00:   DENSITY POROSITY SANDSTONE
 CNC .DEC    42 890 03 00:   NEUTRON POROSITY SANDSTONE
~PARAMETER INFORMATION
#MNEM.UNIT          VALUE    DESCRIPTION
#----------   ------------   ------------------------------
 PD  .                 GL:   PERMANENT DATUM
 EPD .F              5228:   ELEVATION PERMANENT DATUM
 LMF .                 KB:   LOG MEASURED FROM
 DAPD.F                10:   FEET ABOVE PERMANENT DATUM
 DMF .                 KB:   DRILLING MEASURED FROM
 EKB .F              5238:   KELLING BUSHING
 EGL .F              5228:   GROUND LEVEL
 DATE.        20-AUG-1996:   RUN DATE
 RUN .                  1:   RUN NUMBER
 DD  .F               794:   DEPTH DRILLER
 DL  .F               794:   DEPTH LOGGER
 BLI .F               793:   BOTTOM LOG INTERVAL
 TLI .F                12:   TOP LOG INTERVAL
 CS  .IN           13.375:   CASING SIZE
 CBD .F                58:   CASING BOTTOM DRILLER
 CBL .F                59:   CASING BOTTOM LOGGER
 BS  .IN            12.25:   BIT SIZE
 BSD .F               794:   BIT SIZE AT DEPTH
 DFT .           SPUD MUD:   DRILLING FLUID TYPE
 DFD .                9.2:   DRILLING FLUID DENSITY
 DFV .                 50:   DRILLING FLUID VISCOSITY
 DFPH.                  9:   DRILLING FLUID PH
 DFL .               13.8:   DRILLING FLUID LOSS
 MSS .              CIRC.:   MUD SAMPLE SOURCE
 RMS .OHMM           1.14:   RESISTIVITY MUD SAMPLE
 MST .F                77:   MUD SAMPLE TEMPERATURE
 RMF .OHMM           0.90:   RESISTIVITY MUD FILTRATE SAMPLE
 MFST.F                77:   MUD FILTRATE SAMPLE TEMPERATURE
 RMC .OHMM            1.4:   RESISTIVITY MUD CAKE
 MCST.F                77:   MUD CAKE SAMPLE TEMPERATURE
 MFSS.               CALC:   MUD FILTRATE SAMPLE SOURCE
 MCSS.               CALC:   MUD CAKE SAMPLE SOURCE
 RMB .OHMM            .84:   RESISTIVITY MUD AT BHT
 BHT .F               104:   BOTTOM HOLE TEMPERATURE
 TCS .HRS               3:   TIME CURCULATED STOPPED
 MRT .F               104:   MAXIMUM RECORDED TEMPERATURE
 LUN .            HL-6530:   LOGGING UNIT NUMBER
 LUL .             CASPER:   LOGGING UNIT LOCATION
 ENGI.           BROWNLOW:   RECORDING ENGINEER
 WITN.      SCHULTE/HARDY:   WITNESSED BY
 CLNT.            A2DTECH:   CLIENT CODE
 ORIG.           5" PRINT:   ORIGIN OF DATA
 UWI .       490252282200:   UNIQUE WELL ID
 DICO. A2D Technologies, Inc.:   DIGITIZING COMPANY
~OTHER INFORMATION
~A   DEPT     RFOC       RILD       RILM        SPR       CALD        GRD       ZCOR       ZDEN       PORZ        CNC   
# ...
  179.5000     7.2733     8.1421     7.4769   -12.6186    12.5467    79.2086     0.0495     2.4941     0.0943     0.3826
  180.0000     7.2737     8.0289     7.5306   -12.6172    12.5468    80.1611     0.0450     2.5025     0.0877     0.3835
  180.5000     7.2742     7.9173     7.5848   -12.7670    12.5470    79.8257     0.0420     2.5115     0.0828     0.3775
  181.0000     7.3255     7.8618     7.6394   -12.7655    12.5320    80.1336     0.0420     2.5130     0.0828     0.3772
  181.5000     7.3772     7.9162     7.6947   -12.9154    12.5473    80.7436     0.0542     2.5025     0.0846     0.3793
  182.0000     7.4292     7.9157     7.7500   -12.9136    12.5323    80.7494     0.0782     2.4881     0.0901     0.3772
  182.5000     7.4816     7.9152     7.8057   -12.9121    12.5476    80.1509     0.1251     2.4790     0.1010     0.3708
  183.0000     7.5343     7.9699     7.9168   -12.9107    12.5477    79.8545     0.1266     2.4708     0.1070     0.3557
  183.5000     7.5348     8.0810     7.9184   -12.9092    12.5630    79.5582     0.1190     2.4655     0.1106     0.3433
  184.0000     7.5880     8.1371     7.9758   -12.9074    12.5480    79.2618     0.1145     2.4587     0.1121     0.3539
  184.5000     7.5885     8.1933     7.9773   -12.9060    12.5482    78.6647     0.1130     2.4527     0.1155     0.3707
  185.0000     7.6420     8.2003     7.9789   -12.9046    12.5484    77.7642     0.1039     2.4467     0.1239     0.3895
  185.5000     7.6425     8.2494     7.9805   -12.9031    12.5485    78.3756     0.1024     2.4444     0.1251     0.3922
  186.0000     7.6395     8.2487     7.9267   -12.9017    12.5486    80.4962     0.1145     2.4444     0.1242     0.3907
  186.5000     7.5905     8.2482     7.8736   -12.8999    12.5488    82.0125     0.1130     2.4437     0.1245     0.3997
  187.0000     7.5384     8.2476     7.8752   -12.7471    12.5490    82.0183     0.1022     2.4437     0.1245     0.4009
  187.5000     7.4867     8.1897     7.8217   -12.7457    12.5340    81.4198     0.0828     2.4445     0.1233     0.3967
  188.0000     7.3838     8.1892     7.8236   -12.7442    12.5493    80.2186     0.0556     2.4477     0.1215     0.3937
  188.5000     7.2823     8.1886     7.8252   -12.7428    12.5494    79.0159     0.0359     2.4513     0.1203     0.3897
  189.0000     7.2829     8.1313     7.8271   -12.5900    12.5495    78.1138     0.0268     2.4528     0.1191     0.3891
  189.5000     7.3854     8.1307     7.8287   -12.5883    12.5497    77.7795     0.0223     2.4544     0.1182     0.3955
  190.0000     7.4375     8.1301     7.8302   -12.4355    12.5650    79.3555     0.0253     2.4574     0.1170     0.3924
  190.5000     7.4899     8.1863     7.7774   -12.4341    12.5651    79.6431     0.0299     2.4628     0.1149     0.3945
  191.0000     7.5427     8.1858     7.7250   -12.4326    12.5653    78.7440     0.0314     2.4756     0.1089     0.3945
  191.5000     7.5433     8.1852     7.7809   -12.4312    12.5503    77.8434     0.0344     2.4884     0.1007     0.3915
  192.0000     7.5438     8.1847     7.8369   -12.5810    12.5505    76.9426     0.0374     2.4945     0.0949     0.3848
  192.5000     7.5968     8.1840     7.8384   -12.7309    12.5506    76.0422     0.0420     2.4930     0.0944     0.3833
  193.0000     7.5448     8.1267     7.8400   -12.7291    12.5508    75.7459     0.0450     2.4892     0.0950     0.3839
  193.5000     7.4930     8.1262     7.7835   -12.8790    12.5509    75.1474     0.0510     2.4794     0.0971     0.3845
  194.0000     7.4417     8.0693     7.6809   -12.8775    12.5511    76.0609     0.0631     2.4704     0.1028     0.3851
  194.5000     7.4517     8.0127     7.6291   -12.8757    12.5512    78.1815     0.0752     2.4606     0.1113     0.3854
  195.0000     7.5161     7.9565     7.6310   -12.8742    12.5514    80.0000     0.0828     2.4560     0.1191     0.3722
  195.5000     7.5155     7.9008     7.6325   -12.8728    12.5515    77.5902     0.0782     2.4666     0.1158     0.3679
  196.0000     7.5150     7.8455     7.6376   -12.8713    12.5517    76.0840     0.0601     2.4791     0.1047     0.3845
  196.5000     7.4108     7.7905     7.6893   -12.8699    12.5518    76.0912     0.0420     2.4954     0.0917     0.3990
  197.0000     7.4103     7.7359     7.6371   -12.8681    12.5520    77.0033     0.0480     2.5022     0.0902     0.3976
  197.5000     7.3585     7.7353     7.5859   -12.8666    12.5521    79.4412     0.0573     2.4961     0.0923     0.3935
  198.0000     7.3580     7.9511     7.5874   -12.8652    12.5674    80.9423     0.0661     2.4863     0.0992     0.4032
  198.5000     7.4088     7.8962     7.5363   -12.7125    12.5675    79.0047     0.0676     2.4841     0.1014     0.4089
  199.0000     7.4082     7.8962     7.4440   -12.7110    12.5677    78.1092     0.0601     2.4834     0.1017     0.4134
  199.5000     7.4077     7.8962     7.3671   -12.7095    12.5678    78.1210     0.0480     2.4864     0.1001     0.4165
  200.0000     7.4072     7.8416     7.3947   -12.5419    12.5680    81.1471     0.0374     2.4947     0.0950     0.4110
  200.5000     7.3555     7.7874     7.4183   -12.4939    12.5531    82.3632     0.0390     2.5076     0.0896     0.4014
  201.0000     7.3550     7.7874     7.4183   -12.4459    12.5534    82.3750     0.0299     2.5197     0.0828     0.3989
  201.5000     7.3545     7.8416     7.4700   -12.3963    12.5537    81.1778     0.0194     2.5265     0.0751     0.3983
  202.0000     7.3030     7.7874     7.4700   -12.2421    12.5541    80.2823     0.0201     2.5199     0.0748     0.3980
  202.5000     7.3025     7.7874     7.4700   -12.0872    12.5544    80.8951     0.0437     2.5015     0.0818     0.3977
  203.0000     7.3020     7.7874     7.5220   -12.0843    12.5547    83.6219     0.0589     2.4917     0.0929     0.3995
  203.5000     7.3015     7.7874     7.5743   -12.2334    12.5399    83.9330     0.0786     2.4895     0.0964     0.4056
  204.0000     7.3519     7.8416     7.5743   -12.3818    12.5402    83.3391     0.0787     2.4993     0.0912     0.4131
  204.5000     7.3514     7.8416     7.5743   -12.5295    12.5556    80.9353     0.0605     2.5016     0.0906     0.4207
  205.0000     7.4020     7.8962     7.5743   -12.6778    12.5559    80.0398     0.0485     2.4955     0.0924     0.4267
  205.5000     7.4531     7.9511     7.6270   -12.6747    12.5562    82.1633     0.0394     2.4933     0.0936     0.4282
  206.0000     7.7160     8.0622     7.7336   -12.6713    12.5565    82.4744     0.0349     2.4933     0.0948     0.4152
  206.5000     7.8781     8.1793     7.7402   -12.6684    12.5568    82.1822     0.0350     2.4925     0.0954     0.4055
  207.0000     7.9876     8.3466     7.7874   -12.6655    12.5420    80.9874     0.0350     2.4894     0.0960     0.4005
  207.5000     7.8160     8.4632     7.7874   -12.6626    12.5423    80.0895     0.0366     2.4850     0.0972     0.4044
  208.0000     7.5547     8.5221     7.7874   -12.6596    12.5426    80.1013     0.0442     2.4812     0.0991     0.4110
  208.5000     7.5542     8.5221     7.7874   -12.6561    12.5430    80.7141     0.0594     2.4797     0.1021     0.4173
  209.0000     7.5537     8.5221     7.7874   -12.5019    12.5432    81.6309     0.0745     2.4797     0.1033     0.4280
  209.5000     7.5532     8.5221     7.7874   -12.4990    12.5435    82.5454     0.0836     2.4863     0.1008     0.4442
  210.0000     7.5527     8.5221     7.7874   -12.3448    12.5438    82.8565     0.0761     2.5017     0.0915     0.4394
  210.5000     7.6049     8.4632     7.7874   -12.3419    12.5441    83.4693     0.0837     2.5115     0.0839     0.4216
  211.0000     7.6042     8.4632     7.7874   -12.3389    12.5445    83.7828     0.1034     2.5055     0.0873     0.4044
  211.5000     7.7101     8.3466     7.7874   -12.2996    12.5448    83.4906     0.1141     2.4919     0.0954     0.4029
  212.0000     7.6562     8.2317     7.7336   -12.1812    12.5450    81.9917     0.1217     2.4741     0.1081     0.4225
  212.5000     7.6027     8.1183     7.7336   -12.1783    12.5453    80.1912     0.1277     2.4564     0.1167     0.4240
