~VERSION INFORMATION
 VERS.                2.0:   CWLS LOG ASCII STANDARD - VERSION 2.0
 WRAP.                 NO:   ONE LINE PER DEPTH STEP
~WELL INFORMATION
#MNEM.UNIT      DATA TYPE    INFORMATION
#----------   ------------   ------------------------------
 STRT.F            0.0000:   START DEPTH
 STOP.F          534.0000:   STOP DEPTH
 STEP.F            0.1000:   STEP LENGTH
 NULL.          -999.2500:   NO VALUE
 COMP.       F D SERV INC:   COMPANY
 WELL. NAVAL PETROLEUM RESERVE 3 SX-1 #71-2-10:   WELL
 FLD .            N.P.R 3:   FIELD
 LOC .      S10 T38N R78W:   LOCATION
 CNTY.            NATRONA:   COUNTY
 STAT.            WYOMING:   STATE
 CTRY. UNITED STATES OF AMERICA:   COUNTRY
 SRVC.     Atlas Wireline:   SERVICE COMPANY
 DATE.        07-DEC-1992:   LOGDATE
 API .       490252257200:   API NUMBER
~CURVE INFORMATION
#MNEM.UNIT       API CODE    CURVE DESCRIPTION
#----------   ------------   ------------------------------
 DEPT.F                  :   
 GRR .GAPI   07 310 01 00:   GAMMA RAY
 RILD.OHMM   07 120 46 00:   INDUCTION LOG DEEP RESISTIVITY
 RILM.OHMM   07 120 44 00:   RESITIVITY LONG MEDIUM
~PARAMETER INFORMATION
#MNEM.UNIT          VALUE    DESCRIPTION
#----------   ------------   ------------------------------
 PD  .                 GL:   PERMANENT DATUM
 EPD .F              5165:   ELEVATION PERMANENT DATUM
 LMF .                 KB:   LOG MEASURED FROM
 DAPD.F                10:   FEET ABOVE PERMANENT DATUM
 DMF .                 KB:   DRILLING MEASURED FROM
 EKB .F              5175:   KELLING BUSHING
 EDF .F              5174:   DRILLING FLOOR
 EGL .F              5165:   GROUND LEVEL
 DATE.        07-DEC-1992:   RUN DATE
 RUN .                  1:   RUN NUMBER
 DD  .F               540:   DEPTH DRILLER
 DL  .F               542:   DEPTH LOGGER
 BLI .F               534:   BOTTOM LOG INTERVAL
 CS  .IN            8.625:   CASING SIZE
 CBD .F                78:   CASING BOTTOM DRILLER
 CBL .F                82:   CASING BOTTOM LOGGER
 BS  .IN            7.875:   BIT SIZE
 BSD .F               540:   BIT SIZE AT DEPTH
 DFT .           AIR FOAM:   DRILLING FLUID TYPE
 BHT .F                70:   BOTTOM HOLE TEMPERATURE
 MRT .F                70:   MAXIMUM RECORDED TEMPERATURE
 LUN .           HL- 6345:   LOGGING UNIT NUMBER
 LUL .         FT. MORGAN:   LOGGING UNIT LOCATION
 ENGI.             BURLEY:   RECORDING ENGINEER
 WITN.        GARY STRONG:   WITNESSED BY
 CLNT.            A2DTECH:   CLIENT CODE
 ORIG.           5" PRINT:   ORIGIN OF DATA
 UWI .       490252257200:   UNIQUE WELL ID
 DICO. A2D Technologies, Inc.:   DIGITIZING COMPANY
~OTHER INFORMATION
~A    DEPT      GRR      RILD       RILM   
# ...
  509.6000   114.1702     6.9821     7.1181
  509.7000   114.1690     7.0779     7.1747
  509.8000   114.1678     7.1458     7.2163
  509.9000   114.1666     7.2549     7.2671
  510.0000   114.1654     7.3473     7.3516
  510.1000   114.1642     7.4067     7.4805
  510.2000   114.1630     7.5383     7.5767
  510.3000   114.1618     7.6247     7.6390
  510.4000   114.1606     7.6789     7.6668
  510.5000   114.1593     7.7234     7.6812
  510.6000   114.1582     7.7682     7.7749
  510.7000   114.3363     7.8132     7.7749
  510.8000   114.5841     7.8614     7.8421
  510.9000   114.7561     7.9041     7.8845
  511.0000   114.7790     7.9499     7.9291
  511.1000   115.0543     8.0201     8.0624
  511.2000   115.2746     8.1134     8.1653
  511.3000   115.6920     8.2078     8.2081
  511.4000   116.0710     8.3141     8.2891
  511.5000   116.3850     8.4001     8.3856
  511.6000   116.8674     8.4979     8.4968
  511.7000   117.1523     8.5735     8.6387
  511.8000   117.5747     8.6231     8.6962
  511.9000   118.0715     8.6707     8.7393
  512.0000   118.5683     8.6705     8.7572
  512.1000   119.0086     8.7127     8.7794
  512.2000   119.2518     8.7313     8.8187
  512.3000   118.9496     8.7312     8.8187
  512.4000   118.7465     8.7417     8.8187
  512.5000   118.3460     8.7923     8.8187
  512.6000   117.8468     8.7922     8.8187
  512.7000   117.3476     8.7921     8.8386
  512.8000   116.8385     8.8217     8.8898
  512.9000   116.1048     8.8537     8.9431
  513.0000   115.7414     8.8619     8.9431
  513.1000   115.3506     8.9157     8.9431
  513.2000   115.0292     8.9156     8.9715
  513.3000   114.9907     8.9155     9.0059
  513.4000   114.7259     8.9153     9.0059
  513.5000   114.7248     8.9152     9.0059
  513.6000   114.7236     8.9151     9.0059
  513.7000   114.7224     8.9150     9.0059
  513.8000   114.7212     8.9148     9.0059
  513.9000   114.7476     8.9147     9.0059
  514.0000   115.0194     8.9146     9.0059
  514.1000   115.2432     8.9145     9.0059
  514.2000   115.4911     8.9143     9.0059
  514.3000   115.7389     8.9142     9.0059
  514.4000   115.9867     8.9141     9.0059
  514.5000   116.2524     8.9140     9.0059
  514.6000   116.8167     8.9364     9.0059
  514.7000   117.0309     8.9764     9.0059
  514.8000   117.2787     8.9763     9.0059
  514.9000   117.3029     8.9761     9.0059
  515.0000   117.0526     8.9343     9.0059
  515.1000   116.7856     8.9132     9.0059
  515.2000   115.9072     8.9131     9.0059
  515.3000   115.4946     8.9038     9.0059
  515.4000   114.9954     8.8506     9.0059
  515.5000   114.3938     8.8505     9.0059
  515.6000   113.6960     8.8503     9.0059
  515.7000   113.1946     8.8502     9.0059
  515.8000   112.4497     8.8675     9.0059
  515.9000   111.7015     8.9122     9.0059
  516.0000   111.0976     8.9121     9.0059
  516.1000   110.5055     8.9120     9.0059
  516.2000   109.7983     8.9118     9.0059
  516.3000   109.2775     8.9117     9.0059
  516.4000   109.0382     8.9116     9.0059
  516.5000   109.3476     8.9115     9.0059
  516.6000   110.2490     8.9113     9.0059
  516.7000   111.4928     8.9112     9.0059
  516.8000   112.6739     8.9111     9.0059
  516.9000   113.4808     8.9110     9.0059
  517.0000   114.3944     8.9108     9.0059
  517.1000  -999.2500     8.9107     9.0059
  517.2000  -999.2500     8.9106     9.0059
  517.3000  -999.2500     8.9105     8.9841
  517.4000  -999.2500     8.9103     8.9431
  517.5000  -999.2500     8.9102     8.9431
  517.6000  -999.2500     8.9101     8.9431
  517.7000  -999.2500     8.9100     8.9431
  517.8000  -999.2500     8.9608     8.9431
  517.9000  -999.2500     8.9724     8.9431
  518.0000  -999.2500     8.9723     8.9431
  518.1000  -999.2500     8.9721     8.9431
  518.2000  -999.2500     8.9720     8.9431
  518.3000  -999.2500     8.9719     8.9431
  518.4000  -999.2500     8.9718     8.9431
  518.5000  -999.2500     8.9716     8.9431
  518.6000  -999.2500     8.9984     8.9431
  518.7000  -999.2500     9.0345     8.9431
  518.8000  -999.2500     9.0344     8.9431
  518.9000  -999.2500     9.0342     8.9431
  519.0000  -999.2500     9.0341     8.9431
  519.1000  -999.2500     9.0340     8.9431
  519.2000  -999.2500     9.0584     8.9431
  519.3000  -999.2500     9.1109     8.9431
  519.4000  -999.2500     9.1611     8.9431
  519.5000  -999.2500     9.1610     8.9431
  519.6000  -999.2500     9.2959     8.9431
  519.7000  -999.2500     9.4241     8.9431
  519.8000  -999.2500     9.5105     8.9431
  519.9000  -999.2500     9.5540     8.9431
  520.0000  -999.2500     9.5538     8.8602
  520.1000  -999.2500     9.5537     8.8187
  520.2000  -999.2500     9.5536     8.8187
  520.3000  -999.2500     9.5534     8.8097
  520.4000  -999.2500     9.5533     8.7572
  520.5000  -999.2500     9.5532     8.7084
  520.6000  -999.2500     9.5530     8.6962
  520.7000  -999.2500     9.4483     8.6414
  520.8000  -999.2500     9.3794     8.5753
  520.9000  -999.2500     9.3251     8.5626
  521.0000  -999.2500     9.2711     8.4561
  521.1000  -999.2500     9.2174     8.4113
  521.2000  -999.2500     9.1588     8.3628
  521.3000  -999.2500     9.1109     8.3145
  521.4000  -999.2500     9.0582     8.2665
  521.5000  -999.2500     9.0309     8.2188
  521.6000  -999.2500     9.0165     8.1653
  521.7000  -999.2500     8.9643     8.1243
  521.8000  -999.2500     8.9048     8.0774
  521.9000  -999.2500     8.9047     8.0308
  522.0000  -999.2500     8.8385     7.9734
  522.1000  -999.2500     8.7805     7.8831
  522.2000  -999.2500     8.7690     7.8295
  522.3000  -999.2500     8.7181     7.7924
  522.4000  -999.2500     8.6579     7.7474
  522.5000  -999.2500     8.6578     7.7027
  522.6000  -999.2500     8.6577     7.6668
  522.7000  -999.2500     8.6190     7.6668
  522.8000  -999.2500     8.5369     7.6233
  522.9000  -999.2500     8.5368     7.5794
  523.0000  -999.2500     8.4416     7.5603
  523.1000  -999.2500     8.4177     7.5603
  523.2000  -999.2500     8.3645     7.5477
  523.3000  -999.2500     8.2841     7.4552
  523.4000  -999.2500     8.2361     7.4552
  523.5000  -999.2500     8.1845     7.3930
  523.6000  -999.2500     8.0978     7.3080
  523.7000  -999.2500     8.0045     7.2366
  523.8000  -999.2500     7.8670     7.1869
  523.9000  -999.2500     7.6864     7.0492
  524.0000  -999.2500     7.5099     7.0132
  524.1000  -999.2500     7.3156     6.9456
  524.2000  -999.2500     7.1699     6.8657
  524.3000  -999.2500     7.0056     6.7967
  524.4000  -999.2500     6.8626     6.7556
  524.5000  -999.2500     6.7442     6.6654
  524.6000  -999.2500     6.6301     6.6012
  524.7000  -999.2500     6.5849     6.5252
  524.8000  -999.2500     6.4917     6.4502
  524.9000  -999.2500     6.4023     6.3683
  525.0000  -999.2500     6.3138     6.2585
  525.1000  -999.2500     6.2048     6.1510
  525.2000  -999.2500     6.0959     6.0728
  525.3000  -999.2500     5.9250     5.9632
  525.4000  -999.2500     5.7055     5.8267
  525.5000  -999.2500     5.4962     5.6932
  525.6000  -999.2500     5.3294     5.5565
  525.7000  -999.2500     5.1986     5.4358
  525.8000  -999.2500     5.0091     5.3116
  525.9000  -999.2500     4.8496     5.2059
  526.0000  -999.2500     4.6266     5.0792
  526.1000  -999.2500     4.3662     4.8708
  526.2000  -999.2500     4.1308     4.5997
  526.3000  -999.2500     3.9936     4.3452
  526.4000  -999.2500     3.8917     4.0623
  526.5000  -999.2500     3.8128     3.8514
  526.6000  -999.2500     3.6968     3.7084
  526.7000  -999.2500     3.5703     3.5327
  526.8000  -999.2500     3.4703     3.2190
  526.9000  -999.2500     3.4379     3.0357
  527.0000  -999.2500     3.4056     2.8948
  527.1000  -999.2500     3.3733     2.7959
  527.2000  -999.2500     3.3352     2.7038
  527.3000  -999.2500     3.0294     2.6269
  527.4000  -999.2500     2.9797     2.5731
  527.5000  -999.2500     2.9300     2.5257
  527.6000  -999.2500     2.8803     2.4849
  527.7000  -999.2500     2.8306     2.4563
