~VERSION INFORMATION
 VERS.                2.0:   CWLS LOG ASCII STANDARD - VERSION 2.0
 WRAP.                 NO:   ONE LINE PER DEPTH STEP
~WELL INFORMATION
#MNEM.UNIT      DATA TYPE    INFORMATION
#----------   ------------   ------------------------------
 STRT.F            0.0000:   START DEPTH
 STOP.F         4535.0000:   STOP DEPTH
 STEP.F            0.5000:   STEP LENGTH
 NULL.          -999.2500:   NO VALUE
 COMP.   FLUOR DANIEL INC:   COMPANY
 WELL.     56 X 15 #56-15:   WELL
 FLD .             TEAPOT:   FIELD
 LOC .      S15 T38N R78W:   LOCATION
 CNTY.            NATRONA:   COUNTY
 STAT.            WYOMING:   STATE
 CTRY. UNITED STATES OF AMERICA:   COUNTRY
 SRVC.      Dresser Atlas:   SERVICE COMPANY
 DATE.        03-MAY-1984:   LOGDATE
 API .       490252268500:   API NUMBER
~CURVE INFORMATION
#MNEM.UNIT       API CODE    CURVE DESCRIPTION
#----------   ------------   ------------------------------
 DEPT.F                  :   
 CNC .DEC    42 890 03 00:   NEUTRON POROSITY SANDSTONE
 PORD.DEC    45 890 12 00:   POROSITY DENSITY SANDSTONE
 RHOB.G/C3   45 350 01 00:   BULK DENSITY
 CORR.G/C3   45 356 01 00:   DENSITY CORRECTION
 DT  .US/F   60 520 00 00:   INTERVAL TRANSIT TIME
 RILD.OHMM   07 120 46 00:   INDUCTION LOG DEEP RESISTIVITY
 RILM.OHMM   07 120 44 00:   INDUCTION LOG MEDIUM RESISTIVITY
 CALR.IN     07 280 01 00:   CALIPER FROM RESISTIVITY
 GRR .GAPI   07 310 01 00:   GAMMA RAY FROM RESISTIVITY LOG
 SPR .MV     07 010 01 00:   SPONTANEOUS POTENTIAL
 RFOC.OHMM   07 220 04 00:   RESISTIVITY FOCUSED LOG
~PARAMETER INFORMATION
#MNEM.UNIT          VALUE    DESCRIPTION
#----------   ------------   ------------------------------
 PD  .                 GL:   PERMANENT DATUM
 EPD .F              5326:   ELEVATION PERMANENT DATUM
 LMF .                 KB:   LOG MEASURED FROM
 DAPD.F                12:   FEET ABOVE PERMANENT DATUM
 DMF .                 KB:   DRILLING MEASURED FROM
 EKB .F              5338:   KELLING BUSHING
 EDF .F              5337:   DRILLING FLOOR
 EGL .F              5326:   GROUND LEVEL
 DATE.        03-MAY-1984:   RUN DATE
 RUN .                  1:   RUN NUMBER
 DD  .F              4547:   DEPTH DRILLER
 DL  .F              4539:   DEPTH LOGGER
 BLI .F              4536:   BOTTOM LOG INTERVAL
 TLI .F              1021:   TOP LOG INTERVAL
 CS  .IN            8.625:   CASING SIZE
 CBD .F              1027:   CASING BOTTOM DRILLER
 CBL .F              1021:   CASING BOTTOM LOGGER
 BS  .IN            7.875:   BIT SIZE
 BSD .F              4547:   BIT SIZE AT DEPTH
 DFT .            KCL GEL:   DRILLING FLUID TYPE
 DFD .                9.1:   DRILLING FLUID DENSITY
 DFV .                 44:   DRILLING FLUID VISCOSITY
 DFPH.                  8:   DRILLING FLUID PH
 DFL .               14.5:   DRILLING FLUID LOSS
 MSS .            MUDTANK:   MUD SAMPLE SOURCE
 RMS .OHMM           0.56:   RESISTIVITY MUD SAMPLE
 MST .F                73:   MUD SAMPLE TEMPERATURE
 RMF .OHMM           0.42:   RESISTIVITY MUD FILTRATE SAMPLE
 MFST.F                73:   MUD FILTRATE SAMPLE TEMPERATURE
 RMC .OHMM           0.71:   RESISTIVITY MUD CAKE
 MCST.F                73:   MUD CAKE SAMPLE TEMPERATURE
 MFSS.               MEAS:   MUD FILTRATE SAMPLE SOURCE
 MCSS.               CALC:   MUD CAKE SAMPLE SOURCE
 RMB .OHMM           0.29:   RESISTIVITY MUD AT BHT
 BHT .F               141:   BOTTOM HOLE TEMPERATURE
 TCS .HRS             3.5:   TIME CURCULATED STOPPED
 MRT .F               125:   MAXIMUM RECORDED TEMPERATURE
 LUN .               6302:   LOGGING UNIT NUMBER
 LUL .               CODY:   LOGGING UNIT LOCATION
 ENGI.              GETTY:   RECORDING ENGINEER
 WITN.           JENNINGS:   WITNESSED BY
 CLNT.            A2DTECH:   CLIENT CODE
 ORIG.           5" PRINT:   ORIGIN OF DATA
 UWI .       490252268500:   UNIQUE WELL ID
 DICO. A2D Technologies, Inc.:   DIGITIZING COMPANY
~OTHER INFORMATION
~A    DEPT     CNC       PORD       RHOB       CORR         DT       RILD       RILM       CALR         GRR       SPR       RFOC   
# ...
 1738.5000  -999.2500  -999.2500  -999.2500  -999.2500  -999.2500     9.0854     8.8983     8.7668    86.4865   -22.7199     8.6379
 1739.0000  -999.2500  -999.2500  -999.2500  -999.2500  -999.2500     8.9597     8.8362     8.7520    83.7838   -23.0227     8.5793
 1739.5000  -999.2500  -999.2500  -999.2500  -999.2500  -999.2500     8.8357     8.7746     8.7523    81.9820   -23.1755     8.5214
 1740.0000  -999.2500  -999.2500  -999.2500  -999.2500  -999.2500     8.8351     8.6531     8.7526    82.8829   -23.1785     8.4051
 1740.5000  -999.2500  -999.2500  -999.2500  -999.2500  -999.2500     8.8345     8.5333     8.7529    84.9850   -23.0259     8.3481
 1741.0000  -999.2500  -999.2500  -999.2500  -999.2500  -999.2500     8.8337     8.4152     8.7532    85.2853   -22.5846     8.2835
 1741.5000  -999.2500  -999.2500  -999.2500  -999.2500  -999.2500     8.8332     8.2987     8.7555    82.8829   -22.4376     8.1783
 1742.0000  -999.2500  -999.2500  -999.2500  -999.2500  -999.2500     8.8942     8.2980     8.7839    80.4805   -22.4413     8.1797
 1742.5000  -999.2500  -999.2500  -999.2500  -999.2500  -999.2500     8.9555     8.2975     8.7842    80.4805   -22.5941     8.1239
 1743.0000  -999.2500  -999.2500  -999.2500  -999.2500  -999.2500     9.0800     8.2969     8.7844    81.6817   -22.5970     8.1253
 1743.5000  -999.2500  -999.2500  -999.2500  -999.2500  -999.2500     9.0792     8.2964     8.7697    84.0841   -22.6000     8.1264
 1744.0000  -999.2500  -999.2500  -999.2500  -999.2500  -999.2500     9.0786     8.3537     8.7700    84.6847   -22.4522     8.1275
 1744.5000  -999.2500  -999.2500  -999.2500  -999.2500  -999.2500     9.0778     8.4697     8.7703    84.7328   -22.1560     8.1852
 1745.0000  -999.2500  -999.2500  -999.2500  -999.2500  -999.2500     9.0772     8.5280     8.7856    85.8859   -21.8591     8.1863
 1745.5000  -999.2500  -999.2500  -999.2500  -999.2500  -999.2500     9.0766     8.6466     8.8009    86.1862   -21.7121     8.3597
 1746.0000  -999.2500  -999.2500  -999.2500  -999.2500  -999.2500     9.0760     8.6460     8.8162    85.8859   -21.7151     8.5368
 1746.5000  -999.2500  -999.2500  -999.2500  -999.2500  -999.2500     8.9504     8.6452     8.8165    85.8859   -21.7187     8.6575
 1747.0000  -999.2500  -999.2500  -999.2500  -999.2500  -999.2500     8.8879     8.6447     8.8018    86.4865   -22.0214     8.6587
 1747.5000  -999.2500  -999.2500  -999.2500  -999.2500  -999.2500     8.8259     8.6441     8.7871    87.3874   -22.1743     8.4814
 1748.0000  -999.2500  -999.2500  -999.2500  -999.2500  -999.2500     8.8253     8.6435     8.7574    88.8889   -22.1772     8.3653
 1748.5000  -999.2500  -999.2500  -999.2500  -999.2500  -999.2500     8.8246     8.6429     8.7577    86.1705   -22.0295     8.1943
 1749.0000  -999.2500  -999.2500  -999.2500  -999.2500  -999.2500     8.8240     8.5233     8.7580    83.7838   -21.8825     8.1954
 1749.5000  -999.2500  -999.2500  -999.2500  -999.2500  -999.2500     8.8234     8.5227     8.7583    86.1862   -22.0361     8.1966
 1750.0000  -999.2500  -999.2500  -999.2500  -999.2500  -999.2500     8.7619     8.3758     8.7586    88.3585   -22.0390     8.1977
 1750.5000  -999.2500  -999.2500  -999.2500  -999.2500  -999.2500     8.8223     8.2317     8.7436    89.1922   -21.8874     8.1929
 1751.0000  -999.2500  -999.2500  -999.2500  -999.2500  -999.2500     8.8216     8.3466     8.7436    90.6972   -21.8859     8.0827
 1751.5000  -999.2500  -999.2500  -999.2500  -999.2500  -999.2500     8.8825     8.4632     8.7286    91.9013   -21.8845     8.0063
 1752.0000  -999.2500  -999.2500  -999.2500  -999.2500  -999.2500     8.8818     8.5221     8.7286    91.9042   -21.8830     7.9226
 1752.5000  -999.2500  -999.2500  -999.2500  -999.2500  -999.2500     8.8812     8.5814     8.7286    90.1052   -21.8641     7.9788
 1753.0000  -999.2500  -999.2500  -999.2500  -999.2500  -999.2500     8.8804     8.5814     8.7286    87.4054   -21.5799     8.1478
 1753.5000  -999.2500  -999.2500  -999.2500  -999.2500  -999.2500     8.8798     8.5221     8.7436    84.5617   -21.4286     8.3233
 1754.0000  -999.2500  -999.2500  -999.2500  -999.2500  -999.2500     8.8792     8.4047     8.7436    77.5020   -21.4271     8.4380
 1754.5000  -999.2500  -999.2500  -999.2500  -999.2500  -999.2500     8.8787     8.3466     8.7586    74.8022   -21.4257     8.4392
 1755.0000  -999.2500  -999.2500  -999.2500  -999.2500  -999.2500     8.8781     8.2317     8.7586    76.3066   -21.4242     8.3239
 1755.5000  -999.2500  -999.2500  -999.2500  -999.2500  -999.2500     8.8775     8.1748     8.7736    79.0122   -21.4228     8.2100
 1756.0000  -999.2500  -999.2500  -999.2500  -999.2500  -999.2500     8.8769     8.1748     8.7736    79.9160   -21.4210     8.0982
 1756.5000  -999.2500  -999.2500  -999.2500  -999.2500  -999.2500     8.9381     8.2317     8.7736    81.1677   -21.4196     7.9876
 1757.0000  -999.2500  -999.2500  -999.2500  -999.2500  -999.2500     8.9373     8.3466     8.7736    83.5261   -21.4181     7.9334
 1757.5000  -999.2500  -999.2500  -999.2500  -999.2500  -999.2500     8.9367     8.3466     8.7736    82.3278   -21.4167     7.9348
 1758.0000  -999.2500  -999.2500  -999.2500  -999.2500  -999.2500     8.9361     8.4632     8.7736    78.4267   -21.4152     7.9358
 1758.5000  -999.2500  -999.2500  -999.2500  -999.2500  -999.2500     8.9355     8.4632     8.7886    77.8283   -21.4138     7.9922
 1759.0000  -999.2500  -999.2500  -999.2500  -999.2500  -999.2500     8.9349     8.4632     8.7886    83.5376   -21.4123     8.1050
 1759.5000  -999.2500  -999.2500  -999.2500  -999.2500  -999.2500     8.9342     8.3466     8.7886    86.2554   -21.4105     8.2194
 1760.0000  -999.2500  -999.2500  -999.2500  -999.2500  -999.2500     8.8105     8.2317     8.8036    87.4480   -21.4091     8.2205
 1760.5000  -999.2500  -999.2500  -999.2500  -999.2500  -999.2500     8.6886     8.1183     8.8036    88.6521   -21.4077     8.1647
 1761.0000  -999.2500  -999.2500  -999.2500  -999.2500  -999.2500     8.5091     7.9511     8.8036    90.1565   -21.4062     8.1661
 1761.5000  -999.2500  -999.2500  -999.2500  -999.2500  -999.2500     8.3333     7.8416     8.8036    91.3606   -21.4048     8.1105
 1762.0000  -999.2500  -999.2500  -999.2500  -999.2500  -999.2500     8.1612     7.7874     8.8336    88.3605   -21.4033     7.9446
 1762.5000  -999.2500  -999.2500  -999.2500  -999.2500  -999.2500     7.9879     7.7336     8.9085    85.0601   -21.4015     7.7819
 1763.0000  -999.2500  -999.2500  -999.2500  -999.2500  -999.2500     7.8274     7.7336     9.0157    83.8617   -21.4001     7.6226
 1763.5000  -999.2500  -999.2500  -999.2500  -999.2500  -999.2500     7.7727     7.7336     9.1934    85.9675   -21.3986     7.4123
 1764.0000  -999.2500  -999.2500  -999.2500  -999.2500  -999.2500     7.7186     7.7874     9.3283    87.4718   -21.2473     7.0644
 1764.5000  -999.2500  -999.2500  -999.2500  -999.2500  -999.2500     7.7718     7.7874     9.1484    89.2765   -21.2458     6.8717
 1765.0000  -999.2500  -999.2500  -999.2500  -999.2500  -999.2500     7.7712     7.7874     8.9835    90.4806   -21.2444     7.1155
 1765.5000  -999.2500  -999.2500  -999.2500  -999.2500  -999.2500     7.8792     7.7336     8.8786    91.6847   -21.2426     7.3678
 1766.0000  -999.2500  -999.2500  -999.2500  -999.2500  -999.2500     7.8786     7.6801     8.8036    91.9880   -21.2411     7.6289
 1766.5000  -999.2500  -999.2500  -999.2500  -999.2500  -999.2500     7.8236     7.5743     8.7886    91.9915   -21.2397     7.7366
 1767.0000  -999.2500  -999.2500  -999.2500  -999.2500  -999.2500     7.7690     7.5220     8.7886    94.3968   -21.0883     7.5154
 1767.5000  -999.2500  -999.2500  -999.2500  -999.2500  -999.2500     7.6614     7.4674     8.7886   101.0063   -20.9370     7.1205
 1768.0000  -999.2500  -999.2500  -999.2500  -999.2500  -999.2500     7.5554     7.4183     8.7886   104.6128   -20.7856     7.0233
 1768.5000  -999.2500  -999.2500  -999.2500  -999.2500  -999.2500     7.5027     7.3671     8.7886    99.2103   -20.4843     7.0731
