~VERSION INFORMATION
 VERS.                2.0:   CWLS LOG ASCII STANDARD - VERSION 2.0
 WRAP.                 NO:   ONE LINE PER DEPTH STEP
~WELL INFORMATION
#MNEM.UNIT      DATA TYPE    INFORMATION
#----------   ------------   ------------------------------
 STRT.F           28.0000:   START DEPTH
 STOP.F          546.5000:   STOP DEPTH
 STEP.F            0.5000:   STEP LENGTH
 NULL.          -999.2500:   NO VALUE
 COMP. LAWRENCE/ALLISON INC:   COMPANY
 WELL.    55-66 SX #10-10:   WELL
 FLD .            WILDCAT:   FIELD
 LOC .      S10 T38N R78W:   LOCATION
 CNTY.            NATRONA:   COUNTY
 STAT.            WYOMING:   STATE
 CTRY. UNITED STATES OF AMERICA:   COUNTRY
 SRVC.            Unknown:   SERVICE COMPANY
 DATE.        20-AUG-1984:   LOGDATE
 API .       490251098000:   API NUMBER
~CURVE INFORMATION
#MNEM.UNIT       API CODE    CURVE DESCRIPTION
#----------   ------------   ------------------------------
 DEPT.F                  :   
 CNC .DEC    42 890 03 00:   NEUTRON POROSITY SANDSTONE
 CALD.IN     45 280 60 00:   CALIPER FROM DENSITY LOG
 DEN .G/C3   45 350 01 00:   COMPENSATED BULK DENSTIY
 PORD.DEC    45 890 12 00:   POROSITY DENSITY STONESTONE
 CORR.G/C3   45 356 01 00:   DENSITY CORRECTION
 SPR .MV     07 010 01 00:   SPONTANEOUS POTENTIAL
 RFOC.OHMM   07 220 04 00:   RESISTIVITY FOCUSED LOG
 RILD.OHMM   07 120 46 00:   INDUCTION LOG DEEP RESISTIVITY
 RILM.OHMM   07 120 44 00:   INDUCTION LOG MEDIUM RESISTIVITY
 AC  .US/F   60 520 00 00:   ACCOUSTIC
 GRD .GAPI   45 310 01 00:   GAMMA RAY FROM DENSITY LOG
~PARAMETER INFORMATION
#MNEM.UNIT          VALUE    DESCRIPTION
#----------   ------------   ------------------------------
 PD  .                 GL:   PERMANENT DATUM
 EPD .F              5200:   ELEVATION PERMANENT DATUM
 LMF .                 GL:   LOG MEASURED FROM
 DMF .                 GL:   DRILLING MEASURED FROM
 EGL .F              5200:   GROUND LEVEL
 DATE.        20-AUG-1984:   RUN DATE
 RUN .                  1:   RUN NUMBER
 DD  .F               554:   DEPTH DRILLER
 DL  .F               548:   DEPTH LOGGER
 BLI .F               546:   BOTTOM LOG INTERVAL
 TLI .F                30:   TOP LOG INTERVAL
 CS  .IN            9.625:   CASING SIZE
 CBD .F                46:   CASING BOTTOM DRILLER
 CBL .F                41:   CASING BOTTOM LOGGER
 BS  .IN            7.875:   BIT SIZE
 BSD .F               554:   BIT SIZE AT DEPTH
 DFT .          KCL WATER:   DRILLING FLUID TYPE
 MSS .           FLOWLINE:   MUD SAMPLE SOURCE
 RMS .OHMM           .691:   RESISTIVITY MUD SAMPLE
 MST .F                82:   MUD SAMPLE TEMPERATURE
 MRT .F               100:   MAXIMUM RECORDED TEMPERATURE
 LUN .               6307:   LOGGING UNIT NUMBER
 LUL .               GLTE:   LOGGING UNIT LOCATION
 ENGI.           FAHLSING:   RECORDING ENGINEER
 WITN.           JENNINGS:   WITNESSED BY
 CLNT.            A2DTECH:   CLIENT CODE
 ORIG.       2", 5" PRINT:   ORIGIN OF DATA
 UWI .       490251098000:   UNIQUE WELL ID
 DICO. A2D Technologies, Inc.:   DIGITIZING COMPANY
~OTHER INFORMATION
~A   DEPT      CNC       CALD        DEN       PORD       CORR        SPR       RFOC       RILD       RILM         AC        GRD   
# ...
  485.5000     0.2905     7.6830     2.4920     0.1110     0.0120   -38.7400    13.1620    11.6730    11.7380    93.0110   107.7990
  486.0000     0.2990     7.6830     2.4950     0.1100     0.0200   -38.7980    13.0440    11.5970    11.5530    93.5260   108.2150
  486.5000     0.2974     7.6830     2.4980     0.1100     0.0180   -38.8560    13.0440    11.5750    11.3690    94.0410   108.5860
  487.0000     0.2958     7.6830     2.5010     0.1080     0.0120   -38.9140    12.7550    11.4690    11.1840    94.5560   108.9520
  487.5000     0.2985     7.6830     2.5040     0.1040     0.0060   -38.9720    12.4930    11.3610    11.0550    95.0710   109.4390
  488.0000     0.3102     7.6830     2.5080     0.1050     0.0100   -39.0300    12.2300    11.3550    11.1480    95.5850   112.8220
  488.5000     0.3130     7.6830     2.5070     0.1060     0.0280   -39.0880    11.9680    11.3490    11.2190    96.1000   116.9370
  489.0000     0.3052     7.6830     2.5030     0.1070     0.0450   -39.1450    11.7060    11.3430    11.2910    96.6150   121.0300
  489.5000     0.2982     7.6830     2.5050     0.1050     0.0510   -39.2030    11.5750    11.3380    11.3620    96.5370   123.6660
  490.0000     0.2905     7.6830     2.5080     0.1020     0.0390   -39.2610    11.9990    11.3320    11.4340    95.4460   121.6760
  490.5000     0.3105     7.6830     2.5110     0.0980     0.0260   -39.3190    13.4150    11.3260    11.5050    93.6150   118.9790
  491.0000     0.3133     7.6830     2.5140     0.0930     0.0130   -39.3760    14.9720    11.3200    11.5770    91.7850   114.6650
  491.5000     0.3030     7.6830     2.5250     0.0870     0.0010   -39.2930    14.1730    11.3150    11.6480    89.9500   109.4390
  492.0000     0.2948     7.6830     2.5350     0.0860    -0.0010   -39.1880    13.0300    11.3090    11.7190    91.1810   105.4390
  492.5000     0.2902     7.6830     2.5300     0.0910    -0.0010   -39.0820    12.2310    11.3030    11.7910    93.2310   110.9930
  493.0000     0.2914     7.6830     2.5220     0.0960     0.0080   -38.9760    12.5340    11.2970    11.8980    94.8400   118.2900
  493.5000     0.2954     7.6830     2.5180     0.0990     0.0280   -38.8710    12.7680    11.2910    11.8700    94.9400   123.6480
  494.0000     0.2903     7.6830     2.5170     0.1020     0.0420   -38.7650    13.0010    11.2860    11.8130    94.6380   119.8290
  494.5000     0.2900     7.6830     2.5150     0.1000     0.0340   -38.6600    13.1640    11.2800    11.7560    94.3430   116.2740
  495.0000     0.2942     7.6830     2.5140     0.0980     0.0260   -38.5540    12.5730    11.2740    11.6990    94.0480   117.1280
  495.5000     0.3001     7.6830     2.5180     0.0970     0.0340   -38.4490    12.6210    11.2680    11.6810    93.9420   118.5980
  496.0000     0.2839     7.6830     2.5220     0.0960     0.0330   -38.4650    12.7190    11.2620    11.6820    94.1540   120.1380
  496.5000     0.2801     7.6830     2.5190     0.1000     0.0260   -38.6150    12.8060    11.2570    11.6820    94.3270   118.8910
  497.0000     0.2850     7.6830     2.5130     0.1040     0.0180   -38.7640    12.6370    11.2510    11.6810    94.5000   116.6080
  497.5000     0.2930     7.6830     2.5070     0.1080     0.0170   -38.9120    12.4820    11.2450    11.6810    94.6730   114.3050
  498.0000     0.2982     7.6830     2.5000     0.1120     0.0170   -39.0610    12.2310    11.2390    11.6810    94.8470   111.9810
  498.5000     0.2988     7.6830     2.4940     0.1110     0.0190   -39.2100    12.2860    11.2340    11.6810    95.0200   109.5680
  499.0000     0.2997     7.6830     2.4960     0.1090     0.0140   -39.3580    12.3970    11.2280    11.6810    94.8270   110.3920
  499.5000     0.3036     7.6830     2.5000     0.1060     0.0090   -39.5080    12.5080    11.2220    11.6810    94.5860   112.1960
  500.0000     0.3094     7.6830     2.5020     0.1070     0.0040   -39.4850    12.6180    11.2160    11.6810    94.3450   113.3240
  500.5000     0.3010     7.6830     2.5000     0.1100     0.0030   -39.2900    12.7290    11.2100    11.6810    94.1040   114.3980
  501.0000     0.2954     7.6830     2.4970     0.1120     0.0010   -39.0960    12.8060    11.2050    11.6810    93.8420   114.9380
  501.5000     0.2910     7.6830     2.4940     0.1120    -0.0010   -38.9010    12.7530    11.1990    11.6810    93.8420   114.9210
  502.0000     0.2957     7.6830     2.4950     0.1080    -0.0030   -38.7070    12.6890    11.1930    11.6810    93.8420   113.9730
  502.5000     0.2989     7.6830     2.5070     0.1000     0.0120   -38.5120    12.6890    11.1870    11.6810    93.9840   112.9180
  503.0000     0.2923     7.6830     2.5230     0.0920     0.0310   -38.3170    12.6890    11.1810    11.6810    94.2500   112.1590
  503.5000     0.2901     7.6830     2.5360     0.0880     0.0500   -38.1230    12.4820    11.1760    11.6810    94.5160   112.3600
  504.0000     0.2891     7.6830     2.5310     0.0930     0.0490   -37.9300    12.3440    11.1700    11.6810    94.7410   113.9560
  504.5000     0.2915     7.6830     2.5240     0.0950     0.0390   -37.8110    12.3440    11.1640    11.6810    94.6040   116.7790
  505.0000     0.3032     7.6830     2.5260     0.0900     0.0340   -37.8680    12.4860    11.1570    11.6810    94.2270   119.5760
  505.5000     0.3103     7.6830     2.5390     0.0810     0.0410   -37.9200    12.5940    11.1750    11.6810    93.8420   122.0770
  506.0000     0.2985     7.6830     2.5660     0.0700     0.0440   -37.9730    12.6890    11.2080    11.6810    93.9960   121.9740
  506.5000     0.2938     7.6830     2.5590     0.0780     0.0370   -38.0250    12.8060    11.2420    11.6810    94.3980   121.7660
  507.0000     0.2984     7.6830     2.5420     0.0880     0.0300   -38.0770    12.5490    11.2760    11.7290    94.6740   121.6550
  507.5000     0.2992     7.6830     2.5260     0.0980     0.0230   -38.1300    12.3440    11.3090    11.7800    94.6610   119.9660
  508.0000     0.2989     7.6830     2.5200     0.0980     0.0160   -38.1820    12.5020    11.3430    11.8320    94.2770   118.0330
  508.5000     0.2935     7.6830     2.5300     0.0880     0.0090   -38.2350    12.7180    11.3770    11.8830    93.8930   116.1030
  509.0000     0.2895     7.6830     2.5420     0.0810     0.0270   -38.2870    12.9340    11.4110    11.9340    93.5090   114.1770
  509.5000     0.3191     7.6830     2.5540     0.0760     0.0470   -38.3400    13.1640    11.4440    11.9860    93.4660   112.2540
  510.0000     0.3339     7.6830     2.5550     0.0830     0.0540   -38.3920    12.8170    11.4780    12.0370    93.4940   110.3440
  510.5000     0.3366     7.6830     2.5430     0.0900     0.0510   -38.3930    12.5730    11.5120    12.0880    93.5220   109.1760
  511.0000     0.3294     7.6830     2.5330     0.0950     0.0470   -38.4890    12.9120    11.5460    12.1400    93.5430   110.1370
  511.5000     0.3046     7.6830     2.5250     0.0930     0.0440   -38.6490    13.2120    11.5800    12.1910    93.2050   110.9810
  512.0000     0.2938     7.6830     2.5290     0.0900     0.0400   -38.8090    13.4080    11.6130    12.2420    92.8850   109.3200
  512.5000     0.2878     7.6830     2.5320     0.0910     0.0360   -38.9680    13.3250    11.6470    12.2940    92.8440   106.8140
  513.0000     0.2978     7.6830     2.5310     0.0920     0.0330   -39.1280    13.2140    11.6810    12.3450    92.8440   106.6220
  513.5000     0.3044     7.6830     2.5280     0.0940     0.0430   -39.2870    13.1640    11.7150    12.3960    92.8440   109.3790
  514.0000     0.3133     7.6830     2.5250     0.0950     0.0540   -39.3140    13.2650    11.7480    12.4480    92.7130   112.0690
  514.5000     0.3114     7.6830     2.5240     0.0940     0.0650   -39.1370    13.3530    11.7820    12.4990    92.5250   111.0740
  515.0000     0.3067     7.6830     2.5260     0.0920     0.0750   -38.9630    13.4410    11.8160    12.5500    92.3360   111.3740
  515.5000     0.2958     7.6830     2.5280     0.0930     0.0650   -38.7890    13.5320    11.8500    12.6210    92.1590   112.9760
