~VERSION INFORMATION
 VERS.                2.0:   CWLS LOG ASCII STANDARD - VERSION 2.0
 WRAP.                 NO:   ONE LINE PER DEPTH STEP
~WELL INFORMATION
#MNEM.UNIT      DATA TYPE    INFORMATION
#----------   ------------   ------------------------------
 STRT.F            1.0000:   START DEPTH
 STOP.F          508.0000:   STOP DEPTH
 STEP.F            0.1000:   STEP LENGTH
 NULL.          -999.2500:   NO VALUE
 COMP.       F D SERV INC:   COMPANY
 WELL. NAVAL PETROLEUM RESERVE 3 SX-1 #83-4-10:   WELL
 FLD .             TEAPOT:   FIELD
 LOC .      S10 T38N R78W:   LOCATION
 CNTY.            NATRONA:   COUNTY
 STAT.            WYOMING:   STATE
 CTRY. UNITED STATES OF AMERICA:   COUNTRY
 SRVC.     Atlas Wireline:   SERVICE COMPANY
 DATE.        26-JAN-1993:   LOGDATE
 API .       490252258300:   API NUMBER
~CURVE INFORMATION
#MNEM.UNIT       API CODE    CURVE DESCRIPTION
#----------   ------------   ------------------------------
 DEPT.F                  :   
 GRR .GAPI   07 310 01 00:   GAMMA RAY
 RILD.OHMM   07 120 46 00:   INDUCTION LOG DEEP RESISTIVITY
 RILM.OHMM   07 120 44 00:   INDUCTION LOG MEDIUM RESISTIVITY
~PARAMETER INFORMATION
#MNEM.UNIT          VALUE    DESCRIPTION
#----------   ------------   ------------------------------
 PD  .                 GL:   PERMANENT DATUM
 EPD .F              5152:   ELEVATION PERMANENT DATUM
 LMF .                 KB:   LOG MEASURED FROM
 DAPD.F                10:   FEET ABOVE PERMANENT DATUM
 DMF .                 KB:   DRILLING MEASURED FROM
 EKB .F              5162:   KELLING BUSHING
 EDF .F              5161:   DRILLING FLOOR
 EGL .F              5152:   GROUND LEVEL
 DATE.        26-JAN-1993:   RUN DATE
 RUN .                  1:   RUN NUMBER
 DD  .F               515:   DEPTH DRILLER
 DL  .F               516:   DEPTH LOGGER
 BLI .F               508:   BOTTOM LOG INTERVAL
 CS  .IN            8.625:   CASING SIZE
 CBD .F                55:   CASING BOTTOM DRILLER
 CBL .F                55:   CASING BOTTOM LOGGER
 BS  .IN            7.875:   BIT SIZE
 BSD .F               515:   BIT SIZE AT DEPTH
 DFT .                AIR:   DRILLING FLUID TYPE
 MRT .F                63:   MAXIMUM RECORDED TEMPERATURE
 LUN .           HL- 6274:   LOGGING UNIT NUMBER
 LUL .             CASPER:   LOGGING UNIT LOCATION
 ENGI.       P. RASMUSSEN:   RECORDING ENGINEER
 WITN.          G. STRONG:   WITNESSED BY
 CLNT.            A2DTECH:   CLIENT CODE
 ORIG.           5" PRINT:   ORIGIN OF DATA
 UWI .       490252258300:   UNIQUE WELL ID
 DICO. A2D Technologies, Inc.:   DIGITIZING COMPANY
~OTHER INFORMATION
~A    DEPT     GRR       RILD       RILM   
# ...
  310.4000   140.5880    10.3933    10.7984
  310.5000   140.5843    10.5533    10.9074
  310.6000   140.5807    10.7134    10.9928
  310.7000   140.5771    10.8518    11.0578
  310.8000   140.5735    10.9805    11.1231
  310.9000   140.5958    11.1106    11.1989
  311.0000   140.8672    11.2422    11.3348
  311.1000   140.8638    11.3785    11.4136
  311.2000   140.8602    11.4572    11.5222
  311.3000   140.8566    11.5663    11.6589
  311.4000   140.8530    11.7035    11.8291
  311.5000   140.7861    11.8422    12.0400
  311.6000   140.5446    11.9825    12.2546
  311.7000   140.5406    12.1325    12.4887
  311.8000   140.5373    12.3621    12.6960
  311.9000   139.7794    12.4998    13.0393
  312.0000   138.4577    12.6480    13.4295
  312.1000   136.5083    12.7979    13.7975
  312.2000   134.0456    12.9822    14.0874
  312.3000   131.9842    13.2136    14.2639
  312.4000   129.6718    13.4552    14.6451
  312.5000   127.3844    13.8079    14.8756
  312.6000   124.7800    14.1059    15.2050
  312.7000   122.1756    14.4430    15.5186
  312.8000   119.5712    14.7878    15.8292
  312.9000   116.9668    15.1407    16.2065
  313.0000   114.3624    15.5017    16.5924
  313.1000   111.7579    15.8709    17.0552
  313.2000   109.1535    16.3013    17.3950
  313.3000   106.5491    16.8113    17.8104
  313.4000   103.9447    17.4179    18.2353
  313.5000   101.7863    17.9330    18.7402
  313.6000   100.6699    18.3608    19.3816
  313.7000   100.4084    18.8183    19.8620
  313.8000   100.1030    19.3799    20.2028
  313.9000   100.1000    19.7856    20.5207
  314.0000   100.0964    20.1778    20.8284
  314.1000   100.0928    20.4989    21.1362
  314.2000   100.0892    20.8620    21.4439
  314.3000   100.0855    21.3596    21.7517
  314.4000   100.0818    21.8688    22.0594
  314.5000   100.0776    22.4085    22.3672
  314.6000    99.8687    22.7949    22.6749
  314.7000    99.6078    23.3117    22.9826
  314.8000    98.9927    23.7803    23.2914
  314.9000    97.8120    24.2694    23.7803
  315.0000    96.1451    24.8483    24.3667
  315.1000    93.4299    25.4250    25.0964
  315.2000    92.4532    25.9111    25.7738
  315.3000    92.2181    26.3409    26.3882
  315.4000    92.2145    26.8112    26.9968
  315.5000    92.2108    27.2898    27.5027
  315.6000    92.2072    27.7088    27.9692
  315.7000    92.2036    28.0369    28.6002
  315.8000    92.1997    28.3910    29.0744
  315.9000    92.1964    29.1427    29.4938
  316.0000    92.1928    29.4508    29.9302
  316.1000    92.1892    29.8000    30.1207
  316.2000    92.1855    30.2514    30.5133
  316.3000    92.1819    30.6545    30.8398
  316.4000    92.1783    30.8719    31.0718
  316.5000    92.1743    31.2323    31.2556
  316.6000    91.9409    31.4433    31.5109
  316.7000    91.6801    31.6017    31.8078
  316.8000    91.2771    31.9168    31.8185
  316.9000    90.5626    32.1976    32.2514
  317.0000    89.4220    32.3874    32.4143
  317.1000    87.8750    32.5468    32.6059
  317.2000    86.1248    32.5458    32.7012
  317.3000    84.9029    32.5447    32.7650
  317.4000    83.4961    32.5440    32.9587
  317.5000    82.0894    32.5431    33.1573
  317.6000    80.6827    32.5422    33.1573
  317.7000    79.2759    32.5413    33.1573
  317.8000    77.8692    32.5404    33.1573
  317.9000    76.4625    32.5394    33.1573
  318.0000    75.0557    32.5386    33.1573
  318.1000    73.8995    32.5377    33.1573
  318.2000    73.4389    32.5368    33.1573
  318.3000    74.0371    32.5359    33.1573
  318.4000    74.2755    32.5350    33.1573
  318.5000    74.7270    32.5168    33.0436
  318.6000    75.3917    32.3086    32.8494
  318.7000    76.1597    32.1334    32.7012
  318.8000    76.9278    32.0839    32.7012
  318.9000    77.6959    31.9751    32.7012
  319.0000    78.5298    31.7860    32.3623
  319.1000    79.2318    31.6400    32.2514
  319.2000    79.8087    31.6194    32.0491
  319.3000    80.6139    31.2029    31.8078
  319.4000    81.6392    31.0405    31.7730
  319.5000    82.7237    30.8570    31.5861
  319.6000    83.9758    30.7713    31.3703
  319.7000    84.8297    30.6398    31.2160
  319.8000    85.5121    30.3464    31.0325
  319.9000    86.2802    30.3426    30.8501
  320.0000    86.7671    30.1351    30.6688
  320.1000    87.0207    29.9849    30.5133
  320.2000    87.3270    29.9256    30.5133
  320.3000    87.8378    29.9248    30.3405
  320.4000    88.4188    29.9240    30.1621
  320.5000    89.3033    29.8963    30.0936
  320.6000    89.9728    29.7158    30.0936
  320.7000    90.4836    29.7148    30.0936
  320.8000    90.9944    29.5731    30.0775
  320.9000    91.5973    29.5083    29.8859
  321.0000    92.6203    29.5075    29.8859
  321.1000    93.5139    29.5067    29.7557
  321.2000    94.1565    29.5059    29.6796
  321.3000    95.0958    29.5050    29.6796
  321.4000    95.6121    29.5042    29.6796
  321.5000    95.6084    29.5034    29.6796
  321.6000    95.6834    29.5026    29.6796
  321.7000    96.2036    29.5018    29.6796
  321.8000    96.1993    29.5009    29.5587
  321.9000    95.7790    29.5001    29.5653
  322.0000    95.0963    29.4992    29.6796
  322.1000    94.0795    29.4985    29.6796
  322.2000    92.7131    29.4977    29.6796
  322.3000    91.1661    29.4969    29.6796
  322.4000    89.5516    29.4960    29.6796
  322.5000    88.3181    29.4952    29.6796
  322.6000    87.4324    29.5018    29.6796
  322.7000    86.6571    29.6984    29.7318
  322.8000    86.1100    29.6977    29.9075
  322.9000    85.9193    29.8195    30.0936
  323.0000    85.9678    29.9024    30.0936
  323.1000    86.5142    29.9016    30.0936
  323.2000    86.9895    29.9008    30.0936
  323.3000    87.5003    29.9000    30.1690
  323.4000    88.0112    29.8990    30.3473
  323.5000    88.6294    30.0458    30.5133
  323.6000    89.5243    30.2229    30.5133
  323.7000    90.7679    30.3136    30.6757
  323.8000    91.6093    30.3692    30.7253
  323.9000    92.3043    30.5481    30.8254
  324.0000    93.0724    30.7338    30.9388
  324.1000    93.9853    30.7330    30.9388
  324.2000    94.9098    30.8770    30.9388
  324.3000    95.6778    31.0591    30.9388
  324.4000    96.4330    31.0764    30.6302
  324.5000    97.0056    30.8926    30.5133
  324.6000    97.4547    30.7097    30.4231
  324.7000    97.6012    30.5157    30.2443
  324.8000    97.7358    30.3476    30.0936
  324.9000    97.8952    30.0337    30.0936
  325.0000    97.8916    29.8859    29.6796
  325.1000    97.8880    29.7401    29.5394
  325.2000    98.1850    29.3899    29.3658
  325.3000    98.4014    29.0670    29.2714
  325.4000    98.4795    29.0661    29.2714
  325.5000    98.4759    29.0654    29.2714
  325.6000    98.5598    28.9410    29.2714
  325.7000    98.8134    28.8632    29.2714
  325.8000    99.0675    28.8624    29.2714
  325.9000    99.0632    28.8616    29.2714
  326.0000    99.4860    28.8661    29.2714
  326.1000    99.8279    29.0604    29.3117
  326.2000   100.2065    29.0597    29.4748
  326.3000   100.7983    29.0589    29.4748
  326.4000   101.6034    29.0581    29.6288
  326.5000   102.6565    29.0573    29.6796
  326.6000   103.8571    29.0565    29.6796
  326.7000   104.2667    29.0557    29.6796
  326.8000   104.7776    29.0548    29.7121
  326.9000   105.0518    29.1956    29.8859
  327.0000   105.1225    29.3677    29.8859
  327.1000   105.3761    29.4577    30.0336
  327.2000   105.6432    29.4569    30.0936
  327.3000   105.6398    29.4789    30.0936
  327.4000   105.6361    29.6599    30.0936
  327.5000   105.3214    29.6591    30.0936
  327.6000   105.0265    29.7962    30.0936
  327.7000   104.8876    29.8635    30.2649
  327.8000   104.3695    29.8627    30.4439
  327.9000   103.8106    29.9091    30.5133
  328.0000   103.3333    30.0853    30.5133
  328.1000   102.8152    30.2766    30.5609
  328.2000   102.1481    30.2758    30.7253
  328.3000   101.3728    30.4092    30.7253
  328.4000   100.6585    30.4845    30.8916
  328.5000   100.1405    30.5564    30.9388
