~VERSION INFORMATION
 VERS.                2.0:   CWLS LOG ASCII STANDARD - VERSION 2.0
 WRAP.                 NO:   ONE LINE PER DEPTH STEP
~WELL INFORMATION
#MNEM.UNIT      DATA TYPE    INFORMATION
#----------   ------------   ------------------------------
 STRT.F           11.5000:   START DEPTH
 STOP.F          583.0000:   STOP DEPTH
 STEP.F            0.5000:   STEP LENGTH
 NULL.          -999.2500:   NO VALUE
 COMP.    FENIX & SCISSON:   COMPANY
 WELL.      41 SX 3 #41-3:   WELL
 FLD .             TEAPOT:   FIELD
 LOC .       S3 T38N R78W:   LOCATION
 CNTY.            NATRONA:   COUNTY
 STAT.            WYOMING:   STATE
 CTRY. UNITED STATES OF AMERICA:   COUNTRY
 SRVC.            Unknown:   SERVICE COMPANY
 DATE.        01-DEC-1978:   LOGDATE
 API .       490251074000:   API NUMBER
~CURVE INFORMATION
#MNEM.UNIT       API CODE    CURVE DESCRIPTION
#----------   ------------   ------------------------------
 DEPT.F                  :   
 SPR .MV     05 010 01 00:   SPONTANEOUS POTENTIAL FROM RES.
 SN  .OHMM   05 040 16 00:   SHORT NORMAL 16"
 IL  .OHMM   05 120 00 00:   INDUCTION LOG
 GRD .GAPI   45 310 01 00:   GAMMA RAY FROM DENSITY LOG
 CALD.IN     45 280 60 00:   CALIPER
 DEN .G/C3   45 350 01 00:   COMPENSATED BULK DENSTIY
 CORR.G/C3   45 356 01 00:   DENSITY CORRECTION
 DPHI.DEC    45 890 12 00:   DENSITY POROSITY SANDSTONE
~PARAMETER INFORMATION
#MNEM.UNIT          VALUE    DESCRIPTION
#----------   ------------   ------------------------------
 PD  .                 GL:   PERMANENT DATUM
 EPD .F              5150:   ELEVATION PERMANENT DATUM
 LMF .                 KB:   LOG MEASURED FROM
 DAPD.F                 4:   FEET ABOVE PERMANENT DATUM
 DMF .                 KB:   DRILLING MEASURED FROM
 EKB .F              5154:   KELLING BUSHING
 EGL .F              5150:   GROUND LEVEL
 DATE.            12-1-78:   RUN DATE
 RUN .                  1:   RUN NUMBER
 DD  .F               600:   DEPTH DRILLER
 DL  .F               582:   DEPTH LOGGER
 BLI .F               576:   BOTTOM LOG INTERVAL
 TLI .F                42:   TOP LOG INTERVAL
 CS  .IN            8.625:   CASING SIZE
 CBD .F                40:   CASING BOTTOM DRILLER
 CBL .F                41:   CASING BOTTOM LOGGER
 BS  .IN            7.875:   BIT SIZE
 BSD .F               600:   BIT SIZE AT DEPTH
 DFT .                KCL:   DRILLING FLUID TYPE
 DFD .                8.8:   DRILLING FLUID DENSITY
 DFV .                 35:   DRILLING FLUID VISCOSITY
 DFPH.               11.2:   DRILLING FLUID PH
 DFL .               11.6:   DRILLING FLUID LOSS
 MSS .          FLOW LINE:   MUD SAMPLE SOURCE
 RMS .OHMM            .36:   RESISTIVITY MUD SAMPLE
 MST .F                52:   MUD SAMPLE TEMPERATURE
 RMF .OHMM            .36:   RESISTIVITY MUD FILTRATE SAMPLE
 MFST.F                55:   MUD FILTRATE SAMPLE TEMPERATURE
 RMC .OHMM            .42:   RESISTIVITY MUD CAKE
 MCST.F                60:   MUD CAKE SAMPLE TEMPERATURE
 MFSS.           MEASURED:   MUD FILTRATE SAMPLE SOURCE
 MCSS.           MEASURED:   MUD CAKE SAMPLE SOURCE
 RMB .OHMM            .32:   RESISTIVITY MUD AT BHT
 BHT .F                58:   BOTTOM HOLE TEMPERATURE
 MRT .F                58:   MAXIMUM RECORDED TEMPERATURE
 LUN .               2958:   LOGGING UNIT NUMBER
 LUL .                CPR:   LOGGING UNIT LOCATION
 ENGI.            ROLLINS:   RECORDING ENGINEER
 WITN.              AMEND:   WITNESSED BY
 CLNT.            A2DTECH:   CLIENT CODE
 ORIG.       2", 5" PRINT:   ORIGIN OF DATA
 UWI .       490251074000:   UNIQUE WELL ID
 DICO. A2D Technologies, Inc.:   DIGITIZING COMPANY
~OTHER INFORMATION
~A   DEPT      SPR         SN         IL         GRD      CALD        DEN       CORR       DPHI   
# ...
  295.0000   -35.2950     8.8132     8.2139    98.6787     8.0097     2.4770     0.0214     0.1266
  295.5000   -35.5354     8.8399     8.1494    97.2399     8.0097     2.4782     0.0199     0.1256
  296.0000   -35.7657     8.8710     8.0882    98.8718     8.0097     2.4795     0.0184     0.1265
  296.5000   -35.9978     8.5389     7.8988   101.4508     8.0097     2.4732     0.0169     0.1374
  297.0000   -36.0847     8.3339     7.7217   102.5263     8.0097     2.4633     0.0154     0.1485
  297.5000   -36.0854     8.2400     7.5485   103.0512     8.0096     2.4492     0.0149     0.1522
  298.0000   -36.3716     8.1470     7.3315   103.3646     8.0095     2.4353     0.0149     0.1552
  298.5000   -36.6701     7.9871     7.1083   103.6902     8.0101     2.4304     0.0149     0.1614
  299.0000   -36.6158     7.7132     6.8918   103.7161     8.0242     2.4243     0.0149     0.1675
  299.5000   -36.5689     7.4487     6.6865   102.7791     8.0258     2.4113     0.0149     0.1770
  300.0000   -36.5201     7.1010     6.3313    99.0221     8.0218     2.3926     0.0149     0.1903
  300.5000   -36.5020     6.7344     5.6773    98.3357     8.0182     2.3671     0.0149     0.2079
  301.0000   -36.9603     6.3868     5.0904    97.7285     8.0146     2.3417     0.0155     0.2255
  301.5000   -37.3947     6.0715     4.5652    97.8886     8.0111     2.3162     0.0217     0.2431
  302.0000   -38.4446     5.4940     4.0944   100.2592     7.9978     2.2886     0.0345     0.2623
  302.5000   -39.1185     4.9970     3.6720   103.3226     7.9790     2.2594     0.0472     0.2723
  303.0000   -39.2237     4.5444     3.3691    99.2706     7.9600     2.2398     0.0488     0.2560
  303.5000   -39.1411     4.1324     3.1632    93.8021     7.9411     2.2456     0.0468     0.2346
  304.0000   -38.9419     3.7578     3.0687    94.3121     7.9004     2.2810     0.0402     0.2132
  304.5000   -38.7415     3.4171     2.9549    98.4798     7.8427     2.3253     0.0351     0.1979
  305.0000   -38.5400     3.2111     3.0098   103.5460     7.7845     2.3640     0.0372     0.1845
  305.5000   -38.3391     3.2547     3.0843   108.2741     7.7249     2.3809     0.0382     0.1710
  306.0000   -38.1376     3.3724     3.1892   109.9162     7.7901     2.4023     0.0238     0.1576
  306.5000   -37.9268     3.5779     3.5460   109.3484     7.8713     2.4295     0.0110     0.1452
  307.0000   -37.9968     3.8342     3.9427   108.6259     7.8941     2.4415     0.0153     0.1416
  307.5000   -38.1703     4.1503     4.3838   107.9799     7.9122     2.4494     0.0228     0.1392
  308.0000   -38.2377     4.6059     4.8743   108.6870     7.8849     2.4574     0.0307     0.1401
  308.5000   -38.1677     5.1602     5.4196   109.9765     7.8170     2.4572     0.0386     0.1364
  309.0000   -38.1005     5.7811     6.0260   111.2928     7.7977     2.4623     0.0429     0.1301
  309.5000   -37.8881     6.3297     6.5798   111.5451     7.8216     2.4706     0.0428     0.1296
  310.0000   -37.5881     6.7861     7.0073   110.8606     7.8487     2.4722     0.0392     0.1330
  310.5000   -37.2873     6.7664     7.2528   111.7451     7.8756     2.4677     0.0279     0.1365
  311.0000   -36.9863     6.7498     7.3747   113.0714     7.9026     2.4648     0.0186     0.1379
  311.5000   -36.6870     6.7333     7.3617   110.5184     7.9294     2.4619     0.0158     0.1387
  312.0000   -36.4771     6.7167     7.3499   106.0140     7.9325     2.4593     0.0130     0.1395
  312.5000   -36.4813     6.7003     7.3382   104.7905     7.9325     2.4497     0.0129     0.1531
  313.0000   -36.4813     6.6838     7.3266   103.5156     7.9324     2.4395     0.0130     0.1652
  313.5000   -36.4810     6.6696     7.3151   103.3756     7.9325     2.4262     0.0141     0.1763
  314.0000   -36.4816     6.6152     7.3064   105.9388     7.9289     2.4074     0.0175     0.1872
  314.5000   -36.4825     6.3150     7.2863   109.5720     7.9245     2.3886     0.0208     0.1919
  315.0000   -36.5997     5.9900     7.2642   113.3743     7.9202     2.3710     0.0241     0.1910
  315.5000   -36.8804     5.7225     7.2435   114.2615     7.9158     2.3697     0.0275     0.1836
  316.0000   -37.1594     5.6168     6.6769   111.3499     7.9115     2.3777     0.0308     0.1751
  316.5000   -37.4385     5.5131     6.0182   106.6417     7.9072     2.3991     0.0341     0.1616
  317.0000   -37.7182     5.3867     5.9851   103.1518     7.9028     2.4169     0.0365     0.1568
  317.5000   -38.0024     5.4020     5.9628   101.2658     7.8984     2.4274     0.0336     0.1489
  318.0000   -38.1423     5.4225     5.9809   100.4427     7.8941     2.4379     0.0309     0.1431
  318.5000   -38.2417     5.5320     6.0182   102.7228     7.9061     2.4485     0.0290     0.1444
  319.0000   -38.3393     5.8480     6.2007   105.7083     7.9196     2.4516     0.0297     0.1457
  319.5000   -38.4368     6.1821     6.4084   108.6850     7.9329     2.4476     0.0303     0.1472
  320.0000   -38.5344     6.5352     6.6231   109.7889     7.9288     2.4438     0.0317     0.1497
  320.5000   -38.6352     6.9086     6.8450   108.3850     7.8364     2.4417     0.0369     0.1468
  321.0000   -38.5281     7.3032     7.0743   107.8872     7.7434     2.4479     0.0421     0.1399
  321.5000   -38.3185     7.5117     7.3113   107.5812     7.7386     2.4569     0.0468     0.1331
  322.0000   -38.0550     7.7377     7.5562   105.3115     7.7393     2.4658     0.0469     0.1257
  322.5000   -37.3213     7.9705     7.8094   102.6851     7.7394     2.4747     0.0428     0.1269
  323.0000   -36.6527     8.2103     8.0882   102.9652     7.7394     2.4765     0.0373     0.1321
  323.5000   -36.6382     8.4705     8.0351   107.9624     7.7394     2.4730     0.0318     0.1375
  324.0000   -36.6054     8.4523     7.9659   111.7583     7.7394     2.4634     0.0262     0.1409
  324.5000   -36.5694     8.4331     7.8972   113.1151     7.7394     2.4536     0.0206     0.1405
  325.0000   -36.5343     8.4140     7.8291   111.0405     7.7394     2.4553     0.0194     0.1390
  325.5000   -36.4992     8.3949     7.6985   108.9655     7.7394     2.4570     0.0199     0.1376
  326.0000   -36.4831     8.3046     7.5066   108.6170     7.7393     2.4539     0.0205     0.1437
  326.5000   -36.5536     8.2058     7.3963   111.3357     7.7396     2.4470     0.0209     0.1466
  327.0000   -36.8692     8.1082     7.3262   114.0326     7.7507     2.4448     0.0209     0.1485
  327.5000   -37.1781     8.0138     7.2583   114.3840     7.7511     2.4438     0.0209     0.1503
  328.0000   -37.4856     7.8372     7.1915   113.7163     7.7003     2.4420     0.0209     0.1538
  328.5000   -37.7010     7.6264     7.1251   113.2290     7.6471     2.4277     0.0218     0.1616
  329.0000   -37.7642     7.4193     6.7178   112.8834     7.7544     2.4140     0.0248     0.1694
  329.5000   -37.8311     7.2914     6.2526   112.0795     7.8865     2.4040     0.0277     0.1772
  330.0000   -37.9194     7.1715     5.8196   110.8223     7.9711     2.3937     0.0307     0.1850
  330.5000   -38.0753     6.8600     5.3867   109.3512     7.9779     2.3833     0.0328     0.1887
  331.0000   -38.2306     6.5425     5.3867   107.0277     7.9855     2.3742     0.0307     0.1874
  331.5000   -38.2695     6.2391     5.3867   106.8927     7.9928     2.3779     0.0286     0.1752
  332.0000   -38.2687     5.9497     5.4582   107.2621     8.0002     2.4007     0.0284     0.1621
  332.5000   -38.2648     5.7458     5.6091   108.6982     8.0077     2.4256     0.0401     0.1488
  333.0000   -37.9051     5.9256     5.7642   111.4324     8.0169     2.4504     0.0517     0.1355
  333.5000   -37.1649     6.0995     5.9235   114.5178     8.0268     2.4688     0.0632     0.1223
  334.0000   -36.6664     6.4202     6.1871   116.7873     8.0368     2.4782     0.0542     0.1181
  334.5000   -35.6368     6.8706     6.6100   118.5346     8.0464     2.4861     0.0385     0.1297
  335.0000   -35.4662     7.3465     7.0617   120.2679     8.0637     2.4792     0.0314     0.1288
