~VERSION INFORMATION
 VERS.                2.0:   CWLS LOG ASCII STANDARD - VERSION 2.0
 WRAP.                 NO:   ONE LINE PER DEPTH STEP
~WELL INFORMATION
#MNEM.UNIT      DATA TYPE    INFORMATION
#----------   ------------   ------------------------------
 STRT.F           30.0000:   START DEPTH
 STOP.F          733.0000:   STOP DEPTH
 STEP.F            0.5000:   STEP LENGTH
 NULL.          -999.2500:   NO VALUE
 COMP. FENIX & SCISSON INC:   COMPANY
 WELL.    NPR-3 #51 S -34:   WELL
 FLD .             TEAPOT:   FIELD
 LOC .      S34 T39N R78W:   LOCATION
 CNTY.            NATRONA:   COUNTY
 STAT.            WYOMING:   STATE
 CTRY. UNITED STATES OF AMERICA:   COUNTRY
 SRVC.      Dresser Atlas:   SERVICE COMPANY
 DATE.        20-MAR-1977:   LOGDATE
 API .       490251031600:   API NUMBER
~CURVE INFORMATION
#MNEM.UNIT       API CODE    CURVE DESCRIPTION
#----------   ------------   ------------------------------
 DEPT.F                  :   
 CALD.IN     45 280 60 00:   CALIPER FROM DENSITY LOG
 GRD .GAPI   45 310 01 00:   GAMMA RAY FROM DENSITY LOG
 CORR.G/C3   45 356 01 00:   DENSITY CORRECTION
 DPHI.DEC    45 890 12 00:   DENSITY POROSITY SANDSTONE
 RHOB.G/C3   45 350 01 00:   BULK DENSITY
 SPR .MV     07 010 01 00:   SPONTANEOUS POTENTIAL
 ILD .OHMM   07 120 46 00:   INDUCTION LOG DEEP
 ILM .OHMM   07 120 44 00:   INDUCTION LOG MEDIUM
 SFL .OHMM   07 220 01 00:   SHALLOW FOCUSED LOG RESISTIVITY
~PARAMETER INFORMATION
#MNEM.UNIT          VALUE    DESCRIPTION
#----------   ------------   ------------------------------
 PD  .                 GL:   PERMANENT DATUM
 EPD .F              5065:   ELEVATION PERMANENT DATUM
 LMF .                 KB:   LOG MEASURED FROM
 DAPD.F                 4:   FEET ABOVE PERMANENT DATUM
 DMF .                 KB:   DRILLING MEASURED FROM
 EKB .F              5069:   KELLING BUSHING
 EGL .F              5065:   GROUND LEVEL
 DATE.        20-MAR-1977:   RUN DATE
 RUN .                  1:   RUN NUMBER
 DD  .F               735:   DEPTH DRILLER
 DL  .F               731:   DEPTH LOGGER
 BLI .F               729:   BOTTOM LOG INTERVAL
 TLI .F                42:   TOP LOG INTERVAL
 CS  .IN            8.625:   CASING SIZE
 CBD .F                40:   CASING BOTTOM DRILLER
 CBL .F                42:   CASING BOTTOM LOGGER
 BS  .IN            7.875:   BIT SIZE
 BSD .F               735:   BIT SIZE AT DEPTH
 DFT .           CHEM GEL:   DRILLING FLUID TYPE
 DFD .                9.0:   DRILLING FLUID DENSITY
 DFV .                 38:   DRILLING FLUID VISCOSITY
 DFPH.                8.5:   DRILLING FLUID PH
 DFL .                 72:   DRILLING FLUID LOSS
 MSS .           FLOWLINE:   MUD SAMPLE SOURCE
 RMS .OHMM             .4:   RESISTIVITY MUD SAMPLE
 MST .F                51:   MUD SAMPLE TEMPERATURE
 RMF .OHMM            .72:   RESISTIVITY MUD FILTRATE SAMPLE
 MFST.F                48:   MUD FILTRATE SAMPLE TEMPERATURE
 RMC .OHMM           1.16:   RESISTIVITY MUD CAKE
 MCST.F                48:   MUD CAKE SAMPLE TEMPERATURE
 MFSS.               MEAS:   MUD FILTRATE SAMPLE SOURCE
 MCSS.               MEAS:   MUD CAKE SAMPLE SOURCE
 RMB .OHMM            .31:   RESISTIVITY MUD AT BHT
 BHT .F                66:   BOTTOM HOLE TEMPERATURE
 TCS .HRS            0300:   TIME CURCULATED STOPPED
 MRT .F                66:   MAXIMUM RECORDED TEMPERATURE
 LUN .               6145:   LOGGING UNIT NUMBER
 LUL .              GLTTE:   LOGGING UNIT LOCATION
 ENGI.              RANCK:   RECORDING ENGINEER
 WITN.              BURKE:   WITNESSED BY
 CLNT.            A2DTECH:   CLIENT CODE
 ORIG.           5" PRINT:   ORIGIN OF DATA
 UWI .       490251031600:   UNIQUE WELL ID
 DICO. A2D Technologies, Inc.:   DIGITIZING COMPANY
~OTHER INFORMATION
~A   DEPT     CALD        GRD       CORR       DPHI       RHOB        SPR        ILD        ILM        SFL   
# ...
  468.0000     8.0485   106.1681     0.0536     0.2004     2.3145   -53.1794     2.5633     3.0557     3.6555
  468.5000     8.0356   107.9771     0.0493     0.2037     2.3108   -52.7123     2.7871     3.4171     4.0311
  469.0000     8.0377   109.6367     0.0419     0.1929     2.3116   -52.5437     2.9683     3.9325     5.2847
  469.5000     8.0547   108.9084     0.0360     0.1789     2.3552   -52.3750     3.2499     4.7101     6.5547
  470.0000     8.0568   108.0307     0.0346     0.1535     2.4543   -52.5097     3.9475     5.3780     7.0296
  470.5000     8.0739   106.8546     0.0544     0.1017     2.5121   -52.6396     4.7947     6.2696     7.5912
  471.0000     8.0909   106.4247     0.0591     0.0830     2.5280   -52.6154     5.4345     6.9461     9.0951
  471.5000     8.1229   105.3979     0.0682     0.0669     2.5445   -52.7501     6.0330     7.0435     9.2267
  472.0000     8.1250   104.2217     0.0729     0.0624     2.5499   -52.8751     6.4252     6.9997     8.6767
  472.5000     8.1271   103.1949     0.0746     0.0616     2.5439   -53.0050     6.5192     6.9562     8.2718
  473.0000     8.1292   103.3620     0.0747     0.0637     2.5395   -52.9856     6.4776     6.9673     8.0500
  473.5000     8.1313   106.0665     0.0749     0.0655     2.5366   -52.9662     6.3500     7.0632     7.8899
  474.0000     8.1333   111.3082     0.0780     0.0666     2.5359   -53.2453     6.1383     7.0191     7.8409
  474.5000     8.1354   115.0575     0.0812     0.0650     2.5457   -53.2259     5.9748     6.9273     7.6333
  475.0000     8.1375   115.9709     0.0919     0.0644     2.5405   -53.2065     5.8157     6.8291     7.2771
  475.5000     8.1396   115.0933     0.0996     0.0679     2.5316   -52.8886     5.6609     6.6929     6.8896
  476.0000     8.1417   112.8724     0.1133     0.0692     2.5407   -52.7200     5.5101     6.6132     7.0391
  476.5000     8.1288   111.3970     0.1255     0.0665     2.5445   -52.4021     5.4006     6.6180     7.5491
  477.0000     8.1160   113.5052     0.1301     0.0688     2.5400   -52.2335     5.3301     6.6696     7.8204
  477.5000     8.0877   114.5678     0.1303     0.0858     2.5236   -52.0648     5.2604     6.6742     7.8802
  478.0000     8.0448   114.2872     0.1289     0.0999     2.5102   -52.0454     5.2277     6.6788     7.8299
  478.5000     7.9408   113.1111     0.1260     0.1054     2.4892   -52.0260     5.1952     6.5915     7.4658
  479.0000     7.8097   112.6597     0.1229     0.1120     2.4735   -52.1608     5.1989     6.5053     7.0196
  479.5000     7.7378   115.9827     0.1123     0.1207     2.4586   -52.2906     5.2386     6.5098     6.4197
  480.0000     7.7399   116.8961     0.0909     0.1312     2.4092   -52.7142     5.2786     6.4682     6.5137
  480.5000     7.7420   117.9588     0.0657     0.1356     2.4167   -52.9933     5.3559     6.6097     7.0830
  481.0000     7.7901   119.7677     0.0544     0.1137     2.4513   -53.4216     5.4343     6.8000     7.8095
  481.5000     7.8846   120.3826     0.0517     0.0952     2.5061   -53.9993     5.5138     6.8997     8.0902
  482.0000     8.0351   120.5498     0.0502     0.0740     2.5280   -54.2784     5.6334     6.8556     7.8746
  482.5000     8.1256   120.7169     0.0324     0.0704     2.5318   -54.2590     5.7158     6.9092     7.7715
  483.0000     8.1859   120.8841     0.0340     0.0692     2.5341   -54.0904     5.8398     7.0591     7.7232
  483.5000     8.2179   120.9020     0.0342     0.0700     2.5334   -53.9217     6.0078     7.1625     7.7287
  484.0000     8.2050   117.3378     0.0343     0.0712     2.5305   -53.7531     6.0957     7.2674     7.7340
  484.5000     8.1922   116.1612     0.0315     0.0709     2.5283   -53.8830     6.2279     7.3230     7.7394
  485.0000     8.1943   116.7766     0.0331     0.0676     2.5351   -53.8636     6.3630     7.2272     7.6912
  485.5000     8.1814   118.7348     0.0438     0.0651     2.5457   -53.8442     6.3216     7.1315     7.5383
  486.0000     8.1836   123.6780     0.0500     0.0645     2.5510   -53.6755     6.1955     7.1377     7.3374
  486.5000     8.1856   125.9478     0.0502     0.0642     2.5488   -53.6562     6.0302     7.1922     7.1915
  487.0000     8.1877   123.1168     0.0488     0.0687     2.5354   -53.6368     5.9129     7.1476     7.1468
  487.5000     8.1898   120.8959     0.0474     0.0761     2.5220   -53.6174     5.8324     6.9091     7.1518
  488.0000     8.1919   119.5705     0.0476     0.0752     2.5183   -53.5980     5.7594     6.7250     7.2071
  488.5000     8.2090   115.2600     0.0523     0.0728     2.5311   -53.5786     5.6410     6.6359     7.3628
  489.0000     8.2111   114.0839     0.0554     0.0713     2.5327   -53.7133     5.4526     6.5947     7.4191
  489.5000     8.2132   113.5048     0.0511     0.0733     2.5230   -53.8432     5.2660     6.4200     7.3195
  490.0000     8.2306   109.0451     0.0467     0.0781     2.5125   -53.8190     5.0593     6.2058     7.1205
  490.5000     8.2327   109.8092     0.0438     0.0844     2.5074   -53.7996     4.9242     5.8754     6.7908
  491.0000     8.2348   111.6715     0.0424     0.0925     2.4984   -53.6309     4.7646     5.6784     6.3761
  491.5000     8.2518   110.7234     0.0411     0.0973     2.4902   -53.4623     4.6377     5.7228     5.7852
  492.0000     8.2535   113.7435     0.0428     0.0978     2.4851   -53.4429     4.6089     5.8066     5.6474
  492.5000     8.2557   113.1644     0.0444     0.0927     2.4898   -53.5776     4.6443     5.9326     6.2070
  493.0000     8.2581   113.9286     0.0476     0.0867     2.5045   -53.5534     4.6861     6.0613     7.0312
  493.5000     8.2602   116.1853     0.0508     0.0816     2.5123   -53.3847     4.7819     6.1077     7.5696
  494.0000     8.2468   120.0838     0.0509     0.0809     2.5147   -53.2161     4.9537     6.1971     7.5136
  494.5000     8.2345   123.3852     0.0511     0.0809     2.5161   -52.8982     5.0962     6.2879     7.2623
  495.0000     8.2366   125.3434     0.0512     0.0806     2.5147   -52.7296     5.2067     6.4690     6.8379
  495.5000     8.2386   125.9583     0.0499     0.0782     2.5164   -52.7102     5.2465     6.6094     6.8902
  496.0000     8.2407   126.1255     0.0500     0.0736     2.5263   -52.5415     5.2130     6.7062     7.2374
  496.5000     8.2428   126.2926     0.0471     0.0727     2.5322   -52.2236     5.1458     6.7108     7.6550
  497.0000     8.2449   124.9673     0.0443     0.0724     2.5322   -52.0550     5.0786     6.5320     7.8211
  497.5000     8.2315   122.5971     0.0429     0.0730     2.5331   -52.0356     5.0821     6.3140     7.9356
  498.0000     8.2341   120.6746     0.0416     0.0798     2.5339   -52.0162     5.0497     5.9366     7.8849
  498.5000     8.2208   120.2448     0.0402     0.0930     2.5332   -51.9968     4.9837     5.6980     7.4664
  499.0000     8.2234   119.8150     0.0313     0.1095     2.5087   -51.9775     4.9880     5.7824     5.9865
  499.5000     8.2255   117.5940     0.0179     0.1153     2.4642   -51.9581     5.0610     5.9489     5.4739
  500.0000     8.2270   117.4627     0.0131     0.1161     2.4441   -52.2175     5.1054     6.4243     7.4300
  500.5000     8.2231   120.1653     0.0084     0.1052     2.4722   -52.6728     5.2450     6.6997     8.5973
  501.0000     8.2195   122.7287     0.0033     0.0899     2.5155   -53.1019     5.5847     6.9386     8.9664
  501.5000     8.2159   121.8526     0.0231     0.0635     2.5426   -53.0869     5.9878     7.2863     8.9708
  502.0000     8.2123   120.6780     0.0263     0.0595     2.5502   -53.2249     6.2447     7.5462     9.0375
  502.5000     8.2086   122.7869     0.0279     0.0574     2.5518   -53.2061     6.5578     7.7179     9.1039
  503.0000     8.2050   122.8064     0.0296     0.0571     2.5533   -53.1912     6.7452     7.8722     9.2353
  503.5000     8.2014   122.6717     0.0328     0.0567     2.5557   -53.3254     6.9379     7.7058     9.3686
  504.0000     8.1978   117.4721     0.0330     0.0570     2.5572   -53.4634     7.0380     7.6105     9.5700
