~VERSION INFORMATION
 VERS.                2.0:   CWLS LOG ASCII STANDARD - VERSION 2.0
 WRAP.                 NO:   ONE LINE PER DEPTH STEP
~WELL INFORMATION
#MNEM.UNIT      DATA TYPE    INFORMATION
#----------   ------------   ------------------------------
 STRT.F            0.0000:   START DEPTH
 STOP.F          600.0000:   STOP DEPTH
 STEP.F            0.5000:   STEP LENGTH
 NULL.          -999.2500:   NO VALUE
 COMP.   FLUOR DANIEL INC:   COMPANY
 WELL.   16-1 X 11 #16-11:   WELL
 FLD .             TEAPOT:   FIELD
 LOC .      S11 T38N R78W:   LOCATION
 CNTY.            NATRONA:   COUNTY
 STAT.            WYOMING:   STATE
 CTRY. UNITED STATES OF AMERICA:   COUNTRY
 SRVC.      Western Atlas:   SERVICE COMPANY
 DATE.        08-MAY-1995:   LOGDATE
 API .       490252271100:   API NUMBER
~CURVE INFORMATION
#MNEM.UNIT       API CODE    CURVE DESCRIPTION
#----------   ------------   ------------------------------
 DEPT.F                  :   
 GRR .GAPI   07 310 01 00:   GAMMA RAY
 RILD.OHMM   07 120 46 00:   INDUCTION LOG DEEP RESISTIVITY
 RILM.OHMM   07 120 44 00:   INDUCTION LOG MEDIUM RESISTIVITY
~PARAMETER INFORMATION
#MNEM.UNIT          VALUE    DESCRIPTION
#----------   ------------   ------------------------------
 PD  .                 GL:   PERMANENT DATUM
 EPD .F              5203:   ELEVATION PERMANENT DATUM
 LMF .                 KB:   LOG MEASURED FROM
 DAPD.F                10:   FEET ABOVE PERMANENT DATUM
 DMF .                 KB:   DRILLING MEASURED FROM
 EKB .F              5213:   KELLING BUSHING
 EDF .F              5212:   DRILLING FLOOR
 EGL .F              5203:   GROUND LEVEL
 DATE.        08-MAY-1995:   RUN DATE
 RUN .                  1:   RUN NUMBER
 DD  .F               605:   DEPTH DRILLER
 DL  .F               608:   DEPTH LOGGER
 BLI .F               600:   BOTTOM LOG INTERVAL
 TLI .F                46:   TOP LOG INTERVAL
 CS  .IN            9.625:   CASING SIZE
 CBD .F                46:   CASING BOTTOM DRILLER
 CBL .F                46:   CASING BOTTOM LOGGER
 BS  .IN             8.75:   BIT SIZE
 BSD .F               605:   BIT SIZE AT DEPTH
 DFT .                AIR:   DRILLING FLUID TYPE
 MRT .F                89:   MAXIMUM RECORDED TEMPERATURE
 LUN .            HL 6530:   LOGGING UNIT NUMBER
 LUL .             CASPER:   LOGGING UNIT LOCATION
 ENGI.      PAT RASMUSSEN:   RECORDING ENGINEER
 WITN.        GARY STRONG:   WITNESSED BY
 CLNT.            A2DTECH:   CLIENT CODE
 ORIG.           5" PRINT:   ORIGIN OF DATA
 UWI .       490252271100:   UNIQUE WELL ID
 DICO. A2D Technologies, Inc.:   DIGITIZING COMPANY
~OTHER INFORMATION
~A    DEPT      GRR      RILD       RILM   
# ...
  364.0000   137.2911     7.8114     7.8787
  364.5000   141.8282     7.9771     7.9893
  365.0000   144.8567     8.0901     8.0455
  365.5000   144.4927     8.2047     8.0461
  366.0000   139.1516     8.2635     8.0533
  366.5000   136.4485     8.3227     8.0471
  367.0000   134.3487     8.2474     8.0477
  367.5000   134.0559     8.3059     8.0483
  368.0000   136.1823     8.2497     8.1050
  368.5000   139.5123     8.2510     8.0493
  369.0000   140.4261     8.2521     8.0500
  369.5000   138.3293     8.1962     7.9947
  370.0000   137.9789     8.1407     7.9954
  370.5000   141.0749     8.0856     8.0517
  371.0000   142.3208     8.0309     8.0522
  371.5000   143.8093     8.0353     8.1088
  372.0000   142.9132     8.0890     8.2227
  372.5000   141.4196     8.2032     8.4578
  373.0000   137.5099     8.3188     8.7019
  373.5000   133.9017     8.3778     8.9389
  374.0000   132.1036     8.4372     9.1276
  374.5000   134.2270     8.3222     8.6953
  375.0000   136.0488     7.9292     7.8907
  375.5000   136.6868     7.2470     7.2606
  376.0000   135.1634     6.3980     6.4979
  376.5000   134.2742     5.6484     5.8966
  377.0000   142.1321     5.5329     5.2407
  377.5000   153.6069     5.5722     5.0923
  378.0000   158.4453     5.7298     5.5453
  378.5000   150.9156     6.0154     6.0026
  379.0000   143.9893     6.4928     6.8718
  379.5000   137.3645     7.0568     7.7329
  380.0000   131.9465     7.3066     8.2320
  380.5000   126.5284     8.2213     8.7632
  381.0000   124.4022     9.0602     9.2641
  381.5000   127.7608     9.5780     9.5919
  382.0000   130.2122     9.5131     9.6594
  382.5000   131.7068     9.4487     9.5932
  383.0000   132.6236     9.4535     9.6607
  383.5000   132.6354     9.5263     9.6614
  384.0000   132.3455     9.6515     9.8053
  384.5000   131.4523     9.9931    10.1439
  385.0000   130.8608    10.4048    10.1446
  385.5000   128.7610    11.1680    10.5767
  386.0000   122.9443    11.9710    11.4961
  386.5000   107.6685    12.8318    13.0268
  387.0000    95.9156    13.5652    14.8642
  387.5000    89.7687    14.8461    17.4381
  388.0000    83.8614    18.6635    20.6002
  388.5000    77.2510    21.0019    23.0213
  389.0000    72.4363    22.8690    24.6845
  389.5000    66.1133    24.5270    25.9478
  390.0000    70.0466    26.5915    27.2001
  390.5000    75.7899    28.3067    27.7743
  391.0000    80.0250    29.1064    27.9696
  391.5000    77.3218    29.1103    27.9715
  392.0000    74.3171    28.5152    27.7794
  392.5000    74.0272    27.9322    27.0211
  393.0000    75.5696    27.7422    26.4661
  393.5000    77.7697    27.5551    25.9225
  394.0000    79.4954    27.1796    25.3900
  394.5000    81.0155    26.6155    24.6948
  395.0000    82.8373    25.8759    24.0219
  395.5000    82.5474    25.1958    23.5289
  396.0000    81.0509    24.6798    23.0456
  396.5000    82.5710    24.1761    22.7290
  397.0000    84.0911    24.0116    22.8893
  397.5000    85.3095    23.8490    23.2108
  398.0000    85.0197    24.0189    23.3741
  398.5000    83.8059    24.0222    23.8675
  399.0000    82.6300    24.0254    24.0354
  399.5000    82.6448    24.1958    23.8707
  400.0000    79.9416    24.8883    23.5433
  400.5000    79.3472    25.2414    23.7090
  401.0000    82.9818    25.5994    24.2095
  401.5000    85.4069    25.9625    25.2406
  402.0000    84.2121    26.3308    25.6023
  402.5000    83.3189    26.5196    25.9548
  403.0000    82.4257    26.5250    26.3198
  403.5000    82.4375    26.9012    26.5049
  404.0000    82.7511    27.2981    27.0644
  404.5000    83.3665    27.8627    27.2547
  405.0000    82.7146    28.0637    27.6376
  405.5000    83.3253    28.2649    28.0258
  406.0000    85.1411    28.0737    28.2224
  406.5000    86.3537    27.8852    28.0296
  407.0000    86.9629    27.6980    28.0315
  407.5000    87.5721    27.3217    27.8267
  408.0000    89.9913    26.9519    27.2677
  408.5000    89.3939    26.5856    26.7080
  409.0000    87.8915    25.6818    26.1595
  409.5000    86.9794    24.4532    25.4449
  410.0000    87.7225    23.3165    24.4087
  410.5000    91.8322    22.8407    23.0919
  411.0000    94.5530    22.2198    22.1515
  411.5000    95.1608    21.1704    21.2494
  412.0000    93.6584    20.4525    20.6690
  412.5000    93.0625    20.0341    20.2444
  413.0000    92.7652    20.0392    19.8286
  413.5000    93.6776    20.1828    19.6928
  414.0000    97.0017    20.4691    20.2489
  414.5000    98.2143    20.7653    21.1114
  415.0000    94.2986    21.2204    22.0106
  415.5000    92.7962    21.9548    22.7894
  416.0000    93.1052    22.8930    23.9256
  416.5000    93.1111    24.3737    26.0054
  417.0000    89.4971    25.9500    28.0705
  417.5000    87.3914    27.8208    29.8819
  418.0000    83.1741    29.4153    30.7253
  418.5000    79.8617    29.8325    30.4896
  419.0000    79.2628    29.8633    29.4765
  419.5000    81.0802    29.2296    28.0805
  420.0000    81.6894    28.2126    26.7507
  420.5000    82.9230    26.4755    24.9586
  421.0000    88.4404    24.2507    23.7766
  421.5000    94.0766    22.7868    22.6506
  422.0000    99.5124    21.8618    21.5779
  422.5000   101.6284    20.9743    20.8433
  423.0000   100.4291    20.2631    20.1337
  423.5000   101.0384    19.7123    19.5838
  424.0000   102.5526    19.1764    19.4300
  424.5000   102.8601    19.0476    19.0504
  425.0000   102.5641    18.9198    18.9196
  425.5000   101.0620    18.9115    18.6604
  426.0000   100.7662    18.5384    18.4044
  426.5000   100.7722    18.2865    18.1519
  427.0000   100.4778    18.0381    18.0273
  427.5000    98.6738    17.9161    17.9038
  428.0000    94.4564    17.9206    17.9053
  428.5000    93.5574    17.9243    17.9066
  429.0000    95.6749    17.9279    18.0325
  429.5000    96.5857    17.9316    18.0338
  430.0000    95.3850    17.9352    18.1609
  430.5000    94.1843    17.9389    18.1621
  431.0000    92.9835    18.0676    18.1633
  431.5000    92.6878    18.0721    18.0389
  432.0000    95.7949    17.9498    17.9154
  432.5000    97.5276    17.7060    17.7924
  433.0000    97.8352    17.5871    17.6707
  433.5000    97.8411    17.3482    17.5497
  434.0000    97.8470    17.2317    17.4280
  434.5000    99.0595    17.2361    17.3102
  435.0000   102.3837    17.3596    17.4322
  435.5000   105.4061    17.6059    17.9242
  436.0000   103.9037    18.2381    18.1760
  436.5000    99.6864    18.6188    19.0821
  437.0000    94.8658    18.7531    20.0335
  437.5000    94.8969    18.7570    20.8868
  438.0000    95.1792    18.6301    21.3274
  438.5000    91.8684    18.5050    19.4889
  439.0000    92.4776    18.1282    18.4375
  439.5000    94.2934    17.5135    17.8049
  440.0000    94.9026    16.8025    17.0532
  440.5000    96.7185    16.1205    16.5032
  441.0000    99.1377    15.4661    16.1643
  441.5000    97.9369    14.9334    15.8320
  442.0000    97.0055    14.8413    15.6148
  442.5000    98.2504    14.9484    15.4006
  443.0000   100.3680    15.0556    15.1895
  443.5000    98.5148    15.0587    15.0855
  444.0000    97.3631    14.8541    14.9821
  444.5000    97.3705    14.7536    14.8796
  445.0000    97.6781    14.4533    14.7708
  445.5000    98.2873    14.0604    14.5749
  446.0000    98.8965    13.6782    14.3752
  446.5000    99.5057    13.4924    14.1778
  447.0000    99.8133    13.4952    13.9833
  447.5000   100.1208    13.5925    13.7914
  448.0000   100.1267    13.6900    13.6970
  448.5000    99.8120    13.5981    13.6032
  449.0000    98.8859    13.5061    13.5100
  449.5000    98.0343    13.2311    13.4177
  450.0000    98.3419    13.0507    13.3258
  450.5000   100.5087    12.9631    13.2260
  451.0000   103.4691    12.9649    13.0529
  451.5000   104.6757    12.9665    13.0540
  452.0000   102.8658    13.1495    13.1459
  452.5000   100.7542    13.1513    13.4234
  453.0000   101.6591    13.3369    13.6119
  453.5000   104.3741    13.4316    13.7077
  454.0000   105.8824    13.5271    13.7086
  454.5000   102.5641    13.6235    13.7095
