~VERSION INFORMATION
 VERS.                2.0:   CWLS LOG ASCII STANDARD - VERSION 2.0
 WRAP.                 NO:   ONE LINE PER DEPTH STEP
~WELL INFORMATION
#MNEM.UNIT      DATA TYPE    INFORMATION
#----------   ------------   ------------------------------
 STRT.F           20.0000:   START DEPTH
 STOP.F          698.0000:   STOP DEPTH
 STEP.F            0.5000:   STEP LENGTH
 NULL.          -999.2500:   NO VALUE
 COMP. FENIX & SCISSON INC:   COMPANY
 WELL.    52 SX 34 #52-34:   WELL
 FLD .             TEAPOT:   FIELD
 LOC .      S34 T39N R78W:   LOCATION
 CNTY.            NATRONA:   COUNTY
 STAT.            WYOMING:   STATE
 CTRY. UNITED STATES OF AMERICA:   COUNTRY
 SRVC.            Unknown:   SERVICE COMPANY
 DATE.        26-JAN-1979:   LOGDATE
 API .       490251077100:   API NUMBER
~CURVE INFORMATION
#MNEM.UNIT       API CODE    CURVE DESCRIPTION
#----------   ------------   ------------------------------
 DEPT.F                  :   
 SPR .MV     05 010 01 00:   SPONTANEOUS POTENTIAL FROM RES.
 CALD.IN     45 280 60 00:   CALIPER
 GRD .GAPI   45 310 01 00:   GAMMA RAY FROM DENSITY LOG
 CORR.G/C3   45 356 01 00:   DENSITY CORRECTION
 RHOB.G/C3   45 350 01 00:   BULK DENSITY
 ILD .OHMM   05 120 46 00:   INDUCTION LOG DEEP
 SN  .OHMM   05 040 16 00:   SHORT NORMAL 16"
 DPHI.DEC    45 890 12 00:   DENSITY POROSITY SANDSTONE
~PARAMETER INFORMATION
#MNEM.UNIT          VALUE    DESCRIPTION
#----------   ------------   ------------------------------
 PD  .                 GL:   PERMANENT DATUM
 EPD .F              5072:   ELEVATION PERMANENT DATUM
 LMF .                 KB:   LOG MEASURED FROM
 DAPD.F                 4:   FEET ABOVE PERMANENT DATUM
 DMF .                 KB:   DRILLING MEASURED FROM
 EKB .F              5076:   KELLING BUSHING
 EGL .F              5072:   GROUND LEVEL
 DATE.            1-26-79:   RUN DATE
 RUN .                  1:   RUN NUMBER
 DD  .F               688:   DEPTH DRILLER
 DL  .F               698:   DEPTH LOGGER
 BLI .F               691:   BOTTOM LOG INTERVAL
 TLI .F                30:   TOP LOG INTERVAL
 CS  .IN            8.625:   CASING SIZE
 CBD .F                40:   CASING BOTTOM DRILLER
 CBL .F                20:   CASING BOTTOM LOGGER
 BS  .IN            7.875:   BIT SIZE
 BSD .F               688:   BIT SIZE AT DEPTH
 DFT .                KCL:   DRILLING FLUID TYPE
 DFD .                8.9:   DRILLING FLUID DENSITY
 DFV .                 39:   DRILLING FLUID VISCOSITY
 DFPH.                 10:   DRILLING FLUID PH
 DFL .                 10:   DRILLING FLUID LOSS
 MSS .           FLOWLINE:   MUD SAMPLE SOURCE
 RMS .OHMM             .3:   RESISTIVITY MUD SAMPLE
 MST .F                60:   MUD SAMPLE TEMPERATURE
 RMF .OHMM            .22:   RESISTIVITY MUD FILTRATE SAMPLE
 MFST.F                66:   MUD FILTRATE SAMPLE TEMPERATURE
 MFSS.           MEASURED:   MUD FILTRATE SAMPLE SOURCE
 MCSS.           MEASURED:   MUD CAKE SAMPLE SOURCE
 RMB .OHMM            .25:   RESISTIVITY MUD AT BHT
 BHT .F                70:   BOTTOM HOLE TEMPERATURE
 TCS .HRS               7:   TIME CURCULATED STOPPED
 MRT .F                70:   MAXIMUM RECORDED TEMPERATURE
 LUN .               3006:   LOGGING UNIT NUMBER
 LUL .             CASPER:   LOGGING UNIT LOCATION
 ENGI.            ROLLINS:   RECORDING ENGINEER
 WITN.              AMEND:   WITNESSED BY
 CLNT.            A2DTECH:   CLIENT CODE
 ORIG.       2", 5" PRINT:   ORIGIN OF DATA
 UWI .       490251077100:   UNIQUE WELL ID
 DICO. A2D Technologies, Inc.:   DIGITIZING COMPANY
~OTHER INFORMATION
~A   DEPT      SPR         CALD       GRD      CORR       RHOB        ILD         SN       DPHI   
# ...
  222.5000   -47.3937     8.1566    98.7875     0.0147     2.4740     7.5454     7.9843     0.1211
  223.0000   -47.3843     8.1688   103.8432     0.0152     2.4760     7.5191     7.9934     0.1211
  223.5000   -47.3840     8.1823   109.4883     0.0157     2.4760     7.4972     8.0102     0.1223
  224.0000   -47.3841     8.1919   112.5337     0.0163     2.4765     7.5753     8.0405     0.1211
  224.5000   -47.3841     8.1917   111.4232     0.0168     2.4786     7.6575     8.0735     0.1191
  225.0000   -47.3841     8.1917   106.6798     0.0174     2.4806     7.7407     8.1368     0.1190
  225.5000   -47.3841     8.1917   103.9624     0.0164     2.4816     7.8247     8.2063     0.1213
  226.0000   -47.3841     8.1926   104.7377     0.0150     2.4725     7.9097     8.2764     0.1244
  226.5000   -47.3841     8.1937   105.5794     0.0135     2.4703     7.9956     8.3470     0.1203
  227.0000   -47.3841     8.1948   105.7555     0.0120     2.4850     8.0824     8.4183     0.1159
  227.5000   -47.3841     8.1959   103.8089     0.0129     2.4874     8.1701     8.4902     0.1173
  228.0000   -47.3841     8.1969   102.2057     0.0150     2.4853     8.2361     8.5474     0.1186
  228.5000   -47.3841     8.1980   103.1893     0.0188     2.4820     8.2664     8.5807     0.1201
  229.0000   -47.3841     8.1991   104.2386     0.0228     2.4773     8.2969     8.6142     0.1225
  229.5000   -47.3841     8.2002   102.9737     0.0217     2.4726     8.3274     8.6477     0.1239
  230.0000   -47.3841     8.2012   100.3047     0.0195     2.4681     8.3581     8.6814     0.1239
  230.5000   -47.3841     8.2023   103.3639     0.0173     2.4695     8.3889     8.7152     0.1226
  231.0000   -47.3841     8.2034   102.7587     0.0156     2.4775     8.4198     8.7492     0.1146
  231.5000   -47.3841     8.2044   100.4718     0.0166     2.4908     8.4500     8.7962     0.1126
  232.0000   -47.3841     8.2055   100.4590     0.0168     2.4954     8.5400     8.8855     0.1175
  232.5000   -47.3841     8.2066    98.1088     0.0119     2.4860     8.6430     8.9756     0.1231
  233.0000   -47.3841     8.2077    95.4690     0.0068     2.4789     8.7471     9.0666     0.1196
  233.5000   -47.3841     8.2087    95.6378     0.0056     2.4809     8.8522     9.1585     0.1153
  234.0000   -47.3841     8.2098    95.9847     0.0076     2.4924     8.9585     9.2513     0.1191
  234.5000   -47.3841     8.2109    96.4714     0.0096     2.4908     9.0660     9.3450     0.1157
  235.0000   -47.3841     8.2115    99.6378     0.0115     2.4863     9.1749     9.4396     0.1186
  235.5000   -47.3841     8.2115   100.3833     0.0112     2.4816     9.2760     9.5353     0.1250
  236.0000   -47.3841     8.2115   100.8190     0.0109     2.4673     9.2988     9.6259     0.1283
  236.5000   -47.3841     8.2115   100.3775     0.0107     2.4612     9.3199     9.7503     0.1266
  237.0000   -47.3841     8.2115   101.3661     0.0104     2.4666     9.3411     9.8689     0.1248
  237.5000   -47.3841     8.2115   105.5366     0.0101     2.4719     9.3620     9.9890     0.1231
  238.0000   -47.3841     8.2115   104.6761     0.0099     2.4729     9.2865     9.9479     0.1242
  238.5000   -47.3841     8.2115   103.5486     0.0096     2.4706     9.2118     9.9070     0.1266
  239.0000   -47.3841     8.2115   102.9960     0.0093     2.4668     9.1375     9.8223     0.1271
  239.5000   -47.3841     8.2115   104.0649     0.0090     2.4628     9.0638     9.7235     0.1275
  240.0000   -47.3841     8.2115   106.9070     0.0088     2.4649     8.9906     9.6257     0.1259
  240.5000   -47.3841     8.2115   106.7967     0.0085     2.4702     8.9303     9.5369     0.1227
  241.0000   -47.3841     8.2115   103.9161     0.0082     2.4757     8.9009     9.4834     0.1223
  241.5000   -47.3841     8.2114   101.7363     0.0080     2.4729     8.8717     9.4339     0.1235
  242.0000   -47.3841     8.2115   102.8834     0.0077     2.4735     8.8425     9.3846     0.1216
  242.5000   -47.3841     8.2119   105.0212     0.0081     2.4767     8.8134     9.3357     0.1207
  243.0000   -47.3841     8.2092   104.9333     0.0105     2.4776     8.7843     9.2869     0.1223
  243.5000   -47.3841     8.1474   104.5490     0.0129     2.4769     8.7554     9.2626     0.1208
  244.0000   -47.3841     8.1130   100.3100     0.0152     2.4811     8.7266     9.2454     0.1194
  244.5000   -47.3841     8.1129    98.0278     0.0175     2.4839     8.6978     9.2282     0.1183
  245.0000   -47.3841     8.1126    95.8825     0.0182     2.4839     8.6692     9.2110     0.1198
  245.5000   -47.3841     8.1126    94.0997     0.0189     2.4817     8.6406     9.1939     0.1213
  246.0000   -47.3841     8.1124    94.2509     0.0186     2.4763     8.6139     9.1768     0.1228
  246.5000   -47.3841     8.1142    96.8214     0.0141     2.4727     8.5808     9.1597     0.1231
  247.0000   -47.3841     8.1654   102.4215     0.0095     2.4719     8.5497     9.1427     0.1231
  247.5000   -47.3841     8.2130   108.0138     0.0096     2.4723     8.5188     9.1257     0.1159
  248.0000   -47.3841     8.2115   107.8853     0.0131     2.4907     8.4879     9.1087     0.1098
  248.5000   -47.3841     8.2114   105.1322     0.0155     2.4997     8.4559     9.0917     0.1164
  249.0000   -47.3841     8.2115   101.9770     0.0156     2.4827     8.4338     9.0748     0.1221
  249.5000   -47.3841     8.2115   103.5549     0.0106     2.4699     8.4108     9.0579     0.1307
  250.0000   -47.3841     8.2115   106.3169     0.0038     2.4599     8.3879     9.0411     0.1316
  250.5000   -47.3841     8.2115   105.4501     0.0038     2.4573     8.3650     9.0243     0.1327
  251.0000   -47.3841     8.2115   103.8562     0.0041     2.4548     8.3422     9.0075     0.1338
  251.5000   -47.3841     8.2116   104.1101     0.0045     2.4526     8.3195     8.9907     0.1347
  252.0000   -47.3841     8.2110   109.9440     0.0049     2.4519     8.2969     8.9740     0.1347
  252.5000   -47.3841     8.1962   113.4596     0.0052     2.4518     8.2744     8.9573     0.1347
  253.0000   -47.3841     8.1812   114.3331     0.0059     2.4519     8.2516     8.9406     0.1343
  253.5000   -47.3841     8.1663   113.0969     0.0079     2.4527     8.2292     8.9240     0.1322
  254.0000   -47.3841     8.1514   113.0422     0.0098     2.4577     8.1270     8.9074     0.1299
  254.5000   -47.3841     8.1361   113.3401     0.0118     2.4595     8.0614     8.8908     0.1300
  255.0000   -47.3841     8.1383   112.6865     0.0136     2.4585     8.0281     8.8745     0.1301
  255.5000   -47.3841     8.1493   111.9553     0.0142     2.4579     8.0021     8.8573     0.1303
  256.0000   -47.3841     8.1503   111.2235     0.0148     2.4597     8.0265     8.8117     0.1303
  256.5000   -47.3841     8.1479   110.4981     0.0154     2.4617     8.0509     8.7030     0.1299
  257.0000   -47.3841     8.1453   110.2497     0.0141     2.4613     8.0735     8.4650     0.1295
  257.5000   -47.3841     8.1427   110.6392     0.0125     2.4606     7.8665     8.2336     0.1291
  258.0000   -47.3841     8.1402   111.1515     0.0109     2.4625     7.6791     8.0085     0.1229
  258.5000   -47.3841     8.1376   109.6488     0.0094     2.4740     7.4961     7.7895     0.1187
  259.0000   -47.3841     8.1352   107.4414     0.0077     2.4822     7.4090     7.6885     0.1209
  259.5000   -47.3841     8.1319   105.2313     0.0088     2.4770     7.3784     7.6567     0.1237
  260.0000   -47.3841     8.1010   102.1990     0.0103     2.4720     7.3435     7.6215     0.1264
  260.5000   -47.3841     8.0841    98.5341     0.0118     2.4671     7.3018     7.5808     0.1287
  261.0000   -47.3841     8.0722    94.8542     0.0135     2.4620     7.2604     7.5403     0.1288
  261.5000   -47.3841     8.0605    92.9647     0.0201     2.4606     7.2295     7.4972     0.1290
  262.0000   -47.3841     8.0992    93.4533     0.0234     2.4602     7.4137     7.6674     0.1291
  262.5000   -47.3841     8.1667    95.7027     0.0235     2.4599     7.5845     7.8545     0.1287
