~VERSION INFORMATION
 VERS.                2.0:   CWLS LOG ASCII STANDARD - VERSION 2.0
 WRAP.                 NO:   ONE LINE PER DEPTH STEP
~WELL INFORMATION
#MNEM.UNIT      DATA TYPE    INFORMATION
#----------   ------------   ------------------------------
 STRT.F            4.0000:   START DEPTH
 STOP.F          528.0000:   STOP DEPTH
 STEP.F            0.1000:   STEP LENGTH
 NULL.          -999.2500:   NO VALUE
 COMP. BROWN JOHN E&C INC:   COMPANY
 WELL.    84-1 SHX- #84-3:   WELL
 FLD .        TEAPOT DOME:   FIELD
 LOC .       S3 T38N R78W:   LOCATION
 CNTY.            NATRONA:   COUNTY
 STAT.            WYOMING:   STATE
 CTRY. UNITED STATES OF AMERICA:   COUNTRY
 SRVC.     Atlas Wireline:   SERVICE COMPANY
 DATE.        18-JAN-1992:   LOGDATE
 API .       490252249900:   API NUMBER
~CURVE INFORMATION
#MNEM.UNIT       API CODE    CURVE DESCRIPTION
#----------   ------------   ------------------------------
 DEPT.F                  :   
 GRR .GAPI   07 310 01 00:   GAMMA RAY
 RILD.OHMM   07 120 46 00:   INDUCTION LOG DEEP RESISTIVITY
 RILM.OHMM   07 120 44 00:   INDUCTION LOG MEDIUM RESISTIVITY
~PARAMETER INFORMATION
#MNEM.UNIT          VALUE    DESCRIPTION
#----------   ------------   ------------------------------
 PD  .                 GL:   PERMANENT DATUM
 EPD .F              5147:   ELEVATION PERMANENT DATUM
 LMF .                 KB:   LOG MEASURED FROM
 DAPD.F                10:   FEET ABOVE PERMANENT DATUM
 DMF .                 KB:   DRILLING MEASURED FROM
 EKB .F              5157:   KELLING BUSHING
 EDF .F              5156:   DRILLING FLOOR
 EGL .F              5147:   GROUND LEVEL
 DATE.        18-JAN-1992:   RUN DATE
 RUN .                  1:   RUN NUMBER
 DD  .F               842:   DEPTH DRILLER
 DL  .F               837:   DEPTH LOGGER
 BLI .F               835:   BOTTOM LOG INTERVAL
 TLI .F                 4:   TOP LOG INTERVAL
 CS  .IN            8.625:   CASING SIZE
 CBD .F                39:   CASING BOTTOM DRILLER
 CBL .F                56:   CASING BOTTOM LOGGER
 BS  .IN             8.75:   BIT SIZE
 BSD .F               842:   BIT SIZE AT DEPTH
 DFT .                AIR:   DRILLING FLUID TYPE
 LUN .           HL- 6272:   LOGGING UNIT NUMBER
 LUL .             CASPER:   LOGGING UNIT LOCATION
 ENGI.       P. RASMUSSEN:   RECORDING ENGINEER
 WITN.          G. STRONG:   WITNESSED BY
 CLNT.            A2DTECH:   CLIENT CODE
 ORIG.           5" PRINT:   ORIGIN OF DATA
 UWI .       490252249900:   UNIQUE WELL ID
 DICO. A2D Technologies, Inc.:   DIGITIZING COMPANY
~OTHER INFORMATION
~A    DEPT      GRR      RILD       RILM   
# ...
  331.6000   147.3681     6.8101     6.9004
  331.7000   147.3946     6.8100     6.9001
  331.8000   147.9729     6.8100     6.8998
  331.9000   148.3733     6.8099     6.8995
  332.0000   148.5784     6.8098     6.8992
  332.1000   148.6598     6.8097     6.8973
  332.2000   148.8793     6.7764     6.8506
  332.3000   148.8771     6.7622     6.8503
  332.4000   148.8755     6.7320     6.8282
  332.5000   148.8737     6.6623     6.7895
  332.6000   148.7786     6.6221     6.7475
  332.7000   148.4625     6.5873     6.6605
  332.8000   147.6503     6.5245     6.6282
  332.9000   145.8792     6.4679     6.5907
  333.0000   144.2371     6.4148     6.5395
  333.1000   142.7616     6.3064     6.4657
  333.2000   141.5103     6.2010     6.3859
  333.3000   141.2486     6.0967     6.3209
  333.4000   141.2469     5.9942     6.2498
  333.5000   141.0725     5.8934     6.1500
  333.6000   140.9388     5.7962     6.0250
  333.7000   140.9370     5.7199     5.9540
  333.8000   140.9351     5.6404     5.8586
  333.9000   140.9334     5.5439     5.7601
  334.0000   141.1142     5.5014     5.6783
  334.1000   141.3578     5.4317     5.5994
  334.2000   141.6664     5.2975     5.4739
  334.3000   142.1622     5.2180     5.3519
  334.4000   142.8967     5.1303     5.2774
  334.5000   143.6318     5.0440     5.2179
  334.6000   144.3668     4.9699     5.1591
  334.7000   145.2517     4.9407     5.1025
  334.8000   146.4937     4.9139     5.0682
  334.9000   148.2207     4.9062     5.0448
  335.0000   149.6385     4.9062     5.0162
  335.1000   151.3559     4.9061     4.9973
  335.2000   152.9032     4.9060     4.9942
  335.3000   154.1027     4.9060     4.9621
  335.4000   155.2132     4.9059     4.9619
  335.5000   155.8508     4.9059     4.9617
  335.6000   156.2772     4.9058     4.9615
  335.7000   156.5209     4.9083     4.9613
  335.8000   156.7647     4.9399     4.9611
  335.9000   157.0306     4.9398     4.9866
  336.0000   157.2520     4.9397     5.0146
  336.1000   157.3315     4.9506     5.0427
  336.2000   157.4352     4.9742     5.0710
  336.3000   157.6326     4.9741     5.1005
  336.4000   157.3259     4.9740     5.1281
  336.5000   156.8572     4.9739     5.1783
  336.6000   154.7934     4.9739     5.2514
  336.7000   152.6693     4.9801     5.3407
  336.8000   151.3077     5.0085     5.4310
  336.9000   150.3154     5.0084     5.4925
  337.0000   149.0960     5.0299     5.5792
  337.1000   148.2354     5.0434     5.6568
  337.2000   147.6227     5.0599     5.7208
  337.3000   147.1969     5.1156     5.7896
  337.4000   146.9577     5.1496     5.9447
  337.5000   147.7167     5.1977     6.0283
  337.6000   148.4518     5.2567     6.1310
  337.7000   149.1868     5.3272     6.2354
  337.8000   149.9215     5.4142     6.3414
  337.9000   150.6379     5.4825     6.4630
  338.0000   151.2082     5.5658     6.5270
  338.1000   151.4117     5.6821     6.6007
  338.2000   151.6554     5.7978     6.6602
  338.3000   151.8119     5.8903     6.7039
  338.4000   151.8101     5.9601     6.7853
  338.5000   151.8080     6.0573     6.8563
  338.6000   151.8064     6.1863     6.9339
  338.7000   151.8046     6.3099     7.0302
  338.8000   151.7053     6.4083     7.1326
  338.9000   151.2654     6.4816     7.1737
  339.0000   149.6680     6.5924     7.2528
  339.1000   148.7652     6.6455     7.3043
  339.2000   147.9475     6.7042     7.3661
  339.3000   147.1016     6.7679     7.4383
  339.4000   146.0203     6.8095     7.4800
  339.5000   144.4839     6.8981     7.5220
  339.6000   143.3051     6.9649     7.5643
  339.7000   142.2518     7.0193     7.6068
  339.8000   141.3854     7.0744     7.6361
  339.9000   140.5882     7.1484     7.6389
  340.0000   139.6043     7.1921     7.6889
  340.1000   139.3569     7.2671     7.7250
  340.2000   138.9227     7.3496     7.7684
  340.3000   138.6855     7.3950     7.7961
  340.4000   138.6837     7.4132     7.8011
  340.5000   138.7523     7.4986     7.8500
  340.6000   140.8106     7.5824     7.8497
  340.7000   141.7935     7.6036     7.8781
  340.8000   142.7433     7.6257     7.9041
  340.9000   143.3199     7.6812     7.9037
  341.0000   143.5635     7.7661     7.9034
  341.1000   143.8457     7.8180     7.9031
  341.2000   144.0511     7.8179     7.9339
  341.3000   144.2949     7.8178     7.9578
  341.4000   144.4493     7.8331     7.9574
  341.5000   144.4171     7.8722     7.9571
  341.6000   144.1410     7.8721     7.9568
  341.7000   143.9223     7.8720     7.9901
  341.8000   143.6749     7.8719     8.0119
  341.9000   143.4275     7.8902     8.0115
  342.0000   143.1396     7.9348     8.0127
  342.1000   142.6099     7.9820     8.0577
  342.2000   142.6082     7.9819     8.0666
  342.3000   142.6064     7.9818     8.0663
  342.4000   142.6046     7.9817     8.0660
  342.5000   142.6535     7.9816     8.0657
  342.6000   142.9053     7.9815     8.0653
  342.7000   143.1409     7.9813     8.0650
  342.8000   143.3847     7.9812     8.0647
  342.9000   143.5087     8.0058     8.0643
  343.0000   143.5677     8.0368     8.0640
  343.1000   143.8094     8.0367     8.0636
  343.2000   143.8076     8.0366     8.0633
  343.3000   143.8058     8.0365     8.0630
  343.4000   143.8040     8.0364     8.0627
  343.5000   143.8022     8.0363     8.0623
  343.6000   143.8003     8.0362     8.0619
  343.7000   143.7981     8.0360     8.0616
  343.8000   143.7967     8.0359     8.0613
  343.9000   143.6548     8.0358     8.0609
  344.0000   143.4886     8.0357     8.0606
  344.1000   143.4198     8.0356     8.0603
  344.2000   142.5714     8.0355     8.0599
  344.3000   141.7342     8.0353     8.0596
  344.4000   140.9000     8.0352     8.0592
  344.5000   140.1613     8.0583     8.0589
  344.6000   139.4554     8.0912     8.0586
  344.7000   138.9094     8.0911     8.0582
  344.8000   138.6885     8.0910     8.0579
  344.9000   138.4412     8.1280     8.0835
  345.0000   138.2953     8.1739     8.1137
  345.1000   138.3788     8.2042     8.1134
  345.2000   138.9003     8.2041     8.1130
  345.3000   139.5865     8.2039     8.1127
  345.4000   140.3216     8.2038     8.1123
  345.5000   140.8332     8.1741     8.1120
  345.6000   141.0768     8.1466     8.1117
  345.7000   141.3266     8.1465     8.1113
  345.8000   141.5644     8.1464     8.1110
  345.9000   141.6274     8.1463     8.1106
  346.0000   141.6256     8.1462     8.0907
  346.1000   141.6237     8.1461     8.0535
  346.2000   141.6219     8.1350     8.0532
  346.3000   141.6201     8.0890     8.0097
  346.4000   141.4275     8.0434     7.9642
  346.5000   141.0484     8.0329     7.9404
  346.6000   140.3367     8.0084     7.9401
  346.7000   139.1065     7.9769     7.9398
  346.8000   137.8771     7.9736     7.9395
  346.9000   136.6477     7.9213     7.9392
  347.0000   135.8438     7.9212     7.9388
  347.1000   135.4340     7.9211     7.9385
  347.2000   135.2109     7.9377     7.9382
  347.3000   135.2089     7.9763     7.9378
  347.4000   135.2073     7.9761     7.9375
  347.5000   136.5753     7.9760     7.9631
  347.6000   138.4101     7.9759     7.9925
  347.7000   139.5328     7.9956     7.9921
  347.8000   140.0704     8.0315     7.9917
  347.9000   140.5112     8.0313     8.0306
  348.0000   140.8382     8.0312     8.0471
  348.1000   140.9784     8.0311     8.0468
  348.2000   141.0213     8.0310     8.0465
  348.3000   141.2791     8.0309     8.0461
  348.4000   141.0459     8.0308     8.0874
  348.5000   140.7985     8.0306     8.1018
  348.6000   139.8693     8.0305     8.1015
  348.7000   138.0391     8.0305     8.1011
  348.8000   135.7905     8.0303     8.1008
  348.9000   134.5809     8.0302     8.1004
  349.0000   133.7169     8.0301     8.1001
  349.1000   132.8549     8.0300     8.0997
  349.2000   132.0655     8.0299     8.1109
  349.3000   131.8117     8.0298     8.1558
  349.4000   131.3190     8.0221     8.1555
  349.5000   131.0188     7.9738     8.1909
  349.6000   130.9053     7.9737     8.2369
  349.7000   130.9035     7.9422     8.2973
