~VERSION INFORMATION
 VERS.                2.0:   CWLS LOG ASCII STANDARD - VERSION 2.0
 WRAP.                 NO:   ONE LINE PER DEPTH STEP
~WELL INFORMATION
#MNEM.UNIT      DATA TYPE    INFORMATION
#----------   ------------   ------------------------------
 STRT.F           20.0000:   START DEPTH
 STOP.F          565.0000:   STOP DEPTH
 STEP.F            0.5000:   STEP LENGTH
 NULL.          -999.2500:   NO VALUE
 COMP. FENIX & SCISSON INC:   COMPANY
 WELL.     NPR-3 #12-SX-3:   WELL
 FLD .        TEAPOT DOME:   FIELD
 LOC .       S3 T38N R78W:   LOCATION
 CNTY.            NATRONA:   COUNTY
 STAT.            WYOMING:   STATE
 CTRY. UNITED STATES OF AMERICA:   COUNTRY
 SRVC.           BIRDWELL:   SERVICE COMPANY
 DATE.        29-JUL-1978:   LOGDATE
 API .       490251067000:   API NUMBER
~CURVE INFORMATION
#MNEM.UNIT       API CODE    CURVE DESCRIPTION
#----------   ------------   ------------------------------
 DEPT.F                  :   
 SPR .MV     05 010 01 00:   SPONTANEOUS POTENTIAL FROM RES.
 SN  .OHMM   05 040 16 00:   SHORT NORMAL 16"
 IL  .OHMM   05 120 00 00:   INDUCTION LOG
 GRD .GAPI   45 310 01 00:   GAMMA RAY FROM DENSITY LOG
 CALD.IN     45 280 60 00:   CALIPER
 CORR.G/C3   45 356 01 00:   DENSITY CORRECTION
 RHOB.G/C3   45 350 01 00:   BULK DENSITY
 DPHI.DEC    45 890 12 00:   DENSITY POROSITY SANDSTONE
~PARAMETER INFORMATION
#MNEM.UNIT          VALUE    DESCRIPTION
#----------   ------------   ------------------------------
 PD  .                 GL:   PERMANENT DATUM
 EPD .F              5191:   ELEVATION PERMANENT DATUM
 LMF .                 KB:   LOG MEASURED FROM
 DAPD.F                 4:   FEET ABOVE PERMANENT DATUM
 DMF .                 KB:   DRILLING MEASURED FROM
 EKB .F              5195:   KELLING BUSHING
 EGL .F              5191:   GROUND LEVEL
 DATE.            7-29-78:   RUN DATE
 RUN .                  1:   RUN NUMBER
 DD  .F               565:   DEPTH DRILLER
 DL  .F               571:   DEPTH LOGGER
 BLI .F               565:   BOTTOM LOG INTERVAL
 TLI .F                40:   TOP LOG INTERVAL
 CS  .IN            8.625:   CASING SIZE
 CBD .F                40:   CASING BOTTOM DRILLER
 CBL .F                40:   CASING BOTTOM LOGGER
 BS  .IN            7.875:   BIT SIZE
 BSD .F               565:   BIT SIZE AT DEPTH
 DFT .                KCL:   DRILLING FLUID TYPE
 DFD .                8.6:   DRILLING FLUID DENSITY
 DFV .                 31:   DRILLING FLUID VISCOSITY
 DFPH.                  9:   DRILLING FLUID PH
 RMS .OHMM            .32:   RESISTIVITY MUD SAMPLE
 MST .F                70:   MUD SAMPLE TEMPERATURE
 TCS .HRS               1:   TIME CURCULATED STOPPED
 LUN .               2958:   LOGGING UNIT NUMBER
 LUL .               CASP:   LOGGING UNIT LOCATION
 ENGI.              HONEA:   RECORDING ENGINEER
 WITN.              AMEND:   WITNESSED BY
 CLNT.            A2DTECH:   CLIENT CODE
 ORIG.           5" PRINT:   ORIGIN OF DATA
 UWI .       490251067000:   UNIQUE WELL ID
 DICO. A2D Technologies, Inc.:   DIGITIZING COMPANY
~OTHER INFORMATION
~A   DEPT      SPR         SN         IL         GRD      CALD       CORR       RHOB       DPHI   
   20.0000  -999.2500  -999.2500  -999.2500    57.8728  -999.2500  -999.2500  -999.2500  -999.2500
   20.5000  -999.2500  -999.2500  -999.2500    57.8728  -999.2500  -999.2500  -999.2500  -999.2500
   21.0000  -999.2500  -999.2500  -999.2500    57.8728  -999.2500  -999.2500  -999.2500  -999.2500
   21.5000  -999.2500  -999.2500  -999.2500    57.8728  -999.2500  -999.2500  -999.2500  -999.2500
   22.0000  -999.2500  -999.2500  -999.2500    57.8728  -999.2500  -999.2500  -999.2500  -999.2500
   22.5000  -999.2500  -999.2500  -999.2500    57.8728  -999.2500  -999.2500  -999.2500  -999.2500
   23.0000  -999.2500  -999.2500  -999.2500    57.8728  -999.2500  -999.2500  -999.2500  -999.2500
   23.5000  -999.2500  -999.2500  -999.2500    57.8728  -999.2500  -999.2500  -999.2500  -999.2500
   24.0000  -999.2500  -999.2500  -999.2500    57.8728  -999.2500  -999.2500  -999.2500  -999.2500
   24.5000  -999.2500  -999.2500  -999.2500    57.8724  -999.2500  -999.2500  -999.2500  -999.2500
   25.0000  -999.2500  -999.2500  -999.2500    57.8759  -999.2500  -999.2500  -999.2500  -999.2500
   25.5000  -999.2500  -999.2500  -999.2500    57.8861  -999.2500  -999.2500  -999.2500  -999.2500
   26.0000  -999.2500  -999.2500  -999.2500    57.6827  -999.2500  -999.2500  -999.2500  -999.2500
   26.5000  -999.2500  -999.2500  -999.2500    57.7393  -999.2500  -999.2500  -999.2500  -999.2500
   27.0000  -999.2500  -999.2500  -999.2500    57.7996  -999.2500  -999.2500  -999.2500  -999.2500
   27.5000  -999.2500  -999.2500  -999.2500    57.8702  -999.2500  -999.2500  -999.2500  -999.2500
   28.0000  -999.2500  -999.2500  -999.2500    57.4659  -999.2500  -999.2500  -999.2500  -999.2500
   28.5000  -999.2500  -999.2500  -999.2500    56.8681  -999.2500  -999.2500  -999.2500  -999.2500
   29.0000  -999.2500  -999.2500  -999.2500    56.1498  -999.2500  -999.2500  -999.2500  -999.2500
   29.5000  -999.2500  -999.2500  -999.2500    53.8800  -999.2500  -999.2500  -999.2500  -999.2500
   30.0000  -999.2500  -999.2500  -999.2500    54.0561  -999.2500  -999.2500  -999.2500  -999.2500
   30.5000  -999.2500  -999.2500  -999.2500    54.2239  -999.2500  -999.2500  -999.2500  -999.2500
   31.0000  -999.2500  -999.2500  -999.2500    53.9636  -999.2500  -999.2500  -999.2500  -999.2500
   31.5000  -999.2500  -999.2500  -999.2500    53.7120  -999.2500  -999.2500  -999.2500  -999.2500
   32.0000  -999.2500  -999.2500  -999.2500    53.5014  -999.2500  -999.2500  -999.2500  -999.2500
   32.5000  -999.2500  -999.2500  -999.2500    54.0980  -999.2500  -999.2500  -999.2500  -999.2500
   33.0000  -999.2500  -999.2500  -999.2500    55.9091  -999.2500  -999.2500  -999.2500  -999.2500
   33.5000  -999.2500  -999.2500  -999.2500    56.4765  -999.2500  -999.2500  -999.2500  -999.2500
   34.0000  -999.2500  -999.2500  -999.2500    55.3427  -999.2500  -999.2500  -999.2500  -999.2500
   34.5000  -999.2500  -999.2500  -999.2500    56.5396  -999.2500  -999.2500  -999.2500  -999.2500
   35.0000  -999.2500  -999.2500  -999.2500    58.1668  -999.2500  -999.2500  -999.2500  -999.2500
   35.5000  -999.2500  -999.2500  -999.2500    59.1970  -999.2500  -999.2500  -999.2500  -999.2500
   36.0000  -999.2500  -999.2500  -999.2500    57.5477  -999.2500  -999.2500  -999.2500  -999.2500
   36.5000  -999.2500  -999.2500  -999.2500    57.7193  -999.2500  -999.2500  -999.2500  -999.2500
   37.0000  -999.2500  -999.2500  -999.2500    58.7806  -999.2500  -999.2500  -999.2500  -999.2500
   37.5000  -999.2500  -999.2500  -999.2500    59.8403  -999.2500  -999.2500  -999.2500  -999.2500
   38.0000  -999.2500  -999.2500  -999.2500    60.9180  -999.2500  -999.2500  -999.2500  -999.2500
   38.5000  -999.2500  -999.2500  -999.2500    61.4793  -999.2500  -999.2500  -999.2500  -999.2500
   39.0000  -999.2500  -999.2500  -999.2500    60.9925  -999.2500  -999.2500  -999.2500  -999.2500
   39.5000  -999.2500  -999.2500  -999.2500    60.6061  -999.2500  -999.2500  -999.2500  -999.2500
   40.0000  -999.2500  -999.2500  -999.2500    60.2583     8.1214     0.0179     2.0965     0.2986
   40.5000   -22.1252  -999.2500  -999.2500    65.2543     9.0109     0.0181     2.4498     0.2389
   41.0000   -31.2840  -999.2500  -999.2500    75.2163     7.5580     0.0201     2.4483     0.1519
   41.5000   -33.8962  -999.2500  -999.2500    80.2948     7.6024     0.0233     2.4410     0.1419
   42.0000   -35.9965     4.7756  -999.2500    81.9374     7.6441     0.0215     2.4427     0.1429
   42.5000   -38.5989     5.1109     4.9703    83.6431     7.7048     0.0184     2.4484     0.1441
   43.0000   -41.2071     5.4015     5.0937    85.3424     7.7156     0.0199     2.4410     0.1436
   43.5000   -43.8370     5.6504     5.4912    86.0058     7.7158     0.0218     2.4331     0.1417
   44.0000   -45.2393     5.9256     5.9937    82.0604     7.7167     0.0201     2.4439     0.1398
   44.5000   -46.1425     8.7821     6.5787    80.4152     7.7176     0.0184     2.4535     0.1418
   45.0000   -46.2782     8.9847     6.9668    81.8175     7.7186     0.0180     2.4449     0.1447
   45.5000   -46.3849     9.2430     6.7260    82.6733     7.7196     0.0207     2.4343     0.1425
   46.0000   -46.4993     9.5087     6.5922    80.8213     7.7206     0.0233     2.4340     0.1401
   46.5000   -46.6157     9.7821     6.6389    80.5071     7.7216     0.0257     2.4462     0.1376
   47.0000   -46.7319     9.8862     6.6854    83.3879     7.7226     0.0229     2.4457     0.1372
   47.5000   -46.8482     9.8862     6.7323    84.2868     7.7236     0.0198     2.4495     0.1369
   48.0000   -46.9644     9.8862     6.7769    83.1700     7.7246     0.0179     2.4573     0.1373
   48.5000   -47.0808     9.9124     6.8537    82.0862     7.7256     0.0186     2.4500     0.1370
   49.0000   -47.1971     9.9431     6.9274    81.2009     7.7266     0.0201     2.4466     0.1347
   49.5000   -47.3126     9.9740     7.0018    81.1750     7.7276     0.0216     2.4508     0.1324
   50.0000   -47.3947    10.0047     7.0771    82.1170     7.7286     0.0200     2.4558     0.1304
   50.5000   -47.4081    10.0354     7.1531    82.7001     7.7295     0.0163     2.4639     0.1307
   51.0000   -47.1812    10.0680     7.2299    80.4829     7.7305     0.0125     2.4709     0.1341
   51.5000   -47.1961    10.2428     7.3077    78.3401     7.7315     0.0084     2.4664     0.1376
   52.0000   -47.1946    10.3989     7.3626    78.1466     7.7325     0.0081     2.4581     0.1410
   52.5000   -47.1944    10.5465     7.4494    77.9734     7.7335     0.0086     2.4499     0.1416
   53.0000   -47.1944    10.5446     7.5752    78.8045     7.7345     0.0091     2.4426     0.1394
   53.5000   -47.1944    10.5446     7.6389    79.7354     7.7355     0.0096     2.4436     0.1380
   54.0000   -47.1944    10.5310     7.5882    79.9201     7.7365     0.0099     2.4491     0.1407
   54.5000   -47.1944    10.5116     7.5495    78.5113     7.7375     0.0083     2.4469     0.1413
   55.0000   -47.1944    10.4923     7.5110    77.0971     7.7385     0.0067     2.4401     0.1395
   55.5000   -47.1944    10.4726     7.4727    75.7947     7.7395     0.0050     2.4443     0.1388
   56.0000   -47.1944    10.4537     7.4345    75.5443     7.7405     0.0033     2.4523     0.1437
   56.5000   -47.1944    10.4479     7.3966    75.7342     7.7415     0.0024     2.4449     0.1447
   57.0000   -47.1944    10.2383     7.3588    76.2395     7.7425     0.0070     2.4369     0.1423
   57.5000   -47.1944     9.8680     7.3213    78.8294     7.7435     0.0090     2.4399     0.1400
   58.0000   -47.1944     9.5111     7.2951    81.3759     7.7445     0.0121     2.4437     0.1390
   58.5000   -47.1944     9.2263     7.3368    83.9421     7.7454     0.0219     2.4475     0.1297
   59.0000   -47.1944     9.1840     7.3690    84.1100     7.7464     0.0144     2.4608     0.1193
   59.5000   -47.1944     9.1488     7.4014    79.4344     7.7474     0.0052     2.4818     0.1181
   60.0000   -47.1944     9.1169     7.4340    71.6299     7.7484     0.0086     2.4977     0.1281
