~VERSION INFORMATION
 VERS.                2.0:   CWLS LOG ASCII STANDARD - VERSION 2.0
 WRAP.                 NO:   ONE LINE PER DEPTH STEP
~WELL INFORMATION
#MNEM.UNIT      DATA TYPE    INFORMATION
#----------   ------------   ------------------------------
 STRT.F            2.0000:   START DEPTH
 STOP.F          602.0000:   STOP DEPTH
 STEP.F            0.1000:   STEP LENGTH
 NULL.          -999.2500:   NO VALUE
 COMP.       F D SERV INC:   COMPANY
 WELL.    63-1 SX-3 #63-3:   WELL
 FLD .             TEAPOT:   FIELD
 LOC .       S3 T38N R78W:   LOCATION
 CNTY.            NATRONA:   COUNTY
 STAT.            WYOMING:   STATE
 CTRY. UNITED STATES OF AMERICA:   COUNTRY
 SRVC.     Atlas Wireline:   SERVICE COMPANY
 DATE.        20-APR-1992:   LOGDATE
 API .       490252251300:   API NUMBER
~CURVE INFORMATION
#MNEM.UNIT       API CODE    CURVE DESCRIPTION
#----------   ------------   ------------------------------
 DEPT.F                  :   
 GRR .GAPI   07 310 01 00:   GAMMA RAY
 RILD.OHMM   07 120 46 00:   INDUCTION LOG DEEP RESISTIVITY
 RILM.OHMM   07 120 44 00:   INDUCTION LOG MEDIUM RESISTIVITY
~PARAMETER INFORMATION
#MNEM.UNIT          VALUE    DESCRIPTION
#----------   ------------   ------------------------------
 PD  .                 GL:   PERMANENT DATUM
 EPD .F              5176:   ELEVATION PERMANENT DATUM
 LMF .                 KB:   LOG MEASURED FROM
 DAPD.F                 5:   FEET ABOVE PERMANENT DATUM
 DMF .                 KB:   DRILLING MEASURED FROM
 EKB .F              5181:   KELLING BUSHING
 EDF .F              5180:   DRILLING FLOOR
 EGL .F              5176:   GROUND LEVEL
 DATE.        20-APR-1992:   RUN DATE
 RUN .                  1:   RUN NUMBER
 DD  .F               608:   DEPTH DRILLER
 DL  .F               608:   DEPTH LOGGER
 BLI .F               602:   BOTTOM LOG INTERVAL
 CS  .IN            8.625:   CASING SIZE
 CBD .F                48:   CASING BOTTOM DRILLER
 CBL .F                50:   CASING BOTTOM LOGGER
 BS  .IN            7.875:   BIT SIZE
 BSD .F               608:   BIT SIZE AT DEPTH
 DFT .                AIR:   DRILLING FLUID TYPE
 TCS .HRS               2:   TIME CURCULATED STOPPED
 MRT .F                85:   MAXIMUM RECORDED TEMPERATURE
 LUN .           HL- 6274:   LOGGING UNIT NUMBER
 LUL .             CASPER:   LOGGING UNIT LOCATION
 ENGI.             RAUTIO:   RECORDING ENGINEER
 WITN.        GARY STRONG:   WITNESSED BY
 CLNT.            A2DTECH:   CLIENT CODE
 ORIG.           5" PRINT:   ORIGIN OF DATA
 UWI .       490252251300:   UNIQUE WELL ID
 DICO. A2D Technologies, Inc.:   DIGITIZING COMPANY
~OTHER INFORMATION
~A    DEPT      GRR      RILD       RILM   
# ...
  111.2000   133.4539     9.7132     9.2434
  111.3000   134.3687     9.6737     9.2431
  111.4000   135.1117     9.6457     9.2857
  111.5000   135.9550     9.6308     9.3075
  111.6000   136.3845     9.5760     9.3072
  111.7000   136.8806     9.5122     9.3069
  111.8000   137.1668     9.5123     9.3066
  111.9000   137.1687     9.4792     9.3064
  112.0000   137.1705     9.4463     9.3061
  112.1000   137.1723     9.4464     9.3314
  112.2000   136.7968     9.4465     9.3708
  112.3000   136.4384     9.4467     9.3725
  112.4000   136.1134     9.4468     9.4360
  112.5000   135.6460     9.4745     9.4358
  112.6000   135.3716     9.5133     9.4356
  112.7000   134.9375     9.5135     9.4353
  112.8000   135.0982     9.5136     9.4350
  112.9000   135.8120     9.5137     9.4347
  113.0000   136.6939     9.5139     9.4345
  113.1000   137.1904     9.5140     9.4342
  113.2000   137.6862     9.5141     9.4339
  113.3000   137.7973     9.5143     9.4194
  113.4000   137.9370     9.5144     9.3654
  113.5000   138.1860     9.5145     9.3022
  113.6000   138.4060     9.5147     9.3020
  113.7000   138.4080     9.4984     9.3017
  113.8000   138.4096     9.4486     9.2814
  113.9000   138.2443     9.4488     9.2364
  114.0000   137.9989     9.4489     9.2361
  114.1000   137.8117     9.4144     9.1867
  114.2000   137.8136     9.3833     9.1713
  114.3000   137.8154     9.3727     9.1711
  114.4000   137.8172     9.3182     9.1708
  114.5000   137.6772     9.2661     9.1680
  114.6000   137.5191     9.2133     9.1064
  114.7000   137.4881     9.1608     9.1062
  114.8000   137.2213     9.1252     9.0745
  114.9000   136.7720     9.1151     9.0423
  115.0000   135.5957     8.9987     9.0420
  115.1000   134.4639     8.9988     9.0417
  115.2000   133.8481     8.9317     9.0415
  115.3000   133.6102     8.8741     9.0042
  115.4000   133.6124     8.8523     8.9525
  115.5000   133.4138     8.7511     8.9152
  115.6000   132.8772     8.7512     8.9094
  115.7000   132.2285     8.6741     8.7910
  115.8000   131.7362     8.5484     8.7908
  115.9000   131.2080     8.4347     8.7599
  116.0000   130.7511     8.3812     8.7097
  116.1000   130.9578     8.2757     8.6681
  116.2000   131.4539     8.2335     8.6678
  116.3000   132.1472     8.1866     8.5742
  116.4000   133.4080     8.1191     8.5116
  116.5000   135.4423     8.0478     8.4629
  116.6000   137.2796     8.0469     8.4008
  116.7000   139.0573     7.9554     8.3108
  116.8000   140.1622     7.9364     8.3105
  116.9000   140.5774     7.9364     8.2310
  117.0000   140.5793     7.9207     8.1658
  117.1000   140.3478     7.8756     8.1190
  117.2000   140.2811     7.8266     8.0644
  117.3000   140.1588     7.7457     7.9681
  117.4000   139.9135     7.7181     7.9246
  117.5000   139.6682     7.6976     7.8792
  117.6000   139.3837     7.6537     7.8340
  117.7000   138.9698     7.6100     7.7890
  117.8000   138.3238     7.5583     7.7444
  117.9000   137.6829     7.5235     7.6932
  118.0000   137.2787     7.5057     7.6559
  118.1000   137.2809     7.4902     7.6392
  118.2000   137.7564     7.4475     7.6390
  118.3000   138.6171     7.4018     7.6309
  118.4000   139.6076     7.4020     7.5854
  118.5000   141.6255     7.4021     7.5436
  118.6000   145.7739     7.4021     7.5322
  118.7000   146.3418     7.3911     7.5320
  118.8000   146.7666     7.3508     7.5318
  118.9000   147.1055     7.3509     7.5316
  119.0000   147.1493     7.3857     7.5313
  119.1000   146.9517     7.4026     7.5312
  119.2000   146.9539     7.4190     7.5309
  119.3000   146.4744     7.4617     7.5307
  119.4000   145.9818     7.5073     7.5305
  119.5000   143.9092     7.5074     7.5303
  119.6000   141.2227     7.5698     7.5719
  119.7000   140.2355     7.6133     7.5827
  119.8000   139.1218     7.6379     7.6053
  119.9000   138.6926     7.7208     7.6354
  120.0000   138.0394     7.7209     7.6352
  120.1000   137.4060     7.7956     7.6350
  120.2000   136.8616     7.8299     7.6724
  120.3000   136.1141     7.8657     7.7163
  120.4000   139.2948     7.9403     7.7418
  120.5000   140.4192     7.9405     7.7590
  120.6000   140.6444     7.9842     7.8503
  120.7000   140.6462     8.0302     7.8501
  120.8000   140.6480     8.0526     7.8838
  120.9000   140.6500     8.0664     7.9288
  121.0000   140.4324     8.1128     7.9740
  121.1000   140.3517     8.1664     8.0195
  121.2000   140.1331     8.1665     8.0715
  121.3000   139.5851     8.1963     8.0713
  121.4000   138.8427     8.2435     8.1310
  121.5000   137.6092     8.2819     8.1844
  121.6000   136.5688     8.2820     8.2032
  121.7000   135.5820     8.3749     8.2991
  121.8000   134.6801     8.3989     8.3456
  121.9000   133.9403     8.3990     8.3933
  122.0000   133.1284     8.4141     8.4673
  122.1000   132.6840     8.4625     8.5489
  122.2000   132.3600     8.5177     8.5977
  122.3000   132.1147     8.5178     8.6530
  122.4000   131.8098     8.5816     8.6528
  122.5000   131.3273     8.6380     8.6849
  122.6000   131.3291     8.6381     8.7345
  122.7000   130.9357     8.6382     8.7738
  122.8000   130.7294     8.6384     8.7736
  122.9000   130.5539     8.6385     8.7734
  123.0000   130.0956     8.6657     8.7731
  123.1000   129.8300     8.6994     8.8003
  123.2000   128.9245     8.6995     8.8341
  123.3000   127.4205     8.6996     8.8339
  123.4000   125.8100     8.6997     8.8336
  123.5000   124.5823     8.7331     8.8334
  123.6000   124.0896     8.7610     8.8331
  123.7000   123.5062     8.7611     8.8550
  123.8000   123.1046     8.7613     8.8946
  123.9000   122.7592     8.7614     8.8944
  124.0000   122.6988     8.7615     8.8942
  124.1000   122.9859     8.7336     8.8547
  124.2000   123.5151     8.7007     8.8317
  124.3000   123.5168     8.7008     8.8314
  124.4000   123.5186     8.7010     8.8312
  124.5000   123.5204     8.7011     8.8309
  124.6000   123.5222     8.6675     8.7861
  124.7000   123.5240     8.6407     8.7689
  124.8000   123.5261     8.6408     8.7687
  124.9000   123.5276     8.6409     8.7684
  125.0000   123.5294     8.6411     8.7682
  125.1000   122.8567     8.6412     8.7680
  125.2000   121.2960     8.6412     8.7677
  125.3000   120.5183     8.6414     8.7396
  125.4000   120.2856     8.6415     8.6895
  125.5000   120.0402     8.6416     8.6453
  125.6000   119.4183     8.6417     8.6451
  125.7000   118.4317     8.6419     8.6449
  125.8000   117.4776     8.6420     8.6446
  125.9000   116.9095     8.6421     8.6444
  126.0000   116.4927     8.6422     8.6441
  126.1000   116.3095     8.6424     8.6439
  126.2000   116.5116     8.6425     8.6437
  126.3000   117.0078     8.6426     8.6047
  126.4000   117.5216     8.6427     8.5554
  126.5000   118.0001     8.6428     8.5229
  126.6000   118.4962     8.6430     8.5227
  126.7000   119.2509     8.6431     8.5224
  126.8000   120.4661     8.6432     8.5223
  126.9000   122.1569     8.6433     8.4891
  127.0000   123.5659     8.6170     8.4404
  127.1000   124.2063     8.5235     8.4032
  127.2000   124.6327     8.5237     8.4030
  127.3000   124.7777     8.5238     8.4028
  127.4000   124.7795     8.5238     8.3646
  127.5000   124.7813     8.5051     8.3166
  127.6000   124.2988     8.4567     8.2854
  127.7000   124.1816     8.4058     8.2853
  127.8000   124.1834     8.4060     8.2850
  127.9000   124.1852     8.3712     8.2420
  128.0000   124.1871     8.3235     8.1947
  128.1000   124.1891     8.2895     8.1693
  128.2000   124.6244     8.2896     8.1691
  128.3000   124.7958     8.2898     8.1689
  128.4000   125.0132     8.2899     8.1686
  128.5000   125.5095     8.2900     8.1684
  128.6000   126.0079     8.2901     8.1682
  128.7000   126.9937     8.2902     8.1679
  128.8000   128.7498     8.2904     8.1740
  128.9000   130.1811     8.2905     8.2248
  129.0000   131.0066     8.2906     8.2677
  129.1000   131.4747     8.2907     8.2820
  129.2000   131.7504     8.3051     8.2818
  129.3000   131.9727     8.3529     8.2815
