~VERSION INFORMATION
 VERS.                2.0:   CWLS LOG ASCII STANDARD - VERSION 2.0
 WRAP.                 NO:   ONE LINE PER DEPTH STEP
~WELL INFORMATION
#MNEM.UNIT      DATA TYPE    INFORMATION
#----------   ------------   ------------------------------
 STRT.F           33.0000:   START DEPTH
 STOP.F          694.0000:   STOP DEPTH
 STEP.F            0.5000:   STEP LENGTH
 NULL.          -999.2500:   NO VALUE
 COMP. FENIX & SCISSON INC:   COMPANY
 WELL.  NPR 3 #64 S 34-34:   WELL
 FLD .             TEAPOT:   FIELD
 LOC .      S34 T39N R78W:   LOCATION
 CNTY.            NATRONA:   COUNTY
 STAT.            WYOMING:   STATE
 CTRY. UNITED STATES OF AMERICA:   COUNTRY
 SRVC.              Welex:   SERVICE COMPANY
 DATE.        28-APR-1977:   LOGDATE
 API .       490251034600:   API NUMBER
~CURVE INFORMATION
#MNEM.UNIT       API CODE    CURVE DESCRIPTION
#----------   ------------   ------------------------------
 DEPT.F                  :   
 CALD.IN     45 280 60 00:   CALIPER FROM DENSITY LOG
 GRD .GAPI   45 310 01 00:   GAMMA RAY FROM DENSITY LOG
 CORR.G/C3   45 356 01 00:   DENSITY CORRECTION
 DPHI.DEC    45 890 12 00:   DENSITY POROSITY SANDSTONE
 RHOB.G/C3   45 350 01 00:   BULK DENSITY
 SPR .MV     07 010 01 00:   SPONTANEOUS POTENTIAL
 ILD .OHMM   07 120 46 00:   INDUCTION LOG DEEP
 ILM .OHMM   07 120 44 00:   INDUCTION LOG MEDIUM
 SGRD.OHMM   07 221 05 00:   SHALLOW SHORT GUARD RESISTIVITY
~PARAMETER INFORMATION
#MNEM.UNIT          VALUE    DESCRIPTION
#----------   ------------   ------------------------------
 PD  .                 GL:   PERMANENT DATUM
 EPD .F              5079:   ELEVATION PERMANENT DATUM
 LMF .                 GL:   LOG MEASURED FROM
 DMF .                 GL:   DRILLING MEASURED FROM
 EGL .F              5079:   GROUND LEVEL
 DATE.        28-APR-1977:   RUN DATE
 RUN .                  1:   RUN NUMBER
 DD  .F               735:   DEPTH DRILLER
 DL  .F               697:   DEPTH LOGGER
 BLI .F               695:   BOTTOM LOG INTERVAL
 TLI .F                32:   TOP LOG INTERVAL
 CS  .IN            8.625:   CASING SIZE
 BS  .IN               12:   BIT SIZE
 BSD .F               735:   BIT SIZE AT DEPTH
 DFT .            KCL MUD:   DRILLING FLUID TYPE
 DFD .                9.0:   DRILLING FLUID DENSITY
 BHT .F                74:   BOTTOM HOLE TEMPERATURE
 TCS .HRS            0100:   TIME CURCULATED STOPPED
 MRT .F                74:   MAXIMUM RECORDED TEMPERATURE
 ENGI.            C. DOAK:   RECORDING ENGINEER
 WITN.           ROB LYON:   WITNESSED BY
 CLNT.            A2DTECH:   CLIENT CODE
 ORIG.           5" PRINT:   ORIGIN OF DATA
 UWI .       490251034600:   UNIQUE WELL ID
 DICO. A2D Technologies, Inc.:   DIGITIZING COMPANY
~OTHER INFORMATION
~A   DEPT     CALD        GRD       CORR       DPHI       RHOB        SPR        ILD        ILM       SGRD   
# ...
  544.0000     7.9625    65.1626     0.0371     0.1621     2.3959   -39.0188    15.3630    16.1451    15.2755
  544.5000     7.9614    66.7524     0.0327     0.1591     2.3893   -39.0008    15.0589    15.0020    14.1057
  545.0000     7.9604    70.8457     0.0298     0.1800     2.3654   -38.9828    14.8610    16.2022    18.1256
  545.5000     7.9594    69.3843     0.0239     0.1892     2.3513   -38.9648    14.6635    16.3225    20.1126
  546.0000     7.9584    67.3296     0.0180     0.1918     2.3386   -39.0064    14.3732    15.5617    20.0835
  546.5000     7.9748    66.9065     0.0135     0.2076     2.3252   -39.0542    14.6841    14.6299    14.3487
  547.0000     7.9856    68.5615     0.0212     0.2052     2.3262   -39.1021    15.0017    15.1552    15.4917
  547.5000     7.9844    72.5899     0.0303     0.1995     2.3375   -39.1499    14.8023    15.8127    16.2685
  548.0000     7.9834    76.9150     0.0349     0.1815     2.3643   -39.1977    14.6078    16.1538    18.6948
  548.5000     7.9824    79.6081     0.0350     0.1788     2.3721   -39.2455    14.6192    16.0511    20.4658
  549.0000     7.9813    80.9659     0.0321     0.1826     2.3705   -39.2933    14.7542    16.0599    19.5047
  549.5000     7.9803    81.7301     0.0262     0.1900     2.3534   -39.3411    15.0592    16.4063    15.3913
  550.0000     7.9793    82.0437     0.0268     0.1930     2.3506   -39.3889    15.2680    16.6445    19.7932
  550.5000     7.9783    78.5076     0.0264     0.1858     2.3626   -39.4367    15.2774    17.0063    20.6420
  551.0000     7.9773    77.4824     0.0206     0.1887     2.3575   -39.4845    15.1814    17.4969    20.0101
  551.5000     7.9762    80.0271     0.0147     0.1923     2.3516   -39.5054    14.5725    18.0017    14.4802
  552.0000     7.9752    81.6726     0.0133     0.1910     2.3494   -39.5009    14.4787    18.6376    12.1000
  552.5000     7.9742    77.5669     0.0119     0.1805     2.3847   -39.4964    14.3877    18.9235    14.8267
  553.0000     7.9732    78.5023     0.0151     0.1647     2.3915   -39.4918    14.3988    19.0499    19.1683
  553.5000     7.9722    81.3689     0.0183     0.1568     2.4096   -39.4873    14.4077    18.3909    21.8750
  554.0000     7.9711    83.1336     0.0199     0.1553     2.4109   -39.4828    14.3149    18.1449    22.4969
  554.5000     7.9701    80.9375     0.0170     0.1601     2.4058   -39.4783    14.3260    16.0482    17.9070
  555.0000     7.9691    78.3580     0.0156     0.1561     2.4108   -39.4738    14.0401    14.8785    16.2579
  555.5000     7.9681    80.3617     0.0128     0.1645     2.4017   -39.4693    13.6650    14.5784    15.4944
  556.0000     7.9670    85.3885     0.0099     0.1701     2.3935   -39.4647    13.3902    14.8949    15.9365
  556.5000     7.9660    89.6974     0.0101     0.1623     2.4033   -39.4602    13.1251    15.4286    17.2060
  557.0000     7.9650    88.6767     0.0087     0.1571     2.4064   -39.4557    12.9505    15.5444    17.5729
  557.5000     7.9640    90.6234     0.0088     0.1582     2.4110   -39.4512    12.6921    15.3389    15.0941
  558.0000     7.9634    89.8995     0.0106     0.1621     2.4006   -39.4467    12.6139    14.2209    15.5253
  558.5000     7.9634    86.5050     0.0137     0.1643     2.4007   -39.4422    12.6221    13.4613    13.2446
  559.0000     7.9633    83.8523     0.0167     0.1639     2.4007   -39.4377    12.7177    14.5356    16.3121
  559.5000     7.9632    81.6447     0.0199     0.1678     2.3933   -39.4331    12.7255    15.2666    17.1300
  560.0000     7.9631    79.8822     0.0230     0.1704     2.3859   -39.4286    12.7334    15.5959    16.5534
  560.5000     7.9631    78.8615     0.0262     0.1737     2.3830   -39.4241    12.8298    15.8223    16.2178
  561.0000     7.9630    78.2860     0.0293     0.1680     2.3891   -39.4196    13.0168    15.5031    16.9151
  561.5000     7.9629    78.1511     0.0324     0.1640     2.3982   -39.4151    13.1176    15.8398    17.6405
  562.0000     7.9629    78.4702     0.0341     0.1676     2.3945   -39.4106    13.3116    16.4073    18.3971
  562.5000     7.9628    80.4169     0.0312     0.1714     2.3856   -39.4087    13.5006    16.5305    17.6550
  563.0000     7.9627    83.2538     0.0283     0.1744     2.3804   -39.4159    13.6974    16.1993    16.4797
  563.5000     7.9626    83.2718     0.0255     0.1771     2.3753   -39.4230    13.7196    14.3054    15.8150
  564.0000     7.9626    84.6250     0.0226     0.1794     2.3716   -39.4302    13.8098    15.1313    16.3794
  564.5000     7.9625    85.3803     0.0197     0.1776     2.3852   -39.4374    13.9162    15.5652    17.2211
  565.0000     7.9624    84.0674     0.0183     0.1698     2.3882   -39.4445    13.9248    15.9010    16.5069
  565.5000     7.9623    83.0467     0.0185     0.1700     2.3883   -39.4517    13.9334    16.0204    16.8606
  566.0000     7.9623    82.7634     0.0201     0.1667     2.3907   -39.4589    13.3746    16.0292    17.9531
  566.5000     7.9622    85.7532     0.0203     0.1655     2.3810   -39.4660    13.1988    14.6563    16.6422
  567.0000     7.9621    87.1064     0.0204     0.1792     2.3706   -39.4732    13.2070    14.9725    17.2393
  567.5000     7.9621    88.0146     0.0205     0.1819     2.3699   -39.4804    13.1219    15.5089    16.0740
  568.0000     7.9620    89.0666     0.0191     0.1767     2.3745   -39.4876    13.1321    15.5175    16.1074
  568.5000     7.9619    85.5282     0.0178     0.1740     2.3806   -39.4947    13.0475    15.2066    16.7858
  569.0000     7.9618    84.0624     0.0134     0.1752     2.3837   -39.5019    13.0576    14.9019    16.7928
  569.5000     7.9618    82.7450     0.0120     0.1799     2.3740   -39.5091    12.9755    14.6031    16.8011
  570.0000     7.9617    81.7244     0.0077     0.1823     2.3666   -39.5162    12.8919    15.2317    16.4622
  570.5000     7.9616    86.0449     0.0048     0.1739     2.3809   -39.5234    12.7244    15.4528    16.2406
  571.0000     7.9615    84.5792     0.0095     0.1693     2.3907   -39.5306    12.6425    15.2485    16.3620
  571.5000     7.9615    83.4995     0.0186     0.1636     2.3998   -39.5377    12.4763    15.0466    16.3687
  572.0000     7.9614    84.5341     0.0205     0.1623     2.4036   -39.5449    12.3979    14.6436    15.9277
  572.5000     7.9613    86.0040     0.0219     0.1658     2.3947   -39.5521    12.4075    14.4451    15.3900
  573.0000     7.9612    87.0366     0.0190     0.1684     2.3881   -39.5592    12.4151    14.1605    15.6129
  573.5000     7.9612    87.3350     0.0146     0.1733     2.3784   -39.5664    12.2519    14.0704    15.7279
  574.0000     7.9611    83.9169     0.0118     0.1791     2.3699   -39.5736    12.1749    13.8844    15.6257
  574.5000     7.9610    82.7676     0.0089     0.1789     2.3734   -39.5807    12.1825    14.4966    15.2048
  575.0000     7.9610    83.2344     0.0090     0.1712     2.3879   -39.5879    12.1056    14.5910    15.9671
  575.5000     7.9609    84.7360     0.0137     0.1681     2.3922   -39.5951    12.1134    14.4979    15.3231
  576.0000     7.9608    86.0893     0.0183     0.1699     2.3915   -39.6022    12.1209    14.1112    15.0140
  576.5000     7.9607    85.5137     0.0230     0.1722     2.3920   -39.6094    12.1284    14.0196    15.3357
  577.0000     7.9607    83.8996     0.0261     0.1605     2.4054   -39.6166    12.1359    13.5514    15.6644
  577.5000     7.9606    82.8789     0.0262     0.1596     2.4041   -39.6237    12.1434    13.3704    16.2234
  578.0000     7.9605    84.9740     0.0204     0.1691     2.3894   -39.6309    12.1509    14.4395    17.1553
  578.5000     7.9604    84.6944     0.0145     0.1793     2.3784   -39.6381    12.1585    14.7489    16.4633
  579.0000     7.9604    86.6419     0.0071     0.1840     2.3710   -39.6453    12.1659    14.1580    16.0167
  579.5000     7.9603    88.1435     0.0012     0.1888     2.3614   -39.6524    12.0810    13.8724    17.1829
  580.0000     7.9602    87.7163     0.0029     0.1926     2.3495   -39.6596    12.0122    13.7842    17.3030
