~VERSION INFORMATION
 VERS.                2.0:   CWLS LOG ASCII STANDARD - VERSION 2.0
 WRAP.                 NO:   ONE LINE PER DEPTH STEP
~WELL INFORMATION
#MNEM.UNIT      DATA TYPE    INFORMATION
#----------   ------------   ------------------------------
 STRT.F            0.0000:   START DEPTH
 STOP.F         4113.0000:   STOP DEPTH
 STEP.F            0.5000:   STEP LENGTH
 NULL.          -999.2500:   NO VALUE
 COMP. LAWRENCE/ALLISON INC:   COMPANY
 WELL.  NPR # #3 76 -MX-3:   WELL
 FLD .             TEAPOT:   FIELD
 LOC .       S3 T38N R78W:   LOCATION
 CNTY.            NATRONA:   COUNTY
 STAT.            WYOMING:   STATE
 CTRY. UNITED STATES OF AMERICA:   COUNTRY
 SRVC.      Dresser Atlas:   SERVICE COMPANY
 DATE.        04-SEP-1983:   LOGDATE
 API .       490251094300:   API NUMBER
~CURVE INFORMATION
#MNEM.UNIT       API CODE    CURVE DESCRIPTION
#----------   ------------   ------------------------------
 DEPT.F                  :   
 GRR .GAPI   07 310 01 00:   GAMMA RAY
 SPR .MV     07 010 01 00:   SPONTANEOUS POTENTIAL
 RILD.OHMM   07 120 46 00:   INDUCTION LOG DEEP RESISTIVITY
 RILM.OHMM   07 120 44 00:   INDUCTION LOG MEDIUM RESISTIVITY
 RFOC.OHMM   07 220 04 00:   RESISTIVITY FOCUSED LOG
 CNCF.DEC    42 890 03 00:   NEUTRON POROSITY SANDSTONE
 PORD.DEC    45 890 12 00:   POROSITY DENSITY SANDSTONE
 CALD.IN     45 280 60 00:   CALIPER FROM DENSITY LOG
 CORR.G/C3   45 356 01 00:   DENSITY CORRECTION
 DEN .G/C3   45 350 01 00:   COMPENSATED BULK DENSTIY
 AC  .US/F   60 520 00 00:   ACCOUSTIC
~PARAMETER INFORMATION
#MNEM.UNIT          VALUE    DESCRIPTION
#----------   ------------   ------------------------------
 PD  .                 GL:   PERMANENT DATUM
 EPD .F              5147:   ELEVATION PERMANENT DATUM
 LMF .                 KB:   LOG MEASURED FROM
 DAPD.F                10:   FEET ABOVE PERMANENT DATUM
 DMF .                 KB:   DRILLING MEASURED FROM
 EKB .F              5157:   KELLING BUSHING
 EGL .F              5147:   GROUND LEVEL
 DATE.        04-SEP-1983:   RUN DATE
 RUN .                  1:   RUN NUMBER
 DD  .F              4119:   DEPTH DRILLER
 DL  .F              4115:   DEPTH LOGGER
 BLI .F              4112:   BOTTOM LOG INTERVAL
 CS  .IN            9.625:   CASING SIZE
 CBD .F               491:   CASING BOTTOM DRILLER
 CBL .F               494:   CASING BOTTOM LOGGER
 BS  .IN             8.75:   BIT SIZE
 BSD .F              4119:   BIT SIZE AT DEPTH
 DFT .            KCL GEL:   DRILLING FLUID TYPE
 DFD .                8.9:   DRILLING FLUID DENSITY
 DFV .                 46:   DRILLING FLUID VISCOSITY
 DFPH.                9.0:   DRILLING FLUID PH
 DFL .               13.6:   DRILLING FLUID LOSS
 MSS .           MUD TANK:   MUD SAMPLE SOURCE
 RMS .OHMM           .315:   RESISTIVITY MUD SAMPLE
 MST .F                92:   MUD SAMPLE TEMPERATURE
 RMF .OHMM            .25:   RESISTIVITY MUD FILTRATE SAMPLE
 MFST.F                84:   MUD FILTRATE SAMPLE TEMPERATURE
 RMC .OHMM             .4:   RESISTIVITY MUD CAKE
 MCST.F                92:   MUD CAKE SAMPLE TEMPERATURE
 MFSS.               MEAS:   MUD FILTRATE SAMPLE SOURCE
 MCSS.               CALC:   MUD CAKE SAMPLE SOURCE
 RMB .OHMM            .22:   RESISTIVITY MUD AT BHT
 BHT .F               132:   BOTTOM HOLE TEMPERATURE
 TCS .HRS               4:   TIME CURCULATED STOPPED
 MRT .F               132:   MAXIMUM RECORDED TEMPERATURE
 LUN .               6274:   LOGGING UNIT NUMBER
 LUL .              GLTE.:   LOGGING UNIT LOCATION
 ENGI.             RAUTIO:   RECORDING ENGINEER
 WITN.             STRONG:   WITNESSED BY
 CLNT.            A2DTECH:   CLIENT CODE
 ORIG.        2" 5" PRINT:   ORIGIN OF DATA
 UWI .       490251094300:   UNIQUE WELL ID
 DICO. A2D Technologies, Inc.:   DIGITIZING COMPANY
~OTHER INFORMATION
~A    DEPT     GRR        SPR       RILD       RILM       RFOC       CNCF       PORD       CALD       CORR        DEN         AC   
# ...
 1921.5000   122.1464   -52.0615     7.7911     7.7489     8.0245     0.3140     0.1097     9.0936    -0.0026     2.4711  -999.2500
 1922.0000   126.4931   -52.0695     7.8419     7.7982     8.1923     0.3270     0.1067     9.0791     0.0086     2.4756  -999.2500
 1922.5000   132.4047   -52.0775     7.8912     7.8478     8.1870     0.3297     0.1049     9.0797     0.0279     2.4794  -999.2500
 1923.0000   134.2563   -52.0854     7.8818     7.9552     8.1805     0.3210     0.1034     9.0804     0.0416     2.4832  -999.2500
 1923.5000   132.6475   -52.0934     7.9332     8.0639     8.1740     0.3144     0.1016     9.0810     0.0447     2.4848  -999.2500
 1924.0000   129.6028   -51.9426     7.9254     8.1156     8.1675     0.3049     0.0986     9.0966     0.0328     2.4848  -999.2500
 1924.5000   126.2500   -51.9526     7.9180     8.1669     8.2203     0.2949     0.0995     9.0822     0.0420     2.4841  -999.2500
 1925.0000   123.7872   -51.9606     7.9106     8.1597     8.3335     0.2865     0.0995     9.0827     0.0573     2.4835  -999.2500
 1925.5000   125.6300   -51.9685     7.9031     8.1525     8.5109     0.2913     0.0999     9.0833     0.0604     2.4797  -999.2500
 1926.0000   127.7858   -51.9749     7.8955     8.0866     8.6279     0.2922     0.0999     9.0839     0.0395     2.4738  -999.2500
 1926.5000   129.0026   -51.9828     7.8880     8.0213     8.6836     0.2952     0.1044     9.0846     0.0170     2.4723  -999.2500
 1927.0000   129.6022   -51.9906     7.8238     7.9565     8.6748     0.2913     0.1071     9.0852     0.0096     2.4739  -999.2500
 1927.5000   129.5583   -51.9984     7.7602     7.8922     8.6678     0.2958     0.1071     9.0858     0.0219     2.4792  -999.2500
 1928.0000   129.2102   -52.0064     7.6970     7.8284     8.5364     0.3051     0.1035     9.0863     0.0491     2.4845  -999.2500
 1928.5000   127.6101   -52.0144     7.6344     7.7666     8.3463     0.3084     0.0990     9.0869     0.0643     2.4868  -999.2500
 1929.0000   126.3230   -52.0223     7.6271     7.6484     8.2198     0.3111     0.0993     9.0875     0.0569     2.4809  -999.2500
 1929.5000   124.0970   -52.0303     7.6198     7.5868     8.0368     0.3146     0.1047     9.0882     0.0330     2.4704  -999.2500
 1930.0000   122.0657   -52.0383     7.6696     7.5802     7.9162     0.3165     0.1087     9.0888    -0.0105     2.4652  -999.2500
 1930.5000   121.5316   -51.8875     7.6604     7.6838     7.9099     0.3111     0.1108     9.0894    -0.0149     2.4660  -999.2500
 1931.0000   123.6993   -51.8975     7.7104     7.7330     7.9036     0.3006     0.1108     9.0900    -0.0117     2.4660  -999.2500
 1931.5000   123.6522   -51.7467     7.7012     7.7823     7.9547     0.2965     0.1108     9.0905     0.0050     2.4661  -999.2500
 1932.0000   123.9301   -51.7567     7.7515     7.8332     7.9482     0.2925     0.1108     9.0911     0.0353     2.4669  -999.2500
 1932.5000   123.8950   -51.6059     7.7439     7.8831     7.9995     0.2979     0.1107     9.0918     0.0429     2.4685  -999.2500
 1933.0000   123.8598   -51.7726     7.7367     7.9333     7.9930     0.3042     0.1072     9.0774     0.0295     2.4730  -999.2500
 1933.5000   123.8247   -51.7790     7.7854     7.9838     7.9866     0.3135     0.1045     9.0780     0.0313     2.4783  -999.2500
 1934.0000   121.9116   -51.9436     7.7779     7.9750     7.9801     0.3384     0.1027     9.0785     0.0373     2.4806  -999.2500
 1934.5000   120.3115   -51.9514     7.8271     7.9680     8.0332     0.3612     0.1048     9.0791     0.0270     2.4769  -999.2500
 1935.0000   118.7115   -51.9592     7.8194     7.9610     8.0251     0.3624     0.1066     9.0797     0.0211     2.4732  -999.2500
 1935.5000   120.5543   -52.1240     7.7558     7.8967     8.0186     0.3321     0.1063     9.0785     0.0243     2.4740  -999.2500
 1936.0000   122.7101   -52.1319     7.6926     7.8230     8.0121     0.3189     0.1030     9.0658     0.0410     2.4801  -999.2500
 1936.5000   123.3583   -52.1399     7.6300     7.7151     8.0056     0.3121     0.1007     9.0515     0.0563     2.4839  -999.2500
 1937.0000   123.5876   -52.1479     7.5679     7.6492     7.9991     0.3150     0.1001     9.0521     0.0609     2.4840  -999.2500
 1937.5000   122.6135   -52.1558     7.4524     7.5365     7.9927     0.3120     0.1001     9.0527     0.0625     2.4840  -999.2500
 1938.0000   121.6394   -52.1638     7.2858     7.4217     7.9875     0.3153     0.0998     9.0532     0.0611     2.4818  -999.2500
 1938.5000   121.6042   -52.1718     7.1745     7.3087     7.9812     0.3319     0.1046     9.0538     0.0613     2.4751  -999.2500
 1939.0000   120.6301   -52.1797     7.1161     7.2497     7.9173     0.3181     0.1058     9.0545     0.0569     2.4714  -999.2500
 1939.5000   121.2210   -52.1877     7.0582     7.1393     7.9110     0.2892     0.1061     9.0551     0.0446     2.4707  -999.2500
 1940.0000   123.6898   -52.1957     7.1043     7.0817     7.8477     0.2880     0.1061     9.0557     0.0286     2.4715  -999.2500
 1940.5000   126.4715   -52.2037     7.1489     7.0754     7.7848     0.3022     0.1076     9.0411     0.0363     2.4723  -999.2500
 1941.0000   125.1844   -52.2100     7.1939     7.1220     7.7224     0.3202     0.1061     9.0418     0.0530     2.4739  -999.2500
 1941.5000   119.8285   -52.2179     7.1870     7.2194     7.6605     0.3298     0.1041     9.0424     0.0562     2.4777  -999.2500
 1942.0000   115.0985   -52.0688     7.2323     7.2638     7.7115     0.3398     0.1032     9.0430     0.0458     2.4807  -999.2500
 1942.5000   112.5683   -52.0768     7.2253     7.2573     7.8160     0.3305     0.1014     9.0437     0.0461     2.4808  -999.2500
 1943.0000   117.2134   -52.0848     7.2707     7.1987     7.9235     0.3183     0.1011     9.0443     0.0461     2.4800  -999.2500
 1943.5000   121.8999   -51.9357     7.2638     7.2041     7.9762     0.3134     0.1025     9.0449     0.0387     2.4756  -999.2500
 1944.0000   122.4789   -51.9440     7.3112     7.2398     8.0276     0.3110     0.1074     9.0454     0.0268     2.4727  -999.2500
 1944.5000   123.0694   -51.9519     7.3571     7.2859     8.0794     0.3074     0.1092     9.0460     0.0224     2.4682  -999.2500
 1945.0000   123.9732   -51.9599     7.4034     7.3322     8.0712     0.3046     0.1101     9.0466     0.0271     2.4637  -999.2500
 1945.5000   126.4420   -51.9679     7.4499     7.3789     8.0647     0.2999     0.1116     9.0473     0.0176     2.4600  -999.2500
 1946.0000   128.5978   -51.9758     7.4411     7.4261     8.0595     0.3053     0.1152     9.0479     0.0108     2.4571  -999.2500
 1946.5000   130.1364   -51.9838     7.3805     7.4735     8.0531     0.3195     0.1171     9.0485     0.0261     2.4579  -999.2500
 1947.0000   127.2756   -51.8331     7.3735     7.4666     8.0467     0.3345     0.1170     9.0491     0.0428     2.4624  -999.2500
 1947.5000   123.1716   -51.8430     7.3135     7.4063     8.0403     0.3303     0.1102     9.0496     0.0625     2.4655  -999.2500
 1948.0000   120.0065   -51.6942     7.3065     7.3465     7.9184     0.3297     0.1078     9.0502     0.0762     2.4693  -999.2500
 1948.5000   121.5364   -51.7006     7.3010     7.2871     7.7983     0.3372     0.1075     9.0509     0.0779     2.4724  -999.2500
 1949.0000   124.5266   -51.5515     7.2941     7.2807     7.7920     0.3366     0.1066     9.0515     0.0509     2.4739  -999.2500
 1949.5000   128.0973   -51.5596     7.2873     7.2743     7.7296     0.3306     0.1048     9.0521     0.0495     2.4936  -999.2500
 1950.0000   129.5775   -51.4107     7.3332     7.3015     7.6065     0.3176     0.0943     9.0677     0.0687     2.5158  -999.2500
 1950.5000   126.4072   -51.7410     7.4873     7.4230     7.3908     0.2865     0.0628     9.0686     0.0938     2.5433  -999.2500
 1951.0000   123.2400   -51.7566     7.4270     7.4150     7.6556     0.2814     0.0604     9.0695     0.1222     2.5516  -999.2500
 1951.5000   120.0728   -51.9289     7.3672     7.4086     7.7610     0.2916     0.0739     9.0704     0.1690     2.5254  -999.2500
