~VERSION INFORMATION
 VERS.                2.0:   CWLS LOG ASCII STANDARD - VERSION 2.0
 WRAP.                 NO:   ONE LINE PER DEPTH STEP
~WELL INFORMATION
#MNEM.UNIT      DATA TYPE    INFORMATION
#----------   ------------   ------------------------------
 STRT.F         1460.0000:   START DEPTH
 STOP.F         2374.5000:   STOP DEPTH
 STEP.F            0.5000:   STEP LENGTH
 NULL.          -999.2500:   NO VALUE
 COMP. BROWN JOHN E&C INC:   COMPANY
 WELL. 15-1 STX-14 #15-14:   WELL
 FLD .             TEAPOT:   FIELD
 LOC .      S14 T38N R78W:   LOCATION
 CNTY.            NATRONA:   COUNTY
 STAT.            WYOMING:   STATE
 CTRY. UNITED STATES OF AMERICA:   COUNTRY
 SRVC.            Unknown:   SERVICE COMPANY
 DATE.        20-OCT-1991:   LOGDATE
 API .       490251098600:   API NUMBER
~CURVE INFORMATION
#MNEM.UNIT       API CODE    CURVE DESCRIPTION
#----------   ------------   ------------------------------
 DEPT.F                  :   
 ROP .MIN/FT 91 810 01 00:   RATE OF DRILLING PENETRATION
 TGAS.UNITS  91 830 01 00:   TOTAL GAS FROM HOTWIRE
~PARAMETER INFORMATION
#MNEM.UNIT          VALUE    DESCRIPTION
#----------   ------------   ------------------------------
 EKB .F              5247:   KELLING BUSHING
 EGL .F              5237:   GROUND LEVEL
 DATE.           10-20-91:   RUN DATE
 DD  .F              2379:   DEPTH DRILLER
 BLI .F              2392:   BOTTOM LOG INTERVAL
 TLI .F              1460:   TOP LOG INTERVAL
 CS  .IN            8.625:   CASING SIZE
 CBD .F               815:   CASING BOTTOM DRILLER
 ENGI.               HUSK:   RECORDING ENGINEER
 WITN.              TOWER:   WITNESSED BY
 CLNT.            A2DTECH:   CLIENT CODE
 ORIG.         2.5" PRINT:   ORIGIN OF DATA
 UWI .       490251098600:   UNIQUE WELL ID
 DICO. A2D Technologies, Inc.:   DIGITIZING COMPANY
~OTHER INFORMATION
~A  DEPT       ROP       TGAS   
# ...
 1946.0000     0.6319   669.3872
 1946.5000     0.6328   669.8215
 1947.0000     0.5951   670.2557
 1947.5000     0.5960   670.6900
 1948.0000     0.6079   671.1243
 1948.5000     0.5978   671.5585
 1949.0000     0.5990   657.3630
 1949.5000     0.5999   612.8770
 1950.0000     0.6009   568.3909
 1950.5000     0.6018   523.9048
 1951.0000     0.6804   479.4188
 1951.5000     0.7200   458.2690
 1952.0000     0.7595   458.7218
 1952.5000     0.7026   459.1747
 1953.0000     0.6454   459.6275
 1953.5000     0.5883   460.0804
 1954.0000     0.6281   460.5332
 1954.5000     0.6871   460.9861
 1955.0000     0.7269   461.4389
 1955.5000     0.7084   461.8918
 1956.0000     0.6898   462.3446
 1956.5000     0.6521   462.7975
 1957.0000     0.6144   463.2503
 1957.5000     0.6154   463.7031
 1958.0000     0.6165   464.1560
 1958.5000     0.6173   464.6088
 1959.0000     0.6184   465.0617
 1959.5000     0.6193   465.5145
 1960.0000     0.6203   465.9674
 1960.5000     0.6212   466.4202
 1961.0000     0.6223   466.8731
 1961.5000     0.6232   467.3259
 1962.0000     0.6242   467.7787
 1962.5000     0.6251   468.2316
 1963.0000     0.6455   468.6844
 1963.5000     0.6658   469.1373
 1964.0000     0.7056   469.5901
 1964.5000     0.7453   470.0430
 1965.0000     0.7849   470.4958
 1965.5000     0.8054   470.9487
 1966.0000     0.8256   471.4015
 1966.5000     0.8654   471.8544
 1967.0000     0.8663   472.3072
 1967.5000     0.8868   472.7601
 1968.0000     0.8877   473.2129
 1968.5000     0.8887   473.6658
 1969.0000     0.8896   474.1186
 1969.5000     0.8906   474.5715
 1970.0000     0.8720   475.0243
 1970.5000     0.8341   475.4771
 1971.0000     0.7966   475.9300
 1971.5000     0.7976   476.3828
 1972.0000     0.8179   476.8357
 1972.5000     0.8383   477.2885
 1973.0000     0.8586   477.7414
 1973.5000     0.8790   478.1942
 1974.0000     0.8604   478.6471
 1974.5000     0.8419   479.0999
 1975.0000     0.8042   479.5528
 1975.5000     0.7665   480.0056
 1976.0000     0.7675   480.4585
 1976.5000     0.7686   480.9113
 1977.0000     0.7695   481.3642
 1977.5000     0.8093   481.8170
 1978.0000     0.8102   482.2699
 1978.5000     0.8112   482.7227
 1979.0000     0.8121   483.1756
 1979.5000     0.8131   483.6284
 1980.0000     0.8140   484.0812
 1980.5000     0.8538   484.5341
 1981.0000     0.8741   484.9869
 1981.5000     0.8945   485.4398
 1982.0000     0.9148   485.8926
 1982.5000     0.9352   486.3455
 1983.0000     0.9361   486.7983
 1983.5000     0.9566   487.2512
 1984.0000     0.9768   487.7040
 1984.5000     0.9779   488.1569
 1985.0000     0.9788   488.6097
 1985.5000     0.9992   489.0626
 1986.0000     1.0001   489.5154
 1986.5000     1.0205   489.9683
 1987.0000     1.0214   490.4211
 1987.5000     1.0028   490.8740
 1988.0000     1.0040   491.3268
 1988.5000     0.9854   491.7797
 1989.0000     0.9669   492.2325
 1989.5000     0.9485   492.6853
 1990.0000     0.9107   493.1382
 1990.5000     0.9119   493.5910
 1991.0000     0.8740   494.0439
 1991.5000     0.8750   494.4967
 1992.0000     0.8761   494.9496
 1992.5000     0.9157   495.4024
 1993.0000     0.9556   495.8553
 1993.5000     0.9952   496.3081
 1994.0000     1.0738   496.7610
 1994.5000     1.0939   497.2138
 1995.0000     0.9982   497.6667
 1995.5000     0.9214   498.1195
 1996.0000     0.8836   498.5724
 1996.5000     0.8848   499.0252
 1997.0000     0.9246   499.4781
 1997.5000     0.9255   499.9309
 1998.0000     0.9459   500.3837
 1998.5000     0.9855   500.8366
 1999.0000     1.0447   501.2894
 1999.5000     1.1038   501.7423
 2000.0000     1.2211   502.1951
 2000.5000     1.2367   502.6480
 2001.0000     1.2225   503.1008
 2001.5000     1.1652   503.5537
 2002.0000     1.0497   504.0065
 2002.5000     1.0116   504.4594
 2003.0000     0.9930   504.9122
 2003.5000     0.9551   505.3651
 2004.0000     0.8978   505.8179
 2004.5000     0.8596   506.2708
 2005.0000     0.7830   506.7236
 2005.5000     0.7450   507.1765
 2006.0000     0.7069   507.6714
 2006.5000     0.6302   488.2010
 2007.0000     0.5148   466.7336
 2007.5000     0.4573   445.2663
 2008.0000     0.4193   423.7990
 2008.5000     0.4006   402.3317
 2009.0000     0.3821   380.8644
 2009.5000     0.3831   359.3971
 2010.0000     0.4032   337.9298
 2010.5000     0.4039   330.9398
 2011.0000     0.4435   330.6055
 2011.5000     0.4830   330.2711
 2012.0000     0.5807   329.9368
 2012.5000     0.7171   329.6025
 2013.0000     0.7760   329.2682
 2013.5000     0.6799   328.9338
 2014.0000     0.6612   328.5995
 2014.5000     0.6621   328.2652
 2015.0000     0.7016   327.9308
 2015.5000     0.7606   327.5965
 2016.0000     0.8388   327.2622
 2016.5000     0.8977   326.9279
 2017.0000     0.9761   326.5935
 2017.5000     1.0349   326.2592
 2018.0000     1.1521   325.9249
 2018.5000     1.2303   325.5905
 2019.0000     1.2697   325.2562
 2019.5000     1.0767   324.9219
 2020.0000     1.0387   324.5876
 2020.5000     1.0590   324.2532
 2021.0000     1.0598   323.9189
 2021.5000     1.0606   323.5846
 2022.0000     1.0032   323.2502
 2022.5000     0.9263   322.9159
 2023.0000     0.8108   322.5816
 2023.5000     0.7728   322.2473
 2024.0000     0.7932   321.9129
 2024.5000     0.8133   321.5786
 2025.0000     0.8335   321.2443
 2025.5000     0.8730   320.9099
 2026.0000     0.9125   320.5756
 2026.5000     1.0102   320.2413
 2027.0000     1.0884   319.9070
 2027.5000     1.2443   319.5726
 2028.0000     1.4001   319.2383
 2028.5000     1.5559   318.9040
 2029.0000     1.7117   318.5696
 2029.5000     1.8481   318.2353
 2030.0000     1.9264   317.9010
 2030.5000     1.8691   317.5667
 2031.0000     1.8309   317.2323
 2031.5000     1.7544   316.8980
 2032.0000     1.6775   316.5637
 2032.5000     1.5428   316.2293
 2033.0000     1.2915   315.8950
 2033.5000     0.9629   315.5607
 2034.0000     0.7892   315.2263
 2034.5000     0.6543   314.8920
 2035.0000     0.6163   314.5577
 2035.5000     0.5976   314.2234
 2036.0000     0.4435   313.8890
 2036.5000     0.4054   313.5547
 2037.0000     0.3867   313.2204
 2037.5000     0.3877   312.8860
 2038.0000     0.3884   312.5517
 2038.5000     0.4087   312.2174
 2039.0000     0.4094   311.8831
 2039.5000     0.4102   311.2817
 2040.0000     0.4303   310.3076
 2040.5000     0.4504   309.3336
 2041.0000     0.4707   308.3596
 2041.5000     0.4908   307.3856
 2042.0000     0.5304   306.4116
 2042.5000     0.5699   305.4375
 2043.0000     0.5900   304.4635
 2043.5000     0.6296   303.4895
 2044.0000     0.6691   302.5154
 2044.5000     0.6890   301.5414
 2045.0000     0.5737   300.5674
 2045.5000     0.4968   299.5934
 2046.0000     0.5753   298.6194
 2046.5000     0.6148   297.6453
 2047.0000     0.6931   296.6713
 2047.5000     0.7326   295.6973
 2048.0000     0.7722   294.7232
 2048.5000     0.7730   293.7492
 2049.0000     0.7348   292.7752
 2049.5000     0.6969   291.8011
 2050.0000     0.6782   290.8271
 2050.5000     0.6596   289.8531
 2051.0000     0.6605   288.8791
 2051.5000     0.6614   287.9051
 2052.0000     0.7009   286.9310
 2052.5000     0.7016   285.9570
 2053.0000     0.7412   284.9830
 2053.5000     0.7613   284.0089
 2054.0000     0.8009   283.0349
 2054.5000     0.8598   282.0609
 2055.0000     0.8993   281.0869
 2055.5000     0.9001   280.1129
 2056.0000     0.9008   279.1388
 2056.5000     0.9017   278.1648
 2057.0000     0.9024   277.1908
 2057.5000     0.9033   276.2167
 2058.0000     0.9815   275.2427
 2058.5000     1.0597   274.2687
 2059.0000     1.0606   273.2946
 2059.5000     1.0613   273.1823
 2060.0000     0.9653   274.2722
 2060.5000     0.9077   275.3620
 2061.0000     0.8504   276.4519
 2061.5000     0.8707   277.5418
 2062.0000     0.9101   278.6317
 2062.5000     0.9497   279.7215
 2063.0000     0.9623   280.8114
 2063.5000     0.9318   281.9013
 2064.0000     0.7970   282.9912
 2064.5000     0.7977   284.0811
 2065.0000     0.7598   285.1709
 2065.5000     0.7024   286.2608
 2066.0000     0.7032   287.3507
 2066.5000     0.7040   288.4406
 2067.0000     0.6852   289.5305
