~VERSION INFORMATION
 VERS.                2.0:   CWLS LOG ASCII STANDARD - VERSION 2.0
 WRAP.                 NO:   ONE LINE PER DEPTH STEP
~WELL INFORMATION
#MNEM.UNIT      DATA TYPE    INFORMATION
#----------   ------------   ------------------------------
 STRT.F           42.0000:   START DEPTH
 STOP.F         3140.0000:   STOP DEPTH
 STEP.F            0.5000:   STEP LENGTH
 NULL.          -999.2500:   NO VALUE
 COMP. LAWRENCE-ALLISON & AS:   COMPANY
 WELL.     88 X 33 #88-33:   WELL
 FLD .             NPR #3:   FIELD
 LOC .      S33 T39N R78W:   LOCATION
 CNTY.            NATRONA:   COUNTY
 STAT.            WYOMING:   STATE
 CTRY. UNITED STATES OF AMERICA:   COUNTRY
 SRVC.       Schlumberger:   SERVICE COMPANY
 DATE.        13-DEC-1987:   LOGDATE
 API .       490251120300:   API NUMBER
~CURVE INFORMATION
#MNEM.UNIT       API CODE    CURVE DESCRIPTION
#----------   ------------   ------------------------------
 DEPT.F                  :   
 GRR .GAPI   07 310 01 00:   GAMMA RAY FROM RES
 SPR .MV     07 010 01 00:   SPONTANEOUS POTENTIAL
 ILD .OHMM   07 120 46 00:   INDUCTION LOG DEEP RES
 ILM .OHMM   07 120 44 00:   INDUCTION LOG MEDIUM RES
 SFLU.OHMM   07 220 01 00:   SPHERICALLY FOCUSED LOG UNAVERAGED RES
 DPHI.DEC    45 890 12 00:   DENSITY POROSITY SANDSTONE
 NPHI.DEC    42 890 03 00:   NEUTRON POROSITY SANDSTONE
 CALD.IN     45 280 60 00:   CALIPER FROM DENSITY LOG
 DRHO.G/C3   45 356 01 00:   DENSITY CORRECTION
 RHOB.G/C3   45 350 01 00:   BULK DENSITY
~PARAMETER INFORMATION
#MNEM.UNIT          VALUE    DESCRIPTION
#----------   ------------   ------------------------------
 PD  .                 GL:   PERMANENT DATUM
 EPD .F              5746:   ELEVATION PERMANENT DATUM
 LMF .                 KB:   LOG MEASURED FROM
 DAPD.F                11:   FEET ABOVE PERMANENT DATUM
 DMF .                 KB:   DRILLING MEASURED FROM
 EKB .F              5157:   KELLING BUSHING
 EGL .F              5146:   GROUND LEVEL
 DATE.        13-DEC-1987:   RUN DATE
 RUN .                  1:   RUN NUMBER
 DD  .F              3155:   DEPTH DRILLER
 DL  .F              3140:   DEPTH LOGGER
 BLI .F              3132:   BOTTOM LOG INTERVAL
 TLI .F               614:   TOP LOG INTERVAL
 CS  .IN            9.625:   CASING SIZE
 CBD .F               608:   CASING BOTTOM DRILLER
 CBL .F               614:   CASING BOTTOM LOGGER
 BS  .IN            7.875:   BIT SIZE
 BSD .F              3155:   BIT SIZE AT DEPTH
 DFT .       KCL DIS. PAC:   DRILLING FLUID TYPE
 DFD .                  9:   DRILLING FLUID DENSITY
 DFV .                 41:   DRILLING FLUID VISCOSITY
 DFPH.                9.5:   DRILLING FLUID PH
 DFL .                8.4:   DRILLING FLUID LOSS
 MSS .           FLOWLINE:   MUD SAMPLE SOURCE
 RMS .OHMM          0.523:   RESISTIVITY MUD SAMPLE
 MST .F                63:   MUD SAMPLE TEMPERATURE
 RMF .OHMM          0.435:   RESISTIVITY MUD FILTRATE SAMPLE
 MFST.F                63:   MUD FILTRATE SAMPLE TEMPERATURE
 RMC .OHMM          0.489:   RESISTIVITY MUD CAKE
 MCST.F                63:   MUD CAKE SAMPLE TEMPERATURE
 MFSS.              PRESS:   MUD FILTRATE SAMPLE SOURCE
 MCSS.               CALC:   MUD CAKE SAMPLE SOURCE
 RMB .OHMM          0.288:   RESISTIVITY MUD AT BHT
 BHT .F               120:   BOTTOM HOLE TEMPERATURE
 TCS .HRS            0600:   TIME CURCULATED STOPPED
 TLAB.HRS            1430:   TIME LOGGER AT BOTTOM
 MRT .F               120:   MAXIMUM RECORDED TEMPERATURE
 LUN .               8198:   LOGGING UNIT NUMBER
 LUL .             CASPER:   LOGGING UNIT LOCATION
 ENGI.          W. BENSON:   RECORDING ENGINEER
 WITN.        GARY STRONG:   WITNESSED BY
 CLNT.            A2DTECH:   CLIENT CODE
 ORIG.           5" PRINT:   ORIGIN OF DATA
 UWI .       490251120300:   UNIQUE WELL ID
 DICO. A2D Technologies, Inc.:   DIGITIZING COMPANY
~OTHER INFORMATION
~A   DEPT      GRR        SPR        ILD        ILM       SFLU       DPHI       NPHI       CALD       DRHO       RHOB   
# ...
  645.0000   107.1983   -77.5008     8.8741     7.8948     8.8951  -999.2500  -999.2500  -999.2500  -999.2500  -999.2500
  645.5000   109.2228   -77.9586     8.8113     7.9477     9.0818  -999.2500  -999.2500  -999.2500  -999.2500  -999.2500
  646.0000   110.3609   -78.2658     8.7489     8.0565     9.4671  -999.2500  -999.2500  -999.2500  -999.2500  -999.2500
  646.5000   109.6410   -78.2718     8.6870     8.0544     9.8007  -999.2500  -999.2500  -999.2500  -999.2500  -999.2500
  647.0000   108.7556   -78.1257     8.6855     8.0523     9.9374  -999.2500  -999.2500  -999.2500  -999.2500  -999.2500
  647.5000   108.9758   -77.9811     8.7448     8.1062    10.0064  -999.2500  -999.2500  -999.2500  -999.2500  -999.2500
  648.0000   109.8711   -77.3862     8.8653     8.1605     9.8007  -999.2500  -999.2500  -999.2500  -999.2500  -999.2500
  648.5000   109.8655   -76.7898     8.9871     8.2722     9.7330  -999.2500  -999.2500  -999.2500  -999.2500  -999.2500
  649.0000   109.8599   -76.1918     9.0480     8.4438     9.5329  -999.2500  -999.2500  -999.2500  -999.2500  -999.2500
  649.5000   110.5310   -75.5969     9.1731     8.5594     9.4671  -999.2500  -999.2500  -999.2500  -999.2500  -999.2500
  650.0000   112.0342   -75.6179     9.2353     8.6766     9.6033  -999.2500  -999.2500  -999.2500  -999.2500  -999.2500
  650.5000   113.9030   -75.7172     9.0444     8.6360     9.6529  -999.2500  -999.2500  -999.2500  -999.2500  -999.2500
  651.0000   111.8661   -75.7711     8.9813     8.6143     9.7317  -999.2500  -999.2500  -999.2500  -999.2500  -999.2500
  651.5000   105.7691   -75.6295     8.9807     8.4963     9.7986  -999.2500  -999.2500  -999.2500  -999.2500  -999.2500
  652.0000    99.4477   -75.3334     8.9801     8.4957     9.7980  -999.2500  -999.2500  -999.2500  -999.2500  -999.2500
  652.5000   102.8227   -75.0402     9.0419     8.4952     9.7973  -999.2500  -999.2500  -999.2500  -999.2500  -999.2500
  653.0000   108.2294   -74.5964     9.1067     8.4981     9.7290  -999.2500  -999.2500  -999.2500  -999.2500  -999.2500
  653.5000   111.1550   -74.3101     9.2366     8.6125     9.7283  -999.2500  -999.2500  -999.2500  -999.2500  -999.2500
  654.0000   113.1782   -74.0100     9.4894     8.6766     9.7276  -999.2500  -999.2500  -999.2500  -999.2500  -999.2500
  654.5000   115.2015   -73.8764     9.4887     8.7315     9.8729  -999.2500  -999.2500  -999.2500  -999.2500  -999.2500
  655.0000   115.6476   -73.7348     9.4225     8.7917    10.1286  -999.2500  -999.2500  -999.2500  -999.2500  -999.2500
  655.5000   114.9624   -73.7440     9.4267     8.8522    10.3673  -999.2500  -999.2500  -999.2500  -999.2500  -999.2500
  656.0000   116.3090   -73.9036     9.5527     8.8589    10.5676  -999.2500  -999.2500  -999.2500  -999.2500  -999.2500
  656.5000   117.2062   -73.9127     9.6854     8.9206    10.4939  -999.2500  -999.2500  -999.2500  -999.2500  -999.2500
  657.0000   114.2654   -73.7709     9.6116     8.9739    10.2775  -999.2500  -999.2500  -999.2500  -999.2500  -999.2500
  657.5000   108.8450   -73.4639     9.5507     8.9113    10.2768  -999.2500  -999.2500  -999.2500  -999.2500  -999.2500
  658.0000   102.7480   -73.0201     9.5501     8.9106    10.2051  -999.2500  -999.2500  -999.2500  -999.2500  -999.2500
  658.5000   102.5174   -72.7270     9.5569     8.9100    10.2044  -999.2500  -999.2500  -999.2500  -999.2500  -999.2500
  659.0000   104.5390   -72.4338     9.6232     8.9826    10.2037  -999.2500  -999.2500  -999.2500  -999.2500  -999.2500
  659.5000   106.7878   -72.3100     9.7487     9.1080    10.2030  -999.2500  -999.2500  -999.2500  -999.2500  -999.2500
  660.0000   107.9106   -72.3193     9.7571     9.2864    10.2732  -999.2500  -999.2500  -999.2500  -999.2500  -999.2500
  660.5000   105.6464   -72.3283     9.8834     9.4809    10.4182  -999.2500  -999.2500  -999.2500  -999.2500  -999.2500
  661.0000   104.0607   -72.3373     9.9616     9.7467    10.8594  -999.2500  -999.2500  -999.2500  -999.2500  -999.2500
  661.5000   102.9261   -72.3464    10.1706    10.0200    11.2426  -999.2500  -999.2500  -999.2500  -999.2500  -999.2500
  662.0000   102.4682   -72.3554    10.3725    10.0191    11.3160  -999.2500  -999.2500  -999.2500  -999.2500  -999.2500
  662.5000   102.9125   -72.3645    10.3001    10.0184    11.2306  -999.2500  -999.2500  -999.2500  -999.2500  -999.2500
  663.0000   104.9358   -72.3474    10.3711     9.9485    11.0818  -999.2500  -999.2500  -999.2500  -999.2500  -999.2500
  663.5000   107.8614   -72.2315    10.5882     9.9478    11.2356  -999.2500  -999.2500  -999.2500  -999.2500  -999.2500
  664.0000   109.6608   -71.9393    10.8099     9.9472    11.2348  -999.2500  -999.2500  -999.2500  -999.2500  -999.2500
  664.5000   107.6223   -71.7978    10.8091     9.9465    11.2340  -999.2500  -999.2500  -999.2500  -999.2500  -999.2500
  665.0000   101.7508   -71.6562    10.6595     9.8771    11.3113  -999.2500  -999.2500  -999.2500  -999.2500  -999.2500
  665.5000   100.1651   -71.6675    10.5853     9.8764    11.4683  -999.2500  -999.2500  -999.2500  -999.2500  -999.2500
  666.0000   103.3162   -71.8271    10.6582     9.8075    11.4673  -999.2500  -999.2500  -999.2500  -999.2500  -999.2500
  666.5000   105.3395   -71.8361    10.5837     9.7391    11.3873  -999.2500  -999.2500  -999.2500  -999.2500  -999.2500
  667.0000   105.5600   -71.9957    10.5829     9.8063    11.2299  -999.2500  -999.2500  -999.2500  -999.2500  -999.2500
  667.5000   102.6191   -71.8519    10.4365     9.8055    11.0747  -999.2500  -999.2500  -999.2500  -999.2500  -999.2500
  668.0000   101.4862   -71.7103    10.3637     9.7371    10.8463  -999.2500  -999.2500  -999.2500  -999.2500  -999.2500
  668.5000   104.6356   -71.4204    10.2914     9.7364    10.7707  -999.2500  -999.2500  -999.2500  -999.2500  -999.2500
  669.0000   106.4334   -71.1282    10.3625     9.7357    10.6958  -999.2500  -999.2500  -999.2500  -999.2500  -999.2500
  669.5000   107.3305   -70.9844    10.5064     9.8709    10.9953  -999.2500  -999.2500  -999.2500  -999.2500  -999.2500
  670.0000   108.0005   -70.6922    10.6521    10.0082    11.5406  -999.2500  -999.2500  -999.2500  -999.2500  -999.2500
  670.5000   107.5408   -70.5506    10.8002    10.1470    11.9464  -999.2500  -999.2500  -999.2500  -999.2500  -999.2500
  671.0000   104.8273   -70.5619    10.9500    10.1463    12.1123  -999.2500  -999.2500  -999.2500  -999.2500  -999.2500
  671.5000   103.4671   -70.7192    11.1023    10.2163    11.8623  -999.2500  -999.2500  -999.2500  -999.2500  -999.2500
  672.0000   105.4904   -70.5777    11.2562    10.2867    11.7796  -999.2500  -999.2500  -999.2500  -999.2500  -999.2500
  672.5000   106.8387   -70.2877    11.4126    10.4293    11.7788  -999.2500  -999.2500  -999.2500  -999.2500  -999.2500
  673.0000   104.3490   -69.9955    11.4913    10.5742    11.8600  -999.2500  -999.2500  -999.2500  -999.2500  -999.2500
  673.5000   100.2876   -70.0046    11.6507    10.6472    11.8590  -999.2500  -999.2500  -999.2500  -999.2500  -999.2500
  674.0000    95.5402   -70.0136    11.6499    10.7950    11.8582  -999.2500  -999.2500  -999.2500  -999.2500  -999.2500
  674.5000    98.9694   -70.0226    11.6491    10.8693    11.9400  -999.2500  -999.2500  -999.2500  -999.2500  -999.2500
  675.0000   104.0225   -70.0316    11.7295    11.0203    12.1057  -999.2500  -999.2500  -999.2500  -999.2500  -999.2500
  675.5000   106.8683   -70.1912    11.8102    11.1731    12.4448  -999.2500  -999.2500  -999.2500  -999.2500  -999.2500
  676.0000   108.1446   -70.2003    11.9743    11.2500    12.7052  -999.2500  -999.2500  -999.2500  -999.2500  -999.2500
  676.5000   105.7589   -70.3599    12.1405    11.1716    12.7926  -999.2500  -999.2500  -999.2500  -999.2500  -999.2500
  677.0000   101.8978   -70.3689    12.2241    11.0937    12.7032  -999.2500  -999.2500  -999.2500  -999.2500  -999.2500
  677.5000    98.3723   -70.2251    12.2231    11.0163    12.4412  -999.2500  -999.2500  -999.2500  -999.2500  -999.2500
  678.0000    96.6135   -70.0858    12.1378    10.8639    12.1845  -999.2500  -999.2500  -999.2500  -999.2500  -999.2500
