~VERSION INFORMATION
 VERS.                2.0:   CWLS LOG ASCII STANDARD - VERSION 2.0
 WRAP.                 NO:   ONE LINE PER DEPTH STEP
~WELL INFORMATION
#MNEM.UNIT      DATA TYPE    INFORMATION
#----------   ------------   ------------------------------
 STRT.F            0.0000:   START DEPTH
 STOP.F          562.0000:   STOP DEPTH
 STEP.F            0.1000:   STEP LENGTH
 NULL.          -999.2500:   NO VALUE
 COMP. BROWN JOHN E&C INC:   COMPANY
 WELL.    73-1 SX-3 #73-3:   WELL
 FLD .             TEAPOT:   FIELD
 LOC .       S3 T38N R78W:   LOCATION
 CNTY.            NATRONA:   COUNTY
 STAT.            WYOMING:   STATE
 CTRY. UNITED STATES OF AMERICA:   COUNTRY
 SRVC.      Western Atlas:   SERVICE COMPANY
 DATE.        23-APR-1992:   LOGDATE
 API .       490252251200:   API NUMBER
~CURVE INFORMATION
#MNEM.UNIT       API CODE    CURVE DESCRIPTION
#----------   ------------   ------------------------------
 DEPT.F                  :   
 GRR .GAPI   07 310 01 00:   GAMMA RAY
 RILD.OHMM   07 120 46 00:   INDUCTION LOG DEEP RESISTIVITY
 RILM.OHMM   07 120 44 00:   INDUCTION LOG MEDIUM RESISTIVITY
 CILD.MMHO   07 110 46 00:   CONDUCTIVITY INDUCTION LOG DEEP
~PARAMETER INFORMATION
#MNEM.UNIT          VALUE    DESCRIPTION
#----------   ------------   ------------------------------
 PD  .                 GL:   PERMANENT DATUM
 EPD .F              5164:   ELEVATION PERMANENT DATUM
 LMF .                 KB:   LOG MEASURED FROM
 DAPD.F                 5:   FEET ABOVE PERMANENT DATUM
 DMF .                 KB:   DRILLING MEASURED FROM
 EKB .F              5169:   KELLING BUSHING
 EDF .F              5168:   DRILLING FLOOR
 EGL .F              5164:   GROUND LEVEL
 DATE.        23-APR-1992:   RUN DATE
 RUN .                  1:   RUN NUMBER
 DD  .F               561:   DEPTH DRILLER
 DL  .F               564:   DEPTH LOGGER
 BLI .F               562:   BOTTOM LOG INTERVAL
 CS  .IN            8.625:   CASING SIZE
 CBD .F                48:   CASING BOTTOM DRILLER
 CBL .F                49:   CASING BOTTOM LOGGER
 BS  .IN            7.875:   BIT SIZE
 BSD .F               561:   BIT SIZE AT DEPTH
 DFT .                AIR:   DRILLING FLUID TYPE
 TCS .HRS               2:   TIME CURCULATED STOPPED
 LUN .           HL- 6272:   LOGGING UNIT NUMBER
 LUL .             CASPER:   LOGGING UNIT LOCATION
 ENGI.            LEBSOCK:   RECORDING ENGINEER
 WITN.        GARY STRONG:   WITNESSED BY
 CLNT.            A2DTECH:   CLIENT CODE
 ORIG.       2", 5" PRINT:   ORIGIN OF DATA
 UWI .       490252251200:   UNIQUE WELL ID
 DICO. A2D Technologies, Inc.:   DIGITIZING COMPANY
~OTHER INFORMATION
~A    DEPT      GRR      RILD       RILM       CILD   
# ...
  116.8000   137.3494     8.1115     8.4696   120.4222
  116.9000   137.3494     8.1114     8.5174   120.1784
  117.0000   137.3494     8.1113     8.5654   119.9346
  117.1000   137.3494     8.1112     8.6510   119.8301
  117.2000   137.3494     8.1111     8.6973   119.8311
  117.3000   137.3494     8.1110     8.7113   119.8321
  117.4000   137.3494     8.1108     8.7630   119.8331
  117.5000   137.3494     8.1107     8.8808   119.8341
  117.6000   137.2217     8.1336     8.9216   119.8351
  117.7000   136.8389     8.1673     8.9428   119.7360
  117.8000   136.0278     8.1690     8.9599   119.4921
  117.9000   133.1325     8.2613     9.0105   119.2482
  118.0000   132.9357     8.3181     9.0681   119.0044
  118.1000   132.9701     8.3648     9.1125   118.7607
  118.2000   133.2939     8.4118     9.1640   118.5169
  118.3000   133.7575     8.4617     9.2157   118.2731
  118.4000   134.0361     8.5753     9.2760   118.0293
  118.5000   134.6597     8.5752     9.3894   117.7854
  118.6000   135.0896     8.6026     9.4382   117.5004
  118.7000   135.5162     8.6670     9.4548   117.0117
  118.8000   136.2460     8.7604     9.4787   116.5230
  118.9000   137.0482     8.8174     9.5437   116.0343
  119.0000   137.4858     8.8592     9.6544   115.5456
  119.1000   137.9722     8.9090     9.7076   115.0569
  119.2000   138.4587     8.9591     9.7218   114.5663
  119.3000   138.9449     9.0094     9.7493   113.8327
  119.4000   139.4578     9.0663     9.8191   113.0992
  119.5000   139.4578     9.1110     9.9286   112.3128
  119.6000   139.4578     9.1952     9.9846   111.8593
  119.7000   139.1162     9.2782    10.0411   111.3706
  119.8000   138.3306     9.3304    10.0978   110.8076
  119.9000   137.3494     9.3875    10.1548   110.3932
  120.0000   136.3858     9.4842    10.2120   109.9045
  120.1000   135.2298     9.5551    10.2786   109.4158
  120.2000   134.1387     9.6088    10.3276   109.1151
  120.3000   133.2331     9.6527    10.3503   108.8712
  120.4000   132.4951     9.6525    10.3720   108.6274
  120.5000   131.5219     9.6524    10.4305   108.2151
  120.6000   130.7433     9.6905    10.4953   107.7264
  120.7000   130.2858     9.7450    10.4952   107.2377
  120.8000   129.8869     9.7877    10.5344   106.7490
  120.9000   129.1770     9.7875    10.5683   106.2603
  121.0000   128.6145     9.8413    10.5682   105.7716
  121.1000   127.9996     9.8558    10.5680   105.4122
  121.2000   127.2700     9.8556    10.5113   105.1683
  121.3000   126.5403     9.8555    10.4943   104.9245
  121.4000   125.7491     9.8560    10.4658   104.6807
  121.5000   124.3976     9.9113    10.4210   104.4368
  121.6000   123.1009     9.9241    10.4204   104.1929
  121.7000   121.4843     9.9240    10.3617   103.7690
  121.8000   119.5820     9.9239    10.3481   103.0356
  121.9000   117.4767     9.9261    10.3479   102.3023
  122.0000   115.6627     9.9930    10.3478   101.5687
  122.1000   114.5274    10.0381    10.3442   100.8352
  122.2000   113.6493    10.0945    10.2755   100.2735
  122.3000   113.2530    10.1330    10.2754   100.2745
  122.4000   113.4120    10.1329    10.2753   100.2755
  122.5000   114.1566    10.1327    10.2751   100.2766
  122.6000   115.1093    10.1326    10.2750   100.2776
  122.7000   116.8025    10.0988    10.2748   100.2786
  122.8000   118.3813    10.0618    10.2747   100.2796
  122.9000   119.5970    10.0555    10.2746   100.2806
  123.0000   120.8257     9.9916    10.2744   100.2816
  123.1000   122.5274     9.9915    10.2743   100.2826
  123.2000   123.8470     9.9563    10.2741   100.2836
  123.3000   124.7968     9.9217    10.2739   100.2846
  123.4000   125.3763     9.9216    10.2738   100.2857
  123.5000   125.6365     9.9214    10.2737   100.5104
  123.6000   126.2048     9.9213    10.2736   100.7562
  123.7000   126.0025     9.9212    10.2734   101.0429
  123.8000   125.7594     9.8978    10.2732   101.0437
  123.9000   125.6024     9.8519    10.2731   101.0447
  124.0000   125.5742     9.8518    10.2730   101.0458
  124.1000   125.3012     9.8516    10.2729   101.0468
  124.2000   125.3012     9.8515    10.2749   101.0478
  124.3000   125.3012     9.8514    10.3445   101.0488
  124.4000   125.3012     9.8629    10.3444   101.0498
  124.5000   125.3403     9.9201    10.3442   101.0508
  124.6000   125.6024     9.9199    10.3440   101.0518
  124.7000   125.6024     9.9198    10.3439   101.1980
  124.8000   125.7687     9.9197    10.3437   101.4438
  124.9000   126.0118     9.9196    10.3937   101.6897
  125.0000   126.2549     9.9194    10.4159   101.8099
  125.1000   126.5060     9.9192    10.4157   101.8109
  125.2000   126.5060     9.9615    10.4156   101.8119
  125.3000   126.8607    10.0176    10.4154   101.8129
  125.4000   127.3471    10.0583    10.4153   101.8139
  125.5000   127.7721    10.0600    10.4152   101.8149
  125.6000   128.0216    10.1165    10.4150   101.8160
  125.7000   128.7514    10.1282    10.4149   101.8170
  125.8000   129.2925    10.0969    10.4147   101.8180
  125.9000   130.0393    10.0576    10.4145   101.8858
  126.0000   130.9397    10.0537    10.4144   102.1317
  126.1000   131.6982     9.9873    10.4143   102.3776
  126.2000   133.1325     9.9411    10.4142   102.5762
  126.3000   133.7305     9.9176    10.4140   102.5772
  126.4000   134.6016     9.8985    10.4138   102.5782
  126.5000   135.8247     9.8484    10.4137   102.6069
  126.6000   137.4505     9.8482    10.3819   102.8527
  126.7000   138.5542     9.8481    10.3411   103.0986
  126.8000   138.7646     9.8479    10.3409   103.3444
  126.9000   138.7030     9.8478    10.3407   103.5903
  127.0000   138.5542     9.8404    10.2921   103.8362
  127.1000   138.4817     9.7790    10.2685   104.0936
  127.2000   137.9518     9.7789    10.2270   104.3279
  127.3000   137.2874     9.7788    10.1190   104.5737
  127.4000   136.5577     9.7563    10.0554   104.8508
  127.5000   135.6170     9.7015    10.0052   104.8517
  127.6000   134.4489     9.6428     9.9487   104.8527
  127.7000   133.4337     9.6427     9.8698   104.8537
  127.8000   133.2011     9.6058     9.7684   105.0488
  127.9000   133.3070     9.5754     9.7100   105.2947
  128.0000   133.4337     9.5646     9.6586   105.5405
  128.1000   133.4921     9.5086     9.6041   105.6118
  128.2000   133.7359     9.5084     9.5499   105.6128
  128.3000   134.2222     9.4702     9.4960   105.6138
  128.4000   134.7084     9.4170     9.4420   105.9247
  128.5000   135.3223     9.3763     9.4419   106.4153
  128.6000   135.9129     9.3761     9.4418   106.9058
  128.7000   136.1675     9.3241     9.4417   107.1262
  128.8000   136.7470     9.3107     9.4416   107.1272
  128.9000   137.1402     9.3106     9.4414   107.1282
  129.0000   137.6266     9.2967     9.4412   107.2447
  129.1000   138.1127     9.2456     9.4845   107.4906
  129.2000   138.5766     9.2454     9.5071   107.7365
  129.3000   138.8554     9.2049     9.5070   107.8864
  129.4000   139.2706     9.1532     9.5123   107.8874
  129.5000   139.6074     9.1170     9.5733   107.8884
  129.6000   139.8506     9.1168     9.6200   107.9658
  129.7000   140.1273     9.1166     9.6742   108.2116
  129.8000   140.6626     9.1165     9.7074   108.4575
  129.9000   140.8814     9.1164     9.7157   108.6465
  130.0000   141.1246     9.0994     9.7751   108.6475
  130.1000   141.2651     9.0528     9.7750   108.6485
  130.2000   141.2206     9.0526     9.8125   108.6496
  130.3000   140.9639     9.0525     9.8679   108.6506
  130.4000   140.7341     9.0524     9.9119   108.6516
  130.5000   140.1477     9.0523     9.9118   108.6526
  130.6000   139.5318     9.0522     9.9116   108.6536
  130.7000   139.0452     9.0520     9.9115   108.6546
  130.8000   138.5542     9.0519     9.9114   108.6556
  130.9000   138.0728     9.0517     9.9113   108.6566
  131.0000   137.9518     9.0516     9.9111   108.6576
  131.1000   138.0765     9.0515     9.9109   108.6587
  131.2000   138.2530     9.0514     9.9108   108.6596
  131.3000   138.2530     9.0513     9.9107   108.6606
