~VERSION INFORMATION
 VERS.                2.0:   CWLS LOG ASCII STANDARD - VERSION 2.0
 WRAP.                 NO:   ONE LINE PER DEPTH STEP
~WELL INFORMATION
#MNEM.UNIT      DATA TYPE    INFORMATION
#----------   ------------   ------------------------------
 STRT.F            0.0000:   START DEPTH
 STOP.F          790.0000:   STOP DEPTH
 STEP.F            0.1000:   STEP LENGTH
 NULL.          -999.2500:   NO VALUE
 COMP.   FLUOR DANIEL INC:   COMPANY
 WELL.   72-2 X-34 #72-34:   WELL
 FLD .          N.P.R. #3:   FIELD
 LOC .      S34 T39N R78W:   LOCATION
 CNTY.            NATRONA:   COUNTY
 STAT.            WYOMING:   STATE
 CTRY. UNITED STATES OF AMERICA:   COUNTRY
 SRVC.      Western Atlas:   SERVICE COMPANY
 DATE.        25-MAR-1995:   LOGDATE
 API .       490252269300:   API NUMBER
~CURVE INFORMATION
#MNEM.UNIT       API CODE    CURVE DESCRIPTION
#----------   ------------   ------------------------------
 DEPT.F                  :   
 GRR .GAPI   07 310 01 00:   GAMMA RAY
 RILD.OHMM   07 120 46 00:   INDUCTION LOG DEEP RESISTIVITY
 RILM.OHMM   07 120 44 00:   INDUCTION LOG MEDIUM RESISTIVITY
~PARAMETER INFORMATION
#MNEM.UNIT          VALUE    DESCRIPTION
#----------   ------------   ------------------------------
 PD  .                 GL:   PERMANENT DATUM
 EPD .F              5058:   ELEVATION PERMANENT DATUM
 LMF .                 KB:   LOG MEASURED FROM
 DAPD.F                10:   FEET ABOVE PERMANENT DATUM
 DMF .                 KB:   DRILLING MEASURED FROM
 EKB .F              5068:   KELLING BUSHING
 EDF .F              5067:   DRILLING FLOOR
 EGL .F              5058:   GROUND LEVEL
 DATE.        25-MAR-1995:   RUN DATE
 RUN .                  1:   RUN NUMBER
 DD  .F               796:   DEPTH DRILLER
 DL  .F               798:   DEPTH LOGGER
 BLI .F               790:   BOTTOM LOG INTERVAL
 TLI .F                96:   TOP LOG INTERVAL
 CS  .IN            9.625:   CASING SIZE
 CBD .F                95:   CASING BOTTOM DRILLER
 CBL .F                96:   CASING BOTTOM LOGGER
 BS  .IN             8.75:   BIT SIZE
 BSD .F               796:   BIT SIZE AT DEPTH
 DFT .                AIR:   DRILLING FLUID TYPE
 MRT .F                97:   MAXIMUM RECORDED TEMPERATURE
 LUN .            HL 6530:   LOGGING UNIT NUMBER
 LUL .             CASPER:   LOGGING UNIT LOCATION
 ENGI.             RAUTIO:   RECORDING ENGINEER
 WITN.             STRONG:   WITNESSED BY
 CLNT.            A2DTECH:   CLIENT CODE
 ORIG.       2", 5" PRINT:   ORIGIN OF DATA
 UWI .       490252269300:   UNIQUE WELL ID
 DICO. A2D Technologies, Inc.:   DIGITIZING COMPANY
~OTHER INFORMATION
~A    DEPT      GRR      RILD       RILM   
# ...
  364.0000   133.5242     8.3236     8.5112
  364.1000   133.9739     8.2802     8.4712
  364.2000   134.4983     8.2631     8.4523
  364.3000   135.0227     8.2625     8.4523
  364.4000   135.5473     8.2473     8.4523
  364.5000   136.0717     8.2023     8.4523
  364.6000   136.6383     8.2017     8.4523
  364.7000   137.1205     8.2468     8.4523
  364.8000   137.8365     8.2596     8.4523
  364.9000   138.6227     8.2590     8.4523
  365.0000   139.2224     8.2762     8.4523
  365.1000   139.5292     8.3172     8.4566
  365.2000   140.0635     8.3165     8.5112
  365.3000   140.3209     8.3159     8.5112
  365.4000   140.3757     8.3153     8.5112
  365.5000   140.5349     8.3147     8.5112
  365.6000   140.6880     8.3142     8.5112
  365.7000   140.6886     8.3136     8.5176
  365.8000   140.6779     8.3130     8.5705
  365.9000   140.3789     8.3123     8.6175
  366.0000   140.3795     8.2690     8.6302
  366.1000   140.2052     8.2518     8.6583
  366.2000   139.8184     8.2275     8.7089
  366.3000   139.2952     8.1774     8.7510
  366.4000   138.7443     8.1327     8.7510
  366.5000   137.8943     8.1321     8.8012
  366.6000   135.9742     8.0868     8.8120
  366.7000   134.0698     8.0730     8.8428
  366.8000   132.3789     8.0724     8.8734
  366.9000   130.5305     8.0546     8.8734
  367.0000   128.3486     8.0136     8.8722
  367.1000   127.0115     8.0130     8.8120
  367.2000   125.9867     8.0125     8.8120
  367.3000   124.7329     8.0119     8.7792
  367.4000   123.5819     7.9823     8.7281
  367.5000   122.5349     7.9536     8.6774
  367.6000   121.4286     7.9422     8.6235
  367.7000   120.1305     7.8957     8.5112
  367.8000   118.9289     7.8951     8.4679
  367.9000   117.5895     7.8946     8.3854
  368.0000   116.5415     7.8940     8.3119
  368.1000   115.8813     7.8934     8.2635
  368.2000   115.5098     7.8929     8.2207
  368.3000   115.5372     7.8923     8.2207
  368.4000   115.8221     7.8917     8.1768
  368.5000   116.3017     7.8912     8.1638
  368.6000   117.0165     7.8906     8.1638
  368.7000   117.8029     7.8901     8.1638
  368.8000   118.5894     7.8895     8.1638
  368.9000   119.4184     7.8889     8.1638
  369.0000   120.4915     7.8883     8.1638
  369.1000   121.5151     7.8878     8.1638
  369.2000   122.5632     7.8872     8.1638
  369.3000   123.7684     7.8866     8.1823
  369.4000   124.8622     7.8861     8.2207
  369.5000   125.7673     7.8856     8.2207
  369.6000   127.0569     7.8850     8.2207
  369.7000   127.9609     7.8843     8.2598
  369.8000   128.4068     7.8838     8.2780
  369.9000   129.1048     7.8833     8.2988
  370.0000   129.7666     7.8827     8.3357
  370.1000   130.2158     7.8821     8.3380
  370.2000   130.4784     7.8815     8.3938
  370.3000   130.7640     7.8810     8.3938
  370.4000   130.7645     7.8805     8.3938
  370.5000   130.7652     7.8799     8.4170
  370.6000   130.7658     7.8793     8.4523
  370.7000   130.7664     7.8788     8.4523
  370.8000   130.7248     7.8859     8.4523
  370.9000   130.4566     7.9342     8.4967
  371.0000   130.4573     7.9337     8.5112
  371.1000   130.4579     7.9709     8.5112
  371.2000   130.4585     7.9895     8.5112
  371.3000   130.3515     8.0088     8.5112
  371.4000   130.0902     8.0459     8.5112
  371.5000   129.8288     8.0453     8.5581
  371.6000   129.5279     8.0446     8.5705
  371.7000   129.3062     8.0854     8.5705
  371.8000   129.2180     8.1013     8.5705
  371.9000   128.9710     8.1239     8.5705
  372.0000   128.5226     8.1584     8.5705
  372.1000   128.2614     8.1578     8.5705
  372.2000   127.9764     8.1572     8.5705
  372.3000   127.9770     8.1567     8.5705
  372.4000   127.5995     8.1561     8.5501
  372.5000   127.2162     8.1555     8.5112
  372.6000   126.9549     8.1720     8.5112
  372.7000   126.6521     8.2130     8.5112
  372.8000   126.1139     8.2123     8.5112
  372.9000   125.6056     8.2117     8.4794
  373.0000   125.2877     8.2111     8.4523
  373.1000   124.8702     8.2105     8.4395
  373.2000   124.4540     8.2100     8.3938
  373.3000   124.1350     8.2203     8.3938
  373.4000   123.6206     8.2678     8.3938
  373.5000   123.3189     8.2671     8.3603
  373.6000   123.3195     8.2666     8.3357
  373.7000   123.3201     8.2989     8.3357
  373.8000   123.3207     8.3248     8.3302
  373.9000   123.3213     8.3101     8.2780
  374.0000   123.3468     8.2642     8.2780
  374.1000   123.6337     8.2636     8.2780
  374.2000   124.1096     8.2180     8.2780
  374.3000   124.4455     8.2035     8.2780
  374.4000   124.9868     8.1767     8.2705
  374.5000   125.7732     8.1269     8.2207
  374.6000   126.5595     8.0851     8.1746
  374.7000   127.3698     8.0845     8.1638
  374.8000   128.3853     8.0369     8.1638
  374.9000   129.0245     8.0257     8.1453
  375.0000   129.3934     8.0252     8.1072
  375.1000   129.6559     8.0246     8.1072
  375.2000   129.8041     8.0135     8.1072
  375.3000   129.5427     7.9662     8.0688
  375.4000   129.2405     7.9655     8.0511
  375.5000   129.2411     7.9650     8.0511
  375.6000   128.8984     7.9960     8.0511
  375.7000   128.6202     8.0211     8.0511
  375.8000   128.5475     8.0205     8.0511
  375.9000   128.3104     8.0199     8.0511
  376.0000   128.3111     8.0193     8.0199
  376.1000   128.0747     8.0188     7.9954
  376.2000   128.0012     8.0182     7.9954
  376.3000   128.0019     8.0177     7.9954
  376.4000   128.0920     8.0171     7.9954
  376.5000   128.3142     8.0165     7.9954
  376.6000   128.3148     8.0159     7.9624
  376.7000   128.8217     8.0153     7.9642
  376.8000   129.3459     8.0147     7.9954
  376.9000   130.0253     8.0142     7.9954
  377.0000   130.7061     8.0137     7.9954
  377.1000   131.2870     8.0236     7.9954
  377.2000   132.0661     8.0701     7.9954
  377.3000   132.6738     8.0694     8.0216
  377.4000   132.8945     8.0689     8.0511
  377.5000   133.3282     8.0683     8.0511
  377.6000   133.6087     8.0677     8.0511
  377.7000   133.6821     8.0672     8.0511
  377.8000   133.9209     8.0666     8.0511
  377.9000   133.6106     8.0660     8.0511
  378.0000   133.3748     8.0655     8.0318
  378.1000   132.9264     8.0649     7.9954
  378.2000   132.4034     8.0900     7.9940
  378.3000   131.7026     8.1217     7.9401
  378.4000   130.6550     8.1211     7.9014
  378.5000   129.5708     8.1205     7.8851
  378.6000   128.5609     8.1199     7.8642
  378.7000   127.5141     8.1193     7.8305
  378.8000   126.4673     8.1188     7.8305
  378.9000   125.3153     8.1182     7.8305
  379.0000   124.0621     8.1176     7.8305
  379.1000   123.0291     8.1170     7.8305
  379.2000   122.4212     8.1164     7.8305
  379.3000   122.2021     8.1159     7.8305
  379.4000   122.2818     8.1153     7.8305
  379.5000   122.5443     8.0921     7.8305
  379.6000   122.8792     8.0562     7.8305
  379.7000   123.4265     8.0556     7.8305
  379.8000   124.2912     8.0550     7.8305
  379.9000   124.7634     8.0545     7.8305
  380.0000   125.4745     8.0194     7.8305
  380.1000   126.3982     7.9959     7.8305
  380.2000   127.3580     7.9953     7.8305
  380.3000   128.1446     7.9947     7.8305
  380.4000   128.9605     7.9941     7.8305
  380.5000   129.7166     7.9935     7.8126
  380.6000   130.3002     7.9930     7.7763
  380.7000   130.6711     7.9925     7.7763
  380.8000   130.8292     7.9919     7.7763
  380.9000   130.7744     7.9811     7.7763
  381.0000   130.5131     7.9337     7.7763
  381.1000   130.2091     7.9330     7.7763
  381.2000   129.7715     7.9325     7.7763
  381.3000   129.0785     7.9320     7.7763
  381.4000   128.4143     7.9314     7.7763
  381.5000   127.8195     7.9308     7.7763
  381.6000   127.0342     7.9302     7.7460
  381.7000   126.1693     7.9296     7.7225
  381.8000   125.6996     7.9291     7.7225
  381.9000   124.9908     7.9286     7.7225
  382.0000   124.4791     7.9280     7.7225
  382.1000   124.3054     7.9115     7.7225
