~VERSION INFORMATION
 VERS.                2.0:   CWLS LOG ASCII STANDARD - VERSION 2.0
 WRAP.                 NO:   ONE LINE PER DEPTH STEP
~WELL INFORMATION
#MNEM.UNIT      DATA TYPE    INFORMATION
#----------   ------------   ------------------------------
 STRT.F            1.0000:   START DEPTH
 STOP.F          755.5000:   STOP DEPTH
 STEP.F            0.5000:   STEP LENGTH
 NULL.          -999.2500:   NO VALUE
 COMP. FENIX & SCISSON INC:   COMPANY
 WELL.       25-SX #25-14:   WELL
 FLD .        TEAPOT DOME:   FIELD
 LOC .      S14 T38N R78W:   LOCATION
 CNTY.            NATRONA:   COUNTY
 STAT.            WYOMING:   STATE
 CTRY. UNITED STATES OF AMERICA:   COUNTRY
 SRVC.           BIRDWELL:   SERVICE COMPANY
 DATE.        29-DEC-1978:   LOGDATE
 API .       490251076000:   API NUMBER
~CURVE INFORMATION
#MNEM.UNIT       API CODE    CURVE DESCRIPTION
#----------   ------------   ------------------------------
 DEPT.F                  :   
 SPR .MV     05 010 01 00:   SPONTANEOUS POTENTIAL FROM RES.
 SN  .OHMM   05 040 16 00:   SHORT NORMAL 16"
 IL  .OHMM   05 120 00 00:   INDUCTION LOG
 CALD.IN     45 280 60 00:   CALIPER
 GRD .GAPI   45 310 01 00:   GAMMA RAY FROM DENSITY LOG
 CORR.G/C3   45 356 01 00:   DENSITY CORRECTION
 DPHI.DEC    45 890 12 00:   DENSITY POROSITY SANDSTONE
 RHOB.G/C3   45 350 01 00:   BULK DENSITY
~PARAMETER INFORMATION
#MNEM.UNIT          VALUE    DESCRIPTION
#----------   ------------   ------------------------------
 PD  .                 GL:   PERMANENT DATUM
 EPD .F              5214:   ELEVATION PERMANENT DATUM
 LMF .                 KB:   LOG MEASURED FROM
 DAPD.F                 4:   FEET ABOVE PERMANENT DATUM
 DMF .                 KB:   DRILLING MEASURED FROM
 EKB .F              5218:   KELLING BUSHING
 EGL .F              5214:   GROUND LEVEL
 DATE.           12-29-79:   RUN DATE
 RUN .                  1:   RUN NUMBER
 DD  .F               765:   DEPTH DRILLER
 DL  .F               747:   DEPTH LOGGER
 BLI .F               740:   BOTTOM LOG INTERVAL
 TLI .F                40:   TOP LOG INTERVAL
 CS  .IN            8.625:   CASING SIZE
 CBD .F                40:   CASING BOTTOM DRILLER
 CBL .F                40:   CASING BOTTOM LOGGER
 BS  .IN            7.875:   BIT SIZE
 BSD .F               765:   BIT SIZE AT DEPTH
 DFT .                KCL:   DRILLING FLUID TYPE
 DFD .                8.8:   DRILLING FLUID DENSITY
 DFV .                 48:   DRILLING FLUID VISCOSITY
 DFPH.                9.2:   DRILLING FLUID PH
 MSS .           FLOWLINE:   MUD SAMPLE SOURCE
 RMS .OHMM            .17:   RESISTIVITY MUD SAMPLE
 MST .F                56:   MUD SAMPLE TEMPERATURE
 RMF .OHMM            .15:   RESISTIVITY MUD FILTRATE SAMPLE
 MFST.F                56:   MUD FILTRATE SAMPLE TEMPERATURE
 RMC .OHMM            .23:   RESISTIVITY MUD CAKE
 MCST.F                64:   MUD CAKE SAMPLE TEMPERATURE
 MFSS.           MEASURED:   MUD FILTRATE SAMPLE SOURCE
 MCSS.           MEASURED:   MUD CAKE SAMPLE SOURCE
 RMB .OHMM            .16:   RESISTIVITY MUD AT BHT
 BHT .F                59:   BOTTOM HOLE TEMPERATURE
 TCS .HRS              12:   TIME CURCULATED STOPPED
 MRT .F                59:   MAXIMUM RECORDED TEMPERATURE
 LUN .               2958:   LOGGING UNIT NUMBER
 LUL .             CASPER:   LOGGING UNIT LOCATION
 ENGI.            ROLLINS:   RECORDING ENGINEER
 WITN.         RICHARDSON:   WITNESSED BY
 CLNT.            A2DTECH:   CLIENT CODE
 ORIG.           5" PRINT:   ORIGIN OF DATA
 UWI .       490251076000:   UNIQUE WELL ID
 DICO. A2D Technologies, Inc.:   DIGITIZING COMPANY
~OTHER INFORMATION
~A    DEPT     SPR         SN         IL       CALD         GRD      CORR       DPHI       RHOB   
# ...
  122.5000   -59.8100     3.8490     3.5370     7.4770   103.1000     0.0990     0.1920     2.3270
  123.0000   -59.7990     4.0300     3.5470     7.4770   103.0830     0.1080     0.1900     2.3450
  123.5000   -59.7890     4.1410     3.5570     7.4850   103.0810     0.1170     0.1830     2.3530
  124.0000   -59.7780     4.2380     3.5810     7.5070   103.2680     0.1270     0.1760     2.3600
  124.5000   -59.7670     4.3960     3.6390     7.5280   104.2900     0.1370     0.1710     2.3680
  125.0000   -59.7570     4.5550     3.7470     7.5490   104.3940     0.1400     0.1680     2.3790
  125.5000   -59.7460     4.7140     3.8770     7.5560   103.9330     0.1130     0.1640     2.4060
  126.0000   -59.7350     4.8870     4.0080     7.5540   103.4670     0.0810     0.1600     2.4700
  126.5000   -59.7250     4.9010     4.1380     7.5520   103.2860     0.0520     0.1570     2.4570
  127.0000   -59.7140     4.9160     4.2270     7.5500   103.2840     0.0420     0.1530     2.4470
  127.5000   -59.7030     4.9280     4.2250     7.5480   103.6160     0.0370     0.1490     2.4390
  128.0000   -59.6930     4.9150     4.2230     7.5460   104.5170     0.0370     0.1520     2.4330
  128.5000   -59.6820     4.9030     4.2220     7.5440   104.0810     0.0390     0.1570     2.4280
  129.0000   -59.6710     4.8900     4.2200     7.5420   101.3590     0.0410     0.1620     2.4210
  129.5000   -59.6610     4.8770     4.2180     7.5400    99.9740     0.0430     0.1670     2.4150
  130.0000   -59.6500     4.8650     4.2160     7.5380   102.6880     0.0460     0.1660     2.4070
  130.5000   -59.6390     4.8520     4.2150     7.5370   104.8390     0.0470     0.1620     2.4000
  131.0000   -59.6290     4.8400     4.2130     7.5370   105.6730     0.0460     0.1540     2.3980
  131.5000   -59.6220     4.8270     4.2110     7.5370   108.1330     0.0460     0.1520     2.4150
  132.0000   -59.6670     4.8140     4.2090     7.5370   110.9380     0.0500     0.1500     2.4290
  132.5000   -59.7110     4.8020     4.2080     7.5370   113.5250     0.0530     0.1490     2.4430
  133.0000   -59.7550     4.7890     4.2060     7.5370   113.7410     0.0510     0.1480     2.4460
  133.5000   -59.7990     4.7770     4.2040     7.5370   113.7410     0.0410     0.1480     2.4380
  134.0000   -59.9210     4.7640     4.2020     7.5370   113.6740     0.0370     0.1480     2.4320
  134.5000   -60.1210     4.7730     4.2010     7.5370   111.2480     0.0350     0.1490     2.4300
  135.0000   -60.3210     4.7830     4.1990     7.5370   109.4000     0.0380     0.1490     2.4290
  135.5000   -60.5210     4.7930     4.1970     7.5370   109.1300     0.0410     0.1490     2.4300
  136.0000   -60.7210     4.8030     4.1960     7.5440   109.1200     0.0430     0.1500     2.4340
  136.5000   -60.9190     4.8130     4.1940     7.5530   109.1160     0.0420     0.1530     2.4380
  137.0000   -61.1190     4.8220     4.1910     7.5610   109.1270     0.0420     0.1570     2.4310
  137.5000   -61.2630     4.8320     4.2330     7.5700   109.6990     0.0410     0.1600     2.4210
  138.0000   -61.4110     4.8420     4.3020     7.5770   110.7680     0.0420     0.1630     2.4110
  138.5000   -61.4060     4.9180     4.3710     7.5740   111.8430     0.0490     0.1510     2.4050
  139.0000   -61.3510     5.0370     4.4400     7.5710   113.3410     0.0510     0.1440     2.4190
  139.5000   -61.2950     5.1560     4.5090     7.5690   115.1370     0.0430     0.1360     2.4660
  140.0000   -61.2390     5.2760     4.6040     7.5660   116.4270     0.0380     0.1280     2.4710
  140.5000   -61.1840     5.3680     4.5940     7.5630   107.2180     0.0360     0.1200     2.4690
  141.0000   -61.1280     5.3580     4.5690     7.5600   106.3360     0.0350     0.1160     2.4680
  141.5000   -61.0720     5.3490     4.5450     7.5570   107.4280     0.0340     0.1140     2.4740
  142.0000   -61.0220     5.3400     4.5210     7.5280   108.6410     0.0330     0.1120     2.4810
  142.5000   -61.0010     5.3310     4.4970     7.4960   109.8390     0.0320     0.1110     2.4870
  143.0000   -60.9820     5.3230     4.4720     7.4640   109.0620     0.0310     0.1110     2.4930
  143.5000   -60.9630     5.2830     4.4490     7.4370   105.6990     0.0300     0.1110     2.4960
  144.0000   -60.9450     5.1570     4.3900     7.4370   102.2210     0.0290     0.1260     2.4980
  144.5000   -60.9260     5.0150     4.3340     7.4370   100.8290     0.0270     0.1410     2.4920
  145.0000   -60.9070     4.8730     4.2780     7.4370   100.8660     0.0260     0.1430     2.4700
  145.5000   -60.8880     4.7310     4.2210     7.4430   100.8710     0.0250     0.1450     2.4430
  146.0000   -60.8700     4.6270     4.1050     7.4500   100.8690     0.0270     0.1480     2.4240
  146.5000   -60.8540     4.5070     3.9180     7.4570   100.8650     0.0300     0.1500     2.4200
  147.0000   -60.8360     4.2960     3.7830     7.4640   101.0910     0.0330     0.1520     2.4240
  147.5000   -61.1280     4.0840     3.4350     7.4710   101.5310     0.0380     0.1560     2.4240
  148.0000   -61.8570     3.8330     3.1110     7.4780   101.2470     0.0430     0.1650     2.4170
  148.5000   -62.7130     3.5640     2.7870     7.4850    99.3010     0.0500     0.1870     2.4020
  149.0000   -63.5690     3.2100     2.4630     7.4920    97.6200     0.0590     0.2150     2.3780
  149.5000   -64.4250     2.8920     2.1390     7.4980    97.8100     0.0610     0.2420     2.3430
  150.0000   -65.1210     2.6800     1.8470     7.5050    98.7090     0.0560     0.2610     2.3060
  150.5000   -65.4140     2.4480     1.8410     7.5120   112.0570     0.0460     0.2930     2.2360
  151.0000   -65.4310     2.4480     1.8320     7.5080   116.1910     0.0360     0.3220     2.1680
  151.5000   -65.4300     2.4480     1.9130     7.4780   119.9020     0.0300     0.3370     2.1270
  152.0000   -65.4290     2.4690     2.0470     7.4820   123.6560     0.0270     0.3310     2.1190
  152.5000   -65.4280     2.6330     2.2220     7.4870   125.7440     0.0280     0.3220     2.1300
  153.0000   -65.4280     2.8680     2.3960     7.4920   123.4840     0.0320     0.2940     2.1520
  153.5000   -64.8620     3.1890     2.9200     7.4970   120.4290     0.0360     0.2600     2.2240
  154.0000   -63.5710     3.7630     3.5930     7.4870   110.9060     0.0410     0.2260     2.3060
  154.5000   -62.2930     4.4240     4.2670     7.4750    98.2990     0.0450     0.1920     2.3920
  155.0000   -62.2230     5.0420     4.9410     7.4640    93.2100     0.0510     0.1580     2.4430
  155.5000   -62.2240     5.5080     5.3970     7.4530    93.6140     0.0640     0.1230     2.5070
  156.0000   -62.2250     5.7970     5.6350     7.4420    94.7720     0.0760     0.1230     2.4980
  156.5000   -62.2240     6.2600     5.8970     7.4300    95.0180     0.0890     0.1230     2.4830
  157.0000   -62.2240     6.2600     5.8320     7.4180    94.3610     0.1020     0.1250     2.4740
  157.5000   -62.2240     6.2600     5.7480     7.4480    92.4620     0.1140     0.1290     2.4730
  158.0000   -62.2240     6.2600     5.2760     7.4880    91.0270     0.1260     0.1350     2.4670
  158.5000   -62.2250     6.0920     4.8460     7.4970    91.0170     0.1360     0.1450     2.4550
  159.0000   -62.2250     5.8510     4.4170     7.4970    90.9640     0.0980     0.1540     2.4430
  159.5000   -62.2260     5.5290     3.9880     7.4970    92.8360     0.0650     0.1700     2.4260
  160.0000   -62.2320     5.1050     3.6880     7.4970    95.1440     0.0530     0.1940     2.4020
  160.5000   -62.4850     4.5260     3.7050     7.4970    97.4330     0.0540     0.2030     2.3510
  161.0000   -63.1230     4.3370     3.7180     7.4970    99.5640     0.0540     0.2090     2.3100
  161.5000   -63.8840     4.3370     3.7310     7.4970   108.3680     0.0540     0.2170     2.2800
  162.0000   -64.0120     4.6040     3.7450     7.4970   114.9430     0.0550     0.1990     2.2950
  162.5000   -63.7870     5.0360     4.0130     7.4970   119.0360     0.0530     0.1780     2.3500
