~VERSION INFORMATION
 VERS.                2.0:   CWLS LOG ASCII STANDARD - VERSION 2.0
 WRAP.                 NO:   ONE LINE PER DEPTH STEP
~WELL INFORMATION
#MNEM.UNIT      DATA TYPE    INFORMATION
#----------   ------------   ------------------------------
 STRT.F            0.0000:   START DEPTH
 STOP.F          561.0000:   STOP DEPTH
 STEP.F            0.1000:   STEP LENGTH
 NULL.          -999.2500:   NO VALUE
 COMP.       F D SERV INC:   COMPANY
 WELL.  83-1 sx 10 #83-10:   WELL
 FLD .             TEAPOT:   FIELD
 LOC .      S10 T38N R78W:   LOCATION
 CNTY.            NATRONA:   COUNTY
 STAT.            WYOMING:   STATE
 CTRY. UNITED STATES OF AMERICA:   COUNTRY
 SRVC.     Atlas Wireline:   SERVICE COMPANY
 DATE.        10-DEC-1992:   LOGDATE
 API .       490252258000:   API NUMBER
~CURVE INFORMATION
#MNEM.UNIT       API CODE    CURVE DESCRIPTION
#----------   ------------   ------------------------------
 DEPT.F                  :   
 GRR .GAPI   07 310 01 00:   GAMMA RAY
 RILD.OHMM   07 120 46 00:   INDUCTION LOG DEEP RESISTIVITY
 RILM.OHMM   07 120 44 00:   INDUCTION LOG MEDIUM RESISTIVITY
~PARAMETER INFORMATION
#MNEM.UNIT          VALUE    DESCRIPTION
#----------   ------------   ------------------------------
 PD  .                 GL:   PERMANENT DATUM
 EPD .F              5170:   ELEVATION PERMANENT DATUM
 LMF .                 KB:   LOG MEASURED FROM
 DAPD.F                10:   FEET ABOVE PERMANENT DATUM
 DMF .                 KB:   DRILLING MEASURED FROM
 EKB .F              5180:   KELLING BUSHING
 EDF .F              5179:   DRILLING FLOOR
 EGL .F              5170:   GROUND LEVEL
 DATE.        10-DEC-1992:   RUN DATE
 RUN .                  1:   RUN NUMBER
 DD  .F               567:   DEPTH DRILLER
 DL  .F               569:   DEPTH LOGGER
 BLI .F               560:   BOTTOM LOG INTERVAL
 TLI .F                97:   TOP LOG INTERVAL
 CS  .IN            8.625:   CASING SIZE
 CBD .F                97:   CASING BOTTOM DRILLER
 CBL .F                97:   CASING BOTTOM LOGGER
 BS  .IN            7.875:   BIT SIZE
 BSD .F               567:   BIT SIZE AT DEPTH
 DFT .           AIR FOAM:   DRILLING FLUID TYPE
 MRT .F                65:   MAXIMUM RECORDED TEMPERATURE
 LUN .           HL- 6274:   LOGGING UNIT NUMBER
 LUL .             CASPER:   LOGGING UNIT LOCATION
 ENGI.       P. RASMUSSEN:   RECORDING ENGINEER
 WITN.          G. STRONG:   WITNESSED BY
 CLNT.            A2DTECH:   CLIENT CODE
 ORIG.           5" PRINT:   ORIGIN OF DATA
 UWI .       490252258000:   UNIQUE WELL ID
 DICO. A2D Technologies, Inc.:   DIGITIZING COMPANY
~OTHER INFORMATION
~A    DEPT      GRR      RILD       RILM   
# ...
  145.6000   132.4803     7.2736     7.1915
  145.7000   132.3217     7.2751     7.1661
  145.8000   132.3217     7.3255     7.1421
  145.9000   132.4202     7.3258     7.1422
  146.0000   132.7951     7.3262     7.1423
  146.1000   133.5947     7.3503     7.1424
  146.2000   134.7496     7.3784     7.1425
  146.3000   135.4531     7.3788     7.1081
  146.4000   136.0453     7.3813     7.0933
  146.5000   136.7193     7.4314     7.0934
  146.6000   137.3952     7.4318     7.0935
  146.7000   137.8515     7.4322     7.0936
  146.8000   138.1131     7.4326     7.0947
  146.9000   138.3915     7.4330     7.1432
  147.0000   138.1467     7.4334     7.1433
  147.1000   138.0880     7.4338     7.1434
  147.2000   137.9269     7.4343     7.1435
  147.3000   137.5462     7.4347     7.1436
  147.4000   136.9457     7.4351     7.1437
  147.5000   136.1609     7.4355     7.1471
  147.6000   135.3566     7.4359     7.1935
  147.7000   134.4461     7.4363     7.1936
  147.8000   133.1667     7.4409     7.1937
  147.9000   131.9397     7.4893     7.2200
  148.0000   130.8933     7.4897     7.2440
  148.1000   129.8469     7.5248     7.2441
  148.2000   128.8461     7.5430     7.2499
  148.3000   128.0612     7.5434     7.2947
  148.4000   127.1624     7.5439     7.2948
  148.5000   126.7152     7.5443     7.2949
  148.6000   126.3737     7.5447     7.3239
  148.7000   126.2519     7.5885     7.3680
  148.8000   126.1540     7.5984     7.3970
  148.9000   125.9484     7.6276     7.4054
  149.0000   125.9625     7.6525     7.4486
  149.1000   126.2519     7.6669     7.4487
  149.2000   126.2519     7.7070     7.4879
  149.3000   126.6359     7.7075     7.5007
  149.4000   127.0090     7.7620     7.5008
  149.5000   127.2706     7.7623     7.5190
  149.6000   127.7313     7.7627     7.5532
  149.7000   128.8022     7.7860     7.5572
  149.8000   130.1973     7.8334     7.6060
  149.9000   131.6626     7.8732     7.6061
  150.0000   132.5684     7.8737     7.6062
  150.1000   133.2797     7.8950     7.6343
  150.2000   133.9911     7.9164     7.6593
  150.3000   134.7024     7.9377     7.6732
  150.4000   135.4137     7.9590     7.7127
  150.5000   135.9100     7.9804     7.7129
  150.6000   135.6382     8.0017     7.7130
  150.7000   134.7494     8.0231     7.7514
  150.8000   133.8607     8.0461     7.7668
  150.9000   132.8905     8.0998     7.7669
  151.0000   132.1012     8.1419     7.7836
  151.1000   131.5936     8.1901     7.8212
  151.2000   131.0859     8.2147     7.8213
  151.3000   130.5087     8.2150     7.8214
  151.4000   130.2899     8.2154     7.8215
  151.5000   130.3763     8.2158     7.8216
  151.6000   130.7517     8.2161     7.8217
  151.7000   131.4030     8.2164     7.8218
  151.8000   132.3982     8.2168     7.8219
  151.9000   133.2438     8.2171     7.8220
  152.0000   133.9242     8.2251     7.8221
  152.1000   134.1554     8.2754     7.8663
  152.2000   134.1560     8.2757     7.8767
  152.3000   134.0781     8.2761     7.8769
  152.4000   133.7955     8.2764     7.8770
  152.5000   133.2474     8.2768     7.8771
  152.6000   132.5463     8.2771     7.8772
  152.7000   131.4156     8.2775     7.8773
  152.8000   130.4158     8.2779     7.9322
  152.9000   129.7398     8.2782     7.9323
  153.0000   129.2686     8.2785     7.9324
  153.1000   129.0022     8.2789     7.9325
  153.2000   128.7616     8.2669     7.9326
  153.3000   128.5080     8.2219     7.9426
  153.4000   128.3970     8.2223     7.9880
  153.5000   128.3976     8.2226     7.9881
  153.6000   128.3982     8.2230     7.9882
  153.7000   128.3988     8.1997     7.9883
  153.8000   128.3994     8.1664     7.9609
  153.9000   128.5991     8.1615     7.9334
  154.0000   128.7041     8.1103     7.9335
  154.1000   128.8050     8.1106     7.9336
  154.2000   129.0598     8.1110     7.9337
  154.3000   129.3145     8.1113     7.8890
  154.4000   129.6171     8.1116     7.8791
  154.5000   129.8240     8.1120     7.8793
  154.6000   130.2357     8.1123     7.8570
  154.7000   130.8522     8.1127     7.8251
  154.8000   131.6734     8.1130     7.8135
  154.9000   132.6816     8.1133     7.7408
  155.0000   133.5661     8.1137     7.6963
  155.1000   133.9940     8.1140     7.7396
  155.2000   134.6671     8.1144     7.7402
  155.3000   135.3152     8.1148     7.7407
  155.4000   135.8240     8.1150     7.7412
  155.5000   136.3329     8.1154     7.7418
  155.6000   136.9081     8.1157     7.7423
  155.7000   137.3505     8.1161     7.7461
  155.8000   137.8594     8.1134     7.7973
  155.9000   138.2460     8.0603     7.7978
  156.0000   138.5735     8.0606     7.7983
  156.1000   139.0590     8.0609     7.7989
  156.2000   139.3397     8.0613     7.7994
  156.3000   139.5684     8.0474     7.7999
  156.4000   139.8232     8.0058     7.8005
  156.5000   140.2074     8.0062     7.8010
  156.6000   140.6361     8.0065     7.8016
  156.7000   140.8908     8.0069     7.8021
  156.8000   141.1642     8.0072     7.7880
  156.9000   141.4003     8.0075     7.7492
  157.0000   141.4689     8.0079     7.7499
  157.1000   141.6063     8.0082     7.7504
  157.2000   141.6862     8.0085     7.7509
  157.3000   141.4706     8.0089     7.7762
  157.4000   141.4713     8.0092     7.8059
  157.5000   141.2292     8.0095     7.8064
  157.6000   141.1690     8.0099     7.8070
  157.7000   141.0256     8.0102     7.8075
  157.8000   140.8668     8.0106     7.8080
  157.9000   140.8674     8.0109     7.8086
  158.0000   140.8680     8.0112     7.8091
  158.1000   141.1187     8.0116     7.8097
  158.2000   141.1727     8.0119     7.8102
  158.3000   141.3246     8.0122     7.8108
  158.4000   141.5794     8.0126     7.8113
  158.5000   141.7815     8.0129     7.8394
  158.6000   141.7853     8.0132     7.8667
  158.7000   142.0863     8.0136     7.8673
  158.8000   142.0868     8.0139     7.8688
  158.9000   142.2460     8.0142     7.9232
  159.0000   142.3915     8.0146     7.9236
  159.1000   142.3921     8.0149     7.9534
  159.2000   142.3927     8.0152     8.0002
  159.3000   142.3934     8.0411     8.0359
  159.4000   142.3939     8.0721     8.0388
  159.5000   142.2286     8.0800     8.0930
  159.6000   141.8586     8.1293     8.1338
  159.7000   141.4181     8.1297     8.1503
  159.8000   141.1467     8.1300     8.1509
  159.9000   140.5761     8.1304     8.1514
  160.0000   140.1315     8.1497     8.1558
  160.1000   139.4507     8.1880     8.2093
  160.2000   138.6889     8.1884     8.2098
  160.3000   137.9271     8.1888     8.2434
  160.4000   137.1404     8.2288     8.2681
  160.5000   136.0274     8.2468     8.2832
  160.6000   135.3384     8.2687     8.3320
  160.7000   134.3962     8.3053     8.3852
  160.8000   133.3803     8.3087     8.3858
  160.9000   132.2827     8.3642     8.3864
  161.0000   131.0450     8.3645     8.4126
  161.1000   129.9612     8.3985     8.4458
  161.2000   128.0648     8.4238     8.4464
  161.3000   125.8446     8.4391     8.4471
  161.4000   124.5268     8.4836     8.4940
  161.5000   124.0192     8.4839     8.5069
  161.6000   123.4719     8.5302     8.5075
  161.7000   122.6811     8.5808     8.5260
  161.8000   122.1928     8.6043     8.5761
  161.9000   121.6852     8.6224     8.6281
  162.0000   121.1775     8.6653     8.6287
  162.1000   120.7662     8.6657     8.6683
  162.2000   120.5595     8.7154     8.6899
  162.3000   120.5602     8.7271     8.7101
  162.4000   120.5608     8.7577     8.7515
  162.5000   120.7638     8.8096     8.7521
  162.6000   121.1715     8.8510     8.8137
  162.7000   121.6803     8.8522     8.8556
  162.8000   122.2977     8.9138     8.8761
  162.9000   123.3196     8.9574     8.8983
  163.0000   124.8135     8.9770     8.9507
  163.1000   125.6525     9.0008     9.0019
  163.2000   126.6696     9.0542     9.0026
  163.3000   127.6867     9.1044     9.0469
  163.4000   128.6422     9.1048     9.1002
  163.5000   129.3809     9.1519     9.1301
  163.6000   129.6729     9.1693     9.1575
  163.7000   129.4566     9.1963     9.2588
