~VERSION INFORMATION
 VERS.                2.0:   CWLS LOG ASCII STANDARD - VERSION 2.0
 WRAP.                 NO:   ONE LINE PER DEPTH STEP
~WELL INFORMATION
#MNEM.UNIT      DATA TYPE    INFORMATION
#----------   ------------   ------------------------------
 STRT.F          458.0000:   START DEPTH
 STOP.F         2155.0000:   STOP DEPTH
 STEP.F            0.5000:   STEP LENGTH
 NULL.          -999.2500:   NO VALUE
 COMP.   FLUOR DANIEL INC:   COMPANY
 WELL. NAVAL PETROLEUM RESERVE 3 SHX- 1 #33-29:   WELL
 FLD .             TEAPOT:   FIELD
 LOC .      S29 T39N R78W:   LOCATION
 CNTY.            NATRONA:   COUNTY
 STAT.            WYOMING:   STATE
 CTRY. UNITED STATES OF AMERICA:   COUNTRY
 SRVC.            Unknown:   SERVICE COMPANY
 DATE.        29-JUN-1995:   LOGDATE
 API .       490252272500:   API NUMBER
~CURVE INFORMATION
#MNEM.UNIT       API CODE    CURVE DESCRIPTION
#----------   ------------   ------------------------------
 DEPT.F                  :   
 C1  .VF     91 831 01 00:   METHANE
 C2  .VF     91 832 01 00:   ETHANE
 C3  .VF     91 833 01 00:   PROPANE
 C4  .VF     91 834 01 00:   BUTANE
 ROP .FT/HR  91 810 01 00:   RAT OF DRILLING PENETRATION
 TGAS.TC/CC  91 830 01 00:   TOTAL GAS UNIT
~PARAMETER INFORMATION
#MNEM.UNIT          VALUE    DESCRIPTION
#----------   ------------   ------------------------------
 EKB .F              5020:   KELLING BUSHING
 EGL .F              5010:   GROUND LEVEL
 DATE.        29-JUN-1995:   RUN DATE
 RUN .                  1:   RUN NUMBER
 BLI .F              2155:   BOTTOM LOG INTERVAL
 TLI .F               460:   TOP LOG INTERVAL
 ENGI.     C.TOWER/R.HUSK:   RECORDING ENGINEER
 CLNT.            A2DTECH:   CLIENT CODE
 ORIG.           5" PRINT:   ORIGIN OF DATA
 UWI .       490252272500:   UNIQUE WELL ID
 DICO. A2D Technologies, Inc.:   DIGITIZING COMPANY
~OTHER INFORMATION
~A   DEPT       C1         C2         C3         C4          ROP       TGAS 
# ...
 1238.0000     2.6618     0.0184     0.0000     0.0000     0.6403    11.5223
 1238.5000     2.6526     0.0717     0.0000     0.0000     0.6403    10.5717
 1239.0000     2.6435     0.1470     0.0000     0.0000     0.6403    10.5625
 1239.5000     2.6343     0.1916     0.0000     0.0000     0.6497    10.5533
 1240.0000     2.6250     0.2805     0.0000     0.0000     0.6497    10.5439
 1240.5000     2.6156     0.3694     0.0000     0.0000     0.6545    10.5345
 1241.0000     2.6046     0.3637     0.0000     0.0000     0.6592    11.4671
 1241.5000     2.4079     0.3791     0.0000     0.0000     0.6639    11.4556
 1242.0000     2.3988     0.5072     0.0000     0.0000     0.6585    11.4464
 1242.5000     2.3896     0.5381     0.0000     0.0000     0.6678    11.4373
 1243.0000     2.3804     0.5324     0.0000     0.0000     0.6676    11.4281
 1243.5000     2.3713     0.5278     0.0000     0.0000     0.6769    11.4189
 1244.0000     2.3621     0.4298     0.0000     0.0000     0.6767    11.4097
 1244.5000     2.3530     0.4252     0.0000     0.0000     0.6766    11.4005
 1245.0000     2.3438     0.3271     0.0000     0.0000     0.6764    12.3327
 1245.5000     2.3344     0.3224     0.0000     0.0000     0.6762    13.3258
 1246.0000     2.1357     0.3169     0.0000     0.0000     0.6855    15.1363
 1246.5000     2.1266     0.3123     0.0000     0.0000     0.6853    15.1271
 1247.0000     2.1174     0.3654     0.0000     0.0000     0.6852    15.1179
 1247.5000     2.1083     0.3978     0.0000     0.0000     0.6379    14.1673
 1248.0000     2.0991     0.3921     0.0000     0.0000     0.5530    13.2167
 1248.5000     2.0900     0.3875     0.0000     0.0000     0.5435    12.2661
 1249.0000     2.0808     0.4776     0.0000     0.0000     0.5433    12.2569
 1249.5000     2.0717     0.4719     0.0000     0.0000     0.5431    13.1893
 1250.0000     1.8750     0.4361     0.0000     0.0000     0.5430    13.1799
 1250.5000     1.9855     0.3692     0.0000     0.0000     0.5428    13.1705
 1251.0000     2.1347     0.3636     0.0000     0.0000     0.5427    13.1592
 1251.5000     2.2839     0.3590     0.0000     0.0000     0.5331    13.1500
 1252.0000     2.4087     0.3544     0.0000     0.0000     0.5330    13.1409
 1252.5000     2.2120     0.3499     0.0000     0.0000     0.5328    13.1317
 1253.0000     2.2047     0.3453     0.0000     0.0000     0.5326    14.0647
 1253.5000     2.1973     0.2473     0.0000     0.0000     0.5325    14.9969
 1254.0000     2.1900     0.2427     0.0000     0.0000     0.5418    14.9874
 1254.5000     2.3702     0.2381     0.0000     0.0000     0.5416    14.0348
 1255.0000     2.3625     0.3271     0.0000     0.0000     0.5414    11.2013
 1255.5000     2.3536     0.2923     0.0000     0.0000     0.5413    11.1921
 1256.0000     2.3475     0.2570     0.0000     0.0000     0.5411    11.1829
 1256.5000     2.3389     0.3379     0.0000     0.0000     0.5410    11.1737
 1257.0000     2.3316     0.4280     0.0000     0.0000     0.5408    11.1646
 1257.5000     2.3242     0.4252     0.0000     0.0000     0.5501    11.1554
 1258.0000     2.3169     0.5159     0.0000     0.0000     0.5499    11.1462
 1258.5000     2.3095     0.5000     0.0000     0.0000     0.5497    11.1145
 1259.0000     2.3022     0.4163     0.0000     0.0000     0.5496    11.1278
 1259.5000     2.2948     0.4140     0.0000     0.0000     0.5494    12.0600
 1260.0000     2.2875     0.4112     0.0000     0.0000     0.5493    12.0485
 1260.5000     2.2800     0.4081     0.0000     0.0000     0.5585    12.9831
 1261.0000     2.2725     0.4053     0.0000     0.0000     0.5584    12.9716
 1261.5000     2.2636     0.4028     0.0000     0.0000     0.5582    13.9061
 1262.0000     2.2575     0.3998     0.0000     0.0000     0.5581    13.8946
 1262.5000     2.4383     0.3972     0.0000     0.0000     0.5579    13.8854
 1263.0000     2.4300     0.3943     0.0000     0.0000     0.5577    13.8762
 1263.5000     2.4217     0.3916     0.0000     0.0000     0.5576    13.8670
 1264.0000     2.4150     0.3888     0.0000     0.0000     0.5574    14.7993
 1264.5000     2.4070     0.3860     0.0000     0.0000     0.5573    14.7897
 1265.0000     2.3997     0.3827     0.0000     0.0000     0.5571    14.7786
 1265.5000     2.2042     0.3804     0.0000     0.0000     0.5570    14.7694
 1266.0000     2.1975     0.3772     0.0000     0.0000     0.5568    13.8188
 1266.5000     2.1900     0.3744     0.0000     0.0000     0.5566    11.9267
 1267.0000     2.1825     0.3863     0.0000     0.0000     0.5565    10.9761
 1267.5000     2.1736     0.4631     0.0000     0.0000     0.5563    11.9106
 1268.0000     1.9788     0.4598     0.0000     0.0000     0.5467    11.8992
 1268.5000     1.7839     0.5505     0.0000     0.0000     0.5466    11.8900
 1269.0000     1.7775     0.5476     0.0000     0.0000     0.5464    12.8222
 1269.5000     1.7692     0.5449     0.0000     0.0000     0.5369    13.7544
 1270.0000     1.7619     0.5421     0.0000     0.0000     0.5367    14.6867
 1270.5000     1.7545     0.5387     0.0000     0.0000     0.5366    14.6752
 1271.0000     1.7472     0.5360     0.0000     0.0000     0.5364    14.6660
 1271.5000     1.7398     0.5332     0.0000     0.0000     0.5363    14.6568
 1272.0000     1.7325     0.5305     0.0000     0.0000     0.5361    14.6476
 1272.5000     1.7407     0.5277     0.0000     0.0000     0.5359    14.6384
 1273.0000     1.9362     0.5252     0.0000     0.0000     0.5358    15.5729
 1273.5000     2.0855     0.5223     0.0000     0.0000     0.5356    15.5614
 1274.0000     2.0763     0.5196     0.0000     0.0000     0.5354    15.5522
 1274.5000     2.0689     0.5168     0.0000     0.0000     0.5353    16.4845
 1275.0000     2.0625     0.6072     0.0000     0.0000     0.5351    16.4749
 1275.5000     2.0542     0.6047     0.0000     0.0000     0.5444    17.4075
 1276.0000     2.0469     0.6760     0.0000     0.0000     0.5442    17.3960
 1276.5000     2.2289     0.5930     0.0000     0.0000     0.5441    16.4454
 1277.0000     2.2197     0.5024     0.0000     0.0000     0.5439    14.5534
 1277.5000     2.2125     0.4996     0.0000     0.0000     0.5438    13.6028
 1278.0000     2.2050     0.4972     0.0000     0.0000     0.5436    12.6521
 1278.5000     2.1975     0.4009     0.0000     0.0000     0.5435    12.6429
 1279.0000     2.3384     0.3045     0.0000     0.0000     0.5433    12.6338
 1279.5000     2.3705     0.3017     0.0000     0.0000     0.5431    12.6245
 1280.0000     2.3625     0.2990     0.0000     0.0000     0.5430    13.5568
 1280.5000     2.3539     0.2962     0.0000     0.0000     0.5428    13.5453
 1281.0000     2.3466     0.2935     0.0000     0.0000     0.5427    13.5361
 1281.5000     2.3400     0.2907     0.0000     0.0000     0.5425    13.5269
 1282.0000     2.3319     0.2873     0.0000     0.0000     0.5424    13.5177
 1282.5000     2.3250     0.2846     0.0000     0.0000     0.5516    13.5085
 1283.0000     2.3175     0.2913     0.0000     0.0000     0.5515    13.4993
 1283.5000     2.3098     0.3732     0.0000     0.0000     0.5419    13.4902
 1284.0000     2.3025     0.4636     0.0000     0.0000     0.5417    13.5688
 1284.5000     2.2950     0.4605     0.0000     0.0000     0.5416    12.5303
 1285.0000     2.2875     0.4579     0.0000     0.0000     0.5414    11.5795
 1285.5000     2.2786     0.5485     0.0000     0.0000     0.5413    11.5682
 1286.0000     2.2725     0.5458     0.0000     0.0000     0.5505    10.6176
 1286.5000     2.2639     0.5430     0.0000     0.0000     0.5504     9.6670
 1287.0000     2.2566     0.6336     0.0000     0.0000     0.5502     9.6578
 1287.5000     2.2500     0.6308     0.0000     0.0000     0.5500     9.6486
 1288.0000     2.2425     0.6275     0.0000     0.0000     0.5499     9.6394
 1288.5000     2.2350     0.6248     0.0000     0.0000     0.6439     9.6302
 1289.0000     2.2272     0.6220     0.0000     0.0000     0.6437     7.7382
 1289.5000     2.2200     0.5262     0.0000     0.0000     0.6436     7.7290
