~VERSION INFORMATION
 VERS.                2.0:   CWLS LOG ASCII STANDARD - VERSION 2.0
 WRAP.                 NO:   ONE LINE PER DEPTH STEP
~WELL INFORMATION
#MNEM.UNIT      DATA TYPE    INFORMATION
#----------   ------------   ------------------------------
 STRT.F          250.0000:   START DEPTH
 STOP.F         2527.0000:   STOP DEPTH
 STEP.F            0.5000:   STEP LENGTH
 NULL.          -999.2500:   NO VALUE
 COMP. FENIX & SCISSON INC:   COMPANY
 WELL.       NPR 3 #18-28:   WELL
 FLD .            WILDCAT:   FIELD
 LOC .      S28 T39N R78W:   LOCATION
 CNTY.            NATRONA:   COUNTY
 STAT.            WYOMING:   STATE
 CTRY. UNITED STATES OF AMERICA:   COUNTRY
 SRVC.            Unknown:   SERVICE COMPANY
 DATE.        01-MAY-1979:   LOGDATE
 API .       490251078000:   API NUMBER
~CURVE INFORMATION
#MNEM.UNIT       API CODE    CURVE DESCRIPTION
#----------   ------------   ------------------------------
 DEPT.F                  :   
 CORR.G/C3   45 356 01 00:   DENSITY CORRECTION
 DPHI.DEC    45 890 12 00:   DENSITY POROSITY SANDSTONE
 RHOB.G/C3   45 350 01 00:   BULK DENSITY
 CALD.IN     45 280 60 00:   CALIPER FROM DENSITY LOG
 GRD .GAPI   45 310 01 00:   GAMMA RAY FROM DENSITY LOG
~PARAMETER INFORMATION
#MNEM.UNIT          VALUE    DESCRIPTION
#----------   ------------   ------------------------------
 PD  .                 GL:   PERMANENT DATUM
 EPD .F              5079:   ELEVATION PERMANENT DATUM
 LMF .                 KB:   LOG MEASURED FROM
 DAPD.F                10:   FEET ABOVE PERMANENT DATUM
 DMF .                 KB:   DRILLING MEASURED FROM
 EKB .F              5089:   KELLING BUSHING
 EGL .F              5079:   GROUND LEVEL
 DATE.             5-1-79:   RUN DATE
 RUN .                  1:   RUN NUMBER
 DL  .F              2527:   DEPTH LOGGER
 BLI .F              2527:   BOTTOM LOG INTERVAL
 TLI .F               250:   TOP LOG INTERVAL
 CS  .IN            9.625:   CASING SIZE
 CBD .F               500:   CASING BOTTOM DRILLER
 CBL .F               495:   CASING BOTTOM LOGGER
 BS  .IN             8.75:   BIT SIZE
 DFT .                AIR:   DRILLING FLUID TYPE
 TCS .HRS              12:   TIME CURCULATED STOPPED
 LUL .             CASPER:   LOGGING UNIT LOCATION
 ENGI.         B. ROLLINS:   RECORDING ENGINEER
 WITN.           DINSMORE:   WITNESSED BY
 CLNT.            A2DTECH:   CLIENT CODE
 ORIG.           5" PRINT:   ORIGIN OF DATA
 UWI .       490251078000:   UNIQUE WELL ID
 DICO. A2D Technologies, Inc.:   DIGITIZING COMPANY
~OTHER INFORMATION
~A   DEPT     CORR       DPHI       RHOB       CALD         GRD  
# ...
 1165.0000     0.0391     0.0422     2.4801     9.4757   105.4362
 1165.5000     0.0434     0.0423     2.4859     9.4757   107.0175
 1166.0000     0.0425     0.0429     2.4872     9.4757   104.3799
 1166.5000     0.0362     0.0434     2.4885     9.4757   101.0490
 1167.0000     0.0367     0.0427     2.4905     9.4758   100.4519
 1167.5000     0.0526     0.0366     2.5026     9.4758   100.7496
 1168.0000     0.0650     0.0264     2.5151     9.4729   103.1408
 1168.5000     0.0575     0.0260     2.5182     9.4562   106.5592
 1169.0000     0.0498     0.0323     2.5009     9.4396   109.1536
 1169.5000     0.0421     0.0403     2.4892     9.4231   108.9407
 1170.0000     0.0341     0.0430     2.4790     9.4066   103.9331
 1170.5000     0.0429     0.0379     2.4832     9.3902   101.2900
 1171.0000     0.0555     0.0319     2.4959     9.3737    94.6425
 1171.5000     0.0563     0.0368     2.4899     9.3572    93.9724
 1172.0000     0.0419     0.0434     2.4843     9.3407    95.2001
 1172.5000     0.0494     0.0366     2.4873     9.3242   100.9908
 1173.0000     0.0642     0.0270     2.5064     9.3077   108.8446
 1173.5000     0.0789     0.0174     2.5266     9.2913   111.5316
 1174.0000     0.0845     0.0137     2.5418     9.2815   113.0183
 1174.5000     0.0543     0.0184     2.5257     9.2815   111.5979
 1175.0000     0.0541     0.0223     2.5169     9.2852   109.9008
 1175.5000     0.0882     0.0257     2.5245     9.2904   108.2050
 1176.0000     0.1007     0.0213     2.5346     9.2957   106.4506
 1176.5000     0.0700     0.0201     2.5171     9.3010   107.3679
 1177.0000     0.0447     0.0386     2.4935     9.3063   108.9535
 1177.5000     0.0213     0.0521     2.4720     9.3116   109.5590
 1178.0000     0.0258     0.0471     2.4723     9.3169   106.1019
 1178.5000     0.0330     0.0365     2.4927     9.3222   102.7595
 1179.0000     0.0402     0.0258     2.5071     9.3275   102.6150
 1179.5000     0.0445     0.0192     2.5215     9.3328   103.9464
 1180.0000     0.0346     0.0201     2.5271     9.3380   107.5178
 1180.5000     0.0312     0.0395     2.5101     9.3484   110.1270
 1181.0000     0.0327     0.0399     2.4979     9.3608   109.0557
 1181.5000     0.0284     0.0359     2.4856     9.3734   107.6066
 1182.0000     0.0222     0.0473     2.4730     9.3860   108.2101
 1182.5000     0.0189     0.0525     2.4717     9.3985   109.9811
 1183.0000     0.0378     0.0358     2.4903     9.4111   111.6628
 1183.5000     0.0531     0.0256     2.5095     9.4237   111.7990
 1184.0000     0.0469     0.0322     2.5154     9.4363   109.2128
 1184.5000     0.0406     0.0386     2.4770     9.4488   106.3051
 1185.0000     0.0411     0.0450     2.4764     9.4614   105.0423
 1185.5000     0.0490     0.0482     2.4791     9.4742   105.3340
 1186.0000     0.0737     0.0396     2.5025     9.4664   107.0853
 1186.5000     0.0959     0.0312     2.5111     9.4528   108.7602
 1187.0000     0.0713     0.0232     2.5126     9.4389   109.8646
 1187.5000     0.0799     0.0121     2.5274     9.4251   108.8272
 1188.0000     0.0997    -0.0054     2.5555     9.4113   106.0767
 1188.5000     0.1215    -0.0179     2.5827     9.3975   103.3503
 1189.0000     0.1041    -0.0255     2.6054     9.3837   102.9727
 1189.5000     0.0736    -0.0235     2.6049     9.3699   104.5715
 1190.0000     0.0571     0.0132     2.5497     9.3560   110.1829
 1190.5000     0.0436     0.0442     2.4855     9.3420   112.2462
 1191.0000     0.0333     0.0462     2.4741     9.3398   108.5364
 1191.5000     0.0327     0.0478     2.4722     9.3398   104.7160
 1192.0000     0.0375     0.0450     2.4747     9.3398   102.0572
 1192.5000     0.0437     0.0401     2.4889     9.3398   105.1776
 1193.0000     0.0446     0.0355     2.4976     9.3398   107.4453
 1193.5000     0.0426     0.0338     2.5020     9.3398   104.3200
 1194.0000     0.0463     0.0312     2.5125     9.3398   102.6916
 1194.5000     0.0586     0.0195     2.5278     9.3398   105.6616
 1195.0000     0.0685     0.0090     2.5468     9.3398   107.8032
 1195.5000     0.0585     0.0109     2.5354     9.3398   107.5559
 1196.0000     0.0484     0.0223     2.5162     9.3398   102.2256
 1196.5000     0.0561     0.0240     2.5108     9.3398   101.9521
 1197.0000     0.0767     0.0078     2.5363     9.3398   104.7969
 1197.5000     0.0830     0.0074     2.5524     9.3398   106.6268
 1198.0000     0.0594     0.0240     2.5324     9.3398   104.3732
 1198.5000     0.0531     0.0265     2.5061     9.3398   102.0947
 1199.0000     0.0564     0.0247     2.5071     9.3398   101.9442
 1199.5000     0.0580     0.0268     2.5103     9.3398   105.5426
 1200.0000     0.0442     0.0311     2.5105     9.3398   106.1804
 1200.5000     0.0301     0.0355     2.5031     9.3398   104.1566
 1201.0000     0.0250     0.0395     2.4957     9.3398   101.8839
 1201.5000     0.0274     0.0403     2.4882     9.3398   101.4490
 1202.0000     0.0289     0.0363     2.4945     9.3398   101.5131
 1202.5000     0.0268     0.0335     2.5037     9.3398   103.0602
 1203.0000     0.0248     0.0349     2.5009     9.3398   105.3412
 1203.5000     0.0292     0.0344     2.5003     9.3398   107.4731
 1204.0000     0.0479     0.0246     2.5133     9.3398   109.5975
 1204.5000     0.0664     0.0153     2.5338     9.3398   111.7487
 1205.0000     0.0532     0.0225     2.5210     9.3398   112.4202
 1205.5000     0.0547     0.0255     2.5168     9.3398   108.9964
 1206.0000     0.0640     0.0216     2.5182     9.3398   109.0178
 1206.5000     0.0489     0.0343     2.5136     9.3398   111.8828
 1207.0000     0.0475     0.0320     2.5055     9.3398   112.0641
 1207.5000     0.0369     0.0308     2.5042     9.3398   109.7514
 1208.0000     0.0288     0.0343     2.5087     9.3398   105.4149
 1208.5000     0.0371     0.0343     2.5149     9.3398   101.2103
 1209.0000     0.0456     0.0268     2.5096     9.3398   101.3016
 1209.5000     0.0371     0.0292     2.5034     9.3398   103.4945
 1210.0000     0.0248     0.0308     2.5070     9.3398   105.8351
 1210.5000     0.0290     0.0266     2.5150     9.3398   105.3595
 1211.0000     0.0350     0.0301     2.5124     9.3398   104.3861
 1211.5000     0.0196     0.0355     2.5030     9.3398   105.9152
 1212.0000     0.0291     0.0294     2.5008     9.3433   110.7102
 1212.5000     0.0444     0.0220     2.5140     9.3600   114.9295
 1213.0000     0.0527     0.0220     2.5217     9.3762   113.7659
 1213.5000     0.0440     0.0296     2.5148     9.3923   107.8229
 1214.0000     0.0264     0.0377     2.5041     9.4085   105.1429
 1214.5000     0.0229     0.0415     2.4934     9.4246   107.2319
 1215.0000     0.0265     0.0379     2.4918     9.4408   108.9441
 1215.5000     0.0310     0.0375     2.4965     9.4570   110.6608
 1216.0000     0.0309     0.0363     2.4892     9.4731   112.3687
 1216.5000     0.0390     0.0344     2.4964     9.4895   113.3184
 1217.0000     0.0541     0.0294     2.5018     9.4852   111.1187
 1217.5000     0.0692     0.0245     2.5139     9.4701   108.8032
 1218.0000     0.0808     0.0195     2.5281     9.4547   107.9863
 1218.5000     0.0750     0.0167     2.5334     9.4393   107.2423
 1219.0000     0.0689     0.0143     2.5340     9.4239   106.5020
 1219.5000     0.0665     0.0119     2.5371     9.4086   105.6470
 1220.0000     0.0676     0.0094     2.5396     9.3932   102.3099
 1220.5000     0.0658     0.0082     2.5364     9.3778   100.2210
 1221.0000     0.0596     0.0170     2.5333     9.3621    94.4491
 1221.5000     0.0534     0.0189     2.5303     9.3620    94.2583
 1222.0000     0.0472     0.0164     2.5272     9.3667    97.5441
 1222.5000     0.0446     0.0185     2.5243     9.3715   101.6947
 1223.0000     0.0531     0.0209     2.5244     9.3762   104.8113
 1223.5000     0.0634     0.0191     2.5253     9.3810   107.8747
 1224.0000     0.0737     0.0203     2.5260     9.3857   110.7585
 1224.5000     0.0753     0.0260     2.5163     9.3904   110.2684
 1225.0000     0.0665     0.0317     2.5054     9.3952   109.0763
 1225.5000     0.0577     0.0343     2.5017     9.3999   109.7708
