~VERSION INFORMATION
 VERS.                2.0:   CWLS LOG ASCII STANDARD - VERSION 2.0
 WRAP.                 NO:   ONE LINE PER DEPTH STEP
~WELL INFORMATION
#MNEM.UNIT      DATA TYPE    INFORMATION
#----------   ------------   ------------------------------
 STRT.F            4.0000:   START DEPTH
 STOP.F          528.0000:   STOP DEPTH
 STEP.F            0.1000:   STEP LENGTH
 NULL.          -999.2500:   NO VALUE
 COMP. BROWN JOHN E&C INC:   COMPANY
 WELL.    84-1 SHX- #84-3:   WELL
 FLD .        TEAPOT DOME:   FIELD
 LOC .       S3 T38N R78W:   LOCATION
 CNTY.            NATRONA:   COUNTY
 STAT.            WYOMING:   STATE
 CTRY. UNITED STATES OF AMERICA:   COUNTRY
 SRVC.     Atlas Wireline:   SERVICE COMPANY
 DATE.        18-JAN-1992:   LOGDATE
 API .       490252249900:   API NUMBER
~CURVE INFORMATION
#MNEM.UNIT       API CODE    CURVE DESCRIPTION
#----------   ------------   ------------------------------
 DEPT.F                  :   
 GRR .GAPI   07 310 01 00:   GAMMA RAY
 RILD.OHMM   07 120 46 00:   INDUCTION LOG DEEP RESISTIVITY
 RILM.OHMM   07 120 44 00:   INDUCTION LOG MEDIUM RESISTIVITY
~PARAMETER INFORMATION
#MNEM.UNIT          VALUE    DESCRIPTION
#----------   ------------   ------------------------------
 PD  .                 GL:   PERMANENT DATUM
 EPD .F              5147:   ELEVATION PERMANENT DATUM
 LMF .                 KB:   LOG MEASURED FROM
 DAPD.F                10:   FEET ABOVE PERMANENT DATUM
 DMF .                 KB:   DRILLING MEASURED FROM
 EKB .F              5157:   KELLING BUSHING
 EDF .F              5156:   DRILLING FLOOR
 EGL .F              5147:   GROUND LEVEL
 DATE.        18-JAN-1992:   RUN DATE
 RUN .                  1:   RUN NUMBER
 DD  .F               842:   DEPTH DRILLER
 DL  .F               837:   DEPTH LOGGER
 BLI .F               835:   BOTTOM LOG INTERVAL
 TLI .F                 4:   TOP LOG INTERVAL
 CS  .IN            8.625:   CASING SIZE
 CBD .F                39:   CASING BOTTOM DRILLER
 CBL .F                56:   CASING BOTTOM LOGGER
 BS  .IN             8.75:   BIT SIZE
 BSD .F               842:   BIT SIZE AT DEPTH
 DFT .                AIR:   DRILLING FLUID TYPE
 LUN .           HL- 6272:   LOGGING UNIT NUMBER
 LUL .             CASPER:   LOGGING UNIT LOCATION
 ENGI.       P. RASMUSSEN:   RECORDING ENGINEER
 WITN.          G. STRONG:   WITNESSED BY
 CLNT.            A2DTECH:   CLIENT CODE
 ORIG.           5" PRINT:   ORIGIN OF DATA
 UWI .       490252249900:   UNIQUE WELL ID
 DICO. A2D Technologies, Inc.:   DIGITIZING COMPANY
~OTHER INFORMATION
~A    DEPT      GRR      RILD       RILM   
# ...
  204.2000   121.4305     9.1600     9.2616
  204.3000   121.1833     9.1599     9.2615
  204.4000   120.8097     9.1597     9.2614
  204.5000   120.0522     9.1596     9.2613
  204.6000   118.5691     9.1595     9.2611
  204.7000   117.5754     9.1594     9.2609
  204.8000   116.1943     9.1592     9.2608
  204.9000   114.8812     9.1591     9.2607
  205.0000   113.9817     9.1590     9.2606
  205.1000   113.7089     9.1589     9.2605
  205.2000   113.9316     9.1587     9.2603
  205.3000   114.1800     9.1518     9.2602
  205.4000   114.6481     9.0949     9.2601
  205.5000   115.2848     9.0948     9.2599
  205.6000   115.5356     9.0601     9.2509
  205.7000   116.0270     9.0088     9.1954
  205.8000   116.5232     8.9686     9.1953
  205.9000   117.2857     8.9684     9.1952
  206.0000   118.2777     8.9683     9.1704
  206.1000   119.2694     8.9682     9.1312
  206.2000   120.4025     8.9680     9.1303
  206.3000   120.4031     8.9679     9.0787
  206.4000   120.2472     8.9678     9.0674
  206.5000   120.0000     8.9676     9.0673
  206.6000   119.7087     8.9675     9.0671
  206.7000   119.1897     8.9674     9.0625
  206.8000   118.4828     8.9673     9.0040
  206.9000   117.9195     8.9672     8.9605
  207.0000   117.3009     8.9670     8.9413
  207.1000   116.6930     8.9204     8.9412
  207.2000   116.4230     8.8699     8.9330
  207.3000   115.5460     8.8426     8.8789
  207.4000   115.5465     8.8310     8.8787
  207.5000   115.8409     8.7809     8.8437
  207.6000   116.3371     8.7808     8.7938
  207.7000   116.8681     8.7807     8.7441
  207.8000   117.6767     8.7537     8.6948
  207.9000   118.5826     8.7041     8.6946
  208.0000   119.9147     8.6548     8.6568
  208.1000   121.5162     8.5986     8.6078
  208.2000   123.1360     8.5985     8.5443
  208.3000   124.3770     8.5381     8.4517
  208.4000   125.8650     8.4604     8.3966
  208.5000   126.9654     8.4125     8.3565
  208.6000   127.5453     8.3617     8.2522
  208.7000   127.7937     8.2737     8.0959
  208.8000   128.0671     8.1803     7.9212
  208.9000   128.6256     8.1097     7.7771
  209.0000   128.6262     8.0526     7.7367
  209.1000   128.6268     7.9624     7.7229
  209.2000   128.5228     7.9173     7.7029
  209.3000   128.3239     7.8725     7.6497
  209.4000   128.3246     7.8279     7.5630
  209.5000   128.0852     7.7692     7.5628
  209.6000   127.8379     7.6900     7.5303
  209.7000   127.4627     7.6899     7.5102
  209.8000   127.0394     7.6520     7.5101
  209.9000   126.7924     7.6087     7.5100
  210.0000   126.5047     7.5656     7.5099
  210.1000   126.2980     7.5227     7.4744
  210.2000   125.8994     7.4780     7.4576
  210.3000   125.4994     7.4378     7.4575
  210.4000   125.2911     7.3957     7.4574
  210.5000   125.2918     7.3538     7.4573
  210.6000   125.0618     7.3230     7.4572
  210.7000   124.6400     7.3214     7.4570
  210.8000   124.2634     7.2719     7.4570
  210.9000   124.0163     7.2718     7.4569
  211.0000   123.7751     7.2717     7.4567
  211.1000   123.7757     7.2716     7.4566
  211.2000   123.7763     7.2668     7.4565
  211.3000   123.7769     7.2209     7.4565
  211.4000   123.7775     7.2208     7.4564
  211.5000   123.7781     7.2207     7.4562
  211.6000   123.7788     7.2206     7.4561
  211.7000   123.7793     7.2205     7.4560
  211.8000   123.4500     7.2204     7.4559
  211.9000   123.0638     7.2203     7.4558
  212.0000   122.7638     7.2202     7.4557
  212.1000   122.2620     7.2201     7.4556
  212.2000   121.5292     7.2200     7.4555
  212.3000   120.7865     7.2199     7.4554
  212.4000   120.3080     7.2198     7.4553
  212.5000   119.9847     7.2197     7.4552
  212.6000   119.5096     7.2196     7.4551
  212.7000   119.2262     7.2195     7.4550
  212.8000   119.2268     7.2194     7.4549
  212.9000   119.2274     7.2193     7.4548
  213.0000   119.2280     7.2192     7.4547
  213.1000   119.2286     7.2191     7.4546
  213.2000   119.2292     7.2190     7.4544
  213.3000   119.2298     7.2276     7.4543
  213.4000   119.4092     7.2693     7.4543
  213.5000   119.5350     7.2691     7.4542
  213.6000   119.5356     7.2690     7.4541
  213.7000   119.5361     7.2690     7.4539
  213.8000   119.5369     7.2689     7.4915
  213.9000   119.7395     7.2688     7.5058
  214.0000   119.8419     7.2686     7.5057
  214.1000   119.9323     7.3031     7.5139
  214.2000   120.1471     7.3193     7.5579
  214.3000   120.1478     7.3348     7.5578
  214.4000   120.3737     7.3763     7.5891
  214.5000   120.6221     7.4216     7.6104
  214.6000   120.9836     7.4215     7.6103
  214.7000   121.4799     7.4214     7.6102
  214.8000   121.9768     7.4214     7.6101
  214.9000   122.7211     7.4213     7.6100
  215.0000   123.4650     7.4211     7.6347
  215.1000   124.3454     7.4632     7.6629
  215.2000   125.2572     7.4728     7.6628
  215.3000   126.0010     7.4727     7.6627
  215.4000   126.8414     7.4726     7.7009
  215.5000   127.2735     7.4725     7.7160
  215.6000   127.6102     7.4724     7.7159
  215.7000   127.7550     7.4723     7.7158
  215.8000   127.7556     7.4986     7.7157
  215.9000   127.7563     7.5243     7.7156
  216.0000   127.7569     7.5242     7.7155
  216.1000   127.3915     7.5241     7.7154
  216.2000   127.0233     7.5240     7.7153
  216.3000   126.7761     7.5239     7.7152
  216.4000   126.5434     7.5238     7.7150
  216.5000   126.5442     7.5237     7.7149
  216.6000   126.3384     7.5236     7.7149
  216.7000   126.3915     7.5235     7.7293
  216.8000   126.5459     7.5234     7.7685
  216.9000   126.5844     7.5233     7.7684
  217.0000   126.8511     7.5232     7.8066
  217.1000   127.0812     7.5273     7.8508
  217.2000   127.3296     7.5755     7.8953
  217.3000   127.5780     7.5754     7.9320
  217.4000   127.7653     7.5753     7.9318
  217.5000   127.7758     7.5929     8.0170
  217.6000   128.2723     7.6281     8.0753
  217.7000   128.5718     7.6280     8.1210
  217.8000   128.8202     7.6691     8.1786
  217.9000   129.0687     7.6811     8.2704
  218.0000   129.2888     7.7024     8.3172
  218.1000   129.2894     7.7461     8.3642
  218.2000   129.2900     7.7901     8.4116
  218.3000   129.1267     7.8429     8.4591
  218.4000   128.9872     7.8786     8.5069
  218.5000   128.9363     7.8975     8.5618
  218.6000   128.6845     7.9128     8.5617
  218.7000   128.4416     7.9629     8.5921
  218.8000   128.1945     8.0640     8.6212
  218.9000   127.9473     8.1045     8.6211
  219.0000   127.7000     8.1201     8.6210
  219.1000   127.4341     8.1397     8.6208
  219.2000   126.8645     8.1858     8.6207
  219.3000   126.6545     8.2337     8.6437
  219.4000   126.2528     8.2789     8.6808
  219.5000   125.8561     8.3258     8.6806
  219.6000   125.5668     8.3489     8.6805
  219.7000   125.0438     8.3488     8.6804
  219.8000   124.5766     8.3487     8.6803
  219.9000   124.0815     8.3485     8.6801
  220.0000   123.4649     8.3484     8.6800
  220.1000   122.7222     8.3483     8.6799
  220.2000   121.9885     8.3482     8.6798
  220.3000   121.4001     8.3481     8.6796
  220.4000   121.6017     8.3480     8.6795
  220.5000   121.7052     8.3479     8.6794
  220.6000   121.8833     8.3160     8.6793
  220.7000   122.3797     8.2897     8.6791
  220.8000   122.9229     8.2896     8.6452
  220.9000   123.1478     8.2894     8.6187
  221.0000   123.5644     8.2893     8.6186
  221.1000   124.2847     8.2892     8.6185
  221.2000   125.1648     8.2891     8.6183
  221.3000   125.6614     8.2890     8.6182
  221.4000   126.4050     8.2889     8.6181
  221.5000   127.3405     8.2887     8.6032
  221.6000   128.0617     8.2886     8.5581
  221.7000   128.5579     8.2885     8.5580
  221.8000   129.0309     8.2884     8.5579
  221.9000   129.3125     8.2883     8.5578
  222.0000   129.7426     8.2882     8.5576
  222.1000   130.0803     8.2881     8.5575
  222.2000   130.3287     8.2879     8.5574
  222.3000   130.6234     8.2878     8.5573
