~VERSION INFORMATION
 VERS.                2.0:   CWLS LOG ASCII STANDARD - VERSION 2.0
 WRAP.                 NO:   ONE LINE PER DEPTH STEP
~WELL INFORMATION
#MNEM.UNIT      DATA TYPE    INFORMATION
#----------   ------------   ------------------------------
 STRT.F           34.0000:   START DEPTH
 STOP.F          458.0000:   STOP DEPTH
 STEP.F            0.5000:   STEP LENGTH
 NULL.          -999.2500:   NO VALUE
 COMP. FENIX & SCISSON INC:   COMPANY
 WELL.    42 SX 3FO #42-3:   WELL
 FLD .             TEAPOT:   FIELD
 LOC .       S3 T38N R78W:   LOCATION
 CNTY.            NATRONA:   COUNTY
 STAT.            WYOMING:   STATE
 CTRY. UNITED STATES OF AMERICA:   COUNTRY
 SRVC.              Welex:   SERVICE COMPANY
 DATE.        29-JUN-1980:   LOGDATE
 API .       490251081500:   API NUMBER
~CURVE INFORMATION
#MNEM.UNIT       API CODE    CURVE DESCRIPTION
#----------   ------------   ------------------------------
 DEPT.F                  :   
 RHOB.G/C3   45 350 01 00:   BULK DENSITY
 CORR.G/C3   45 356 01 00:   DENSITY CORRECTION
 DPHI.DEC    45 890 12 00:   DENSITY POROSITY SANDSTONE
 GRD .GAPI   45 310 01 00:   GAMMA RAY FROM DENSITY LOG
 CALD.IN     45 280 60 00:   CALIPER
~PARAMETER INFORMATION
#MNEM.UNIT          VALUE    DESCRIPTION
#----------   ------------   ------------------------------
 PD  .                 GL:   PERMANENT DATUM
 EPD .F              5162:   ELEVATION PERMANENT DATUM
 LMF .                 KB:   LOG MEASURED FROM
 DAPD.F                 5:   FEET ABOVE PERMANENT DATUM
 DMF .                 KB:   DRILLING MEASURED FROM
 EKB .F              5167:   KELLING BUSHING
 EGL .F              5162:   GROUND LEVEL
 DATE.            6-29-80:   RUN DATE
 RUN .                  1:   RUN NUMBER
 DD  .F               470:   DEPTH DRILLER
 DL  .F               460:   DEPTH LOGGER
 BLI .F               458:   BOTTOM LOG INTERVAL
 TLI .F                46:   TOP LOG INTERVAL
 CS  .IN                7:   CASING SIZE
 BS  .IN             6.25:   BIT SIZE
 BSD .F               470:   BIT SIZE AT DEPTH
 DFT .        AIR DRILLED:   DRILLING FLUID TYPE
 BHT .F                73:   BOTTOM HOLE TEMPERATURE
 TCS .HRS               2:   TIME CURCULATED STOPPED
 MRT .F                73:   MAXIMUM RECORDED TEMPERATURE
 ENGI.            TOTHILL:   RECORDING ENGINEER
 WITN.              AMEND:   WITNESSED BY
 CLNT.            A2DTECH:   CLIENT CODE
 ORIG.           5" PRINT:   ORIGIN OF DATA
 UWI .       490251081500:   UNIQUE WELL ID
 DICO. A2D Technologies, Inc.:   DIGITIZING COMPANY
~OTHER INFORMATION
~A   DEPT       RHOB      CORR      DPHI         GRD        CALD 
   34.0000     1.7713    -0.6582  -999.2500    84.7896     6.9539
   34.5000     1.7913    -0.6509  -999.2500    81.8124     6.9539
   35.0000     1.7923    -0.6405  -999.2500    78.5771     6.9580
   35.5000     1.7819    -0.6336  -999.2500    78.1184     6.9617
   36.0000     1.7639    -0.6248  -999.2500    79.8262     6.9663
   36.5000     1.7387    -0.6445  -999.2500    80.1573     6.9711
   37.0000     1.7050    -0.6685  -999.2500    79.2003     6.9842
   37.5000     1.6683    -0.6918  -999.2500    78.9067     7.0444
   38.0000     1.6440    -0.6968  -999.2500    80.4135     7.1034
   38.5000     1.6303    -0.6942  -999.2500    79.2656     7.1441
   39.0000     1.6498    -0.6561  -999.2500    78.0596     7.0736
   39.5000     1.6780    -0.5969  -999.2500    76.9810     7.0743
   40.0000     1.7001    -0.5366  -999.2500    77.4616     7.0647
   40.5000     1.6836    -0.4932  -999.2500    78.4090     7.0239
   41.0000     1.6648    -0.4875  -999.2500    79.6446     6.9846
   41.5000     1.6726    -0.4863  -999.2500    80.8906     6.9451
   42.0000     1.6653    -0.5241  -999.2500    82.5374     6.8968
   42.5000     1.7297    -0.5616  -999.2500    84.3952     6.8069
   43.0000     1.8633    -0.5765  -999.2500    86.1425     6.7177
   43.5000     1.9625    -0.4346  -999.2500    86.6979     6.6280
   44.0000     2.0038    -0.3276  -999.2500    87.2979     6.5374
   44.5000     2.1406    -0.2163  -999.2500    89.5897     6.5283
   45.0000     2.2496    -0.1028  -999.2500    92.7155     6.5208
   45.5000     2.3824     0.0113  -999.2500    96.2964     6.5130
   46.0000     2.4655     0.0775     0.1420    99.8755     6.5050
   46.5000     2.4553     0.0924     0.1444   100.6032     6.4971
   47.0000     2.4420     0.0911     0.1539   100.7490     6.4891
   47.5000     2.4207     0.0783     0.1607   102.4788     6.4813
   48.0000     2.4112     0.0774     0.1593   104.1721     6.4722
   48.5000     2.4238     0.0764     0.1583   105.8696     6.4305
   49.0000     2.4152     0.0756     0.1601   108.0163     6.3866
   49.5000     2.4074     0.0745     0.1621   110.4678     6.3436
   50.0000     2.4257     0.0879     0.1518   111.7188     6.3164
   50.5000     2.4488     0.1065     0.1374   111.4590     6.3321
   51.0000     2.4685     0.1253     0.1240   110.9096     6.3469
   51.5000     2.4794     0.1308     0.1204   110.0896     6.3618
   52.0000     2.4820     0.1230     0.1217   108.9538     6.3767
   52.5000     2.4741     0.1155     0.1248   108.6992     6.3916
   53.0000     2.4898     0.1264     0.1134   109.8447     6.4065
   53.5000     2.5075     0.1393     0.1111   110.9707     6.4214
   54.0000     2.4971     0.1423     0.1177   112.1124     6.4364
   54.5000     2.4802     0.1189     0.1252   111.8936     6.4519
   55.0000     2.4645     0.0960     0.1318   111.2124     6.4271
   55.5000     2.4587     0.0830     0.1375   110.5001     6.3977
   56.0000     2.4499     0.0799     0.1415   111.4139     6.3683
   56.5000     2.4399     0.0769     0.1479   112.4418     6.3564
   57.0000     2.4393     0.0766     0.1462   111.6124     6.3644
   57.5000     2.4440     0.0766     0.1424   110.4241     6.3722
   58.0000     2.4487     0.0766     0.1387   109.2156     6.3801
   58.5000     2.4534     0.0788     0.1360   109.1367     6.3880
   59.0000     2.4581     0.0867     0.1342   110.4544     6.3959
   59.5000     2.4628     0.0945     0.1325   111.7410     6.4038
   60.0000     2.4676     0.1025     0.1324   113.0081     6.4116
   60.5000     2.4624     0.0986     0.1364   113.1792     6.4196
   61.0000     2.4545     0.0902     0.1404   110.9849     6.4274
   61.5000     2.4473     0.0824     0.1416   109.6603     6.4352
   62.0000     2.4481     0.0806     0.1415   110.6834     6.4431
   62.5000     2.4511     0.0787     0.1397   111.7488     6.4509
   63.0000     2.4515     0.0769     0.1381   113.1158     6.4588
   63.5000     2.4514     0.0751     0.1369   114.4666     6.4666
   64.0000     2.4555     0.0800     0.1331   114.1277     6.4745
   64.5000     2.4710     0.0910     0.1232   113.8621     6.4823
   65.0000     2.4878     0.1011     0.1134   114.8272     6.4905
   65.5000     2.4966     0.1057     0.1101   114.5787     6.4722
   66.0000     2.5046     0.1090     0.1076   112.7032     6.4406
   66.5000     2.5121     0.1123     0.1051   110.0359     6.4085
   67.0000     2.5074     0.1135     0.1106   110.1197     6.3766
   67.5000     2.4979     0.1027     0.1201   110.8307     6.3441
   68.0000     2.4819     0.0918     0.1299   109.7191     6.3431
   68.5000     2.4665     0.0830     0.1390   108.0881     6.3589
   69.0000     2.4514     0.0750     0.1477   108.5886     6.3750
   69.5000     2.4295     0.0666     0.1525   109.9463     6.3912
   70.0000     2.4271     0.0759     0.1399   111.2361     6.4073
   70.5000     2.4488     0.0919     0.1293   110.1480     6.4234
   71.0000     2.4702     0.0980     0.1270   109.8730     6.4366
   71.5000     2.4755     0.1003     0.1247   111.0344     6.4454
   72.0000     2.4769     0.1024     0.1224   112.1624     6.4542
   72.5000     2.4848     0.1045     0.1235   112.2531     6.4630
   73.0000     2.4868     0.0975     0.1280   109.1931     6.4719
   73.5000     2.4663     0.0896     0.1326   107.1130     6.4806
   74.0000     2.4584     0.0826     0.1347   105.0114     6.4898
   74.5000     2.4539     0.0826     0.1342   105.0400     6.4726
   75.0000     2.4643     0.0944     0.1291   107.6879     6.4395
   75.5000     2.4748     0.1076     0.1264   109.6155     6.4060
   76.0000     2.4815     0.1212     0.1289   110.3473     6.3740
   76.5000     2.4615     0.1095     0.1397   110.6306     6.3822
   77.0000     2.4397     0.0881     0.1465   110.2261     6.3922
   77.5000     2.4289     0.0666     0.1509   109.1395     6.4020
   78.0000     2.4365     0.0653     0.1395   108.0030     6.4117
   78.5000     2.4721     0.0905     0.1287   105.6275     6.4215
   79.0000     2.4906     0.1099     0.1183   103.0248     6.4313
   79.5000     2.4901     0.1130     0.1125   103.5564     6.4411
   80.0000     2.4985     0.1163     0.1073   104.4783     6.4516
   80.5000     2.5129     0.1197     0.1032   107.1778     6.4269
   81.0000     2.5131     0.1201     0.1055   109.8424     6.3936
   81.5000     2.5054     0.1193     0.1088   112.1144     6.3593
   82.0000     2.5008     0.1188     0.1104   111.6276     6.3590
   82.5000     2.5092     0.1348     0.0986   107.9293     6.3696
   83.0000     2.5213     0.1528     0.0942   107.3931     6.3805
   83.5000     2.5431     0.1709     0.0867   106.6194     6.3913
   84.0000     2.5648     0.1906     0.0793   103.9669     6.4022
   84.5000     2.5697     0.2066     0.0767   103.7297     6.4130
   85.0000     2.5589     0.2122     0.0793   104.1478     6.4238
   85.5000     2.5672     0.2181     0.0763   101.8546     6.4342
   86.0000     2.5610     0.2121     0.1009   100.4227     6.4412
   86.5000     2.4880     0.1515     0.1203   102.0549     6.4480
   87.0000     2.4655     0.1106     0.1312   104.7230     6.4380
   87.5000     2.4634     0.0747     0.1325   105.5007     6.3935
   88.0000     2.4628     0.0776     0.1330   106.2576     6.3499
   88.5000     2.4584     0.0813     0.1348   108.9855     6.3144
   89.0000     2.4602     0.0855     0.1340   110.5354     6.3353
   89.5000     2.4634     0.0939     0.1312   111.0226     6.3555
   90.0000     2.4698     0.1024     0.1272   111.3603     6.3755
   90.5000     2.4795     0.1066     0.1208   111.5978     6.3955
   91.0000     2.4874     0.1065     0.1246   110.8687     6.4156
   91.5000     2.4771     0.1018     0.1285   108.7654     6.4356
   92.0000     2.4681     0.0874     0.1290   107.0199     6.4557
   92.5000     2.4809     0.0941     0.1183   106.4042     6.4732
   93.0000     2.4995     0.1048     0.1077   106.2218     6.4567
   93.5000     2.5179     0.1253     0.1024   102.9190     6.4390
   94.0000     2.5199     0.1264     0.1024    99.5968     6.4212
   94.5000     2.5087     0.1054     0.1013    97.8426     6.4182
