~VERSION INFORMATION
 VERS.                2.0:   CWLS LOG ASCII STANDARD - VERSION 2.0
 WRAP.                 NO:   ONE LINE PER DEPTH STEP
~WELL INFORMATION
#MNEM.UNIT      DATA TYPE    INFORMATION
#----------   ------------   ------------------------------
 STRT.F           32.0000:   START DEPTH
 STOP.F          517.0000:   STOP DEPTH
 STEP.F            0.5000:   STEP LENGTH
 NULL.          -999.2500:   NO VALUE
 COMP.    FENIX & SCISSON:   COMPANY
 WELL.        NPR #75-S-3:   WELL
 FLD .             TEAPOT:   FIELD
 LOC .       S3 T38N R78W:   LOCATION
 CNTY.            NATRONA:   COUNTY
 STAT.            WYOMING:   STATE
 CTRY. UNITED STATES OF AMERICA:   COUNTRY
 SRVC.              Welex:   SERVICE COMPANY
 DATE.        08-MAR-1977:   LOGDATE
 API .       490251030900:   API NUMBER
~CURVE INFORMATION
#MNEM.UNIT       API CODE    CURVE DESCRIPTION
#----------   ------------   ------------------------------
 DEPT.F                  :   
 SPR .MV     07 010 01 00:   SPONTANEOUS POTENTIAL
 ILD .OHMM   07 120 46 00:   INDUCTION LOG DEEP RES
 ILM .OHMM   07 120 44 00:   INDUCTION LOG MEDIUM RES
 SGRD.OHMM   07 220 05 00:   SHALLOW  GUARD RESISTIVITY
 CALD.IN     45 280 60 00:   CALIPER FROM DENSITY
 GRD .GAPI   45 310 01 00:   GAMMA RAY FROM DENSITY LOG
 CORR.G/C3   45 356 01 00:   DENSITY CORRECTION
 DPHI.DEC    45 890 12 00:   DENSITY POROSITY SANDSTONE
 RHOB.G/C3   45 350 01 00:   BULK DENSITY
~PARAMETER INFORMATION
#MNEM.UNIT          VALUE    DESCRIPTION
#----------   ------------   ------------------------------
 PD  .                 GL:   PERMANENT DATUM
 EPD .F              5141:   ELEVATION PERMANENT DATUM
 LMF .                 GL:   LOG MEASURED FROM
 DMF .                 GL:   DRILLING MEASURED FROM
 EGL .F              5141:   GROUND LEVEL
 DATE.         03-08-1977:   RUN DATE
 RUN .                  1:   RUN NUMBER
 DD  .F               521:   DEPTH DRILLER
 DL  .F               521:   DEPTH LOGGER
 BLI .F               519:   BOTTOM LOG INTERVAL
 TLI .F                35:   TOP LOG INTERVAL
 CS  .IN            8.625:   CASING SIZE
 CBD .F                40:   CASING BOTTOM DRILLER
 CBL .F                42:   CASING BOTTOM LOGGER
 BS  .IN            7.875:   BIT SIZE
 BSD .F               521:   BIT SIZE AT DEPTH
 DFT .            KCL MUD:   DRILLING FLUID TYPE
 DFD .                8.5:   DRILLING FLUID DENSITY
 DFV .                 32:   DRILLING FLUID VISCOSITY
 DFPH.                  8:   DRILLING FLUID PH
 DFL .                8.5:   DRILLING FLUID LOSS
 MSS .            MUD PIT:   MUD SAMPLE SOURCE
 RMS .OHMM            .65:   RESISTIVITY MUD SAMPLE
 MST .F                53:   MUD SAMPLE TEMPERATURE
 RMF .OHMM            .51:   RESISTIVITY MUD FILTRATE SAMPLE
 MFST.F                58:   MUD FILTRATE SAMPLE TEMPERATURE
 RMC .OHMM            .67:   RESISTIVITY MUD CAKE
 MCST.F                54:   MUD CAKE SAMPLE TEMPERATURE
 MFSS.           FANN KIT:   MUD FILTRATE SAMPLE SOURCE
 MCSS.           FANN KIT:   MUD CAKE SAMPLE SOURCE
 RMB .OHMM            .53:   RESISTIVITY MUD AT BHT
 BHT .F                64:   BOTTOM HOLE TEMPERATURE
 TCS .HRS             1.5:   TIME CURCULATED STOPPED
 MRT .F                64:   MAXIMUM RECORDED TEMPERATURE
 LUN .               8611:   LOGGING UNIT NUMBER
 LUL .           GILLETTE:   LOGGING UNIT LOCATION
 ENGI.               DOAK:   RECORDING ENGINEER
 WITN.           S. BURKE:   WITNESSED BY
 CLNT.            A2DTECH:   CLIENT CODE
 ORIG.           5" PRINT:   ORIGIN OF DATA
 UWI .       490251030900:   UNIQUE WELL ID
 DICO. A2D Technologies, Inc.:   DIGITIZING COMPANY
~OTHER INFORMATION
~A   DEPT      SPR        ILD        ILM       SGRD       CALD        GRD        CORR        DPHI       RHOB 
# ...
  470.0000   -40.4425    11.0071    12.3229    15.3910     7.9539   107.1174     0.0533     0.0899     2.4944
  470.5000   -40.2847    11.1652    12.4149    14.7775     7.9547   103.5678     0.0549     0.0875     2.4929
  471.0000   -40.2744    11.3256    12.4218    14.8900     7.9555   103.4206     0.0551     0.0851     2.4998
  471.5000   -40.2650    11.5676    12.6011    15.8540     7.9563   104.0467     0.0522     0.0829     2.5066
  472.0000   -40.2530    11.6532    12.8713    15.9746     7.9570   103.3203     0.0495     0.0862     2.5074
  472.5000   -40.2427    11.5774    13.1473    15.9856     7.9578   100.3651     0.0481     0.0856     2.5045
  473.0000   -40.2333    11.5048    13.2455    15.8866     7.9586    98.3014     0.0468     0.0849     2.5038
  473.5000   -40.2222    11.5103    13.5296    16.3421     7.9594    97.2778     0.0470     0.0849     2.5047
  474.0000   -40.2127    11.5159    13.5371    16.8106     7.9602    96.8445     0.0487     0.0837     2.5062
  474.5000   -40.2019    11.5214    13.5446    16.9385     7.9610    99.3912     0.0519     0.0785     2.5146
  475.0000   -40.1913    11.4464    13.5520    16.9502     7.9617   103.1224     0.0551     0.0720     2.5259
  475.5000   -40.1814    11.4533    13.4661    16.7266     7.9625   106.1107     0.0598     0.0685     2.5358
  476.0000   -40.1716    11.5380    13.1983    15.9523     7.9633   108.5047     0.0630     0.0676     2.5201
  476.5000   -40.1613    11.6234    12.6709    16.0828     7.9641   110.0071     0.0616     0.0797     2.5059
  477.0000   -40.2985    11.8718    12.2470    16.8928     7.9649   107.4977     0.0603     0.0853     2.4999
  477.5000   -40.2874    11.9596    12.5113    17.8578     7.9657   103.7995     0.0575     0.0880     2.4970
  478.0000   -40.2780    12.1314    12.8680    18.2352     7.9664   102.2675     0.0561     0.0849     2.5151
  478.5000   -40.2677    12.2211    13.6046    17.8515     7.9672   100.6418     0.0564     0.0783     2.5212
  479.0000   -40.2574    12.0597    14.0891    17.0314     7.9680    99.1945     0.0580     0.0762     2.5220
  479.5000   -40.0996    11.8990    14.1943    16.4641     7.9688    99.7456     0.0582     0.0755     2.5124
  480.0000   -40.0894    11.6626    13.3484    16.1512     7.9696   102.6894     0.0569     0.0842     2.5006
  480.5000   -40.0791    11.6682    12.9910    16.0513     7.9704   103.1518     0.0538     0.0947     2.4854
  481.0000   -40.0688    11.6738    13.3631    15.7166     7.9712   102.5740     0.0497     0.0986     2.4855
  481.5000   -40.0585    11.6794    13.8391    15.8212     7.9719   101.8470     0.0468     0.0977     2.4893
  482.0000   -40.0482    11.6851    13.2861    17.4716     7.9727   104.5387     0.0470     0.0928     2.4924
  482.5000   -40.0367    11.7710    12.9303    16.5483     7.9735   106.7841     0.0472     0.0901     2.4955
  483.0000   -40.0264    11.8581    13.3927    16.2207     7.9743   107.3909     0.0474     0.0885     2.5008
  483.5000   -40.1636    12.2796    13.9656    16.6857     7.9751   105.6285     0.0476     0.0876     2.5039
  484.0000   -40.1533    12.6287    12.9536    16.8127     7.9759   103.1190     0.0462     0.0915     2.4927
  484.5000   -40.1430    12.6348    11.7691    15.4884     7.9766   100.4610     0.0464     0.1011     2.4800
  485.0000   -40.1328    12.2073    11.4556    15.3900     7.9774    99.1403     0.0466     0.1026     2.4831
  485.5000   -40.2700    11.7206    11.0739    15.5097     7.9782   100.1969     0.0453     0.0929     2.4929
  486.0000   -40.2597    11.4108    10.9284    15.4138     7.9790   102.7395     0.0409     0.0896     2.4960
  486.5000   -40.3969    11.1780    10.7093    15.2132     7.9798   104.9849     0.0426     0.0916     2.4908
  487.0000   -40.3866    11.0297    10.2122    14.7078     7.9806   108.2704     0.0443     0.0934     2.4894
  487.5000   -40.3763    10.8146     9.8718    14.3176     7.9813   110.3671     0.0475     0.0850     2.5038
  488.0000   -40.5122    10.8199     9.8773    14.1288     7.9821   111.1233     0.0477     0.0804     2.5099
  488.5000   -40.3545    10.8251    10.1589    14.3373     7.9829   110.9465     0.0494     0.0825     2.5129
  489.0000   -40.4917    10.8304    10.3767    14.0535     7.9837   108.5704     0.0496     0.0799     2.5093
  489.5000   -40.4814    10.7610    10.4542    13.2148     7.9845   106.0982     0.0498     0.0776     2.5138
  490.0000   -40.4711    10.6923    10.4600    14.3669     7.9854   104.3536     0.0515     0.0764     2.5192
  490.5000   -40.4608    10.5511    10.2517    14.0825     7.9855   103.7682     0.0516     0.0752     2.5207
  491.0000   -40.4506    10.4728    10.1170    13.5211     7.9856   106.9128     0.0518     0.0750     2.5208
  491.5000   -40.4407    10.3338    10.1226    13.1624     7.9858   108.8609     0.0504     0.0786     2.5156
  492.0000   -40.4300    10.1966    10.1282    12.7252     7.9859   110.6606     0.0476     0.0824     2.5059
  492.5000   -40.4202    10.0046    10.1338    12.8220     7.9860   112.9059     0.0418     0.0869     2.4985
  493.0000   -40.4099     9.9406    10.1394    13.0989     7.9862   115.7457     0.0360     0.0919     2.4945
  493.5000   -40.3996     9.8105     9.9361    13.1986     7.9863   117.5453     0.0331     0.0988     2.4888
  494.0000   -40.3889     9.7467     9.4099    13.1170     7.9865   118.0076     0.0317     0.0960     2.4930
  494.5000   -40.3786     9.6844     8.7883    13.1260     7.9866   117.2812     0.0395     0.0868     2.5035
  495.0000   -40.3683     9.6903     8.4371    13.6897     7.9867   115.5147     0.0457     0.0815     2.5087
  495.5000   -40.5055     9.5623     8.1560    13.8893     7.9869   113.3024     0.0504     0.0812     2.5117
  496.0000   -40.4952     9.4348     7.9925    13.8034     7.9870   110.0500     0.0521     0.0823     2.5110
  496.5000   -40.4850     9.1839     8.1089    12.9819     7.9872   106.4963     0.0538     0.0838     2.5081
  497.0000   -40.4747     9.0004     8.1684    12.5506     7.9873   109.9345     0.0540     0.0861     2.5037
  497.5000   -40.4644     8.8815     8.0068    12.3852     7.9874   112.9229     0.0557     0.0873     2.5015
  498.0000   -40.4541     8.7631     7.9005    12.2240     7.9876   114.1545     0.0543     0.0858     2.5008
  498.5000   -40.4438     8.8290     8.1269    12.0669     7.9877   112.3206     0.0515     0.0864     2.5017
  499.0000   -40.4335     9.0801     8.3585    11.9902     7.9879    95.6333     0.0502     0.0885     2.4995
  499.5000   -40.4233     9.4678     8.7763    11.8362     7.9880    83.5655     0.0488     0.0894     2.4965
  500.0000   -40.4130     9.6701     9.1517    11.8443     7.9881    51.0897     0.0460     0.0878     2.5004
  500.5000   -40.9321     9.7405     9.1509    11.6881     7.9881  -999.2500     0.0490     0.0833     2.5050
  501.0000   -41.4513     9.6694     9.1509    11.6158     7.9881  -999.2500     0.0520     0.0809     2.5073
  501.5000   -41.8657     9.4066     9.0257    11.4666     7.9881  -999.2500     0.0551     0.0806     2.5096
  502.0000   -41.8590     9.0881     8.8411    11.3154     7.9881  -999.2500     0.0566     0.0809     2.5097
  502.5000   -41.7040     8.6008     8.6008    11.2454     7.9881  -999.2500     0.0566     0.0819     2.5075
  503.0000   -41.6965     8.0837     8.0282    11.2551     7.9881  -999.2500     0.0551     0.0869     2.5031
  503.5000   -41.5415     7.5978     7.3405    11.4192     7.9881  -999.2500     0.0460     0.0992     2.4949
  504.0000   -41.5339     7.2401     6.8048    11.5061     7.9881  -999.2500     0.0400     0.1085     2.4747
  504.5000   -41.2314     7.0920     6.1792    11.0474     7.9881  -999.2500     0.0354     0.1156     2.4582
  505.0000   -40.9289     6.9950     5.8479     9.1144     7.9881  -999.2500     0.0339     0.1161     2.4546
  505.5000   -40.3314     6.9950     5.8479     8.3965     7.9881  -999.2500     0.0354     0.1132     2.4531
  506.0000   -38.9964     7.0920     5.9290    11.1468     7.9881  -999.2500     0.0354     0.1059     2.4697
