~VERSION INFORMATION
 VERS.                2.0:   CWLS LOG ASCII STANDARD - VERSION 2.0
 WRAP.                 NO:   ONE LINE PER DEPTH STEP
~WELL INFORMATION
#MNEM.UNIT      DATA TYPE    INFORMATION
#----------   ------------   ------------------------------
 STRT.F           24.0000:   START DEPTH
 STOP.F          472.0000:   STOP DEPTH
 STEP.F            0.5000:   STEP LENGTH
 NULL.          -999.2500:   NO VALUE
 COMP. FENIX & SCISSON INC:   COMPANY
 WELL. 55-66 SX-3-FP #55-3:   WELL
 FLD .             WLDCAT:   FIELD
 LOC .       S3 T38N R78W:   LOCATION
 CNTY.            NATRONA:   COUNTY
 STAT.            WYOMING:   STATE
 CTRY. UNITED STATES OF AMERICA:   COUNTRY
 SRVC.              Welex:   SERVICE COMPANY
 DATE.        11-JUN-1980:   LOGDATE
 API .       490251082200:   API NUMBER
~CURVE INFORMATION
#MNEM.UNIT       API CODE    CURVE DESCRIPTION
#----------   ------------   ------------------------------
 DEPT.F                  :   
 SPR .MV     07 010 01 00:   SPONTANEOUS POTENTIAL
 GURD.OHMM   07 220 05 00:   GUARD RESISTIVITY
 ILD .OHMM   07 120 46 00:   INDUCTION LOG DEEP RESISTIVITY
 ILM .OHMM   07 120 44 00:   INDUCTION LOG MEDIUM
 DPHI.DEC    45 890 12 00:   DENSITY POROSITY SANDSTONE
 NPHI.DEC    42 890 03 00:   NEUTRON POROSITY SANDSTONE
 CORR.G/C3   45 356 01 00:   DENSITY CORRECTION
 RHOB.G/C3   45 350 01 00:   BULK DENSITY
 CALD.IN     45 280 60 00:   CALIPER
 GRD .GAPI   45 310 01 00:   GAMMA RAY FROM DENSITY LOG
~PARAMETER INFORMATION
#MNEM.UNIT          VALUE    DESCRIPTION
#----------   ------------   ------------------------------
 PD  .                 GL:   PERMANENT DATUM
 EPD .F              5169:   ELEVATION PERMANENT DATUM
 LMF .                 KB:   LOG MEASURED FROM
 DAPD.F                 5:   FEET ABOVE PERMANENT DATUM
 DMF .                 KB:   DRILLING MEASURED FROM
 EKB .F              5174:   KELLING BUSHING
 EGL .F              5169:   GROUND LEVEL
 DATE.            6-11-80:   RUN DATE
 RUN .                  1:   RUN NUMBER
 DD  .F               472:   DEPTH DRILLER
 DL  .F               472:   DEPTH LOGGER
 BLI .F               470:   BOTTOM LOG INTERVAL
 TLI .F                30:   TOP LOG INTERVAL
 BS  .IN            9.875:   BIT SIZE
 BSD .F               472:   BIT SIZE AT DEPTH
 DFT .                KCL:   DRILLING FLUID TYPE
 DFD .                9.5:   DRILLING FLUID DENSITY
 DFV .                 47:   DRILLING FLUID VISCOSITY
 DFPH.                 12:   DRILLING FLUID PH
 DFL .                7.2:   DRILLING FLUID LOSS
 MSS .           MUD TANK:   MUD SAMPLE SOURCE
 RMS .OHMM            .26:   RESISTIVITY MUD SAMPLE
 MST .F                75:   MUD SAMPLE TEMPERATURE
 RMF .OHMM            .21:   RESISTIVITY MUD FILTRATE SAMPLE
 MFST.F                75:   MUD FILTRATE SAMPLE TEMPERATURE
 RMC .OHMM            .31:   RESISTIVITY MUD CAKE
 MCST.F                75:   MUD CAKE SAMPLE TEMPERATURE
 MFSS.           MEASURED:   MUD FILTRATE SAMPLE SOURCE
 MCSS.           MEASURED:   MUD CAKE SAMPLE SOURCE
 RMB .OHMM            .26:   RESISTIVITY MUD AT BHT
 BHT .F                75:   BOTTOM HOLE TEMPERATURE
 TCS .HRS             1.5:   TIME CURCULATED STOPPED
 MRT .F                75:   MAXIMUM RECORDED TEMPERATURE
 LUN .               9685:   LOGGING UNIT NUMBER
 LUL .             CASPER:   LOGGING UNIT LOCATION
 ENGI.               REIN:   RECORDING ENGINEER
 WITN.          DINSMOORE:   WITNESSED BY
 CLNT.            A2DTECH:   CLIENT CODE
 ORIG.           5" PRINT:   ORIGIN OF DATA
 UWI .       490251082200:   UNIQUE WELL ID
 DICO. A2D Technologies, Inc.:   DIGITIZING COMPANY
~OTHER INFORMATION
~A   DEPT      SPR       GURD        ILD        ILM         DPHI       NPHI     CORR       RHOB        CALD       GRD   
# ...
  325.5000   -44.3267    16.7903    12.6089    14.9069     0.1396     0.2675     0.1012     2.3831    10.1009    81.8732
  326.0000   -44.3663    18.0684    12.7856    14.8718     0.1442     0.2690     0.0775     2.3739    10.1004    81.7957
  326.5000   -44.4738    17.5949    12.9783    14.8368     0.1523     0.2707     0.0741     2.3788    10.0999    81.7174
  327.0000   -44.5807    16.6446    12.9783    14.8018     0.1552     0.2723     0.0650     2.3605    10.0994    81.6840
  327.5000   -44.6878    16.7262    12.6943    14.7669     0.1501     0.2740     0.0539     2.3780    10.0989    81.6783
  328.0000   -44.7949    16.7939    12.4847    14.7322     0.1393     0.2742     0.0772     2.4269    10.0983    82.0819
  328.5000   -44.9020    16.3099    12.2786    14.6975     0.1298     0.2736     0.1036     2.4283    10.0978    82.7048
  329.0000   -45.0091    15.8863    12.0758    14.6631     0.1391     0.2726     0.0947     2.4077    10.0973    83.3380
  329.5000   -45.1161    15.9004    11.8765    14.6274     0.1444     0.2740     0.0768     2.3916    10.0968    83.6104
  330.0000   -45.2232    15.9184    11.6804    14.5213     0.1372     0.2771     0.0887     2.4214    10.0963    83.4834
  330.5000   -45.3303    15.9364    11.4876    14.4126     0.1350     0.2768     0.0877     2.4071    10.0958    83.1431
  331.0000   -45.4374    15.9545    11.3052    14.3048     0.1333     0.2740     0.0884     2.4184    10.0953    82.8771
  331.5000   -45.5445    15.9725    11.3210    14.1979     0.1290     0.2716     0.1005     2.4355    10.0947    83.1878
  332.0000   -45.6516    15.9904    11.3369    14.0918     0.1239     0.2715     0.1062     2.4358    10.0942    83.5095
  332.5000   -45.7586    16.0087    11.3529    13.9865     0.1307     0.2709     0.0875     2.4177    10.0937    83.7878
  333.0000   -45.8657    16.0268    11.3688    13.8820     0.1385     0.2696     0.0684     2.3990    10.0932    83.3198
  333.5000   -45.9728    16.0371    11.3848    13.7782     0.1401     0.2695     0.0688     2.3987    10.0927    82.8323
  334.0000   -46.0799    15.5820    11.4003    13.6752     0.1416     0.2698     0.0766     2.4073    10.0922    82.3514
  334.5000   -46.1870    15.2720    11.4119    13.5730     0.1463     0.2773     0.0817     2.3966    10.0917    81.8621
  335.0000   -46.2941    14.9682    11.1330    13.4716     0.1511     0.2805     0.0643     2.3776    10.0911    82.0376
  335.5000   -46.4011    14.6704    10.9170    13.3709     0.1507     0.2763     0.0610     2.3779    10.0906    82.5953
  336.0000   -46.5082    14.3785    10.7049    13.2710     0.1434     0.2753     0.0773     2.4020    10.0901    83.1658
  336.5000   -46.6153    14.2291    10.4969    13.2193     0.1384     0.2728     0.0844     2.4070    10.0896    83.4393
  337.0000   -46.7224    14.0988    10.3114    13.1036     0.1333     0.2749     0.0788     2.4160    10.0891    82.5956
  337.5000   -46.8296    14.4626    10.2536    12.9740     0.1308     0.2800     0.0715     2.4241    10.0886    81.5264
  338.0000   -46.9367    14.8813    10.2009    12.8457     0.1289     0.2850     0.0714     2.4144    10.0880    80.4043
  338.5000   -47.0426    15.1757    10.1485    12.7187     0.1230     0.2872     0.0843     2.4310    10.0875    80.1196
  339.0000   -47.1023    14.5930    10.0963    12.5930     0.1223     0.2840     0.0921     2.4245    10.0870    80.5953
  339.5000   -47.0723    13.9697    10.0444    12.4683     0.1341     0.2863     0.0823     2.4164    10.0865    82.2705
  340.0000   -47.0439    14.0567     9.9928    12.3452     0.1268     0.2884     0.0793     2.4270    10.0860    83.9432
  340.5000   -47.0152    14.2291     9.9388    12.1687     0.1138     0.2850     0.1026     2.4513    10.0855    85.6134
  341.0000   -46.9866    14.0034     9.9726    12.2077     0.1014     0.2808     0.1198     2.4761    10.0850    87.2807
  341.5000   -46.9579    13.7692    10.0178    12.2785     0.1006     0.2775     0.1235     2.4802    10.0844    88.7658
  342.0000   -46.9293    13.7149    10.0632    12.3500     0.1088     0.2771     0.1057     2.4659    10.0839    89.2420
  342.5000   -46.9007    14.1690    10.1088    12.4219     0.1226     0.2785     0.0881     2.4427    10.0834    89.7443
  343.0000   -46.8721    14.4949    10.1547    12.4941     0.1286     0.2765     0.0774     2.4265    10.0829    90.0054
  343.5000   -46.8434    14.2464    10.2007    12.5667     0.1364     0.2756     0.0645     2.4164    10.0824    89.9844
  344.0000   -46.8148    14.0951    10.2470    12.6250     0.1436     0.2784     0.0472     2.4045    10.0819    89.0795
  344.5000   -46.7862    14.9604    10.2935    12.4305     0.1442     0.2812     0.0524     2.3924    10.0814    88.1060
  345.0000   -46.7575    15.6005    10.3114    12.2399     0.1454     0.2840     0.0531     2.3832    10.0808    87.1354
  345.5000   -46.7286    15.0730    10.2657    12.0521     0.1475     0.2840     0.0498     2.3772    10.0803    86.1592
  346.0000   -46.7107    14.5731    10.1927    11.8673     0.1463     0.2813     0.0499     2.3849    10.0798    85.1996
  346.5000   -46.7984    14.4934    10.1202    11.6852     0.1412     0.2797     0.0670     2.3957    10.0793    85.1530
  347.0000   -46.8985    15.0608    10.0483    11.5059     0.1387     0.2810     0.0663     2.4000    10.0788    85.7075
  347.5000   -46.9990    15.3160     9.9775    11.3293     0.1367     0.2824     0.0654     2.4004    10.0783    86.3838
  348.0000   -47.0992    14.9656     9.8920    11.1557     0.1346     0.2813     0.0649     2.4054    10.0778    86.4995
  348.5000   -47.1994    14.4387     9.7940    10.9974     0.1295     0.2793     0.0812     2.4198    10.0772    84.7802
  349.0000   -47.2998    13.9342     9.6961    10.9706     0.1155     0.2792     0.0991     2.4494    10.0767    84.7233
  349.5000   -47.4016    13.5893     9.5992    10.9458     0.1015     0.2806     0.1170     2.4781    10.0762    86.0132
  350.0000   -47.5036    13.7377     9.5034    10.9211     0.0873     0.2819     0.1085     2.5065    10.0757    86.0434
  350.5000   -47.3295    13.8750     9.4084    10.8963     0.0838     0.2825     0.1090     2.5267    10.0751    84.6537
  351.0000   -47.1266    13.9697     9.3150    10.8717     0.0892     0.2835     0.1217     2.5284    10.0744    83.2783
  351.5000   -46.9241    13.6623     9.2325    10.8470     0.0937     0.2852     0.1223     2.5212    10.0737    82.4300
  352.0000   -46.7221    13.4649     9.2146    10.8226     0.0982     0.2868     0.1147     2.5085    10.0730    83.1690
  352.5000   -46.5151    13.8179     9.1941    10.7976     0.1038     0.2844     0.1033     2.4891    10.0722    83.3528
  353.0000   -46.2349    14.3079     9.1738    10.7113     0.1123     0.2824     0.0918     2.4698    10.0715    83.2727
  353.5000   -45.9455    14.6274     9.1489    10.5988     0.1207     0.2796     0.0793     2.4503    10.0708    84.3529
  354.0000   -45.6007    13.9697     9.7396    10.4875     0.1278     0.2725     0.0719     2.4301    10.0700    84.3896
  354.5000   -44.9996    14.6633    10.6881    10.3774     0.1299     0.2672     0.0966     2.4233    10.0693    83.7193
  355.0000   -44.4048    15.6005    11.7290    10.3114     0.1320     0.2672     0.0940     2.4171    10.0686    82.3027
  355.5000   -43.8106    16.7883    12.6600    10.7674     0.1341     0.2643     0.1077     2.4106    10.0678    80.8994
  356.0000   -43.2166    19.1506    13.5174    11.1407     0.1387     0.2685     0.1255     2.3975    10.0671    78.8317
  356.5000   -42.6263    21.8453    14.4328    11.5152     0.1469     0.2729     0.1249     2.3765    10.0663    76.3602
  357.0000   -42.0140    24.9192    15.4103    12.7243     0.1601     0.2754     0.1108     2.3554    10.0656    73.8763
  357.5000   -41.8633    27.0886    16.4539    14.0201     0.1731     0.2767     0.1236     2.3344    10.0649    71.4127
  358.0000   -41.5400    28.6716    17.5682    15.4477     0.1831     0.2802     0.1210     2.3134    10.0641    69.8952
  358.5000   -41.2416    29.4336    18.7580    17.0207     0.1886     0.2848     0.0934     2.3021    10.0634    70.8377
