~VERSION INFORMATION
 VERS.                2.0:   CWLS LOG ASCII STANDARD - VERSION 2.0
 WRAP.                 NO:   ONE LINE PER DEPTH STEP
~WELL INFORMATION
#MNEM.UNIT      DATA TYPE    INFORMATION
#----------   ------------   ------------------------------
 STRT.F           41.0000:   START DEPTH
 STOP.F          468.0000:   STOP DEPTH
 STEP.F            0.1000:   STEP LENGTH
 NULL.          -999.2500:   NO VALUE
 COMP.       F D SERV INC:   COMPANY
 WELL. NAVAL PETROLEUM RESERVE 3 SX-1 #53-1-10:   WELL
 FLD .             TEAPOT:   FIELD
 LOC .      S10 T38N R78W:   LOCATION
 CNTY.            NATRONA:   COUNTY
 STAT.            WYOMING:   STATE
 CTRY. UNITED STATES OF AMERICA:   COUNTRY
 SRVC.     Atlas Wireline:   SERVICE COMPANY
 DATE.        22-DEC-1992:   LOGDATE
 API .       490252256900:   API NUMBER
~CURVE INFORMATION
#MNEM.UNIT       API CODE    CURVE DESCRIPTION
#----------   ------------   ------------------------------
 DEPT.F                  :   
 GRR .GAPI   07 310 01 00:   GAMMA RAY
 RILD.OHMM   07 120 46 00:   INDUCTION LOG DEEP RESISTIVITY
 RILM.OHMM   07 120 44 00:   RESITIVITY LONG MEDIUM
~PARAMETER INFORMATION
#MNEM.UNIT          VALUE    DESCRIPTION
#----------   ------------   ------------------------------
 PD  .                 GL:   PERMANENT DATUM
 EPD .F              5185:   ELEVATION PERMANENT DATUM
 LMF .                 KB:   LOG MEASURED FROM
 DAPD.F                10:   FEET ABOVE PERMANENT DATUM
 DMF .                 KB:   DRILLING MEASURED FROM
 EKB .F              5195:   KELLING BUSHING
 EDF .F              5194:   DRILLING FLOOR
 EGL .F              5185:   GROUND LEVEL
 DATE.        22-DEC-1992:   RUN DATE
 RUN .                  1:   RUN NUMBER
 DD  .F               475:   DEPTH DRILLER
 DL  .F               472:   DEPTH LOGGER
 BLI .F               470:   BOTTOM LOG INTERVAL
 CS  .IN            8.625:   CASING SIZE
 CBL .F                80:   CASING BOTTOM LOGGER
 BS  .IN            7.875:   BIT SIZE
 BSD .F               475:   BIT SIZE AT DEPTH
 DFT .        AIR DRILLED:   DRILLING FLUID TYPE
 LUN .            HL 6321:   LOGGING UNIT NUMBER
 LUL .       RCK, SPRINGS:   LOGGING UNIT LOCATION
 ENGI.      JOHN THOMPSON:   RECORDING ENGINEER
 WITN.          G. STRONG:   WITNESSED BY
 CLNT.            A2DTECH:   CLIENT CODE
 ORIG.           5" PRINT:   ORIGIN OF DATA
 UWI .       490252256900:   UNIQUE WELL ID
 DICO. A2D Technologies, Inc.:   DIGITIZING COMPANY
~OTHER INFORMATION
~A   DEPT      GRR       RILD       RILM   
# ...
  204.8000   167.9887     7.3024     7.9777
  204.9000   167.4944     7.3028     7.9782
  205.0000   166.6060     7.3032     7.9788
  205.1000   165.7573     7.3036     7.9793
  205.2000   165.1022     7.3040     7.9799
  205.3000   164.6409     7.3044     7.9805
  205.4000   164.3736     7.3048     7.9810
  205.5000   164.6025     7.3052     7.9816
  205.6000   165.0255     7.3056     7.9821
  205.7000   165.6421     7.3061     7.9827
  205.8000   166.4526     7.3064     7.9832
  205.9000   167.4240     7.3068     7.9838
  206.0000   167.7217     7.3263     7.9843
  206.1000   167.9255     7.3587     7.9849
  206.2000   168.1763     7.3591     7.9855
  206.3000   168.3345     7.3596     7.9860
  206.4000   168.3370     7.3600     7.9866
  206.5000   168.3396     7.3604     7.9871
  206.6000   168.3418     7.3608     8.0032
  206.7000   168.3442     7.3612     8.0440
  206.8000   168.4691     7.3616     8.0447
  206.9000   168.6521     7.3620     8.0452
  207.0000   168.6545     7.3624     8.0457
  207.1000   168.6574     7.3628     8.0463
  207.2000   168.6594     7.3632     8.0468
  207.3000   169.1184     7.3637     8.0474
  207.4000   169.6709     7.3641     8.0480
  207.5000   169.8788     7.3321     8.0485
  207.6000   169.8813     7.2909     8.0491
  207.7000   169.6470     7.2499     8.0496
  207.8000   169.5830     7.2091     8.0502
  207.9000   169.3307     7.1637     8.0508
  208.0000   168.9091     7.0927     8.0111
  208.1000   168.6270     7.0128     7.9366
  208.2000   167.7749     6.9169     7.8282
  208.3000   167.1415     6.7999     7.6961
  208.4000   166.0844     6.6834     7.5645
  208.5000   164.9475     6.6092     7.3974
  208.6000   164.0522     6.5066     7.1699
  208.7000   163.5443     6.4359     6.9507
  208.8000   162.8218     6.3769     6.7798
  208.9000   162.6400     6.2757     6.6619
  209.0000   162.6424     6.2358     6.4930
  209.1000   162.7225     6.1748     6.3980
  209.2000   162.9963     6.1052     6.2902
  209.3000   163.5591     6.0364     6.1842
  209.4000   164.4283     5.9683     6.0866
  209.5000   165.4243     5.8993     6.0164
  209.6000   166.4202     5.8670     5.9505
  209.7000   167.4162     5.8218     5.8586
  209.8000   168.4194     5.7726     5.7944
  209.9000   169.1615     5.7187     5.7520
  210.0000   169.7172     5.6542     5.6898
  210.1000   170.4909     5.5814     5.6534
  210.2000   171.3216     5.5275     5.6263
  210.3000   171.8208     5.4653     5.6149
  210.4000   172.3736     5.4162     5.6153
  210.5000   172.5975     5.3858     5.6217
  210.6000   172.5142     5.3544     5.6554
  210.7000   172.3806     5.3254     5.6557
  210.8000   172.2097     5.2954     5.6800
  210.9000   171.4732     5.2812     5.7129
  211.0000   171.2273     5.2639     5.7458
  211.1000   171.1782     5.2087     5.7767
  211.2000   171.1806     5.2090     5.7772
  211.3000   171.1832     5.1842     5.8054
  211.4000   171.1854     5.1734     5.8390
  211.5000   170.6469     5.1619     5.8727
  211.6000   170.0299     5.1380     5.9066
  211.7000   169.5356     5.1383     5.9423
  211.8000   169.0412     5.1108     5.9427
  211.9000   168.4707     5.0821     5.9679
  212.0000   167.8424     5.0681     5.9851
  212.1000   166.9442     5.0602     5.9855
  212.2000   165.9531     5.0334     5.9879
  212.3000   164.8236     5.0338     6.0282
  212.4000   163.0280     5.0101     6.0286
  212.5000   161.8309     4.9993     6.0290
  212.6000   161.1471     4.9996     6.0294
  212.7000   160.7833     4.9952     6.0242
  212.8000   160.6133     4.9655     5.9884
  212.9000   160.6371     4.9657     5.9888
  213.0000   160.9215     4.9458     5.9649
  213.1000   161.1387     4.9318     5.9314
  213.2000   161.3895     4.9321     5.8802
  213.3000   161.7461     4.9310     5.7809
  213.4000   162.2964     4.8984     5.6664
  213.5000   163.0546     4.8987     5.6140
  213.6000   163.7915     4.8989     5.5509
  213.7000   164.1587     4.8992     5.4884
  213.8000   164.5451     4.9038     5.4267
  213.9000   164.8824     4.9340     5.3613
  214.0000   164.9111     4.9343     5.3334
  214.1000   165.1906     4.9346     5.3035
  214.2000   165.1927     4.9484     5.2738
  214.3000   165.1951     4.9770     5.2442
  214.4000   165.1976     5.0046     5.2148
  214.5000   165.2000     5.0050     5.1801
  214.6000   165.2024     5.0284     5.1804
  214.7000   165.2048     5.0574     5.1808
  214.8000   165.0121     5.0760     5.1811
  214.9000   164.7662     5.0804     5.1773
  215.0000   164.4344     5.1121     5.1459
  215.1000   164.0021     5.1123     5.1732
  215.2000   164.0051     5.1329     5.1826
  215.3000   163.5574     5.1486     5.2109
  215.4000   163.0631     5.1562     5.2709
  215.5000   162.4531     5.1852     5.3315
  215.6000   161.8323     5.1856     5.4052
  215.7000   161.5863     5.2095     5.4551
  215.8000   161.2926     5.2223     5.5363
  215.9000   161.2945     5.2226     5.6091
  216.0000   161.4424     5.2268     5.6499
  216.1000   161.6024     5.2598     5.7567
  216.2000   161.6772     5.2600     5.7868
  216.3000   162.2135     5.2603     5.8660
  216.4000   162.6756     5.2744     5.9360
  216.5000   163.5253     5.2977     5.9784
  216.6000   164.7625     5.2984     6.0471
  216.7000   166.2551     5.3289     6.1168
  216.8000   167.7253     5.3597     6.2154
  216.9000   168.8950     5.3732     6.2819
  217.0000   169.1020     5.3946     6.3431
  217.1000   169.5033     5.4529     6.4438
  217.2000   169.8109     5.4877     6.4849
  217.3000   169.8133     5.5160     6.5855
  217.4000   169.8159     5.5692     6.6736
  217.5000   169.8182     5.6333     6.7505
  217.6000   169.4602     5.7055     6.8282
  217.7000   169.0914     5.8039     6.9067
  217.8000   168.8454     5.8708     6.9863
  217.9000   168.5670     5.9649     7.0668
  218.0000   167.7095     6.0488     7.1256
  218.1000   167.2915     6.1300     7.1667
  218.2000   166.7971     6.2359     7.2037
  218.3000   166.5042     6.3561     7.2042
  218.4000   166.5067     6.4209     7.2410
  218.5000   166.5092     6.4703     7.2555
  218.6000   166.5115     6.5076     7.2741
  218.7000   166.5139     6.5452     7.3072
  218.8000   166.9079     6.5832     7.3077
  218.9000   167.7313     6.5836     7.3082
  219.0000   168.6849     6.6128     7.3087
  219.1000   169.2512     6.6304     7.3092
  219.2000   169.6832     6.6307     7.3097
  219.3000   169.8618     6.6311     7.3103
  219.4000   169.8642     6.6315     7.3108
  219.5000   169.8667     6.6319     7.3113
  219.6000   169.8691     6.6322     7.3118
  219.7000   169.6268     6.6326     7.3123
  219.8000   168.9056     6.6330     7.3128
  219.9000   168.0387     6.6333     7.3133
  220.0000   166.8889     6.6337     7.3138
  220.1000   165.2310     6.6341     7.3143
  220.2000   164.1263     6.6344     7.2928
  220.3000   162.5893     6.6232     7.2646
  220.4000   161.0183     6.5859     7.2616
  220.5000   159.7515     6.5438     7.2153
  220.6000   158.8163     6.4804     7.2157
  220.7000   158.0749     6.4074     7.1901
  220.8000   157.5806     6.3204     7.1498
  220.9000   157.0862     6.2135     7.1021
  221.0000   156.8727     6.1051     7.0195
  221.1000   156.9609     6.0055     6.9432
  221.2000   157.2429     5.9291     6.8364
  221.3000   157.7893     5.8452     6.7016
  221.4000   158.0164     5.7560     6.5189
  221.5000   158.0970     5.6934     6.2638
  221.6000   158.2150     5.6566     5.9835
  221.7000   158.4048     5.5756     5.8138
  221.8000   158.4101     5.5009     5.6587
  221.9000   158.5429     5.4389     5.5442
  222.0000   158.3367     5.3776     5.4506
  222.1000   158.0919     5.3143     5.3546
  222.2000   157.9454     5.2857     5.3259
  222.3000   157.9054     5.2560     5.2741
  222.4000   157.6486     5.2416     5.2450
  222.5000   157.6515     5.2334     5.2369
  222.6000   157.6546     5.2058     5.2093
  222.7000   157.7828     5.2061     5.2098
  222.8000   157.9636     5.1816     5.2350
  222.9000   157.9815     5.1705     5.2468
