~VERSION INFORMATION
 VERS.                2.0:   CWLS LOG ASCII STANDARD - VERSION 2.0
 WRAP.                 NO:   ONE LINE PER DEPTH STEP
~WELL INFORMATION
#MNEM.UNIT      DATA TYPE    INFORMATION
#----------   ------------   ------------------------------
 STRT.F           21.0000:   START DEPTH
 STOP.F          484.0000:   STOP DEPTH
 STEP.F            0.5000:   STEP LENGTH
 NULL.          -999.2500:   NO VALUE
 COMP.       F D SERV INC:   COMPANY
 WELL. N P R 3 SX-3 #78-3:   WELL
 FLD .             TEAPOT:   FIELD
 LOC .       S3 T38N R78W:   LOCATION
 CNTY.            NATRONA:   COUNTY
 STAT.            WYOMING:   STATE
 CTRY. UNITED STATES OF AMERICA:   COUNTRY
 SRVC.     Atlas Wireline:   SERVICE COMPANY
 DATE.        04-DEC-1992:   LOGDATE
 API .       490252254500:   API NUMBER
~CURVE INFORMATION
#MNEM.UNIT       API CODE    CURVE DESCRIPTION
#----------   ------------   ------------------------------
 DEPT.F                  :   
 DPHI.DEC    45 890 12 00:   DENSITY POROSITY SANDSTONE
 NPHI.DEC    42 890 03 00:   NEUTRON POROSITY SANDSTONE
 C13 .IN     45 280 13 00:   CALIPER 1 - 3
 GRD .GAPI   45 310 01 00:   GAMMA RAY FROM DENSITY LOG
 ZCOR.G/C3   45 356 01 00:   DENSITY CORRECTION
 ZDEN.G/C3   45 350 01 00:   BULK DENSITY
 RILD.OHMM   07 120 46 00:   INDUCTION LOG DEEP RESISTIVITY
 RILM.OHMM   07 120 44 00:   INDUCTION LOG MEDIUM RESISTIVITY
~PARAMETER INFORMATION
#MNEM.UNIT          VALUE    DESCRIPTION
#----------   ------------   ------------------------------
 PD  .                 GL:   PERMANENT DATUM
 EPD .F              5120:   ELEVATION PERMANENT DATUM
 LMF .                 KB:   LOG MEASURED FROM
 DAPD.F                10:   FEET ABOVE PERMANENT DATUM
 DMF .                 KB:   DRILLING MEASURED FROM
 EKB .F              5130:   KELLING BUSHING
 EDF .F              5129:   DRILLING FLOOR
 EGL .F              5120:   GROUND LEVEL
 DATE.        04-DEC-1992:   RUN DATE
 RUN .                  1:   RUN NUMBER
 DD  .F               488:   DEPTH DRILLER
 DL  .F               488:   DEPTH LOGGER
 BLI .F               479:   BOTTOM LOG INTERVAL
 CS  .IN            8.625:   CASING SIZE
 CBD .F                50:   CASING BOTTOM DRILLER
 CBL .F                54:   CASING BOTTOM LOGGER
 BS  .IN            7.875:   BIT SIZE
 BSD .F               488:   BIT SIZE AT DEPTH
 DFT .           AIR FOAM:   DRILLING FLUID TYPE
 MRT .F                66:   MAXIMUM RECORDED TEMPERATURE
 LUN .           HL- 6274:   LOGGING UNIT NUMBER
 LUL .             CASPER:   LOGGING UNIT LOCATION
 ENGI.             RAUTIO:   RECORDING ENGINEER
 WITN.        GARY STRONG:   WITNESSED BY
 CLNT.            A2DTECH:   CLIENT CODE
 ORIG.           5" PRINT:   ORIGIN OF DATA
 UWI .       490252254500:   UNIQUE WELL ID
 DICO. A2D Technologies, Inc.:   DIGITIZING COMPANY
~OTHER INFORMATION
~A   DEPT     DPHI       NPHI        C13        GRD       ZCOR       ZDEN       RILD       RILM   
# ...
  345.0000     0.1399     0.2665     8.2548   136.7862     0.0030     2.4208    14.3937    13.8287
  345.5000     0.1356     0.2677     8.2843   135.8652     0.0151     2.4306    14.1902    13.5400
  346.0000     0.1296     0.2674     8.2988   136.4595     0.0165     2.4397    13.9896    13.3502
  346.5000     0.1263     0.2648     8.3130   137.9628     0.0087     2.4419    13.7918    13.2554
  347.0000     0.1324     0.2617     8.3273   139.4661    -0.0003     2.4353    13.5022    13.0697
  347.5000     0.1381     0.2611     8.3262   139.7929    -0.0019     2.4206    13.3113    13.0679
  348.0000     0.1427     0.2615     8.3102   137.0181     0.0041     2.4153    13.1230    12.8847
  348.5000     0.1385     0.2615     8.2631   136.4002     0.0206     2.4206    13.0281    12.7932
  349.0000     0.1336     0.2609     8.2303   138.2525     0.0372     2.4319    12.8439    12.6135
  349.5000     0.1279     0.2603     8.2010   138.8007     0.0432     2.4394    12.6623    12.4367
  350.0000     0.1273     0.2640     8.1851   137.2737     0.0265     2.4371    12.4833    12.3485
  350.5000     0.1312     0.2670     8.1534   139.9872     0.0062     2.4341    12.3930    12.3459
  351.0000     0.1291     0.2655     8.1366   143.0057    -0.0115     2.4370    12.7581    12.4306
  351.5000     0.1279     0.2630     8.1353   143.6000    -0.0221     2.4385    13.0287    12.5145
  352.0000     0.1298     0.2613     8.1340   141.4061    -0.0252     2.4324    13.2125    12.5119
  352.5000     0.1329     0.2620     8.1327   138.9798    -0.0238     2.4278    13.5871    12.6855
  353.0000     0.1337     0.2629     8.1313   136.5918    -0.0178     2.4286    13.7789    12.9514
  353.5000     0.1322     0.2623     8.1452   133.2466    -0.0072     2.4316    13.8762    13.0396
  354.0000     0.1295     0.2602     8.1439   132.3286     0.0063     2.4353    13.8772    13.0368
  354.5000     0.1268     0.2584     8.1425   134.7381     0.0184     2.4391    13.8698    13.0341
  355.0000     0.1244     0.2605     8.1564   137.1505     0.0198     2.4436    13.6869    13.0314
  355.5000     0.1226     0.2642     8.1547   137.1387     0.0197     2.4467    13.4983    12.9379
  356.0000     0.1226     0.2633     8.1534   135.0057     0.0227     2.4488    13.3123    12.9184
  356.5000     0.1235     0.2621     8.1521   134.3878     0.0287     2.4487    13.1289    12.6637
  357.0000     0.1256     0.2624     8.1507   135.9314     0.0317     2.4442    12.9482    12.4853
  357.5000     0.1284     0.2637     8.1494   138.4041     0.0256     2.4381    12.8589    12.3095
  358.0000     0.1290     0.2655     8.1481   139.8069     0.0134     2.4365    12.5938    12.1361
  358.5000     0.1214     0.2661     8.1468   139.7921     0.0043     2.4478    12.3339    11.9652
  359.0000     0.1142     0.2659     8.1606   140.6893     0.0042     2.4614    12.0795    11.7967
  359.5000     0.1054     0.2665     8.1590   143.4048     0.0073     2.4729    11.9130    11.5496
  360.0000     0.1024     0.2683     8.1425   141.8778     0.0086     2.4796    11.8309    11.4668
  360.5000     0.1042     0.2708     8.1260   141.5659     0.0040     2.4780    11.8319    11.3053
  361.0000     0.1057     0.2732     8.1246   144.5814    -0.0006     2.4757    11.7503    11.0684
  361.5000     0.1057     0.2754     8.1233   147.9029    -0.0006     2.4764    11.7513    10.9891
  362.0000     0.1039     0.2760     8.1372   150.9214     0.0038     2.4794    11.7521    11.0639
  362.5000     0.1015     0.2745     8.1510   147.4242     0.0113     2.4824    11.7529    11.2965
  363.0000     0.1006     0.2724     8.1494   143.3190     0.0188     2.4846    11.9188    11.6143
  363.5000     0.0994     0.2715     8.1480   143.0042     0.0203     2.4869    12.2567    12.1085
  364.0000     0.0979     0.2709     8.1467   144.5075     0.0202     2.4891    12.7812    12.6244
  364.5000     0.0983     0.2682     8.1454   142.6775     0.0187     2.4867    13.4252    13.1622
  365.0000     0.1039     0.2661     8.1441   136.9081     0.0141     2.4640    14.4118    14.1120
  365.5000     0.1286     0.2661     8.1427   128.7145     0.0125     2.4276    16.1558    15.7827
  366.0000     0.1648     0.2631     8.1262   123.5511     0.0336     2.3465    18.0728    17.4159
  366.5000     0.2074     0.2492     8.0783   120.2060     0.0789     2.3018    20.6853    19.3541
  367.0000     0.2153     0.2341     8.0322   118.9820     0.1258     2.2987    22.6493    20.9153
  367.5000     0.1922     0.2293     8.0309   121.1919     0.1106     2.3411    24.9734    22.2598
  368.0000     0.1838     0.2302     8.0602   125.0160     0.0349     2.3471    26.4077    23.6378
  368.5000     0.1959     0.2420     8.0893   126.5223     0.0212     2.3130    27.3465    24.4733
  369.0000     0.2096     0.2578     8.1031   124.6893     0.0272     2.2993    27.9264    25.1618
  369.5000     0.2132     0.2690     8.1321   123.7714     0.0226     2.2985    27.9283    25.6895
  370.0000     0.2105     0.2751     8.1457   123.7566     0.0150     2.3038    27.9303    26.0470
  370.5000     0.2099     0.2760     8.1443   121.3205     0.0089     2.3000    27.7381    26.0403
  371.0000     0.2114     0.2733     8.1427   120.0966     0.0073     2.2992    27.3559    25.4948
  371.5000     0.2142     0.2703     8.1413   121.9029     0.0088     2.2878    26.7915    24.6142
  372.0000     0.2242     0.2673     8.1400   124.9817     0.0147     2.2688    25.8754    23.5986
  372.5000     0.2342     0.2643     8.1387   128.6465     0.0207     2.2635    25.1654    22.6249
  373.0000     0.2303     0.2607     8.1374   131.5615     0.0253     2.2733    24.6462    21.9967
  373.5000     0.2197     0.2586     8.1360   131.2466     0.0243     2.2900    24.3066    21.5359
  374.0000     0.2039     0.2574     8.1347   128.5075     0.0039     2.3135    23.4755    21.3815
  374.5000     0.1924     0.2571     8.1486   127.5866     0.0023     2.3375    22.9911    21.5281
  375.0000     0.1876     0.2584     8.1472   129.6960     0.0083     2.3413    22.9927    21.8256
  375.5000     0.1918     0.2599     8.1763   133.3205     0.0143     2.3314    22.9943    21.9741
  376.0000     0.1985     0.2593     8.2050   136.0360     0.0173     2.3170    23.1568    21.9694
  376.5000     0.2034     0.2575     8.2191   134.5090     0.0157     2.3131    23.1584    21.9648
  377.0000     0.2013     0.2557     8.2330   131.4262     0.0141     2.3207    22.9991    21.9602
  377.5000     0.1952     0.2554     8.2468   129.6364     0.0187     2.3282    22.6825    21.9557
  378.0000     0.1904     0.2567     8.2452   129.3190     0.0248     2.3327    22.3700    22.2601
  378.5000     0.1870     0.2576     8.2439   130.8224     0.0261     2.3382    21.9084    21.7522
  379.0000     0.1842     0.2585     8.2425   131.7226     0.0214     2.3486    21.3073    20.1265
  379.5000     0.1822     0.2586     8.2257   129.8896     0.0199     2.3508    20.7227    18.2918
  380.0000     0.1835     0.2580     8.1940   129.2717     0.0259     2.3492    20.0141    17.5371
  380.5000     0.1829     0.2583     8.1624   130.4720     0.0319     2.3485    19.4650    17.2901
  381.0000     0.1780     0.2613     8.1307   133.7935     0.0227     2.3598    19.1968    17.5298
  381.5000     0.1732     0.2653     8.1142   135.9030     0.0181     2.3673    19.0644    17.8975
  382.0000     0.1714     0.2659     8.0977   133.7294     0.0150     2.3680    19.0660    18.2729
  382.5000     0.1702     0.2632     8.0964   130.9293     0.0197     2.3725    19.0674    18.5262
  383.0000     0.1620     0.2478     8.1102   129.1978     0.0255     2.3840    19.0687    18.5224
  383.5000     0.1535     0.2393     8.1086   129.4890     0.0164     2.3970    19.2034    18.3896
  384.0000     0.1511     0.2394     8.1227   130.9924     0.0012     2.4020    19.0712    17.7544
  384.5000     0.1608     0.2451     8.1366   131.8896     0.0026     2.3807    18.9401    17.3825
  385.0000     0.1742     0.2531     8.1349   131.5748     0.0162     2.3602    18.6791    17.0183
