~VERSION INFORMATION
 VERS.                2.0:   CWLS LOG ASCII STANDARD - VERSION 2.0
 WRAP.                 NO:   ONE LINE PER DEPTH STEP
~WELL INFORMATION
#MNEM.UNIT      DATA TYPE    INFORMATION
#----------   ------------   ------------------------------
 STRT.F           20.0000:   START DEPTH
 STOP.F          632.0000:   STOP DEPTH
 STEP.F            0.5000:   STEP LENGTH
 NULL.          -999.2500:   NO VALUE
 COMP. FENIX & SCISSON INC:   COMPANY
 WELL.    58 SX 34 #34-34:   WELL
 FLD .             TEAPOT:   FIELD
 LOC .      S34 T39N R78W:   LOCATION
 CNTY.            NATRONA:   COUNTY
 STAT.            WYOMING:   STATE
 CTRY. UNITED STATES OF AMERICA:   COUNTRY
 SRVC.            Unknown:   SERVICE COMPANY
 DATE.        30-JAN-1979:   LOGDATE
 API .       490251077300:   API NUMBER
~CURVE INFORMATION
#MNEM.UNIT       API CODE    CURVE DESCRIPTION
#----------   ------------   ------------------------------
 DEPT.F                  :   
 SPR .MV     05 010 01 00:   SPONTANEOUS POTENTIAL FROM RES.
 SN  .OHMM   05 040 16 00:   SHORT NORMAL 16"
 ILD .OHMM   05 120 46 00:   INDUCTION LOG DEEP
 CALD.IN     45 280 60 00:   CALIPER
 CORR.G/C3   45 356 01 00:   DENSITY CORRECTION
 RHOB.G/C3   45 350 01 00:   BULK DENSITY
 GRD .GAPI   45 310 01 00:   GAMMA RAY FROM DENSITY LOG
 DPHI.DEC    45 890 12 00:   DENSITY POROSITY SANDSTONE
~PARAMETER INFORMATION
#MNEM.UNIT          VALUE    DESCRIPTION
#----------   ------------   ------------------------------
 PD  .                 GL:   PERMANENT DATUM
 LMF .                 KB:   LOG MEASURED FROM
 DAPD.F                 4:   FEET ABOVE PERMANENT DATUM
 DMF .                 KB:   DRILLING MEASURED FROM
 DATE.            1-30-79:   RUN DATE
 RUN .                  1:   RUN NUMBER
 DD  .F               635:   DEPTH DRILLER
 DL  .F               632:   DEPTH LOGGER
 BLI .F               626:   BOTTOM LOG INTERVAL
 TLI .F                35:   TOP LOG INTERVAL
 CS  .IN            8.625:   CASING SIZE
 CBD .F                40:   CASING BOTTOM DRILLER
 CBL .F                35:   CASING BOTTOM LOGGER
 BS  .IN            7.875:   BIT SIZE
 BSD .F               635:   BIT SIZE AT DEPTH
 DFT .                KCL:   DRILLING FLUID TYPE
 DFD .                8.9:   DRILLING FLUID DENSITY
 DFV .                230:   DRILLING FLUID VISCOSITY
 DFPH.                  8:   DRILLING FLUID PH
 DFL .                 30:   DRILLING FLUID LOSS
 MSS .           FLOWLINE:   MUD SAMPLE SOURCE
 RMS .OHMM            .18:   RESISTIVITY MUD SAMPLE
 MST .F                62:   MUD SAMPLE TEMPERATURE
 RMF .OHMM            .14:   RESISTIVITY MUD FILTRATE SAMPLE
 MFST.F                59:   MUD FILTRATE SAMPLE TEMPERATURE
 RMC .OHMM            .24:   RESISTIVITY MUD CAKE
 MCST.F                60:   MUD CAKE SAMPLE TEMPERATURE
 MFSS.           MEASURED:   MUD FILTRATE SAMPLE SOURCE
 MCSS.           MEASURED:   MUD CAKE SAMPLE SOURCE
 RMB .OHMM            .17:   RESISTIVITY MUD AT BHT
 BHT .F                70:   BOTTOM HOLE TEMPERATURE
 TCS .HRS               4:   TIME CURCULATED STOPPED
 MRT .F                70:   MAXIMUM RECORDED TEMPERATURE
 LUN .               3006:   LOGGING UNIT NUMBER
 LUL .             CASPER:   LOGGING UNIT LOCATION
 ENGI.            ROLLINS:   RECORDING ENGINEER
 WITN.              AMEND:   WITNESSED BY
 CLNT.            A2DTECH:   CLIENT CODE
 ORIG.         2.5" PRINT:   ORIGIN OF DATA
 UWI .       490251077300:   UNIQUE WELL ID
 DICO. A2D Technologies, Inc.:   DIGITIZING COMPANY
~OTHER INFORMATION
~A   DEPT      SPR         SN        ILD       CALD       CORR       RHOB         GRD      DPHI   
# ...
  425.0000   -26.7090    11.8453    19.5908     7.5605     0.0435     2.3008    79.8078     0.2272
  425.5000   -26.7511    11.8242    19.3837     7.5268     0.0427     2.2991    79.3428     0.2167
  426.0000   -26.7935    11.8038    19.2694     7.5517     0.0417     2.3136    78.6038     0.2061
  426.5000   -26.8359    11.7839    19.0084     7.6715     0.0406     2.3354    79.2954     0.1955
  427.0000   -26.8773    11.7646    18.6224     7.7951     0.0395     2.3563    79.9657     0.1850
  427.5000   -26.9212    11.7456    18.2189     7.8232     0.0385     2.3786    82.2138     0.1816
  428.0000   -26.9632    11.7267    18.2153     7.8511     0.0374     2.3878    85.7010     0.1808
  428.5000   -27.0004    11.7077    18.5549     7.8731     0.0362     2.3877    87.4441     0.1867
  429.0000   -27.1374    11.6887    18.4072     7.8979     0.0385     2.3747    84.2572     0.1938
  429.5000   -27.4257    11.6698    18.2619     7.9225     0.0428     2.3622    82.5679     0.2010
  430.0000   -27.7103    11.6509    18.1186     7.9465     0.0522     2.3486    84.7401     0.2072
  430.5000   -27.9921    11.6320    17.8873     7.9708     0.0625     2.3389    87.1715     0.2038
  431.0000   -28.2471    11.6131    17.9807     7.9951     0.0998     2.3389    88.2007     0.2002
  431.5000   -28.3134    11.5943    18.2696     8.0192     0.1290     2.3517    87.0284     0.1968
  432.0000   -28.3751    11.5756    18.5632     8.0437     0.1491     2.3555    86.1735     0.1960
  432.5000   -28.4310    11.5568    18.9142     8.0685     0.1685     2.3598    85.2536     0.1952
  433.0000   -28.4889    11.5381    18.7833     8.0833     0.1856     2.3634    84.8425     0.1968
  433.5000   -28.5469    11.5195    18.4862     8.0771     0.1722     2.3598    84.6143     0.1997
  434.0000   -28.6041    11.5009    18.1939     8.0716     0.1374     2.3529    83.0964     0.2008
  434.5000   -28.6618    11.4822    17.9062     8.0658     0.1052     2.3514    81.1150     0.2012
  435.0000   -28.7195    11.4632    17.6230     8.0599     0.0704     2.3495    79.1227     0.2017
  435.5000   -28.7773    11.4442    17.7932     8.0541     0.0686     2.3474    77.5668     0.2050
  436.0000   -28.8351    11.3984    18.1053     8.0483     0.0681     2.3409    79.9457     0.2073
  436.5000   -28.8930    11.3529    18.4228     8.0424     0.0641     2.3388    85.5223     0.2082
  437.0000   -28.9508    11.3069    18.7460     8.0366     0.0557     2.3358    85.1256     0.2121
  437.5000   -29.0086    11.2611    18.9142     8.0309     0.0474     2.3261    83.9868     0.2125
  438.0000   -29.0659    11.2156    18.9142     8.0249     0.0439     2.3272    82.7101     0.2083
  438.5000   -29.1239    11.1703    18.9142     8.0194     0.0442     2.3335    82.1359     0.2072
  439.0000   -29.1798    11.1251    19.1746     8.0138     0.0442     2.3382    82.7855     0.2072
  439.5000   -29.2417    11.0802    19.5216     8.0058     0.0441     2.3383    83.3791     0.2072
  440.0000   -29.2975    11.0354    20.0000     8.0173     0.0442     2.3385    84.2830     0.2065
  440.5000   -29.3456    10.9907    19.6313     8.0630     0.0442     2.3413    86.5018     0.2037
  441.0000   -29.4337    10.9463    20.3756     8.0807     0.0442     2.3450    88.7194     0.2008
  441.5000   -29.4790    10.9020    18.7899     8.0637     0.0442     2.3461    86.1154     0.2018
  442.0000   -30.2357    10.8579    17.7906     8.0486     0.0442     2.3444    83.4960     0.2024
  442.5000   -30.2666    10.8140    17.2339     8.0972     0.0442     2.3473    80.6810     0.1985
  443.0000   -30.2965    10.7703    16.8367     8.1764     0.0457     2.3526    78.0053     0.1947
  443.5000   -30.2811    10.7267    16.7030     8.2575     0.0474     2.3576    77.4733     0.1928
  444.0000   -30.2827    10.6833    16.5704     8.2816     0.0492     2.3622    82.4691     0.1920
  444.5000   -30.2750    10.6401    16.4389     8.2473     0.0509     2.3670    85.1348     0.1909
  445.0000   -30.4293    10.5971    16.3084     8.2158     0.0520     2.3705    85.5479     0.1900
  445.5000   -30.8736    10.5542    16.1789     8.1840     0.0514     2.3705    87.8805     0.1896
  446.0000   -31.3042    10.5115    15.9978     8.1514     0.0507     2.3706    86.0072     0.1888
  446.5000   -31.7348    10.4689    16.1389     8.1250     0.0501     2.3705    81.2887     0.1888
  447.0000   -32.1688    10.4278    16.3819     8.1140     0.0493     2.3702    78.5279     0.1915
  447.5000   -32.4132    10.3879    16.6285     8.1044     0.0489     2.3623    78.3405     0.1944
  448.0000   -32.5587    10.3491    16.8789     8.0948     0.0485     2.3586    78.4350     0.1942
  448.5000   -32.7026    10.3106    17.1330     8.0841     0.0535     2.3600    80.0297     0.1939
  449.0000   -32.8473    10.2721    17.3909     8.0485     0.0611     2.3609    82.0522     0.1936
  449.5000   -32.9911    10.2338    17.8873     8.0119     0.0722     2.3622    83.8850     0.1936
  450.0000   -33.1351    10.1957    17.6887     7.9668     0.0773     2.3603    85.2905     0.1960
  450.5000   -33.2792    10.1577    17.3536     7.9892     0.0784     2.3558    84.6805     0.1984
  451.0000   -33.4231    10.1198    17.0248     8.0157     0.0797     2.3550    84.2914     0.1979
  451.5000   -33.5675    10.0821    16.7023     8.0413     0.0820     2.3561    83.8246     0.1958
  452.0000   -33.7120    10.0445    16.3858     7.9928     0.0929     2.3577    85.2766     0.1920
  452.5000   -33.8574    10.0070    16.0754     7.9453     0.1084     2.3591    84.0406     0.1863
  453.0000   -34.0500     9.9697    15.7708     7.9512     0.1204     2.3721    82.8364     0.1791
  453.5000   -34.3131     9.9325    15.4720     8.0290     0.1086     2.3842    81.4537     0.1839
  454.0000   -34.5768     9.8955    15.2177     8.1057     0.0860     2.3893    80.0694     0.1839
  454.5000   -34.8368     9.8586    14.9771     8.0885     0.0615     2.3827    80.1779     0.1839
  455.0000   -35.1008     9.8218    14.7402     8.0307     0.0538     2.3835    83.8562     0.1808
  455.5000   -35.1666     9.7852    14.5071     8.0190     0.0442     2.3858    83.5899     0.1783
  456.0000   -35.1645     9.7487    14.3079     8.0687     0.0426     2.3880    82.7776     0.1792
  456.5000   -35.1626     9.7123    14.3079     8.1138     0.0403     2.3885    87.7943     0.1810
  457.0000   -35.1631     9.6761    14.3079     8.1177     0.0434     2.3860    89.3979     0.1828
  457.5000   -35.1632     9.6400    14.3079     8.0950     0.0470     2.3834    88.5958     0.1831
  458.0000   -35.1628     9.6041    14.3079     8.0718     0.0472     2.3830    87.6935     0.1818
  458.5000   -35.1580     9.5683    14.2477     8.0502     0.0452     2.3841    87.5229     0.1805
  459.0000   -35.2130     9.5324    14.1185     8.0282     0.0434     2.3856    87.9953     0.1791
  459.5000   -35.3438     9.5023    13.9905     8.0023     0.0416     2.3882    84.9832     0.1750
  460.0000   -35.4696     9.5018    13.8636     8.0372     0.0397     2.3941    82.4931     0.1705
  460.5000   -35.5954     9.5012    13.7379     8.0964     0.0380     2.4053    80.6083     0.1686
  461.0000   -35.7227     9.5015    13.6133     8.1599     0.0363     2.4095    81.6704     0.1698
  461.5000   -35.8488     9.5015    13.4899     8.0935     0.0377     2.4022    81.3975     0.1719
  462.0000   -35.9755     9.5015    13.3676     8.0218     0.0391     2.3988    83.3554     0.1719
  462.5000   -36.1025     9.5016    13.2818     7.9300     0.0395     2.4006    86.7289     0.1719
  463.0000   -36.2276     9.5016    13.2820     7.9178     0.0375     2.4020    86.3258     0.1719
  463.5000   -36.3540     9.5016    13.2821     7.8918     0.0354     2.4014    85.8036     0.1736
  464.0000   -36.4139     9.5016    13.2820     7.8711     0.0332     2.3979    85.6044     0.1752
  464.5000   -36.4523     9.5016    13.2819     7.8621     0.0327     2.3946    90.5875     0.1767
  465.0000   -36.4906     9.5016    13.2819     7.7315     0.0349     2.3905    91.8934     0.1755
