~VERSION INFORMATION
 VERS.                2.0:   CWLS LOG ASCII STANDARD - VERSION 2.0
 WRAP.                 NO:   ONE LINE PER DEPTH STEP
~WELL INFORMATION
#MNEM.UNIT      DATA TYPE    INFORMATION
#----------   ------------   ------------------------------
 STRT.F            0.0000:   START DEPTH
 STOP.F          504.0000:   STOP DEPTH
 STEP.F            0.5000:   STEP LENGTH
 NULL.          -999.2500:   NO VALUE
 COMP.       F D SERV INC:   COMPANY
 WELL. NAVAL PETROLEUM RESERVE 3 SX-1 #72-2-10:   WELL
 FLD .      nN. P. R. NO3:   FIELD
 LOC .      S10 T38N R78W:   LOCATION
 CNTY.            NATRONA:   COUNTY
 STAT.            WYOMING:   STATE
 CTRY. UNITED STATES OF AMERICA:   COUNTRY
 SRVC.     Atlas Wireline:   SERVICE COMPANY
 DATE.        09-DEC-1992:   LOGDATE
 API .       490252257300:   API NUMBER
~CURVE INFORMATION
#MNEM.UNIT       API CODE    CURVE DESCRIPTION
#----------   ------------   ------------------------------
 DEPT.F                  :   
 GRR .GAPI   07 310 01 00:   GAMMA RAY
 RILD.OHMM   07 120 46 00:   INDUCTION LOG DEEP RESISTIVITY
 RILM.OHMM   07 120 44 00:   RESITIVITY LONG MEDIUM
~PARAMETER INFORMATION
#MNEM.UNIT          VALUE    DESCRIPTION
#----------   ------------   ------------------------------
 PD  .                 GL:   PERMANENT DATUM
 EPD .F              5169:   ELEVATION PERMANENT DATUM
 LMF .                 KB:   LOG MEASURED FROM
 DAPD.F                10:   FEET ABOVE PERMANENT DATUM
 DMF .                 KB:   DRILLING MEASURED FROM
 EKB .F              5179:   KELLING BUSHING
 EDF .F              5178:   DRILLING FLOOR
 EGL .F              5169:   GROUND LEVEL
 DATE.        09-DEC-1992:   RUN DATE
 RUN .                  1:   RUN NUMBER
 DD  .F               525:   DEPTH DRILLER
 DL  .F               519:   DEPTH LOGGER
 BLI .F               510:   BOTTOM LOG INTERVAL
 CS  .IN            8.625:   CASING SIZE
 CBD .F                83:   CASING BOTTOM DRILLER
 CBL .F                84:   CASING BOTTOM LOGGER
 BS  .IN            7.875:   BIT SIZE
 BSD .F               525:   BIT SIZE AT DEPTH
 DFT .           AIR FOAM:   DRILLING FLUID TYPE
 BHT .F                64:   BOTTOM HOLE TEMPERATURE
 MRT .F                64:   MAXIMUM RECORDED TEMPERATURE
 LUN .           HL- 6274:   LOGGING UNIT NUMBER
 LUL .             CASPER:   LOGGING UNIT LOCATION
 ENGI.       P. RASMUSSEN:   RECORDING ENGINEER
 WITN.          G. STRONG:   WITNESSED BY
 CLNT.            A2DTECH:   CLIENT CODE
 ORIG.           5" PRINT:   ORIGIN OF DATA
 UWI .       490252257300:   UNIQUE WELL ID
 DICO. A2D Technologies, Inc.:   DIGITIZING COMPANY
~OTHER INFORMATION
~A    DEPT      GRR      RILD       RILM   
# ...
  273.0000   145.0183     6.2517     6.2717
  273.5000   142.9129     5.7524     5.6526
  274.0000   142.3127     5.4795     5.3107
  274.5000   144.7260     5.4034     5.1296
  275.0000   149.2470     5.3283     5.2008
  275.5000   152.5914     5.3276     5.3544
  276.0000   153.1685     5.4027     5.6898
  276.5000   148.9546     5.5632     5.9720
  277.0000   149.5607     5.8674     6.3118
  277.5000   149.8641     6.2008     6.6709
  278.0000   146.2533     6.6907     6.9534
  278.5000   139.9310     7.0709     7.2480
  279.0000   138.4272     7.4727     7.5028
  279.5000   138.7801     7.7887     7.8206
  280.0000   136.6266     8.0063     8.0397
  280.5000   135.1235     8.1733     8.1611
  281.0000   137.9096     8.2332     8.2074
  281.5000   140.2506     8.3528     8.2639
  282.0000   139.3499     8.4578     8.3207
  282.5000   134.2324     8.4564     8.4362
  283.0000   133.0298     8.4553     8.4943
  283.5000   134.8407     8.5132     8.4935
  284.0000   137.5544     8.5712     8.4930
  284.5000   138.7622     8.5697     8.4924
  285.0000   139.6688     8.5686     8.4918
  285.5000   140.8765     8.5083     8.4911
  286.0000   142.0844     8.4484     8.4905
  286.5000   139.7138     8.4470     8.4900
  287.0000   133.9584     8.4459     8.4894
  287.5000   133.9613     8.5037     8.5479
  288.0000   139.6872     8.6208     8.5472
  288.5000   143.3046     8.6796     8.6659
  289.0000   143.0063     8.7997     8.7861
  289.5000   137.2864     8.9210     8.9138
  290.0000   128.5544     8.9197     9.0943
  290.5000   124.6416     8.4336     8.7842
  291.0000   124.9458     7.7416     7.9720
  291.5000   127.4066     6.3944     7.0372
  292.0000   129.3251     5.8837     5.2974
  292.5000   133.6903     5.8423     4.9427
  293.0000   142.4282     5.8823     5.1520
  293.5000   150.5637     5.8813     5.4830
  294.0000   151.4695     5.9214     5.8014
  294.5000   141.8346     6.1292     6.4576
  295.0000   131.5966     6.5225     7.3322
  295.5000   127.9851     7.1961     8.4209
  296.0000   127.9639     8.0098     9.0241
  296.5000   128.6015     9.0904     9.5375
  297.0000   131.1022     9.7409    10.1501
  297.5000   132.8161    10.2234    10.3625
  298.0000   129.2053    10.4366    10.4338
  298.5000   127.7015    10.5077    10.4331
  299.0000   129.2112    10.6528    10.5136
  299.5000   130.7202    10.8749    10.9497
  300.0000   132.5313    11.2566    11.3347
  300.5000   135.2322    12.1440    12.4006
  301.0000   130.7031    13.1927    13.3803
  301.5000   123.1642    14.1349    14.4375
  302.0000   109.9024    14.9554    15.1525
  302.5000   102.9659    16.0016    16.1248
  303.0000    97.5354    16.9086    17.1594
  303.5000    92.7073    17.8669    18.5371
  304.0000    87.5780    19.0108    19.9066
  304.5000    86.6626    20.0883    21.2591
  305.0000    87.8916    21.2269    22.3121
  305.5000    86.3447    22.2752    23.4171
  306.0000    80.6130    23.3753    24.2389
  306.5000    75.4837    24.3694    24.9163
  307.0000    74.5713    25.0655    25.6127
  307.5000    75.1649    25.9113    26.3285
  308.0000    78.7706    26.6319    27.0644
  308.5000    82.6774    27.5628    28.2263
  309.0000    84.1747    28.5262    28.7971
  309.5000    84.4671    28.7186    28.7922
  310.0000    82.3476    28.7089    28.7883
  310.5000    78.7244    28.7012    28.7845
  311.0000    72.9927    28.6934    28.9806
  311.5000    73.2851    28.7094    29.3808
  312.0000    75.0835    29.6863    29.9935
  312.5000    79.8940    30.3034    31.0460
  313.0000    81.6928    31.1440    32.1445
  313.5000    78.6716    32.4566    33.9615
  314.0000    71.6385    32.6755    33.7214
  314.5000    67.2060    32.6645    33.0236
  315.0000    68.1009    32.8826    32.7913
  315.5000    70.2005    32.8737    33.0158
  316.0000    73.5050    32.8647    33.4706
  316.5000    76.8094    33.0843    33.9340
  317.0000    77.4052    33.5367    34.6405
  317.5000    77.9967    33.7606    34.8766
  318.0000    78.5904    34.4577    35.1141
  318.5000    77.0542    34.4484    34.8669
  319.0000    76.1609    34.4391    33.9088
  319.5000    76.7545    34.4298    32.7504
  320.0000    80.9625    33.2491    31.1964
  320.5000    88.4839    32.5476    29.9227
  321.0000    88.7785    31.6584    28.7010
  321.5000    86.3578    30.1505    27.3392
  322.0000    85.0964    28.5178    26.5887
  322.5000    88.1475    27.7312    26.5851
  323.0000    90.8857    27.1537    26.3980
  323.5000    91.1419    26.7730    26.0306
  324.0000    88.1189    26.3976    25.6691
  324.5000    85.0981    25.8479    25.4885
  325.0000    87.4989    25.3096    25.1345
  325.5000    91.1046    24.6113    24.4446
  326.0000    94.1078    23.9311    23.7735
  326.5000    94.0990    23.4327    22.8029
  327.0000    94.3914    22.7864    21.8719
  327.5000    95.9036    22.1578    21.1246
  328.0000    96.8313    21.8472    21.1217
  328.5000    97.0759    21.3922    21.1182
  329.0000    97.9707    21.2388    21.2787
  329.5000    99.1645    21.2331    21.5557
  330.0000    99.4592    21.3749    21.6297
  330.5000    97.3397    21.5176    21.7004
  331.0000    94.9213    21.6613    21.8483
  331.5000    96.4185    21.9560    22.1492
  332.0000    99.4218    22.1041    22.1462
  332.5000    97.6054    22.5605    22.2971
  333.0000    95.7875    22.7127    22.2940
  333.5000    91.8631    22.8644    22.2903
  334.0000    89.1434    23.0156    22.4430
  334.5000    91.8455    23.1692    22.4392
  335.0000    94.8487    23.3239    22.5928
  335.5000    97.2496    23.4796    22.7460
  336.0000    99.6504    23.4717    22.7429
  336.5000    99.3404    23.4654    22.5829
  337.0000    99.6747    23.2972    22.5799
  337.5000   101.4291    23.1301    22.2662
  338.0000    99.9143    22.9643    21.8048
  338.5000    96.8934    22.4861    21.5020
  339.0000    93.5714    22.1708    21.3507
  339.5000    92.3577    21.8458    21.2005
  340.0000    92.6524    21.4033    21.0513
  340.5000    94.4486    21.2498    20.6157
  341.0000    96.2591    20.9519    20.4707
  341.5000    97.7831    20.6581    20.4679
  342.0000    98.9381    20.3685    20.3239
  342.5000   100.4353    20.2225    20.1809
  343.0000   101.0311    20.0775    19.9000
  343.5000   101.0201    20.0721    19.6236
  344.0000    99.8065    20.0666    19.3511
  344.5000    98.5929    19.9226    19.3485
  345.0000    98.2829    19.6421    19.3459
  345.5000    98.5783    19.5013    19.3433
  346.0000    99.7713    19.4961    19.3407
  346.5000   100.3628    19.4908    19.4725
  347.0000   100.9586    19.4856    19.6051
  347.5000   100.9476    19.6170    19.7591
  348.0000    99.1316    19.7468    19.8732
  348.5000    95.5083    19.7395    19.8698
  349.0000    94.8971    19.5834    19.4586
  349.5000    96.0931    19.1903    19.0560
  350.0000    98.7952    18.9213    18.9219
  350.5000   101.2048    18.1477    18.2738
  351.0000   101.8072    18.1440    18.3980
  351.5000   101.8072    18.3934    18.6499
  352.0000   102.1084    18.6471    19.3030
  352.5000   101.2801    18.9025    20.2577
  353.0000    95.1807    19.2953    21.2596
  353.5000    88.8554    19.6963    22.6274
  354.0000    74.3976    19.8292    22.5966
  354.5000    72.2892    19.6873    21.3932
  355.0000    73.7952    19.4126    20.2362
  355.5000    78.3133    18.8784    18.6187
  356.0000    86.7470    18.2322    17.3695
  356.5000    94.8795    17.3660    16.6592
  357.0000    99.1084    16.5409    16.2008
  357.5000   100.6024    15.9747    15.7550
  358.0000    98.7952    15.7518    15.6431
  358.5000    93.6747    15.6399    15.6399
  359.0000    93.9759    15.6360    15.6366
  359.5000    95.7831    15.5249    15.6328
  360.0000    98.7952    15.5218    15.6296
  360.5000    98.4940    15.5186    15.5186
  361.0000    94.5783    15.5155    15.1964
  361.5000    94.2440    15.2990    14.9844
  362.0000    96.0843    14.8780    14.7753
  362.5000    99.7490    14.5691    14.6703
  363.0000   102.1627    14.5662    14.5661
  363.5000   103.0120    14.4504    14.4627
