~VERSION INFORMATION
 VERS.                2.0:   CWLS LOG ASCII STANDARD - VERSION 2.0
 WRAP.                 NO:   ONE LINE PER DEPTH STEP
~WELL INFORMATION
#MNEM.UNIT      DATA TYPE    INFORMATION
#----------   ------------   ------------------------------
 STRT.F          442.0000:   START DEPTH
 STOP.F         2636.0000:   STOP DEPTH
 STEP.F            0.5000:   STEP LENGTH
 NULL.          -999.2500:   NO VALUE
 COMP. FENIX & SCISSON INC:   COMPANY
 WELL.     25 SHX 2 #25-2:   WELL
 FLD .             TEAPOT:   FIELD
 LOC .       S2 T38N R78W:   LOCATION
 CNTY.            NATRONA:   COUNTY
 STAT.            WYOMING:   STATE
 CTRY. UNITED STATES OF AMERICA:   COUNTRY
 SRVC.              Welex:   SERVICE COMPANY
 DATE.        07-JUN-1980:   LOGDATE
 API .       490251080200:   API NUMBER
~CURVE INFORMATION
#MNEM.UNIT       API CODE    CURVE DESCRIPTION
#----------   ------------   ------------------------------
 DEPT.F                  :   
 CALD.IN     45 280 60 00:   CALIPER
 GRD .GAPI   45 310 01 00:   GAMMA RAY FROM DENSITY LOG
 DPHI.DEC    45 890 12 00:   DENSITY POROSITY SANDSTONE
 CORR.G/C3   45 356 01 00:   DENSITY CORRECTION
 RHOB.G/C3   45 350 01 00:   BULK DENSITY
~PARAMETER INFORMATION
#MNEM.UNIT          VALUE    DESCRIPTION
#----------   ------------   ------------------------------
 PD  .                 GL:   PERMANENT DATUM
 EPD .F              5120:   ELEVATION PERMANENT DATUM
 LMF .                 KB:   LOG MEASURED FROM
 DAPD.F                10:   FEET ABOVE PERMANENT DATUM
 DMF .                 KB:   DRILLING MEASURED FROM
 EKB .F              5130:   KELLING BUSHING
 EGL .F              5120:   GROUND LEVEL
 DATE.             6-7-80:   RUN DATE
 RUN .                  1:   RUN NUMBER
 DD  .F              2652:   DEPTH DRILLER
 DL  .F              2638:   DEPTH LOGGER
 BLI .F              2636:   BOTTOM LOG INTERVAL
 TLI .F              1224:   TOP LOG INTERVAL
 BS  .IN             6.75:   BIT SIZE
 BSD .F              2652:   BIT SIZE AT DEPTH
 DFT .        AIR DRILLED:   DRILLING FLUID TYPE
 TCS .HRS               2:   TIME CURCULATED STOPPED
 MRT .F               125:   MAXIMUM RECORDED TEMPERATURE
 ENGI.               REIN:   RECORDING ENGINEER
 WITN.           DINSMORE:   WITNESSED BY
 CLNT.            A2DTECH:   CLIENT CODE
 ORIG.           5" PRINT:   ORIGIN OF DATA
 UWI .       490251080200:   UNIQUE WELL ID
 DICO. A2D Technologies, Inc.:   DIGITIZING COMPANY
~OTHER INFORMATION
~A   DEPT     CALD         GRD      DPHI       CORR       RHOB   
# ...
  686.0000  -999.2500    53.3396  -999.2500  -999.2500  -999.2500
  686.5000  -999.2500    54.3943  -999.2500  -999.2500  -999.2500
  687.0000     9.1692    55.4451     0.2309     0.2065     2.2351
  687.5000     9.1820    56.3079     0.2733     0.2065     2.2088
  688.0000     9.1961    56.3722     0.2809     0.2065     2.1710
  688.5000     9.2956    56.5041     0.2871     0.2228     2.1656
  689.0000     9.4513    56.6378     0.2894     0.2491     2.1608
  689.5000     9.6471    56.7753     0.2745     0.2380     2.1995
  690.0000     9.8838    57.0436     0.2637     0.1893     2.2271
  690.5000    10.6004    57.8853     0.2382     0.1403     2.2765
  691.0000    11.3218    58.7116     0.2019     0.1138     2.3273
  691.5000    11.6686    59.5365     0.1623     0.0939     2.3781
  692.0000    11.8915    60.3614     0.1213     0.1016     2.4589
  692.5000    11.9344    61.1862     0.0910     0.1054     2.4906
  693.0000    11.9807    62.0111     0.0953     0.0992     2.4889
  693.5000    12.0275    62.8365     0.1019     0.0929     2.4690
  694.0000    12.0673    63.6566     0.1027     0.0978     2.4739
  694.5000    12.0984    64.4717     0.1063     0.1041     2.4647
  695.0000    12.1296    65.0631     0.1125     0.1030     2.4530
  695.5000    12.1609    65.7568     0.1133     0.1231     2.4584
  696.0000    12.1728    66.3276     0.1061     0.1459     2.4653
  696.5000    12.1911    66.8948     0.0991     0.1687     2.4796
  697.0000    12.1906    67.4605     0.0900     0.1912     2.4947
  697.5000    11.9796    67.8772     0.0787     0.2088     2.5095
  698.0000    11.7272    67.8542     0.0831     0.2037     2.5056
  698.5000    11.4357    68.4800     0.0779     0.2028     2.5143
  699.0000    11.0265    69.1684     0.0650     0.2234     2.5402
  699.5000    10.6172    69.6367     0.0522     0.2405     2.5652
  700.0000    10.2135    69.1119     0.0457     0.2072     2.5503
  700.5000     9.7832    68.5788     0.0654     0.1737     2.5243
  701.0000     9.7569    68.9615     0.0745     0.1427     2.5097
  701.5000     9.8152    69.6512     0.0816     0.1287     2.4945
  702.0000    10.0161    70.3487     0.0909     0.1107     2.4794
  702.5000    10.0262    71.0462     0.0999     0.1006     2.4689
  703.0000     9.9735    71.7407     0.1050     0.1029     2.4658
  703.5000     9.9061    72.3436     0.1026     0.1191     2.4791
  704.0000     9.8460    72.3296     0.0870     0.1401     2.4973
  704.5000     9.8146    72.3243     0.0790     0.1601     2.5106
  705.0000     9.7797    72.1419     0.0779     0.1598     2.5111
  705.5000     9.7448    71.6346     0.0760     0.1587     2.5161
  706.0000     9.6953    71.1647     0.0723     0.1579     2.5217
  706.5000     9.6365    71.4272     0.0707     0.1542     2.5250
  707.0000     9.5775    71.2355     0.0695     0.1504     2.5263
  707.5000     9.5185    70.9876     0.0739     0.1428     2.5175
  708.0000     9.4595    70.8433     0.0786     0.1419     2.5133
  708.5000     9.4003    70.8216     0.0721     0.1483     2.5244
  709.0000     9.3401    71.0954     0.0712     0.1523     2.5218
  709.5000     9.2866    70.9301     0.0757     0.1478     2.5155
  710.0000     9.4018    70.7896     0.0791     0.1461     2.5122
  710.5000     9.5121    70.6452     0.0776     0.1563     2.5108
  711.0000     9.5144    70.5611     0.0842     0.1526     2.5024
  711.5000     9.5139    70.9650     0.0923     0.1453     2.4851
  712.0000     9.5138    71.3627     0.0998     0.1411     2.4740
  712.5000     9.5139    71.7512     0.0998     0.1553     2.4752
  713.0000     9.5142    72.0058     0.0942     0.1703     2.4862
  713.5000     9.5098    71.8992     0.0863     0.1842     2.4992
  714.0000     9.4495    71.7995     0.0803     0.1805     2.5073
  714.5000     9.3863    71.6127     0.0850     0.1597     2.5003
  715.0000     9.3231    71.2354     0.0887     0.1409     2.4947
  715.5000     9.2619    70.8609     0.0772     0.1434     2.5157
  716.0000     9.2359    70.4870     0.0640     0.1715     2.5464
  716.5000     9.2235    70.1118     0.0520     0.1806     2.5538
  717.0000     9.2180    69.8106     0.0512     0.1722     2.5552
  717.5000     9.2176    69.5593     0.0528     0.1601     2.5515
  718.0000     9.2502    69.3098     0.0552     0.1477     2.5479
  718.5000     9.2907    69.0600     0.0575     0.1398     2.5443
  719.0000     9.3313    68.8117     0.0600     0.1367     2.5419
  719.5000     9.3723    68.5570     0.0571     0.1445     2.5472
  720.0000     9.4109    68.7322     0.0525     0.1545     2.5556
  720.5000     9.4252    69.0676     0.0480     0.1648     2.5644
  721.0000     9.4476    69.0535     0.0448     0.1616     2.5664
  721.5000     9.4701    69.5480     0.0554     0.1501     2.5465
  722.0000     9.4927    70.2834     0.0628     0.1388     2.5341
  722.5000     9.5131    70.6181     0.0691     0.1342     2.5244
  723.0000     9.4949    70.3987     0.0715     0.1334     2.5212
  723.5000     9.4536    70.5373     0.0744     0.1344     2.5178
  724.0000     9.4104    70.3446     0.0751     0.1370     2.5175
  724.5000     9.3812    70.2483     0.0723     0.1534     2.5243
  725.0000     9.3686    70.2466     0.0632     0.1753     2.5368
  725.5000     9.3411    70.0554     0.0638     0.1801     2.5313
  726.0000     9.3113    69.9515     0.0711     0.1739     2.5209
  726.5000     9.3088    70.3215     0.0803     0.1669     2.5035
  727.0000     9.3296    71.0335     0.0833     0.1671     2.4980
  727.5000     9.3514    71.7500     0.0900     0.1550     2.4891
  728.0000     9.3427    72.4624     0.0946     0.1510     2.4840
  728.5000     9.2891    73.2466     0.0865     0.1663     2.5052
  729.0000     9.1865    72.9439     0.0761     0.1826     2.5199
  729.5000     8.9885    72.6096     0.0682     0.1847     2.5294
  730.0000     8.7887    73.0443     0.0619     0.1939     2.5413
  730.5000     8.7047    73.5848     0.0597     0.2038     2.5397
  731.0000     8.6214    73.8865     0.0716     0.1728     2.5207
  731.5000     8.5998    73.6982     0.0764     0.1557     2.5128
  732.0000     8.6586    73.0460     0.0727     0.1511     2.5252
  732.5000     8.7169    72.3721     0.0604     0.1544     2.5384
  733.0000     8.7268    71.7711     0.0643     0.1467     2.5355
  733.5000     8.7293    72.4081     0.0606     0.1468     2.5428
  734.0000     8.6243    73.0801     0.0553     0.1549     2.5518
  734.5000     8.5024    73.7459     0.0533     0.1529     2.5500
  735.0000     8.3919    74.1547     0.0573     0.1420     2.5439
  735.5000     8.3288    74.3540     0.0616     0.1323     2.5375
  736.0000     8.2753    74.5503     0.0631     0.1271     2.5379
  736.5000     8.2402    74.7456     0.0499     0.1462     2.5599
  737.0000     8.1779    74.9430     0.0360     0.1665     2.5844
  737.5000     8.3028    74.9999     0.0233     0.1823     2.6049
  738.0000     8.5149    74.6907     0.0213     0.1704     2.5958
  738.5000     8.6385    74.0755     0.0380     0.1461     2.5737
  739.0000     8.7141    73.4608     0.0512     0.1215     2.5512
  739.5000     8.7873    72.8456     0.0619     0.1114     2.5394
  740.0000     8.7869    72.2307     0.0592     0.1237     2.5457
  740.5000     8.8657    71.6159     0.0560     0.1359     2.5504
  741.0000     8.8640    71.0010     0.0576     0.1449     2.5438
  741.5000     8.8291    70.3862     0.0608     0.1512     2.5373
  742.0000     8.7925    69.7709     0.0671     0.1602     2.5273
  742.5000     8.7627    69.1553     0.0712     0.1577     2.5206
  743.0000     8.6062    68.5520     0.0757     0.1547     2.5137
  743.5000     8.4004    68.1897     0.0780     0.1564     2.5121
  744.0000     8.1904    67.8091     0.0759     0.1669     2.5129
  744.5000     8.2076    67.6571     0.0822     0.1669     2.5014
  745.0000     8.3895    67.8250     0.0895     0.1680     2.4889
  745.5000     8.6192    68.0064     0.0902     0.1818     2.4924
  746.0000     8.5415    68.1866     0.0939     0.1952     2.4866
  746.5000     8.4911    68.3663     0.1030     0.2026     2.4721
