~VERSION INFORMATION
 VERS.                2.0:   CWLS LOG ASCII STANDARD - VERSION 2.0
 WRAP.                 NO:   ONE LINE PER DEPTH STEP
~WELL INFORMATION
#MNEM.UNIT      DATA TYPE    INFORMATION
#----------   ------------   ------------------------------
 STRT.F            0.0000:   START DEPTH
 STOP.F         1008.0000:   STOP DEPTH
 STEP.F            0.5000:   STEP LENGTH
 NULL.          -999.2500:   NO VALUE
 COMP. LAWRENCE/ALLISON INC:   COMPANY
 WELL. NPR 3 #51-61-SX-14:   WELL
 FLD .             TEAPOT:   FIELD
 LOC .      S14 T38N R78W:   LOCATION
 CNTY.            NATRONA:   COUNTY
 STAT.            WYOMING:   STATE
 CTRY. UNITED STATES OF AMERICA:   COUNTRY
 SRVC.      Dresser Atlas:   SERVICE COMPANY
 DATE.        05-FEB-1986:   LOGDATE
 API .       490251106600:   API NUMBER
~CURVE INFORMATION
#MNEM.UNIT       API CODE    CURVE DESCRIPTION
#----------   ------------   ------------------------------
 DEPT.F                  :   
 GRR .GAPI   07 310 01 00:   GAMMA RAY FROM RES. LOG.
 RILD.OHMM   10 120 46 00:   INDUCTION LOG DEEP RESISTIVITY
 RILM.OHMM   07 120 44 00:   INDUCTION LOG MEDIUM RESISTIVITY
 CALD.IN     45 280 60 00:   CALIPER
 DEN .G/C3   45 350 01 00:   COMPENSATED BULK DENSTIY
 CORR.G/C3   45 356 01 00:   DENSITY CORRECTION
 PORD.DEC    45 890 10 00:   POROSITY DENSITY LIMESTONE
~PARAMETER INFORMATION
#MNEM.UNIT          VALUE    DESCRIPTION
#----------   ------------   ------------------------------
 PD  .                 GL:   PERMANENT DATUM
 EPD .F              5225:   ELEVATION PERMANENT DATUM
 LMF .                 GL:   LOG MEASURED FROM
 DMF .                 GL:   DRILLING MEASURED FROM
 EGL .F              5225:   GROUND LEVEL
 DATE.             2-5-86:   RUN DATE
 RUN .                  1:   RUN NUMBER
 DD  .F              1010:   DEPTH DRILLER
 DL  .F              1008:   DEPTH LOGGER
 BLI .F              1008:   BOTTOM LOG INTERVAL
 CS  .IN            8.625:   CASING SIZE
 CBD .F                86:   CASING BOTTOM DRILLER
 CBL .F                84:   CASING BOTTOM LOGGER
 BS  .IN             6.25:   BIT SIZE
 BSD .F              1010:   BIT SIZE AT DEPTH
 DFT .                AIR:   DRILLING FLUID TYPE
 LUN .            HL 6264:   LOGGING UNIT NUMBER
 LUL .           GILLETTE:   LOGGING UNIT LOCATION
 ENGI.           FAHLSING:   RECORDING ENGINEER
 WITN.              FIVAS:   WITNESSED BY
 CLNT.            A2DTECH:   CLIENT CODE
 ORIG.       2", 5" PRINT:   ORIGIN OF DATA
 UWI .       490251106600:   UNIQUE WELL ID
 DICO. A2D Technologies, Inc.:   DIGITIZING COMPANY
~OTHER INFORMATION
~A    DEPT      GRR      RILD       RILM       CALD        DEN       CORR       PORD   
# ...
  591.5000   135.0350     7.3768     6.9808     6.6214     2.4966     0.1127     0.1082
  592.0000   135.4350     7.3520     6.9640     6.6253     2.4896     0.1124     0.1124
  592.5000   138.2661     7.3274     6.9474     6.6292     2.4837     0.1026     0.1176
  593.0000   137.2577     7.3027     6.9307     6.6331     2.4889     0.0920     0.1151
  593.5000   134.9946     7.2782     6.9141     6.6370     2.4974     0.0816     0.1085
  594.0000   133.1349     7.2538     6.8976     6.6408     2.5088     0.0710     0.1000
  594.5000   131.6676     7.2294     6.8785     6.6447     2.5082     0.0787     0.1042
  595.0000   131.4234     7.2023     6.9104     6.6487     2.4943     0.0872     0.1115
  595.5000   131.9932     7.2651     6.9597     6.6467     2.4829     0.0888     0.1188
  596.0000   134.2762     7.3367     7.0093     6.6417     2.4726     0.0793     0.1236
  596.5000   134.8673     7.4090     7.0593     6.6365     2.4762     0.0685     0.1230
  597.0000   131.3304     7.4820     7.1096     6.6314     2.4804     0.0661     0.1191
  597.5000   127.0886     7.5557     7.1788     6.6263     2.4846     0.0831     0.1153
  598.0000   122.8066     7.6302     7.2698     6.6212     2.4888     0.1033     0.1138
  598.5000   117.9967     7.7055     7.3623     6.6161     2.4887     0.1125     0.1146
  599.0000   121.4476     7.7813     7.4729     6.6108     2.4882     0.1126     0.1145
  599.5000   127.1210     7.8242     7.4722     6.6112     2.4882     0.1127     0.1141
  600.0000   134.1724     7.8027     7.4725     6.6126     2.4927     0.1068     0.1119
  600.5000   131.7021     7.7855     7.4726     6.6141     2.4973     0.0983     0.1087
  601.0000   127.8344     7.7684     7.4724     6.6155     2.5020     0.0897     0.1056
  601.5000   126.1533     7.7513     7.4252     6.6170     2.5022     0.0810     0.1049
  602.0000   127.9170     7.7342     7.3513     6.6185     2.4970     0.0733     0.1101
  602.5000   129.5200     7.7172     7.2782     6.6199     2.4925     0.0922     0.1125
  603.0000   126.4652     7.7002     7.2057     6.6214     2.5056     0.1124     0.1064
  603.5000   123.1650     7.6832     7.1340     6.6228     2.5211     0.1323     0.0974
  604.0000   122.7443     7.6264     7.0630     6.6243     2.5364     0.1453     0.0883
  604.5000   124.7185     7.5212     6.9953     6.6257     2.5381     0.1453     0.0852
  605.0000   126.7614     7.4176     6.9421     6.6272     2.5349     0.1410     0.0884
  605.5000   128.7216     7.3153     6.8731     6.6287     2.5276     0.1263     0.0918
  606.0000   125.4323     7.2145     6.7955     6.6295     2.5210     0.1097     0.0952
  606.5000   121.7470     7.1150     6.7182     6.6180     2.5142     0.0931     0.0986
  607.0000   123.7134     7.0169     6.6418     6.6065     2.5112     0.0763     0.1004
  607.5000   127.9317     6.9202     6.5663     6.5950     2.5089     0.0754     0.1038
  608.0000   132.6783     6.8248     6.4915     6.5901     2.5026     0.0853     0.1071
  608.5000   133.5791     6.7307     6.4398     6.5900     2.4934     0.0957     0.1104
  609.0000   127.0688     6.6299     6.4176     6.5900     2.4957     0.1060     0.1105
  609.5000   126.5545     6.6787     6.3904     6.5900     2.5066     0.1160     0.1050
  610.0000   132.9269     6.7466     6.4602     6.5900     2.5164     0.1188     0.0995
  610.5000   134.8253     6.8152     6.5513     6.5900     2.5130     0.1079     0.0984
  611.0000   129.7185     6.8846     6.6436     6.5900     2.5048     0.0972     0.1050
  611.5000   126.1782     6.9609     6.7373     6.5900     2.4915     0.0864     0.1132
  612.0000   128.0088     7.0680     6.8323     6.5900     2.4780     0.0763     0.1214
  612.5000   127.5381     7.1768     6.9286     6.5900     2.4728     0.0887     0.1211
  613.0000   123.9713     7.2872     7.0262     6.5900     2.4791     0.1120     0.1181
  613.5000   120.5010     7.3994     7.1253     6.5900     2.4878     0.1285     0.1135
  614.0000   122.2299     7.5132     7.2257     6.5900     2.4960     0.1183     0.1095
  614.5000   125.4685     7.6815     7.3276     6.5914     2.4914     0.1076     0.1129
  615.0000   126.3940     7.6651     7.4724     6.5956     2.4835     0.0967     0.1172
  615.5000   127.3364     7.6354     7.4388     6.5997     2.4790     0.0891     0.1208
  616.0000   132.2417     7.6058     7.3834     6.6038     2.4827     0.0901     0.1152
  616.5000   138.3091     7.5763     7.3284     6.6080     2.4998     0.0929     0.1065
  617.0000   134.9703     7.5469     7.2739     6.6121     2.5099     0.0843     0.0984
  617.5000   129.4770     7.5176     7.2197     6.6162     2.5026     0.0751     0.1053
  618.0000   123.8939     7.4884     7.1659     6.6204     2.4944     0.0659     0.1128
  618.5000   120.3722     7.4594     7.1126     6.6242     2.4862     0.0622     0.1179
  619.0000   117.6047     7.4304     7.0596     6.6294     2.4780     0.0856     0.1213
  619.5000   120.9418     7.4016     7.0070     6.5951     2.4718     0.1086     0.1247
  620.0000   126.5270     7.3729     6.9421     6.5763     2.4663     0.1206     0.1272
  620.5000   127.3216     7.3443     6.9484     6.6320     2.4762     0.1267     0.1247
  621.0000   125.6541     7.3158     6.9569     6.6713     2.4883     0.1370     0.1157
  621.5000   126.9439     7.2874     6.9653     6.6734     2.5001     0.1487     0.1060
  622.0000   131.5956     7.2689     6.9738     6.6762     2.5061     0.1560     0.1060
  622.5000   135.2811     7.3055     6.9823     6.6787     2.5001     0.1351     0.1078
  623.0000   132.2223     7.3329     6.9908     6.6813     2.4943     0.1145     0.1111
  623.5000   128.4385     7.4238     6.9996     6.6839     2.4884     0.0989     0.1143
  624.0000   126.1006     7.5522     7.0342     6.6866     2.4838     0.0861     0.1157
  624.5000   127.8171     7.6828     7.2003     6.6892     2.4853     0.0744     0.1162
  625.0000   125.5042     7.8300     7.3692     6.6918     2.4869     0.0822     0.1152
  625.5000   123.2335     7.9962     7.5420     6.6944     2.4885     0.0967     0.1143
  626.0000   121.1814     8.1660     7.7189     6.6970     2.4901     0.1164     0.1127
  626.5000   121.4977     8.3394     7.9000     6.6996     2.4916     0.1286     0.1113
  627.0000   122.6463     8.5165     8.0853     6.7022     2.4946     0.0996     0.1106
  627.5000   126.9975     8.6974     8.2750     6.7048     2.4981     0.0824     0.1086
  628.0000   129.4067     8.8814     8.4691     6.7074     2.5015     0.0823     0.1065
  628.5000   123.9670     9.0449     8.6008     6.7103     2.5041     0.0934     0.1044
  629.0000   118.3513     9.1811     8.7220     6.6959     2.5041     0.1015     0.1041
  629.5000   112.7005     9.3194     8.8449     6.6913     2.5058     0.0960     0.1036
  630.0000   114.8979     9.4597     8.9696     6.6929     2.5065     0.0906     0.1032
  630.5000   117.6762     9.6022     9.0961     6.6947     2.5047     0.0982     0.1043
  631.0000   119.5963     9.7468     9.2243     6.6965     2.5030     0.1025     0.1054
  631.5000   117.8934     9.8931     9.3543     6.6983     2.5013     0.1036     0.1065
  632.0000   117.1022    10.0317     9.4862     6.7000     2.4996     0.1088     0.1076
  632.5000   116.0990    10.1753     9.6199     6.7018     2.4979     0.1141     0.1088
  633.0000   108.8983    10.3103     9.7555     6.7036     2.4953     0.1097     0.1099
  633.5000   101.8555    10.3968     9.8969     6.7054     2.4929     0.1052     0.1101
  634.0000    99.8376    10.5037    10.0351     6.7072     2.4944     0.1121     0.1103
  634.5000   106.1859    10.6117    10.0287     6.7088     2.4948     0.1196     0.1104
  635.0000   106.7030    10.6980    10.0314     6.7021     2.4842     0.1007     0.1164
  635.5000   109.6606    10.5422     9.9405     6.6815     2.4727     0.0747     0.1227
  636.0000   113.9007    10.3916     9.8665     6.6708     2.4638     0.0544     0.1288
  636.5000   112.4640    10.2429     9.7930     6.6728     2.4723     0.0660     0.1288
