~VERSION INFORMATION
 VERS.                2.0:   CWLS LOG ASCII STANDARD - VERSION 2.0
 WRAP.                 NO:   ONE LINE PER DEPTH STEP
~WELL INFORMATION
#MNEM.UNIT      DATA TYPE    INFORMATION
#----------   ------------   ------------------------------
 STRT.F            0.0000:   START DEPTH
 STOP.F          412.0000:   STOP DEPTH
 STEP.F            0.5000:   STEP LENGTH
 NULL.          -999.2500:   NO VALUE
 COMP. DEPARTMENT OF ENERGY:   COMPANY
 WELL. 65-24 SXS C-3 #65-3:   WELL
 FLD .        TEAPOT EAST:   FIELD
 LOC .       S3 T38N R78W:   LOCATION
 CNTY.            NATRONA:   COUNTY
 STAT.            WYOMING:   STATE
 CTRY. UNITED STATES OF AMERICA:   COUNTRY
 SRVC.      Dresser Atlas:   SERVICE COMPANY
 DATE.        30-JUN-1985:   LOGDATE
 API .       490251134700:   API NUMBER
~CURVE INFORMATION
#MNEM.UNIT       API CODE    CURVE DESCRIPTION
#----------   ------------   ------------------------------
 DEPT.F                  :   
 CALD.IN     45 280 60 00:   CALIPER FROM DENSITY LOG
 CNC .DEC    42 890 03 00:   NEUTRON POROSITY SANDSTONE
 CORR.G/C3   45 356 01 00:   DENSITY CORRECTION
 PORD.DEC    45 890 12 00:   POROSITY DENSITY SANDSTONE
 DEN .G/C3   45 350 01 00:   COMPENSATED BULK DENSTIY
 GRR .GAPI   07 310 01 00:   GAMMA RAY
 RILD.OHMM   07 120 46 00:   INDUCTION LOG DEEP RESISTIVITY
 RILM.OHMM   07 120 44 00:   INDUCTION LOG MEDIUM RESISTIVITY
~PARAMETER INFORMATION
#MNEM.UNIT          VALUE    DESCRIPTION
#----------   ------------   ------------------------------
 PD  .                 GL:   PERMANENT DATUM
 EPD .F              5161:   ELEVATION PERMANENT DATUM
 LMF .                 GL:   LOG MEASURED FROM
 DMF .                 GL:   DRILLING MEASURED FROM
 EGL .F              5161:   GROUND LEVEL
 DATE.        30-JUN-1985:   RUN DATE
 RUN .              1-424:   RUN NUMBER
 DD  .F               424:   DEPTH DRILLER
 DL  .F               422:   DEPTH LOGGER
 BLI .F               414:   BOTTOM LOG INTERVAL
 CS  .IN                7:   CASING SIZE
 CBD .F                80:   CASING BOTTOM DRILLER
 CBL .F                85:   CASING BOTTOM LOGGER
 BS  .IN            4.875:   BIT SIZE
 BSD .F               424:   BIT SIZE AT DEPTH
 DFT .                OIL:   DRILLING FLUID TYPE
 TCS .HRS               3:   TIME CURCULATED STOPPED
 LUN .               6274:   LOGGING UNIT NUMBER
 LUL .           GILLETTE:   LOGGING UNIT LOCATION
 ENGI.             RAUTIO:   RECORDING ENGINEER
 WITN.             GROOMS:   WITNESSED BY
 CLNT.            A2DTECH:   CLIENT CODE
 ORIG.           5" PRINT:   ORIGIN OF DATA
 UWI .       490251134700:   UNIQUE WELL ID
 DICO. A2D Technologies, Inc.:   DIGITIZING COMPANY
~OTHER INFORMATION
~A    DEPT    CALD        CNC       CORR       PORD        DEN         GRR      RILD       RILM   
# ...
  121.5000     6.6172     0.2306     0.0468     0.1326     2.4361   106.1659     6.9638     6.0605
  122.0000     6.6324     0.2287     0.0534     0.1443     2.4150   108.0006     6.8219     5.8510
  122.5000     6.7231     0.2284     0.0846     0.1480     2.4059   109.2253     6.5907     5.6138
  123.0000     6.8593     0.2299     0.1344     0.1485     2.4029   109.8420     6.3231     5.3467
  123.5000     7.0408     0.2312     0.2009     0.1506     2.3999   112.3496     6.1088     5.0571
  124.0000     7.2375     0.2323     0.2779     0.2108     2.3819   115.6369     5.9843     4.9526
  124.5000     7.5130     0.2132     0.4207     0.2702     2.2611   117.1655     5.8624     4.9526
  125.0000     7.7620     0.2069     0.4670     0.3708     2.1098   118.3902     5.7831     4.9872
  125.5000     8.6142     0.2038     0.3844     0.4325     2.0000   118.3990     5.7051     5.0571
  126.0000     8.8411     0.2017     0.2613     0.4668     2.0000   115.3683     5.7067     5.0765
  126.5000     8.3268     0.2243     0.4668     0.3423     2.0006   111.4258     5.7082     5.1638
  127.0000     8.0545     0.2294     0.4955     0.2819     2.1980   108.9969     5.7897     5.2362
  127.5000     8.0454     0.2232     0.4607     0.2262     2.2789   108.7079     5.9133     5.3097
  128.0000     8.2057     0.2125     0.4335     0.2054     2.3104   109.3268     6.0395     5.3467
  128.5000     7.9467     0.2149     0.5000     0.3250     2.0986   118.4542     6.0833     5.3467
  129.0000     8.0545     0.2206     0.5000     0.3320     2.0827   119.3727     6.0850     5.3841
  129.5000     7.6611     0.2236     0.5000     0.2640     2.1447   117.2560     6.0870     5.3841
  130.0000     7.6611     0.2205     0.4985     0.2274     2.2590   115.1350     6.0887     5.3866
  130.5000     7.6611     0.2160     0.4970     0.2851     2.2449   117.8816     6.1328     5.4977
  131.0000     7.7216     0.2120     0.4970     0.3485     2.0648   120.6444     6.2203     5.5361
  131.5000     8.1150     0.2157     0.4819     0.3766     2.0150   120.9410     6.3974     5.6530
  132.0000     8.2057     0.2252     0.4894     0.3556     2.0731   119.7340     6.4438     5.6925
  132.5000     7.2678     0.2295  -999.2500     0.2864     2.1771   118.5270     6.4905     5.7881
  133.0000     7.3888     0.2243  -999.2500     0.2502     2.2517   117.6240     6.5831     5.8532
  133.5000     7.4342     0.2192  -999.2500     0.2176     2.2873   116.4171     6.5919     5.8959
  134.0000     7.4493     0.2155  -999.2500     0.2085     2.3066   114.9061     6.6331     5.9767
  134.5000     7.4947     0.2204  -999.2500     0.2021     2.3278   115.5229     6.6812     5.9767
  135.0000     7.5401     0.2230  -999.2500     0.1864     2.3482   118.9666     6.6830     5.9353
  135.5000     7.6325     0.2209  -999.2500     0.1565     2.3791   122.8376     6.6848     5.8941
  136.0000     7.9334     0.2157  -999.2500     0.1885     2.3919   122.2385     6.6398     5.8126
  136.5000     8.0091     0.2118  -999.2500     0.2326     2.3452   119.8157     6.5960     5.7723
  137.0000     7.9939     0.2133  -999.2500     0.2467     2.2706   118.6065     6.5067     5.6925
  137.5000     7.9637     0.2148  -999.2500     0.2978     2.1978   119.8334     6.4186     5.6497
  138.0000     8.1604     0.2151     0.4683     0.3428     2.1315   123.1857     6.4208     5.5361
  138.5000     7.9788     0.2141     0.4909     0.3763     2.0257   124.1095     6.4225     5.5361
  139.0000     7.9939     0.2162     0.4607     0.3814     2.0431   124.4194     6.4243     5.4977
  139.5000     8.2360     0.2256     0.4985     0.3575     2.1079   123.5183     6.4260     5.5361
  140.0000     7.8729     0.2382  -999.2500     0.2587     2.2330   118.9679     6.4277     5.5361
  140.5000     7.7973     0.2443  -999.2500     0.2034     2.2993   115.6333     6.4295     5.5361
  141.0000     7.9032     0.2382  -999.2500     0.2010     2.3099   114.7295     6.4761     5.5748
  141.5000     7.9637     0.2321  -999.2500     0.2284     2.3182   114.1304     6.6143     5.5748
  142.0000     7.9788     0.2285  -999.2500     0.2604     2.2687   115.0533     6.6162     5.5748
  142.5000     7.9334     0.2267  -999.2500     0.2861     2.1976   116.8859     6.6184     5.5748
  143.0000     7.6296     0.2257  -999.2500     0.2924     2.1683   119.0224     6.5743     5.5748
  143.5000     7.6460     0.2278  -999.2500     0.2510     2.2105   121.4628     6.5301     5.5361
  144.0000     7.6611     0.2332     0.4970     0.2087     2.2979   119.9519     6.4866     5.4977
  144.5000     7.7368     0.2285     0.4789     0.2337     2.3054   118.7447     6.4434     5.4596
  145.0000     8.0545     0.2209     0.4879     0.2984     2.2165   119.0679     6.4456     5.3467
  145.5000     9.1437     0.2184     0.4953     0.3388     2.1250   119.9787     6.3583     5.2362
  146.0000     9.8094     0.2196     0.4909     0.3130     2.1432   120.2934     6.2722     5.1280
  146.5000     9.9909     0.2186     0.4547     0.2926     2.1676   120.6061     6.2309     5.0571
  147.0000    10.0061     0.2180     0.4033     0.2947     2.1593   120.6150     6.1035     5.0571
  147.5000    10.0212     0.2177     0.3867     0.2943     2.1684   120.0159     6.0633     4.9872
  148.0000     9.8699     0.2189     0.4094     0.2650     2.1887   118.5050     5.9808     4.9526
  148.5000     9.5068     0.2210     0.4532     0.2216     2.2189   116.9940     5.8593     4.8502
  149.0000     9.9304     0.2240     0.4773     0.1940     2.2890   114.5045     5.6215     4.6471
  149.5000    10.2179     0.2270     0.4305     0.1855     2.3359   112.7564     5.2454     4.3089
  150.0000     9.5673     0.2294     0.3650     0.2254     2.3448   118.4069     4.9977     4.0939
  150.5000    10.2632     0.2314     0.3263     0.3003     2.2536   120.5202     4.8782     3.9702
  151.0000    11.0651     0.2335     0.4064     0.3486     2.0901   122.6335     4.7588     3.8465
  151.5000    11.7626     0.2329     0.2916     0.4356  -999.2500   124.0213     4.6654     3.7780
  152.0000    11.9673     0.2211     0.2218     0.5446  -999.2500   123.9878     4.6349     3.9405
  152.5000    12.2602     0.2162     0.2177     0.5663  -999.2500   120.0766     4.6364     4.0811
  153.0000    11.7458     0.2410     0.2541     0.5563  -999.2500   117.6479     4.7026     4.2586
  153.5000     9.5976     0.2319     0.2888     0.5158  -999.2500   117.6509     4.9042     4.3477
  154.0000     9.9909     0.2171     0.3584     0.4965  -999.2500   118.8696     5.1861     4.4406
  154.5000    10.3389     0.2116     0.4853     0.4998  -999.2500   117.9600     5.4841     4.6636
  155.0000    10.5356     0.2225     0.4959     0.4865  -999.2500   117.3550     5.7591     4.7966
  155.5000    10.9592     0.2342     0.3887     0.4197  -999.2500   118.2706     5.9644     4.8315
  156.0000     9.6809     0.2352     0.4059     0.3369     2.0676   120.0973     6.0105     4.9005
  156.5000     9.1135     0.2281     0.4492     0.3121     2.1123   119.7113     6.0938     4.9361
  157.0000     9.1740     0.2234     0.4553     0.2965     2.1641   117.3683     6.0954     4.9374
  157.5000     9.5673     0.2187     0.4569     0.2752     2.2033   116.7626     6.0971     4.9048
  158.0000     9.6430     0.2133     0.4599     0.2718     2.1874   122.2375     6.0561     4.8718
  158.5000     9.6884     0.2120     0.4645     0.2985     2.1422   121.9365     6.0158     4.8057
  159.0000     9.7640     0.2241     0.4721     0.3049     2.1400   121.3308     5.9757     4.7080
  159.5000    10.3259     0.2265     0.4858     0.3062     2.1401   120.1187     5.8952     4.6119
  160.0000    11.0852     0.2186     0.4798     0.3163     2.1046   119.5137     5.8154     4.5491
  160.5000    11.4433     0.2222     0.3768     0.3400     2.0903   118.9088     5.6484     4.4256
  161.0000    10.8381     0.2400     0.3794     0.3156     2.1513   118.9119     5.3532     4.3053
  161.5000     9.6581     0.2517     0.4104     0.2445     2.2516   120.4352     4.9261     4.0825
