~VERSION INFORMATION
 VERS.                2.0:   CWLS LOG ASCII STANDARD - VERSION 2.0
 WRAP.                 NO:   ONE LINE PER DEPTH STEP
~WELL INFORMATION
#MNEM.UNIT      DATA TYPE    INFORMATION
#----------   ------------   ------------------------------
 STRT.F            0.0000:   START DEPTH
 STOP.F          412.0000:   STOP DEPTH
 STEP.F            0.5000:   STEP LENGTH
 NULL.          -999.2500:   NO VALUE
 COMP. DEPARTMENT OF ENERGY:   COMPANY
 WELL. 65-24 SXS C-3 #65-3:   WELL
 FLD .        TEAPOT EAST:   FIELD
 LOC .       S3 T38N R78W:   LOCATION
 CNTY.            NATRONA:   COUNTY
 STAT.            WYOMING:   STATE
 CTRY. UNITED STATES OF AMERICA:   COUNTRY
 SRVC.      Dresser Atlas:   SERVICE COMPANY
 DATE.        30-JUN-1985:   LOGDATE
 API .       490251134700:   API NUMBER
~CURVE INFORMATION
#MNEM.UNIT       API CODE    CURVE DESCRIPTION
#----------   ------------   ------------------------------
 DEPT.F                  :   
 CALD.IN     45 280 60 00:   CALIPER FROM DENSITY LOG
 CNC .DEC    42 890 03 00:   NEUTRON POROSITY SANDSTONE
 CORR.G/C3   45 356 01 00:   DENSITY CORRECTION
 PORD.DEC    45 890 12 00:   POROSITY DENSITY SANDSTONE
 DEN .G/C3   45 350 01 00:   COMPENSATED BULK DENSTIY
 GRR .GAPI   07 310 01 00:   GAMMA RAY
 RILD.OHMM   07 120 46 00:   INDUCTION LOG DEEP RESISTIVITY
 RILM.OHMM   07 120 44 00:   INDUCTION LOG MEDIUM RESISTIVITY
~PARAMETER INFORMATION
#MNEM.UNIT          VALUE    DESCRIPTION
#----------   ------------   ------------------------------
 PD  .                 GL:   PERMANENT DATUM
 EPD .F              5161:   ELEVATION PERMANENT DATUM
 LMF .                 GL:   LOG MEASURED FROM
 DMF .                 GL:   DRILLING MEASURED FROM
 EGL .F              5161:   GROUND LEVEL
 DATE.        30-JUN-1985:   RUN DATE
 RUN .              1-424:   RUN NUMBER
 DD  .F               424:   DEPTH DRILLER
 DL  .F               422:   DEPTH LOGGER
 BLI .F               414:   BOTTOM LOG INTERVAL
 CS  .IN                7:   CASING SIZE
 CBD .F                80:   CASING BOTTOM DRILLER
 CBL .F                85:   CASING BOTTOM LOGGER
 BS  .IN            4.875:   BIT SIZE
 BSD .F               424:   BIT SIZE AT DEPTH
 DFT .                OIL:   DRILLING FLUID TYPE
 TCS .HRS               3:   TIME CURCULATED STOPPED
 LUN .               6274:   LOGGING UNIT NUMBER
 LUL .           GILLETTE:   LOGGING UNIT LOCATION
 ENGI.             RAUTIO:   RECORDING ENGINEER
 WITN.             GROOMS:   WITNESSED BY
 CLNT.            A2DTECH:   CLIENT CODE
 ORIG.           5" PRINT:   ORIGIN OF DATA
 UWI .       490251134700:   UNIQUE WELL ID
 DICO. A2D Technologies, Inc.:   DIGITIZING COMPANY
~OTHER INFORMATION
~A    DEPT    CALD        CNC       CORR       PORD        DEN         GRR      RILD       RILM   
# ...
   81.0000  -999.2500     0.4658  -999.2500  -999.2500  -999.2500    77.7115  -999.2500  -999.2500
   81.5000  -999.2500     0.4670  -999.2500  -999.2500  -999.2500    77.3818  -999.2500  -999.2500
   82.0000  -999.2500     0.4688  -999.2500  -999.2500  -999.2500    76.4493  -999.2500  -999.2500
   82.5000  -999.2500     0.4708  -999.2500  -999.2500  -999.2500    73.9919  -999.2500  -999.2500
   83.0000  -999.2500     0.4726  -999.2500  -999.2500  -999.2500    73.6725  -999.2500  -999.2500
   83.5000  -999.2500     0.4741  -999.2500  -999.2500  -999.2500    76.3822  -999.2500  -999.2500
   84.0000  -999.2500     0.4735  -999.2500  -999.2500  -999.2500    77.2786  -999.2500  -999.2500
   84.5000  -999.2500     0.4658  -999.2500  -999.2500  -999.2500    77.2528  -999.2500  -999.2500
   85.0000     6.6324     0.4542    -1.2341     0.5939  -999.2500    77.8400  9872.2568  9915.8086
   85.5000     6.6626     0.4088    -1.1187     0.5954  -999.2500    83.2905  2512.1726  2012.1927
   86.0000     6.7080     0.3330    -0.8338     0.5785  -999.2500    95.1240   127.1954   133.2400
   86.5000     6.7685     0.2892    -0.4169     0.4937  -999.2500   108.7893  2430.2886  1821.0913
   87.0000     6.7837     0.2759    -0.0586     0.4082     2.0393   114.7659  7624.1201  4287.1685
   87.5000     6.7685     0.2593     0.4773     0.3227     2.1325   120.2849  2330.8516  1622.8942
   88.0000     6.7231     0.2502     0.4366     0.1582     2.2710   123.3038     1.9709     3.3120
   88.5000     6.7231     0.2456     0.4048     0.0885     2.4052   129.6661     1.8915     2.7458
   89.0000     6.7257     0.2444     0.4158     0.0744     2.5024   131.7783     2.6068     2.8105
   89.5000     6.7685     0.2423     0.4335     0.0889     2.5280   130.5367     4.1277     3.9481
   90.0000     6.8139     0.2383     0.4350     0.1118     2.4956   125.9568     5.6482     4.9358
   90.5000     6.8442     0.2362     0.4275     0.1381     2.4436   119.2492     7.0121     5.9595
   91.0000     6.9349     0.2368     0.4396     0.1333     2.4248   114.9037     7.2660     6.6650
   91.5000     7.0106     0.2397     0.4517     0.1073     2.4663   112.2119     5.9455     7.0503
   92.0000     6.8744     0.2439     0.4260     0.0929     2.4987   116.7505     5.7061     7.2531
   92.5000     6.6324     0.2405     0.3171     0.0852     2.5077   117.6469     5.7118     7.2568
   93.0000     6.4811     0.2327     0.1556     0.0869     2.5062   115.4934     6.0434     6.9507
   93.5000     6.4206     0.2285     0.1269     0.0945     2.5002   112.7372     5.9222     6.5446
   94.0000     6.4206     0.2245     0.1042     0.1005     2.4927   111.1968     6.0531     6.2365
   94.5000     6.4206     0.2212     0.0906     0.1041     2.4859   111.1762     8.2829     6.0262
   95.0000     6.4206     0.2184     0.0770     0.1062     2.4790   112.0973     8.8916     5.9867
   95.5000     6.4206     0.2172     0.0634     0.1059     2.4747   113.2626     8.9184     5.9904
   96.0000     6.4206     0.2163     0.0483     0.0995     2.4807   112.3249     8.5388     5.9935
   96.5000     6.4357     0.2159     0.0408     0.1054     2.4830   112.0003     8.2538     6.0384
   97.0000     6.4357     0.2159     0.0725     0.1333     2.4445   113.4994     8.0324     6.1269
   97.5000     6.4357     0.2156     0.1178     0.1405     2.4182   114.3958     7.8200     6.1728
   98.0000     6.4357     0.2150     0.1949     0.1055     2.4679   113.7621     7.7721     6.1760
   98.5000     6.4357     0.2146     0.2840     0.0952     2.4981   112.2107     7.7245     6.1362
   99.0000     6.4357     0.2134     0.2976     0.0855     2.5225   113.7208     7.6772     6.0544
   99.5000     6.4357     0.2122     0.1813     0.0655     2.5456   112.7832     7.6302     5.9737
  100.0000     6.4353     0.2115     0.0755     0.0758     2.5290   109.4242     7.6366     5.8532
  100.5000     6.4339     0.2135     0.0400     0.1115     2.4853   113.5026     7.6388     5.9172
  101.0000     6.4324     0.2157     0.0196     0.1259     2.4507   116.7365     7.6410     5.9812
  101.5000     6.4309     0.2184     0.0121     0.1340     2.4379   118.2651     7.6432     6.0185
  102.0000     6.4295     0.2221     0.0060     0.1385     2.4236   117.6660     7.6455     6.1455
  102.5000     6.4280     0.2241     0.0030     0.1379     2.4168   113.1155     7.7009     6.2752
  103.0000     6.4265     0.2241     0.0015     0.1312     2.4267   107.8197     7.8127     6.4575
  103.5000     6.4251     0.2220     0.0136     0.1312     2.4341   102.8011     7.8757     6.6810
  104.0000     6.4236     0.2150     0.0441     0.1309     2.4349   101.8958     8.0916     6.9176
  104.5000     6.4221     0.2095     0.0819     0.1293     2.4327   104.3385     8.2647     7.0636
  105.0000     6.4206     0.2077     0.1193     0.1230     2.4485   104.0434     8.3827     7.2127
  105.5000     6.4206     0.2056     0.1344     0.1160     2.4628   104.9641     8.5024     7.2631
  106.0000     6.4206     0.2028     0.1450     0.1094     2.4764   107.1005     8.5634     7.2127
  106.5000     6.4374     0.2043     0.1405     0.1045     2.4839   106.7984     8.3894     7.1130
  107.0000     6.4660     0.2082     0.1344     0.1003     2.4855   105.8561     8.3336     7.0845
  107.5000     6.4811     0.2136     0.1314     0.0987     2.4794   104.0897     8.1592     7.0146
  108.0000     6.5113     0.2221     0.1329     0.1051     2.4689   103.1867     7.9421     6.9077
  108.5000     6.5416     0.2275     0.1224     0.1151     2.4561   104.4113     7.7270     6.8567
  109.0000     6.5930     0.2299     0.0891     0.1240     2.4426   107.4597     7.6223     6.7119
  109.5000     6.6021     0.2311     0.0861     0.1340     2.4313   109.5962     7.4665     6.6810
  110.0000     6.6172     0.2307     0.0816     0.1391     2.4237   110.5169     7.3659     6.5429
  110.5000     6.6324     0.2304     0.0589     0.1333     2.4253   107.7518     7.3164     6.4975
  111.0000     6.6324     0.2313     0.0408     0.1288     2.4353   104.9883     7.3699     6.4975
  111.5000     6.6324     0.2337     0.0514     0.1285     2.4388   103.5532     7.4751     6.4975
  112.0000     6.6172     0.2361     0.0666     0.1303     2.4343   103.9757     7.4772     6.4975
  112.5000     6.6172     0.2373     0.0559     0.1433     2.4155   108.7403     7.4797     6.4975
  113.0000     6.6172     0.2370     0.0378     0.1488     2.4027   111.4846     7.4294     6.4975
  113.5000     6.6172     0.2348     0.0363     0.1426     2.4178   113.3172     7.2785     6.4975
  114.0000     6.6085     0.2330     0.0559     0.1253     2.4381   112.1102     7.2300     6.4524
  114.5000     6.6021     0.2324     0.0680     0.1169     2.4517   111.2050     7.1317     6.3632
  115.0000     6.6021     0.2345     0.0740     0.1147     2.4601   111.0486     7.0846     6.3191
  115.5000     6.6021     0.2362     0.0618     0.1168     2.4608   111.5380     7.0866     6.2752
  116.0000     6.6021     0.2368     0.0463     0.1289     2.4487   112.5958     7.0885     6.1884
  116.5000     6.6021     0.2368     0.0438     0.1391     2.4314   113.6763     7.0909     6.1884
  117.0000     6.6021     0.2338     0.0665     0.1446     2.4209   111.8615     7.0928     6.2047
  117.5000     6.6021     0.2298     0.0876     0.1482     2.4149   108.5268     7.0947     6.2752
  118.0000     6.6021     0.2274     0.1148     0.1506     2.4066   106.1018     7.0966     6.3046
  118.5000     6.6021     0.2277     0.1450     0.1514     2.3991   106.1129     7.1480     6.3191
  119.0000     6.6021     0.2304     0.1344     0.1424     2.4140   106.4257     7.2501     6.3191
  119.5000     6.6021     0.2331     0.1205     0.1257     2.4488   108.5836     7.3026     6.3191
  120.0000     6.6021     0.2348     0.0982     0.1064     2.4775   111.3088     7.3046     6.3191
  120.5000     6.6021     0.2354     0.0770     0.1009     2.4820   109.7978     7.2560     6.2752
  121.0000     6.6021     0.2330     0.0589     0.1113     2.4692   107.3751     7.1086     6.1884
