~VERSION INFORMATION
 VERS.                2.0:   CWLS LOG ASCII STANDARD - VERSION 2.0
 WRAP.                 NO:   ONE LINE PER DEPTH STEP
~WELL INFORMATION
#MNEM.UNIT      DATA TYPE    INFORMATION
#----------   ------------   ------------------------------
 STRT.F          248.0000:   START DEPTH
 STOP.F         2495.0000:   STOP DEPTH
 STEP.F            0.5000:   STEP LENGTH
 NULL.          -999.2500:   NO VALUE
 COMP. FENIX & SCISSON INC:   COMPANY
 WELL.      85 SHX #28-28:   WELL
 FLD .             TEAPOT:   FIELD
 LOC .      S28 T39N R78W:   LOCATION
 CNTY.            NATRONA:   COUNTY
 STAT.            WYOMING:   STATE
 CTRY. UNITED STATES OF AMERICA:   COUNTRY
 SRVC.           BIRDWELL:   SERVICE COMPANY
 DATE.        18-AUG-1979:   LOGDATE
 API .       490251079700:   API NUMBER
~CURVE INFORMATION
#MNEM.UNIT       API CODE    CURVE DESCRIPTION
#----------   ------------   ------------------------------
 DEPT.F                  :   
 CALD.IN     45 280 60 00:   CALIPER
 CORR.G/C3   45 356 01 00:   DENSITY CORRECTION
 RHOB.G/C3   45 350 01 00:   BULK DENSITY
 DPHI.DEC    45 890 12 00:   DENSITY POROSITY SANDSTONE
 GRD .GAPI   45 310 01 00:   GAMMA RAY FROM DENSITY LOG
~PARAMETER INFORMATION
#MNEM.UNIT          VALUE    DESCRIPTION
#----------   ------------   ------------------------------
 PD  .                 GL:   PERMANENT DATUM
 EPD .F              5044:   ELEVATION PERMANENT DATUM
 LMF .                 DF:   LOG MEASURED FROM
 DMF .                 KB:   DRILLING MEASURED FROM
 EKB .F              5054:   KELLING BUSHING
 EDF .F              5052:   DRILLING FLOOR
 EGL .F              5044:   GROUND LEVEL
 DATE.            8-18-79:   RUN DATE
 RUN .                  1:   RUN NUMBER
 DD  .F              2500:   DEPTH DRILLER
 DL  .F              2495:   DEPTH LOGGER
 BLI .F              2495:   BOTTOM LOG INTERVAL
 CS  .IN            9.625:   CASING SIZE
 CBD .F               520:   CASING BOTTOM DRILLER
 CBL .F               505:   CASING BOTTOM LOGGER
 BS  .IN             8.75:   BIT SIZE
 BSD .F              2500:   BIT SIZE AT DEPTH
 DFT .                AIR:   DRILLING FLUID TYPE
 TCS .HRS               2:   TIME CURCULATED STOPPED
 ENGI.          B. MILLER:   RECORDING ENGINEER
 WITN.           DINSMORE:   WITNESSED BY
 CLNT.            A2DTECH:   CLIENT CODE
 ORIG.           5" PRINT:   ORIGIN OF DATA
 UWI .       490251079700:   UNIQUE WELL ID
 DICO. A2D Technologies, Inc.:   DIGITIZING COMPANY
~OTHER INFORMATION
~A   DEPT     CALD       CORR       RHOB       DPHI         GRD  
# ...
 2322.0000     9.5145     0.0614     2.4427     0.0575   165.2084
 2322.5000     9.4733     0.0639     2.4825     0.0315   156.9311
 2323.0000     9.4555     0.0398     2.5158     0.0151   156.4575
 2323.5000     9.4365     0.0166     2.5147     0.0204   154.9038
 2324.0000     9.4172     0.0018     2.4943     0.0284   153.6037
 2324.5000     9.3980    -0.0117     2.4789     0.0387   157.1460
 2325.0000     9.3787    -0.0155     2.4628     0.0479   160.9656
 2325.5000     9.3605    -0.0155     2.4582     0.0456   164.7715
 2326.0000     9.3190    -0.0135     2.4697     0.0428   168.5779
 2326.5000     9.2605    -0.0076     2.4780     0.0376   170.9593
 2327.0000     9.2024    -0.0017     2.4778     0.0363   169.8324
 2327.5000     9.1520     0.0041     2.4832     0.0328   167.0818
 2328.0000     9.1572     0.0066     2.4897     0.0299   161.9788
 2328.5000     9.1683    -0.0030     2.4942     0.0275   156.8578
 2329.0000     9.1792    -0.0065     2.4962     0.0263   155.1897
 2329.5000     9.1902    -0.0048     2.4910     0.0283   159.7310
 2330.0000     9.2011    -0.0030     2.4759     0.0388   165.4049
 2330.5000     9.2120    -0.0011     2.4575     0.0487   172.2174
 2331.0000     9.2229     0.0007     2.4522     0.0531   174.4786
 2331.5000     9.2338     0.0025     2.4468     0.0546   175.7019
 2332.0000     9.2447     0.0042     2.4418     0.0578   180.8200
 2332.5000     9.2531     0.0095     2.4317     0.0658   182.1192
 2333.0000     9.2527     0.0171     2.4213     0.0690   185.6106
 2333.5000     9.2614     0.0223     2.4264     0.0650   186.4373
 2334.0000     9.2709     0.0255     2.4363     0.0610   181.9555
 2334.5000     9.2805     0.0286     2.4443     0.0570   175.7361
 2335.0000     9.2900     0.0316     2.4448     0.0562   174.6807
 2335.5000     9.2996     0.0296     2.4431     0.0577   178.4760
 2336.0000     9.3091     0.0255     2.4403     0.0591   179.3302
 2336.5000     9.3189     0.0213     2.4376     0.0599   173.0646
 2337.0000     9.3271     0.0224     2.4424     0.0570   167.8803
 2337.5000     9.3535     0.0338     2.4626     0.0490   162.6993
 2338.0000     9.3768     0.0488     2.4840     0.0332   157.5234
 2338.5000     9.4200     0.0720     2.5056     0.0195   152.4592
 2339.0000     9.4635     0.0837     2.5240     0.0095   152.1226
 2339.5000     9.5074     0.0684     2.5049     0.0182   152.8048
 2340.0000     9.5335     0.0520     2.4851     0.0308   157.9214
 2340.5000     9.5329     0.0505     2.4829     0.0339   162.9892
 2341.0000     9.5348     0.0439     2.4816     0.0347   168.5423
 2341.5000     9.5372     0.0314     2.4755     0.0368   160.1380
 2342.0000     9.5394     0.0224     2.4971     0.0269   146.0966
 2342.5000     9.5417     0.0155     2.5097     0.0179   139.4422
 2343.0000     9.5440     0.0064     2.5005     0.0252   138.4760
 2343.5000     9.5463     0.0046     2.4969     0.0267   144.7847
 2344.0000     9.5486    -0.0007     2.4928     0.0310   149.3233
 2344.5000     9.5508    -0.0099     2.4715     0.0456   150.6799
 2345.0000     9.5518    -0.0149     2.4546     0.0499   155.3531
 2345.5000     9.5518    -0.0117     2.4553     0.0499   160.9446
 2346.0000     9.5519    -0.0003     2.4557     0.0499   166.5773
 2346.5000     9.5517     0.0155     2.4548     0.0514   172.1252
 2347.0000     9.5433     0.0312     2.4524     0.0531   173.2393
 2347.5000     9.5144     0.0467     2.4498     0.0525   170.4923
 2348.0000     9.4859     0.0550     2.4612     0.0453   166.5070
 2348.5000     9.4570     0.0444     2.4760     0.0350   161.9498
 2349.0000     9.4526     0.0341     2.4910     0.0298   157.4023
 2349.5000     9.4348     0.0238     2.4883     0.0283   152.8581
 2350.0000     9.4143     0.0131     2.4808     0.0387   148.1339
 2350.5000     9.3940     0.0101     2.4790     0.0351   147.6307
 2351.0000     9.3686     0.0095     2.4791     0.0344   149.5879
 2351.5000     9.3521     0.0089     2.4887     0.0299   150.5210
 2352.0000     9.3264     0.0066     2.5011     0.0258   146.6105
 2352.5000     9.2999    -0.0028     2.5048     0.0209   144.0098
 2353.0000     9.2668    -0.0020     2.5153     0.0135   143.3846
 2353.5000     9.2295     0.0052     2.5276     0.0061   142.7375
 2354.0000     9.1861     0.0011     2.5401     0.0037   141.7959
 2354.5000     9.1538    -0.0060     2.5427     0.0028   139.4713
 2355.0000     9.1322    -0.0133     2.5370     0.0044   137.1661
 2355.5000     9.1382    -0.0149     2.5343     0.0063   135.8045
 2356.0000     9.1444    -0.0036     2.5404     0.0089   135.8752
 2356.5000     9.1510    -0.0178     2.5348     0.0115   140.7532
 2357.0000     9.1543    -0.0184     2.5221     0.0120   145.0595
 2357.5000     9.1185    -0.0102     2.5201     0.0125   148.1358
 2358.0000     9.0758    -0.0053     2.5206     0.0132   153.1801
 2358.5000     9.0722    -0.0004     2.5210     0.0139   160.3578
 2359.0000     9.0713     0.0045     2.5199     0.0147   164.7721
 2359.5000     9.0701     0.0094     2.5184     0.0145   160.3999
 2360.0000     9.0689     0.0143     2.5218     0.0098   152.9736
 2360.5000     9.0677     0.0192     2.5314     0.0036   147.5199
 2361.0000     9.0664     0.0243     2.5401     0.0003   147.6351
 2361.5000     9.0652     0.0159     2.5291     0.0113   156.6681
 2362.0000     9.0640     0.0063     2.5122     0.0200   163.5401
 2362.5000     9.0627    -0.0017     2.4950     0.0271   170.3817
 2363.0000     9.0615    -0.0004     2.4941     0.0267   171.8564
 2363.5000     9.0603     0.0013     2.5067     0.0212   166.8066
 2364.0000     9.0590     0.0009     2.5171     0.0144   159.4384
 2364.5000     9.0578    -0.0051     2.5216     0.0124   152.0672
 2365.0000     9.0566    -0.0109     2.5211     0.0126   146.2623
 2365.5000     9.0553    -0.0157     2.5205     0.0123   146.4369
 2366.0000     9.0538    -0.0117     2.5227     0.0093   147.3584
 2366.5000     9.0663    -0.0057     2.5353     0.0036   148.2634
 2367.0000     9.0835    -0.0015     2.5426     0.0019   149.1575
 2367.5000     9.1008    -0.0043     2.5305     0.0093   150.0302
 2368.0000     9.1180    -0.0074     2.5214     0.0132   151.4229
 2368.5000     9.1352    -0.0105     2.5122     0.0152   152.9047
 2369.0000     9.1525    -0.0117     2.5056     0.0210   153.8191
 2369.5000     9.1697    -0.0045     2.5033     0.0224   153.6857
 2370.0000     9.1869     0.0036     2.5023     0.0219   149.4801
 2370.5000     9.2042     0.0116     2.5012     0.0211   147.1400
 2371.0000     9.2214     0.0167     2.5004     0.0266   150.8884
 2371.5000     9.2386     0.0107     2.4908     0.0292   151.7787
 2372.0000     9.2558     0.0036     2.4796     0.0364   150.7752
 2372.5000     9.2731    -0.0039     2.4697     0.0422   147.7746
 2373.0000     9.2903    -0.0026     2.4739     0.0384   144.8092
 2373.5000     9.3075     0.0028     2.4817     0.0351   141.8823
 2374.0000     9.3248     0.0082     2.4804     0.0362   139.7800
 2374.5000     9.3420     0.0137     2.4853     0.0333   140.1727
 2375.0000     9.3593     0.0183     2.4962     0.0252   142.5666
 2375.5000     9.3766     0.0135     2.5014     0.0248   144.9625
 2376.0000     9.3921     0.0089     2.5036     0.0244   147.3359
 2376.5000     9.3845     0.0042     2.5027     0.0240   149.0362
 2377.0000     9.3682     0.0014     2.4968     0.0260   148.3822
 2377.5000     9.3520    -0.0039     2.4909     0.0297   147.2204
 2378.0000     9.3357    -0.0071     2.4880     0.0305   146.0442
 2378.5000     9.3195    -0.0046     2.4919     0.0299   144.7258
 2379.0000     9.3033    -0.0028     2.4991     0.0244   143.2083
 2379.5000     9.2871    -0.0012     2.5056     0.0223   141.6829
 2380.0000     9.2709    -0.0114     2.5019     0.0235   140.9129
 2380.5000     9.2547    -0.0171     2.5110     0.0190   140.5688
 2381.0000     9.2381    -0.0088     2.5240     0.0086   140.2500
 2381.5000     9.2224    -0.0034     2.5357     0.0053   140.0237
 2382.0000     9.1996    -0.0066     2.5366     0.0041   142.3894
 2382.5000     9.1771    -0.0117     2.5336     0.0069   146.3224
