~VERSION INFORMATION
 VERS.                2.0:   CWLS LOG ASCII STANDARD - VERSION 2.0
 WRAP.                 NO:   ONE LINE PER DEPTH STEP
~WELL INFORMATION
#MNEM.UNIT      DATA TYPE    INFORMATION
#----------   ------------   ------------------------------
 STRT.F          390.0000:   START DEPTH
 STOP.F         2628.0000:   STOP DEPTH
 STEP.F            0.5000:   STEP LENGTH
 NULL.          -999.2500:   NO VALUE
 COMP. FENIX & SCISSON INC:   COMPANY
 WELL.    25 SHX 11 #3-11:   WELL
 FLD .             TEAPOT:   FIELD
 LOC .      S11 T38N R78W:   LOCATION
 CNTY.            NATRONA:   COUNTY
 STAT.            WYOMING:   STATE
 CTRY. UNITED STATES OF AMERICA:   COUNTRY
 SRVC.              Welex:   SERVICE COMPANY
 DATE.        15-MAY-1980:   LOGDATE
 API .       490251081900:   API NUMBER
~CURVE INFORMATION
#MNEM.UNIT       API CODE    CURVE DESCRIPTION
#----------   ------------   ------------------------------
 DEPT.F                  :   
 CALD.IN     45 280 60 00:   CALIPER
 GRD .GAPI   45 310 01 00:   GAMMA RAY FROM DENSITY LOG
 RHOB.G/C3   45 350 01 00:   BULK DENSITY
 DPHI.DEC    45 890 12 00:   DENSITY POROSITY SANDSTONE
 CORR.G/C3   45 356 01 00:   DENSITY CORRECTION
~PARAMETER INFORMATION
#MNEM.UNIT          VALUE    DESCRIPTION
#----------   ------------   ------------------------------
 PD  .                 GL:   PERMANENT DATUM
 EPD .F              5163:   ELEVATION PERMANENT DATUM
 LMF .                 KB:   LOG MEASURED FROM
 DAPD.F                10:   FEET ABOVE PERMANENT DATUM
 DMF .                 KB:   DRILLING MEASURED FROM
 EKB .F              5173:   KELLING BUSHING
 EGL .F              5163:   GROUND LEVEL
 DATE.            5-15-80:   RUN DATE
 RUN .                  1:   RUN NUMBER
 DD  .F              2625:   DEPTH DRILLER
 DL  .F              2630:   DEPTH LOGGER
 BLI .F              2628:   BOTTOM LOG INTERVAL
 TLI .F               400:   TOP LOG INTERVAL
 CS  .IN            9.625:   CASING SIZE
 CBD .F               645:   CASING BOTTOM DRILLER
 BS  .IN             8.75:   BIT SIZE
 BSD .F              2625:   BIT SIZE AT DEPTH
 DFT .        AIR DRILLED:   DRILLING FLUID TYPE
 TCS .HRS               2:   TIME CURCULATED STOPPED
 MRT .F               116:   MAXIMUM RECORDED TEMPERATURE
 ENGI.            BENTSEN:   RECORDING ENGINEER
 WITN.           DINSMORE:   WITNESSED BY
 CLNT.            A2DTECH:   CLIENT CODE
 ORIG.           5" PRINT:   ORIGIN OF DATA
 UWI .       490251081900:   UNIQUE WELL ID
 DICO. A2D Technologies, Inc.:   DIGITIZING COMPANY
~OTHER INFORMATION
~A   DEPT     CALD         GRD      RHOB       DPHI       CORR   
# ...
  878.0000     8.9041    82.3838     2.4537     0.0586     0.0481
  878.5000     8.9295    82.7692     2.4343     0.0721     0.0321
  879.0000     8.9545    82.8052     2.4233     0.0798     0.0248
  879.5000     8.9774    82.5499     2.4242     0.0777     0.0290
  880.0000     8.9218    82.2997     2.4273     0.0773     0.0345
  880.5000     8.8670    82.3365     2.4198     0.0803     0.0293
  881.0000     8.8617    82.4093     2.4079     0.0891     0.0247
  881.5000     8.9125    82.4821     2.4166     0.0834     0.0185
  882.0000     8.9631    82.5569     2.4284     0.0750     0.0302
  882.5000     8.9598    82.4690     2.4263     0.0782     0.0348
  883.0000     8.9556    82.3163     2.4380     0.0689     0.0432
  883.5000     8.9514    82.4626     2.4434     0.0671     0.0469
  884.0000     8.9472    82.8414     2.4407     0.0678     0.0456
  884.5000     8.9432    83.2186     2.4378     0.0692     0.0361
  885.0000     8.9283    83.4950     2.4305     0.0706     0.0323
  885.5000     8.9093    83.2347     2.4136     0.0825     0.0163
  886.0000     8.8901    82.8799     2.3964     0.0968     0.0009
  886.5000     8.8710    82.5217     2.3923     0.0924     0.0104
  887.0000     8.8597    82.1163     2.4158     0.0834     0.0259
  887.5000     8.8562    81.7641     2.3961     0.0899     0.0159
  888.0000     8.8528    81.3505     2.4049     0.0948     0.0045
  888.5000     8.8493    81.0561     2.4033     0.0922     0.0025
  889.0000     8.8458    81.0583     2.4017     0.0916     0.0024
  889.5000     8.8420    80.8619     2.4153     0.0843     0.0101
  890.0000     8.8616    80.1631     2.4272     0.0783     0.0233
  890.5000     8.8903    79.5434     2.4133     0.0833     0.0117
  891.0000     8.9185    79.8089     2.4086     0.0866     0.0128
  891.5000     8.8972    80.1887     2.4379     0.0717     0.0299
  892.0000     8.8689    80.5675     2.4550     0.0611     0.0469
  892.5000     8.8851    80.6855     2.4690     0.0505     0.0637
  893.0000     8.9183    80.4291     2.4733     0.0467     0.0732
  893.5000     8.9527    80.1762     2.4634     0.0530     0.0687
  894.0000     8.9382    79.9086     2.4536     0.0591     0.0661
  894.5000     8.9050    80.4703     2.4437     0.0652     0.0526
  895.0000     8.8710    81.3490     2.4415     0.0673     0.0448
  895.5000     8.8646    82.2342     2.4479     0.0645     0.0477
  896.0000     8.8688    83.1187     2.4540     0.0611     0.0528
  896.5000     8.8732    84.0031     2.4593     0.0552     0.0596
  897.0000     8.8776    84.8864     2.4570     0.0580     0.0569
  897.5000     8.8820    85.7707     2.4658     0.0523     0.0666
  898.0000     8.8863    86.2126     2.4778     0.0449     0.0697
  898.5000     8.8907    86.2123     2.4908     0.0356     0.0838
  899.0000     8.8950    86.2130     2.4941     0.0346     0.0733
  899.5000     8.8994    86.2174     2.4642     0.0491     0.0569
  900.0000     8.9024    85.9441     2.4581     0.0533     0.0558
  900.5000     8.9095    85.5643     2.4698     0.0497     0.0594
  901.0000     8.9168    85.1824     2.4622     0.0540     0.0604
  901.5000     8.9240    84.7997     2.4534     0.0596     0.0549
  902.0000     8.9312    84.4186     2.4560     0.0586     0.0523
  902.5000     8.9385    84.0830     2.4542     0.0572     0.0568
  903.0000     8.9418    84.0907     2.4587     0.0553     0.0557
  903.5000     8.9418    83.9952     2.4625     0.0549     0.0592
  904.0000     8.9363    83.3365     2.4503     0.0669     0.0545
  904.5000     8.8999    82.6861     2.4184     0.0867     0.0239
  905.0000     8.8637    82.2691     2.3907     0.0989    -0.0158
  905.5000     8.8404    82.2654     2.4063     0.0911     0.0014
  906.0000     8.8213    81.9448     2.4228     0.0759     0.0182
  906.5000     8.8300    81.5851     2.4499     0.0633     0.0371
  907.0000     8.8380    81.3715     2.4374     0.0689     0.0331
  907.5000     8.8455    81.3615     2.4251     0.0760     0.0285
  908.0000     8.8531    81.3654     2.4244     0.0786     0.0303
  908.5000     8.8607    81.5012     2.4307     0.0746     0.0386
  909.0000     8.8683    81.8249     2.4383     0.0679     0.0469
  909.5000     8.8759    82.1456     2.4512     0.0600     0.0553
  910.0000     8.8856    82.4706     2.4586     0.0572     0.0632
  910.5000     8.9037    82.5724     2.4479     0.0631     0.0558
  911.0000     8.9213    82.5780     2.4383     0.0686     0.0474
  911.5000     8.9389    82.7398     2.4359     0.0693     0.0451
  912.0000     8.9567    83.4471     2.4531     0.0588     0.0546
  912.5000     8.9619    83.7861     2.4546     0.0613     0.0607
  913.0000     8.9622    83.4463     2.4505     0.0613     0.0536
  913.5000     8.9610    83.0612     2.4601     0.0575     0.0598
  914.0000     8.8898    83.3032     2.4558     0.0564     0.0527
  914.5000     8.8188    84.1098     2.4465     0.0644     0.0405
  915.0000     8.8156    84.9172     2.4389     0.0681     0.0358
  915.5000     8.8110    85.6256     2.4441     0.0657     0.0418
  916.0000     8.8061    85.6092     2.4435     0.0664     0.0459
  916.5000     8.8016    85.6077     2.4314     0.0742     0.0379
  917.0000     8.8171    85.6004     2.4197     0.0810     0.0301
  917.5000     8.8619    85.3594     2.4202     0.0796     0.0293
  918.0000     8.9061    85.1037     2.4249     0.0778     0.0360
  918.5000     8.9427    84.8543     2.4167     0.0824     0.0332
  919.0000     8.9419    84.9139     2.4133     0.0859     0.0370
  919.5000     8.9398    85.4757     2.4227     0.0791     0.0407
  920.0000     8.9373    86.0307     2.4197     0.0823     0.0481
  920.5000     8.9348    86.5892     2.4327     0.0745     0.0530
  921.0000     8.9324    87.1128     2.4397     0.0673     0.0625
  921.5000     8.9299    87.1089     2.4470     0.0643     0.0596
  922.0000     8.9275    86.7264     2.4580     0.0584     0.0713
  922.5000     8.9249    86.3359     2.4541     0.0568     0.0683
  923.0000     8.9229    86.2799     2.4436     0.0644     0.0584
  923.5000     8.8951    86.3753     2.4409     0.0661     0.0541
  924.0000     8.8566    86.4742     2.4481     0.0625     0.0595
  924.5000     8.8217    86.5734     2.4553     0.0592     0.0630
  925.0000     8.8209    86.6709     2.4625     0.0562     0.0613
  925.5000     8.7990    86.7700     2.4701     0.0518     0.0660
  926.0000     8.7191    86.5627     2.4645     0.0496     0.0675
  926.5000     8.7325    86.2058     2.4542     0.0598     0.0528
  927.0000     8.7930    86.2151     2.4386     0.0690     0.0381
  927.5000     8.8207    85.8025     2.4212     0.0782     0.0233
  928.0000     8.8208    85.0365     2.4171     0.0817     0.0183
  928.5000     8.8425    84.7254     2.4283     0.0741     0.0295
  929.0000     8.8705    84.8724     2.4502     0.0631     0.0423
  929.5000     8.8987    85.0254     2.4647     0.0520     0.0579
  930.0000     8.9223    85.1788     2.4679     0.0479     0.0570
  930.5000     8.9193    85.3315     2.4724     0.0487     0.0590
  931.0000     8.9044    85.4842     2.4766     0.0464     0.0633
  931.5000     8.8907    85.6370     2.4559     0.0564     0.0509
  932.0000     8.8961    85.7898     2.4459     0.0629     0.0405
  932.5000     8.9226    85.9434     2.4564     0.0575     0.0511
  933.0000     8.9423    86.0955     2.4700     0.0509     0.0613
  933.5000     8.9361    86.2096     2.4732     0.0471     0.0652
  934.0000     8.9071    85.8901     2.4601     0.0576     0.0604
  934.5000     8.8790    85.1464     2.4518     0.0588     0.0570
  935.0000     8.8505    84.4090     2.4574     0.0569     0.0593
  935.5000     8.8416    83.6692     2.4680     0.0510     0.0698
  936.0000     8.8469    82.9293     2.4761     0.0463     0.0700
  936.5000     8.8590    82.1934     2.4796     0.0443     0.0735
  937.0000     8.8710    81.6560     2.4761     0.0446     0.0734
  937.5000     8.8790    81.6659     2.4678     0.0495     0.0678
  938.0000     8.8450    81.6664     2.4745     0.0457     0.0765
  938.5000     8.8841    81.6667     2.4385     0.0676     0.0564
