~VERSION INFORMATION
 VERS.                2.0:   CWLS LOG ASCII STANDARD - VERSION 2.0
 WRAP.                 NO:   ONE LINE PER DEPTH STEP
~WELL INFORMATION
#MNEM.UNIT      DATA TYPE    INFORMATION
#----------   ------------   ------------------------------
 STRT.F           30.0000:   START DEPTH
 STOP.F          597.0000:   STOP DEPTH
 STEP.F            0.5000:   STEP LENGTH
 NULL.          -999.2500:   NO VALUE
 COMP. FENIX & SCISSON-U.S. NAVY:   COMPANY
 WELL.    NPR #3 #15-S-11:   WELL
 FLD .             TEAPOT:   FIELD
 LOC .      S11 T38N R78W:   LOCATION
 CNTY.            NATRONA:   COUNTY
 STAT.            WYOMING:   STATE
 CTRY. UNITED STATES OF AMERICA:   COUNTRY
 SRVC.       Schlumberger:   SERVICE COMPANY
 DATE.        22-FEB-1977:   LOGDATE
 API .       490251028000:   API NUMBER
~CURVE INFORMATION
#MNEM.UNIT       API CODE    CURVE DESCRIPTION
#----------   ------------   ------------------------------
 DEPT.F                  :   
 SPR .MV     07 010 01 00:   SPONTANEOUS POTENTIAL
 ILD .OHMM   07 120 46 00:   INDUCTION LOG DEEP RES
 ILM .OHMM   07 120 44 00:   INDUCTION LOG MEDIUM RES
 LL8 .OHMM   07 220 08 00:   LATEROLOG-8 RES
 CALD.IN     45 280 60 00:   CALIPER FROM DENSITY LOG
 GRD .GAPI   45 310 01 00:   GAMMA RAY FROM DENSITY LOG
 CORR.G/C3   45 356 01 00:   DENSITY CORRECTION
 RHOB.G/C3   45 350 01 00:   BULK DENSITY
 DPHI.DEC    45 890 12 00:   DENSITY POROSITY SANDSTONE
~PARAMETER INFORMATION
#MNEM.UNIT          VALUE    DESCRIPTION
#----------   ------------   ------------------------------
 PD  .                 GL:   PERMANENT DATUM
 EPD .F              5188:   ELEVATION PERMANENT DATUM
 LMF .                 KB:   LOG MEASURED FROM
 DAPD.F                 5:   FEET ABOVE PERMANENT DATUM
 DMF .                 KB:   DRILLING MEASURED FROM
 EKB .F              5193:   KELLING BUSHING
 EGL .F              5188:   GROUND LEVEL
 DATE.         22FEB-1977:   RUN DATE
 RUN .                  1:   RUN NUMBER
 DD  .F               598:   DEPTH DRILLER
 DL  .F               598:   DEPTH LOGGER
 BLI .F               597:   BOTTOM LOG INTERVAL
 TLI .F                35:   TOP LOG INTERVAL
 CS  .IN            8.625:   CASING SIZE
 CBD .F                42:   CASING BOTTOM DRILLER
 CBL .F                45:   CASING BOTTOM LOGGER
 BS  .IN            7.875:   BIT SIZE
 BSD .F               598:   BIT SIZE AT DEPTH
 DFT .                KCL:   DRILLING FLUID TYPE
 DFD .                8.7:   DRILLING FLUID DENSITY
 DFV .                 31:   DRILLING FLUID VISCOSITY
 DFPH.                  8:   DRILLING FLUID PH
 DFL .                7.2:   DRILLING FLUID LOSS
 MSS .           MUD TANK:   MUD SAMPLE SOURCE
 RMS .OHMM           .526:   RESISTIVITY MUD SAMPLE
 MST .F                70:   MUD SAMPLE TEMPERATURE
 RMF .OHMM           .515:   RESISTIVITY MUD FILTRATE SAMPLE
 MFST.F                71:   MUD FILTRATE SAMPLE TEMPERATURE
 RMC .OHMM            .77:   RESISTIVITY MUD CAKE
 MCST.F                70:   MUD CAKE SAMPLE TEMPERATURE
 MFSS.               MEAS:   MUD FILTRATE SAMPLE SOURCE
 MCSS.               CALC:   MUD CAKE SAMPLE SOURCE
 RMB .OHMM            .67:   RESISTIVITY MUD AT BHT
 BHT .F                55:   BOTTOM HOLE TEMPERATURE
 TCS .HRS            0600:   TIME CURCULATED STOPPED
 MRT .F                55:   MAXIMUM RECORDED TEMPERATURE
 LUN .               5642:   LOGGING UNIT NUMBER
 LUL .               CSPR:   LOGGING UNIT LOCATION
 ENGI.                FIX:   RECORDING ENGINEER
 WITN.         STUEBINGER:   WITNESSED BY
 CLNT.            A2DTECH:   CLIENT CODE
 ORIG.           5" PRINT:   ORIGIN OF DATA
 UWI .       490251028000:   UNIQUE WELL ID
 DICO. A2D Technologies, Inc.:   DIGITIZING COMPANY
~OTHER INFORMATION
~A   DEPT      SPR        ILD        ILM        LL8       CALD         GRD      CORR       RHOB       DPHI   
# ...
  249.0000   -30.3332    10.4908    12.0504    12.0907     8.2408   110.3488     0.0068     2.4505     0.1232
  249.5000   -30.1734    10.4209    11.9470    11.9250     8.2415   106.1506     0.0158     2.4512     0.1202
  250.0000   -30.1393    10.3410    11.8128    11.8093     8.2422   102.1011     0.0125     2.4497     0.1193
  250.5000   -29.8083    10.2781    11.6786    11.6055     8.2431   109.4682     0.0045     2.4452     0.1232
  251.0000   -29.4773    10.2151    11.5444    11.4018     8.2440   113.9801     0.0038     2.4279     0.1265
  251.5000   -29.5536    10.1522    11.4678    11.2850     8.2449   115.1869     0.0053     2.4189     0.1305
  252.0000   -29.9911    10.0893    11.4700    11.2890     8.2458   111.5908     0.0075     2.4346     0.1347
  252.5000   -30.2867    10.0264    11.4718    11.2922     8.2466   113.1016     0.0068     2.4354     0.1352
  253.0000   -30.5824     9.9913    11.3941    11.2954     8.2475   114.0100     0.0030     2.4316     0.1322
  253.5000   -30.5762     9.9932    11.3173    11.2201     8.2634   114.6162     0.0000     2.4286     0.1340
  254.0000   -30.5460     9.9948    11.2411    11.2240     8.2643   109.2201     0.0045     2.4533     0.1271
  254.5000   -30.4132     9.9964    11.2433    11.2272     8.2651   105.4738     0.0113     2.4225     0.1237
  255.0000   -30.2552     9.9979    11.1671    11.2304     8.2660   104.2782     0.0053     2.4383     0.1322
  255.5000   -29.9475     9.9995    11.0923    11.1555     8.2669   108.4918     0.0015     2.4518     0.1225
  256.0000   -29.4891     9.9320    11.0175    11.0819     8.2678   111.8025    -0.0090     2.4262     0.1355
  256.5000   -29.1814     9.8651    10.9433    11.0095     8.2687   114.0622    -0.0099     2.4240     0.1403
  257.0000   -28.7229     9.7987    10.8696    10.8616     8.2696   113.4691    -0.0015     2.4292     0.1330
  257.5000   -28.5661     9.6657    10.7964    10.7157     8.2707   112.1233     0.0045     2.4412     0.1255
  258.0000   -28.5601     9.6006    10.7237    10.5717     8.2716   113.7843     0.0083     2.4525     0.1207
  258.5000   -28.5541     9.5359    10.6514    10.5018     8.2725   115.2933     0.0060     2.4449     0.1237
  259.0000   -28.3972     9.4717    10.6531    10.3607     8.2585   115.0005    -0.0008     2.4239     0.1333
  259.5000   -28.2404     9.4732    10.5814    10.2924     8.2594   113.6566    -0.0053     2.4194     0.1411
  260.0000   -28.0836     9.4093    10.4377    10.2954     8.2603   114.4148    -0.0060     2.4269     0.1448
  260.5000   -28.0776     9.3459    10.3673    10.2983     8.2611   114.8989     0.0024     2.4186     0.1411
  261.0000   -28.0716     9.2830    10.3690    10.3012     8.2469   113.2285     0.0013     2.4141     0.1453
  261.5000   -28.2164     9.2844    10.2991    10.2331     8.2480   107.9807    -0.0038     2.4148     0.1402
  262.0000   -28.3612     9.2859    10.3007    10.2361     8.2489   105.1353     0.0041     2.4306     0.1312
  262.5000   -28.5075     9.2233    10.2313    10.2390     8.2346   107.2449     0.0060     2.4403     0.1279
  263.0000   -28.6524     9.1603    10.1624    10.2419     8.2206   108.4536     0.0022     2.4058     0.1363
  263.5000   -28.9465     9.0978    10.0939    10.2448     8.2217   107.5601     0.0023     2.4395     0.1288
  264.0000   -29.0913     9.0382    10.0259    10.2477     8.2226   107.4112     0.0045     2.4305     0.1263
  264.5000   -29.2362     8.9740     9.9584    10.1801     8.2384   109.9804     0.0045     2.4290     0.1333
  265.0000   -29.2302     8.8554     9.8913    10.0433     8.2542   110.8910     0.0060     2.4320     0.1345
  265.5000   -29.3750     8.7957     9.8247     9.9770     8.2701   111.0435     0.0075     2.4462     0.1269
  266.0000   -29.3690     8.7971     9.8262     9.8430     8.2859   110.8769     0.0098     2.4500     0.1230
  266.5000   -29.2122     8.7378     9.7600     9.7780     8.2868   108.4441     0.0105     2.4417     0.1242
  267.0000   -29.2062     8.6790     9.6943     9.7135     8.2877   106.6359     0.0038     2.4161     0.1362
  267.5000   -29.0493     8.6205     9.6290     9.7162     8.2734   103.9940    -0.0045     2.4109     0.1447
  268.0000   -28.7417     8.5624     9.5641     9.7190     8.2594   101.8380    -0.0083     2.4312     0.1392
  268.5000   -28.5848     8.5544     9.5657     9.7217     8.2453    99.9771     0.0053     2.4379     0.1305
  269.0000   -28.2772     8.5061     9.5672     9.7245     8.2313   103.1396     0.0060     2.4370     0.1281
  269.5000   -27.9695     8.4488     9.5687     9.7272     8.2324   104.1981     0.0023     2.4260     0.1350
  270.0000   -27.8127     8.3340     9.5704     9.7300     8.2183   107.0584     0.0008     2.3887     0.1425
  270.5000   -27.6558     8.2212     9.5719     9.6607     8.2342   109.9187     0.0045     2.3907     0.1440
  271.0000   -27.8007     8.1092     9.5074     9.5963     8.2351   108.2746     0.0105     2.4258     0.1329
  271.5000   -27.9455     7.9994     9.3137     9.4730     8.2360   104.6784     0.0173     2.4508     0.1244
  272.0000   -28.2411     7.8904     9.0610     9.3321     8.2369   103.0342     0.0225     2.4408     0.1169
  272.5000   -28.3861     7.7299     8.7545     9.0865     8.2378   103.4921     0.0038     2.4303     0.1274
  273.0000   -28.5309     7.5724     8.3421     8.8332     8.2387   105.7519     0.0105     2.4528     0.1244
  273.5000   -28.5248     7.4178     8.1155     8.4760     8.2395   110.7143     0.0218     2.4550     0.1199
  274.0000   -28.6697     7.2667     7.8957     8.0298     8.2253   113.7247     0.0233     2.4189     0.1265
  274.5000   -28.6636     7.1189     7.7348     7.7056     8.2264   114.0306     0.0128     2.4152     0.1386
  275.0000   -28.6576     7.0706     7.6824     7.5058     8.2273   110.7367     0.0090     2.4137     0.1429
  275.5000   -28.5008     7.0720     7.7908     8.0845     8.2130   105.7892     0.0053     2.4151     0.1449
  276.0000   -28.3439     7.0731     7.9554     9.0103     8.2141   108.0489     0.0023     2.4279     0.1434
  276.5000   -28.0362     7.1233     8.1798     9.0516     8.2150   110.9092     0.0000     2.4309     0.1371
  277.0000   -27.8794     7.2236     8.3525     8.6874     8.2159   112.5683    -0.0015     2.4286     0.1367
  277.5000   -27.8734     7.3253     8.4701     8.4531     8.2168   114.2274    -0.0038     2.4241     0.1366
  278.0000   -27.8672     7.4285     8.5299     8.3390     8.2326   113.9346    -0.0068     2.4188     0.1412
  278.5000   -27.8612     7.5331     8.2416     8.2839     8.2485   112.5889    -0.0098     2.4263     0.1406
  279.0000   -27.8552     7.6922     8.1294     9.2548     8.2494   112.5982     0.0000     2.4248     0.1370
  279.5000   -27.8763     7.8005     8.3590     9.5819     8.2351   113.0561     0.0023     2.4240     0.1391
  280.0000   -28.1451     7.9104     8.5948     9.3881     8.2362   114.8654     0.0030     2.4285     0.1379
  280.5000   -28.2899     8.0218     8.7763     9.0103     8.2222   118.6266     0.0053     2.4510     0.1260
  281.0000   -28.4347     8.1348     8.8386     8.8893     8.2231   120.4358     0.0075     2.4555     0.1195
  281.5000   -28.4272     8.1360     8.8399     9.1408     8.2389   115.4884     0.0023     2.4480     0.1244
  282.0000   -28.5736     8.1373     8.8413     9.6626     8.2248   111.5919    -0.0068     2.4172     0.1342
  282.5000   -28.5661     8.1950     9.0280    10.0741     8.2257   113.1009    -0.0075     2.4104     0.1458
  283.0000   -28.4092     8.1963     9.2187    10.0770     8.2416   115.3606    -0.0053     2.4097     0.1484
  283.5000   -28.5556     8.2545     9.4134    10.0798     8.2275   116.7194    -0.0030     2.4217     0.1373
  284.0000   -28.5481     8.3130     9.5460    10.0827     8.2284   114.9251     0.0015     2.4382     0.1295
  284.5000   -28.3912     8.3143     9.3514    10.0154     8.2144   114.1817     0.0091     2.4374     0.1294
  285.0000   -28.2344     8.3156     9.0978     9.9493     8.2003   117.3424     0.0113     2.4336     0.1328
