~VERSION INFORMATION
 VERS.                2.0:   CWLS LOG ASCII STANDARD - VERSION 2.0
 WRAP.                 NO:   ONE LINE PER DEPTH STEP
~WELL INFORMATION
#MNEM.UNIT      DATA TYPE    INFORMATION
#----------   ------------   ------------------------------
 STRT.F           31.0000:   START DEPTH
 STOP.F          521.0000:   STOP DEPTH
 STEP.F            0.5000:   STEP LENGTH
 NULL.          -999.2500:   NO VALUE
 COMP. FENIX & SCISSON INC:   COMPANY
 WELL.      NPR-3 #52SX-3:   WELL
 FLD .             TEAPOT:   FIELD
 LOC .       S3 T38N R78W:   LOCATION
 CNTY.            NATRONA:   COUNTY
 STAT.            WYOMING:   STATE
 CTRY. UNITED STATES OF AMERICA:   COUNTRY
 SRVC.            Unknown:   SERVICE COMPANY
 DATE.        03-OCT-1978:   LOGDATE
 API .       490251071800:   API NUMBER
~CURVE INFORMATION
#MNEM.UNIT       API CODE    CURVE DESCRIPTION
#----------   ------------   ------------------------------
 DEPT.F                  :   
 SPR .MV     05 010 01 00:   SPONTANEOUS POTENTIAL FROM RES.
 GRD .GAPI   45 310 01 00:   GAMMA RAY FROM DENSITY LOG
 CALD.IN     45 280 60 00:   CALIPER
 RHOB.G/C3   45 350 01 00:   BULK DENSITY
 DPHI.DEC    45 890 12 00:   DENSITY POROSITY SANDSTONE
 CORR.G/C3   45 356 01 00:   DENSITY CORRECTION
 SN  .OHMM   05 040 16 00:   SHORT NORMAL 16"
 IL  .OHMM   05 120 00 00:   INDUCTION LOG
~PARAMETER INFORMATION
#MNEM.UNIT          VALUE    DESCRIPTION
#----------   ------------   ------------------------------
 PD  .                 GL:   PERMANENT DATUM
 EPD .F              5129:   ELEVATION PERMANENT DATUM
 LMF .                 KB:   LOG MEASURED FROM
 DAPD.F                 4:   FEET ABOVE PERMANENT DATUM
 DMF .                 KB:   DRILLING MEASURED FROM
 EKB .F              5133:   KELLING BUSHING
 EGL .F              5129:   GROUND LEVEL
 DATE.            10-3-78:   RUN DATE
 RUN .                  1:   RUN NUMBER
 DD  .F               521:   DEPTH DRILLER
 DL  .F               520:   DEPTH LOGGER
 BLI .F               514:   BOTTOM LOG INTERVAL
 TLI .F                46:   TOP LOG INTERVAL
 CS  .IN            8.625:   CASING SIZE
 CBL .F                44:   CASING BOTTOM LOGGER
 BS  .IN            7.875:   BIT SIZE
 BSD .F               521:   BIT SIZE AT DEPTH
 DFT .                KCL:   DRILLING FLUID TYPE
 DFD .                8.7:   DRILLING FLUID DENSITY
 DFV .                 34:   DRILLING FLUID VISCOSITY
 DFPH.                  9:   DRILLING FLUID PH
 DFL .               10.8:   DRILLING FLUID LOSS
 MSS .            MUD PIT:   MUD SAMPLE SOURCE
 RMS .OHMM            .24:   RESISTIVITY MUD SAMPLE
 MST .F                54:   MUD SAMPLE TEMPERATURE
 RMF .OHMM            .22:   RESISTIVITY MUD FILTRATE SAMPLE
 MFST.F                60:   MUD FILTRATE SAMPLE TEMPERATURE
 RMC .OHMM             .3:   RESISTIVITY MUD CAKE
 MCST.F                64:   MUD CAKE SAMPLE TEMPERATURE
 MFSS.               MEAS:   MUD FILTRATE SAMPLE SOURCE
 MCSS.               MEAS:   MUD CAKE SAMPLE SOURCE
 BHT .F                60:   BOTTOM HOLE TEMPERATURE
 TCS .HRS               3:   TIME CURCULATED STOPPED
 MRT .F                60:   MAXIMUM RECORDED TEMPERATURE
 LUN .               2958:   LOGGING UNIT NUMBER
 LUL .               CASP:   LOGGING UNIT LOCATION
 ENGI.             MILLER:   RECORDING ENGINEER
 WITN.           DINSMORE:   WITNESSED BY
 CLNT.            A2DTECH:   CLIENT CODE
 ORIG.       2", 5" PRINT:   ORIGIN OF DATA
 UWI .       490251071800:   UNIQUE WELL ID
 DICO. A2D Technologies, Inc.:   DIGITIZING COMPANY
~OTHER INFORMATION
~A   DEPT      SPR         GRD      CALD       RHOB       DPHI       CORR         SN         IL   
# ...
  152.5000   -24.4072    97.3939     7.7648     2.4606     0.1334     0.0057     7.5290     9.2037
  153.0000   -24.6479    97.2305     7.7663     2.4554     0.1353     0.0064     7.4903     9.1286
  153.5000   -24.9007    97.0661     7.7678     2.4544     0.1371     0.0073     7.4517     9.0508
  154.0000   -25.3810    97.3790     7.7694     2.4550     0.1374     0.0082     7.4133     8.7724
  154.5000   -25.8775    98.0583     7.7709     2.4584     0.1352     0.0091     7.3751     8.5167
  155.0000   -26.0296    99.1547     7.7724     2.4601     0.1336     0.0100     7.3372     8.2696
  155.5000   -26.1654    99.9484     7.7740     2.4591     0.1345     0.0109     7.3214     8.0291
  156.0000   -26.3029    99.4171     7.7755     2.4590     0.1347     0.0118     7.3214     7.9752
  156.5000   -26.4411    98.9091     7.7770     2.4645     0.1333     0.0127     7.3214     7.9231
  157.0000   -26.5786    98.7769     7.7786     2.4736     0.1267     0.0134     7.3214     7.8707
  157.5000   -26.6892    98.7123     7.7801     2.4828     0.1198     0.0097     7.3214     7.8184
  158.0000   -26.6883    98.6581     7.7815     2.4801     0.1182     0.0061     7.3214     7.7672
  158.5000   -26.6968    98.1504     7.7902     2.4727     0.1251     0.0039     7.3215     7.7361
  159.0000   -26.3067    97.5950     7.8021     2.4651     0.1319     0.0053     7.3278     7.9784
  159.5000   -25.8473    97.4558     7.8141     2.4599     0.1359     0.0067     7.3418     8.1783
  160.0000   -25.7267    97.3114     7.8261     2.4634     0.1359     0.0081     7.3561     8.3338
  160.5000   -25.7692    97.1695     7.8387     2.4725     0.1247     0.0094     7.3703     8.3444
  161.0000   -25.8158    97.0382     7.8395     2.4797     0.1217     0.0085     7.3846     8.3558
  161.5000   -25.8597    97.7157     7.8366     2.4830     0.1195     0.0074     7.3989     8.3673
  162.0000   -25.8163    98.9765     7.8336     2.4864     0.1181     0.0063     7.4133     8.3787
  162.5000   -25.4891    99.7955     7.8307     2.4899     0.1154     0.0052     7.4276     8.3901
  163.0000   -25.1763    99.6784     7.8277     2.4884     0.1166     0.0041     7.4420     8.4016
  163.5000   -24.8926    98.4300     7.8248     2.4859     0.1181     0.0035     7.4574     8.4508
  164.0000   -24.8995    96.3230     7.8218     2.4852     0.1186     0.0036     7.4529     8.5366
  164.5000   -24.9008    94.8886     7.8189     2.4848     0.1189     0.0037     7.4477     8.6233
  165.0000   -24.9008    94.5057     7.8160     2.4845     0.1198     0.0038     7.4426     8.7108
  165.5000   -24.9008    95.9080     7.8130     2.4841     0.1201     0.0039     7.4374     8.8039
  166.0000   -24.9004    98.5144     7.8101     2.4837     0.1196     0.0039     7.4323     8.8363
  166.5000   -24.8990   100.0574     7.8071     2.4825     0.1201     0.0040     7.4271     8.8854
  167.0000   -24.9077   100.1005     7.8042     2.4783     0.1215     0.0041     7.4219     8.8305
  167.5000   -25.1982   100.1511     7.8012     2.4743     0.1262     0.0042     7.4168     8.7344
  168.0000   -25.5072   100.2860     7.7983     2.4723     0.1267     0.0043     7.4117     8.6395
  168.5000   -25.8154   101.3738     7.7954     2.4718     0.1260     0.0044     7.4065     8.5455
  169.0000   -26.1244   107.0787     7.7924     2.4713     0.1270     0.0044     7.4014     8.4525
  169.5000   -26.4399   113.6792     7.7895     2.4700     0.1281     0.0045     7.3962     8.3607
  170.0000   -26.3402   118.0438     7.7866     2.4687     0.1297     0.0046     7.3912     8.2698
  170.5000   -26.1613   122.3092     7.7836     2.4674     0.1311     0.0047     7.3794     8.2536
  171.0000   -25.8523   125.0087     7.7834     2.4662     0.1312     0.0047     7.3639     8.2535
  171.5000   -25.4797   124.0155     7.7857     2.4649     0.1313     0.0048     7.3484     8.2536
  172.0000   -25.1078   120.8716     7.7881     2.4636     0.1315     0.0049     7.3329     8.2536
  172.5000   -25.0144   117.1498     7.7904     2.4624     0.1324     0.0050     7.3174     8.2536
  173.0000   -25.2703   114.8113     7.7927     2.4615     0.1332     0.0051     7.3020     8.2536
  173.5000   -25.1534   117.8326     7.7951     2.4622     0.1334     0.0052     7.2865     8.2536
  174.0000   -24.9884   121.9452     7.7974     2.4681     0.1319     0.0052     7.2712     8.2536
  174.5000   -24.9683   124.1649     7.7998     2.4746     0.1248     0.0053     7.2558     8.2536
  175.0000   -25.1078   123.7461     7.8021     2.4804     0.1212     0.0054     7.2042     8.2537
  175.5000   -25.2462   122.0666     7.8044     2.4801     0.1208     0.0055     7.1486     8.2536
  176.0000   -25.3853   121.8365     7.8068     2.4768     0.1240     0.0056     7.0975     8.2533
  176.5000   -25.5244   121.9478     7.8091     2.4759     0.1258     0.0059     7.0505     8.2235
  177.0000   -25.6635   121.8622     7.8115     2.4805     0.1219     0.0061     7.0039     8.1666
  177.5000   -25.7997   121.9647     7.8138     2.4820     0.1191     0.0064     6.9576     8.1100
  178.0000   -25.8271   122.0094     7.8161     2.4776     0.1224     0.0066     6.9115     8.0536
  178.5000   -25.6230   121.3075     7.8185     2.4732     0.1257     0.0069     6.8658     7.9977
  179.0000   -25.4271   119.6533     7.8208     2.4747     0.1260     0.0071     6.8204     7.9421
  179.5000   -25.4083   117.0307     7.8232     2.4776     0.1242     0.0074     6.7752     7.8870
  180.0000   -25.7258   113.6988     7.8255     2.4804     0.1216     0.0068     6.7304     7.8322
  180.5000   -26.0377   111.2844     7.8278     2.4833     0.1193     0.0051     6.6859     7.6746
  181.0000   -26.3505   112.5704     7.8302     2.4849     0.1188     0.0034     6.5724     7.4487
  181.5000   -26.6636   114.9744     7.8325     2.4763     0.1244     0.0018     6.4944     7.2295
  182.0000   -26.9785   116.2919     7.8348     2.4654     0.1333    -0.0001     6.4944     7.1134
  182.5000   -27.2679   116.0980     7.8372     2.4558     0.1373     0.0082     6.4944     7.0218
  183.0000   -27.0995   115.1838     7.8395     2.4630     0.1328     0.0207     6.4944     6.9319
  183.5000   -26.9152   113.0334     7.8419     2.4778     0.1222     0.0300     6.5097     6.8576
  184.0000   -26.7320   110.2672     7.8442     2.4855     0.1172     0.0309     6.5755     6.8330
  184.5000   -26.5538   108.8028     7.8465     2.4869     0.1177     0.0318     6.6419     6.8017
  185.0000   -26.1869   111.4969     7.8489     2.4848     0.1185     0.0328     6.7089     6.9093
  185.5000   -25.7333   118.2049     7.8512     2.4797     0.1198     0.0338     6.7767     7.0782
  186.0000   -25.2936   126.4439     7.8536     2.4685     0.1276     0.0348     6.8452     7.2514
  186.5000   -24.8641   127.8110     7.8559     2.4595     0.1358     0.0373     6.9142     7.4287
  187.0000   -24.4297   127.5823     7.8582     2.4567     0.1374     0.0476     6.9915     7.6104
  187.5000   -24.3641   126.4382     7.8606     2.4686     0.1285     0.0573     6.9605     7.6668
  188.0000   -24.4421   125.5967     7.8614     2.4800     0.1209     0.0558     6.9260     7.6668
  188.5000   -24.5237   125.6121     7.8614     2.4870     0.1150     0.0534     6.8916     7.6668
  189.0000   -24.6051   125.6067     7.8614     2.4889     0.1150     0.0449     6.8573     7.6668
  189.5000   -24.6860   125.6320     7.8614     2.4849     0.1178     0.0283     6.8233     7.5795
  190.0000   -24.7669   126.3273     7.8614     2.4766     0.1248     0.0174     6.7654     7.4861
  190.5000   -24.8494   128.4192     7.8614     2.4685     0.1323     0.0116     6.6614     7.3892
  191.0000   -25.0391   130.2065     7.8614     2.4680     0.1302     0.0112     6.5590     7.4034
  191.5000   -25.4424   129.9377     7.8614     2.4715     0.1272     0.0109     6.4578     7.4184
  192.0000   -25.8389   129.4568     7.8600     2.4727     0.1272     0.0106     6.3676     7.4334
  192.5000   -26.0947   128.3987     7.8581     2.4732     0.1271     0.0102     6.2803     7.4484
