~VERSION INFORMATION
 VERS.                2.0:   CWLS LOG ASCII STANDARD - VERSION 2.0
 WRAP.                 NO:   ONE LINE PER DEPTH STEP
~WELL INFORMATION
#MNEM.UNIT      DATA TYPE    INFORMATION
#----------   ------------   ------------------------------
 STRT.F            0.0000:   START DEPTH
 STOP.F         4535.0000:   STOP DEPTH
 STEP.F            0.5000:   STEP LENGTH
 NULL.          -999.2500:   NO VALUE
 COMP.   FLUOR DANIEL INC:   COMPANY
 WELL.     56 X 15 #56-15:   WELL
 FLD .             TEAPOT:   FIELD
 LOC .      S15 T38N R78W:   LOCATION
 CNTY.            NATRONA:   COUNTY
 STAT.            WYOMING:   STATE
 CTRY. UNITED STATES OF AMERICA:   COUNTRY
 SRVC.      Dresser Atlas:   SERVICE COMPANY
 DATE.        03-MAY-1984:   LOGDATE
 API .       490252268500:   API NUMBER
~CURVE INFORMATION
#MNEM.UNIT       API CODE    CURVE DESCRIPTION
#----------   ------------   ------------------------------
 DEPT.F                  :   
 CNC .DEC    42 890 03 00:   NEUTRON POROSITY SANDSTONE
 PORD.DEC    45 890 12 00:   POROSITY DENSITY SANDSTONE
 RHOB.G/C3   45 350 01 00:   BULK DENSITY
 CORR.G/C3   45 356 01 00:   DENSITY CORRECTION
 DT  .US/F   60 520 00 00:   INTERVAL TRANSIT TIME
 RILD.OHMM   07 120 46 00:   INDUCTION LOG DEEP RESISTIVITY
 RILM.OHMM   07 120 44 00:   INDUCTION LOG MEDIUM RESISTIVITY
 CALR.IN     07 280 01 00:   CALIPER FROM RESISTIVITY
 GRR .GAPI   07 310 01 00:   GAMMA RAY FROM RESISTIVITY LOG
 SPR .MV     07 010 01 00:   SPONTANEOUS POTENTIAL
 RFOC.OHMM   07 220 04 00:   RESISTIVITY FOCUSED LOG
~PARAMETER INFORMATION
#MNEM.UNIT          VALUE    DESCRIPTION
#----------   ------------   ------------------------------
 PD  .                 GL:   PERMANENT DATUM
 EPD .F              5326:   ELEVATION PERMANENT DATUM
 LMF .                 KB:   LOG MEASURED FROM
 DAPD.F                12:   FEET ABOVE PERMANENT DATUM
 DMF .                 KB:   DRILLING MEASURED FROM
 EKB .F              5338:   KELLING BUSHING
 EDF .F              5337:   DRILLING FLOOR
 EGL .F              5326:   GROUND LEVEL
 DATE.        03-MAY-1984:   RUN DATE
 RUN .                  1:   RUN NUMBER
 DD  .F              4547:   DEPTH DRILLER
 DL  .F              4539:   DEPTH LOGGER
 BLI .F              4536:   BOTTOM LOG INTERVAL
 TLI .F              1021:   TOP LOG INTERVAL
 CS  .IN            8.625:   CASING SIZE
 CBD .F              1027:   CASING BOTTOM DRILLER
 CBL .F              1021:   CASING BOTTOM LOGGER
 BS  .IN            7.875:   BIT SIZE
 BSD .F              4547:   BIT SIZE AT DEPTH
 DFT .            KCL GEL:   DRILLING FLUID TYPE
 DFD .                9.1:   DRILLING FLUID DENSITY
 DFV .                 44:   DRILLING FLUID VISCOSITY
 DFPH.                  8:   DRILLING FLUID PH
 DFL .               14.5:   DRILLING FLUID LOSS
 MSS .            MUDTANK:   MUD SAMPLE SOURCE
 RMS .OHMM           0.56:   RESISTIVITY MUD SAMPLE
 MST .F                73:   MUD SAMPLE TEMPERATURE
 RMF .OHMM           0.42:   RESISTIVITY MUD FILTRATE SAMPLE
 MFST.F                73:   MUD FILTRATE SAMPLE TEMPERATURE
 RMC .OHMM           0.71:   RESISTIVITY MUD CAKE
 MCST.F                73:   MUD CAKE SAMPLE TEMPERATURE
 MFSS.               MEAS:   MUD FILTRATE SAMPLE SOURCE
 MCSS.               CALC:   MUD CAKE SAMPLE SOURCE
 RMB .OHMM           0.29:   RESISTIVITY MUD AT BHT
 BHT .F               141:   BOTTOM HOLE TEMPERATURE
 TCS .HRS             3.5:   TIME CURCULATED STOPPED
 MRT .F               125:   MAXIMUM RECORDED TEMPERATURE
 LUN .               6302:   LOGGING UNIT NUMBER
 LUL .               CODY:   LOGGING UNIT LOCATION
 ENGI.              GETTY:   RECORDING ENGINEER
 WITN.           JENNINGS:   WITNESSED BY
 CLNT.            A2DTECH:   CLIENT CODE
 ORIG.           5" PRINT:   ORIGIN OF DATA
 UWI .       490252268500:   UNIQUE WELL ID
 DICO. A2D Technologies, Inc.:   DIGITIZING COMPANY
~OTHER INFORMATION
~A    DEPT     CNC       PORD       RHOB       CORR         DT       RILD       RILM       CALR         GRR       SPR       RFOC   
# ...
 3812.5000     0.2083     0.0443     2.5779     0.0291    88.3787     5.6406     6.0457     8.2817   117.9700   -21.0769     5.6104
 3813.0000     0.2056     0.0522     2.5652     0.0528    85.8915     5.8794     6.3897     8.2668   117.6443   -21.6606     6.1209
 3813.5000     0.2035     0.0633     2.5478     0.0683    82.1222     6.1284     6.7067     8.2370   114.3675   -22.2574     6.8624
 3814.0000     0.2047     0.0627     2.5471     0.0577    78.9477     6.3000     6.8468     8.2223   111.6637   -22.7043     7.3560
 3814.5000     0.2056     0.0585     2.5539     0.0366    77.4494     6.3430     6.8456     8.2075   109.5613   -23.1512     7.4073
 3815.0000     0.2062     0.0572     2.5562     0.0155    78.0546     6.3863     6.7506     8.2079   108.6612   -23.4488     7.2043
 3815.5000     0.2038     0.0594     2.5539     0.0125    78.2068     6.2974     6.6565     8.2082   109.8679   -23.7451     7.0069
 3816.0000     0.1959     0.0626     2.5427     0.0109    78.2083     6.2097     6.5640     8.1933   114.0813   -24.0480     6.8624
 3816.5000     0.1941     0.0766     2.5231     0.0019    78.1343     6.1659     6.4279     8.1786   116.2294   -24.3390     6.7677
 3817.0000     0.1944     0.0802     2.5216     0.0004    78.0603     6.1225     6.3385     8.1789   113.4596   -24.6359     6.7209
 3817.5000     0.1974     0.0793     2.5239     0.0155    77.9110     6.1216     6.2939     8.1641   111.6848   -24.9321     6.8149
 3818.0000     0.2023     0.0772     2.5317     0.0306    77.7496     6.1045     6.2930     8.1645   113.4922   -25.2298     6.8149
 3818.5000     0.2050     0.0675     2.5427     0.0442    77.4618     6.0777     6.3810     8.1648   115.2996   -25.5268     6.8624
 3819.0000     0.2053     0.0651     2.5442     0.0351    77.5387     6.1192     6.4816     8.1651   115.3025   -25.8231     6.8624
 3819.5000     0.2068     0.0685     2.5428     0.0185    77.6155     6.1671     6.6492     8.1502   117.1100   -26.1199     6.8149
 3820.0000     0.2083     0.0666     2.5413    -0.0072    77.6170     6.2519     6.6948     8.1506   119.5189   -26.4169     6.8624
 3820.5000     0.2083     0.0657     2.5405    -0.0165    77.6939     6.3323     6.6936     8.1509   118.6196   -26.8630     6.8149
 3821.0000     0.2071     0.0669     2.5405    -0.0011    77.6953     6.3758     6.7393     8.1361   115.8404   -27.4598     6.8149
 3821.5000     0.2059     0.0682     2.5406     0.0036    77.7722     6.4637     6.7384     8.1214   115.3171   -28.0566     6.7677
 3822.0000     0.2020     0.0666     2.5445     0.0125    78.0757     6.5080     6.7375     8.0916   117.4260   -28.5042     6.8149
 3822.5000     0.1917     0.0611     2.5564     0.0185    78.3034     6.5523     6.7366     8.0919   115.9252   -28.8012     6.8149
 3823.0000     0.1929     0.0546     2.5617     0.0291    78.3802     6.5514     6.7826     8.0922   111.4168   -29.0974     6.9102
 3823.5000     0.1965     0.0528     2.5647     0.0396    78.3817     6.5504     6.8288     8.0925   108.4122   -28.9445     6.9584
 3824.0000     0.2041     0.0534     2.5647     0.0426    78.0814     6.5494     6.8754     8.0928   107.7578   -28.7910     7.0557
 3824.5000     0.2149     0.0552     2.5617     0.0306    77.7812     6.5485     6.8268     8.1082   110.8459   -28.6382     7.1544
 3825.0000     0.2152     0.0597     2.5557     0.0275    77.6322     6.5476     6.6391     8.1386   111.4285   -28.3355     7.2043
 3825.5000     0.2122     0.0669     2.5437     0.0533    77.9353     6.4565     6.4566     8.1540   110.5291   -27.8828     7.2043
 3826.0000     0.2125     0.0766     2.5238     0.1075    78.6909     6.3668     6.2791     8.1844   111.1342   -27.1303     7.2043
 3826.5000     0.2137     0.0829     2.5159     0.1091    79.4465     6.2782     6.1470     8.1847   114.4454   -26.2278     7.0069
 3827.0000     0.2158     0.0838     2.5129     0.1015    80.2134     6.1056     6.0215     8.2000   116.5536   -25.1684     6.5823
 3827.5000     0.2198     0.0835     2.5129     0.0774    80.8072     5.9377     5.9789     8.1993   116.8573   -24.2723     6.4019
 3828.0000     0.2143     0.0820     2.5144     0.0577    81.1103     5.8550     5.9368     8.1855   118.3639   -23.8196     6.3576
 3828.5000     0.2149     0.0766     2.5250     0.0396    81.2626     5.7735     5.9360     8.1859   120.4721   -23.3669     6.3576
 3829.0000     0.2181     0.0693     2.5385     0.0230    81.4149     5.7728     5.9352     8.1862   118.0697   -23.0642     6.2699
 3829.5000     0.2252     0.0651     2.5438    -0.0013    81.5672     5.7720     5.9344     8.1865   117.1697   -22.7614     6.2699
 3830.0000     0.2363     0.0666     2.5422     0.0260    81.6441     5.7712     5.9749     8.1868   121.6846   -22.7585     6.2265
 3830.5000     0.2363     0.0715     2.5341     0.0638    81.9529     5.7306     5.9741     8.1871   125.8980   -22.6057     6.1834
 3831.0000     0.2357     0.0811     2.5228     0.0758    82.3261     5.6902     5.9731     8.1873   130.4122   -22.4528     6.2265
 3831.5000     0.2354     0.0866     2.5100     0.0517    82.5538     5.6894     5.9310     8.1877   131.6181   -22.4492     6.1834
 3832.0000     0.2379     0.0848     2.5123     0.0064    82.9323     5.6101     5.8485     8.1880   129.8165   -22.4464     6.1406
 3832.5000     0.2400     0.0789     2.5206    -0.0072    83.2354     5.5321     5.7672     8.1883   126.4409   -22.4435     6.0981
 3833.0000     0.2388     0.0703     2.5281    -0.0057    83.4631     5.4551     5.6477     8.1886   125.9126   -22.2906     6.0559
 3833.5000     0.2291     0.0642     2.5402     0.0112    83.6154     5.3421     5.5306     8.1889   129.5253   -22.1378     6.0981
 3834.0000     0.2161     0.0615     2.5515     0.0358    83.8431     5.3045     5.4537     8.2042   131.0319   -21.8351     6.1406
 3834.5000     0.2170     0.0645     2.5492     0.0532    83.9958     5.2307     5.4153     8.2196   133.7416   -21.5322     6.0981
 3835.0000     0.2258     0.0700     2.5402     0.0562    84.1480     5.1579     5.4144     8.2199   137.0528   -21.2288     6.0139
 3835.5000     0.2382     0.0757     2.5282     0.0472    84.1495     5.1540     5.4136     8.2353   141.5670   -21.0760     5.9668
 3836.0000     0.2471     0.0778     2.5222     0.0215    84.3018     5.0853     5.4129     8.2506   142.1714   -21.0731     5.8492
 3836.5000     0.2514     0.0663     2.5297     0.0034    84.6049     5.0847     5.4122     8.2509   140.0691   -20.9203     5.7685
 3837.0000     0.2508     0.0633     2.5455     0.0109    85.2097     5.0840     5.4115     8.2512   140.3734   -20.9174     5.5330
 3837.5000     0.2481     0.0672     2.5464     0.0049    86.4366     5.0833     5.4484     8.2515   138.8726   -20.9145     5.3814
 3838.0000     0.2433     0.0760     2.5392    -0.0011    87.0229     5.0826     5.4856     8.2518   131.6575   -21.0615     5.6889
 3838.5000     0.2454     0.0742     2.5260     0.0094    87.1752     5.0819     5.5230     8.2672   128.9536   -21.2085     6.0139
 3839.0000     0.2511     0.0627     2.5381     0.0306    86.9504     5.1166     5.5607     8.2675   128.6558   -21.5055     6.0139
 3839.5000     0.2456     0.0615     2.5486     0.0532    86.2731     5.1159     5.5986     8.2678   128.6587   -21.8024     5.8492
 3840.0000     0.2481     0.0642     2.5441     0.0653    85.6713     5.1150     5.5977     8.2530   128.9624   -21.7988     5.8492
 3840.5000     0.2517     0.0654     2.5449     0.0366    85.0694     5.0790     5.5583     8.2533   128.6645   -21.9466     5.8492
 3841.0000     0.2535     0.0621     2.5479     0.0275    84.4545     5.0084     5.4431     8.2386   127.7659   -21.9429     5.9310
 3841.5000     0.2538     0.0615     2.5502     0.0336    83.8660     4.9387     5.2934     8.2389   126.5658   -21.9400     5.9723
 3842.0000     0.2370     0.0654     2.5487     0.0445    83.5655     4.8029     5.1838     8.2241   122.9597   -21.9370     6.0559
 3842.5000     0.2376     0.0804     2.5410     0.0728    83.4161     4.7034     5.0064     8.2244   122.3604   -21.9335     6.0981
