~VERSION INFORMATION
 VERS.                2.0:   CWLS LOG ASCII STANDARD - VERSION 2.0
 WRAP.                 NO:   ONE LINE PER DEPTH STEP
~WELL INFORMATION
#MNEM.UNIT      DATA TYPE    INFORMATION
#----------   ------------   ------------------------------
 STRT.F           11.0000:   START DEPTH
 STOP.F          804.0000:   STOP DEPTH
 STEP.F            0.1000:   STEP LENGTH
 NULL.          -999.2500:   NO VALUE
 COMP. BROWN JOHN E&C INC:   COMPANY
 WELL. 72-1 STX-34 #72-34:   WELL
 FLD .             TEAPOT:   FIELD
 LOC .      S34 T39N R78W:   LOCATION
 CNTY.            NATRONA:   COUNTY
 STAT.            WYOMING:   STATE
 CTRY. UNITED STATES OF AMERICA:   COUNTRY
 SRVC.     Atlas Wireline:   SERVICE COMPANY
 DATE.        31-JAN-1992:   LOGDATE
 API .       490252250200:   API NUMBER
~CURVE INFORMATION
#MNEM.UNIT       API CODE    CURVE DESCRIPTION
#----------   ------------   ------------------------------
 DEPT.F                  :   
 GRR .GAPI   07 310 01 00:   GAMMA RAY
 RILD.OHMM   07 120 46 00:   INDUCTION LOG DEEP RESISTIVITY
 RILM.OHMM   07 120 44 00:   INDUCTION LOG MEDIUM RESISTIVITY
~PARAMETER INFORMATION
#MNEM.UNIT          VALUE    DESCRIPTION
#----------   ------------   ------------------------------
 PD  .                 GL:   PERMANENT DATUM
 EPD .F              5069:   ELEVATION PERMANENT DATUM
 LMF .                 KB:   LOG MEASURED FROM
 DAPD.F                10:   FEET ABOVE PERMANENT DATUM
 DMF .                 KB:   DRILLING MEASURED FROM
 EKB .F              5079:   KELLING BUSHING
 EDF .F              5078:   DRILLING FLOOR
 EGL .F              5069:   GROUND LEVEL
 DATE.        31-JAN-1992:   RUN DATE
 RUN .                  1:   RUN NUMBER
 DD  .F               814:   DEPTH DRILLER
 DL  .F               813:   DEPTH LOGGER
 BLI .F               804:   BOTTOM LOG INTERVAL
 CS  .IN            9.625:   CASING SIZE
 CBD .F               100:   CASING BOTTOM DRILLER
 CBL .F               104:   CASING BOTTOM LOGGER
 BS  .IN             8.75:   BIT SIZE
 BSD .F               814:   BIT SIZE AT DEPTH
 DFT .                AIR:   DRILLING FLUID TYPE
 MRT .F                90:   MAXIMUM RECORDED TEMPERATURE
 LUN .           HL- 6274:   LOGGING UNIT NUMBER
 LUL .             CASPER:   LOGGING UNIT LOCATION
 ENGI.             RAUTIO:   RECORDING ENGINEER
 WITN.        GARY STRONG:   WITNESSED BY
 CLNT.            A2DTECH:   CLIENT CODE
 ORIG.           5" PRINT:   ORIGIN OF DATA
 UWI .       490252250200:   UNIQUE WELL ID
 DICO. A2D Technologies, Inc.:   DIGITIZING COMPANY
~OTHER INFORMATION
~A   DEPT       GRR      RILD       RILM   
# ...
  648.0000    67.5339    25.3107    22.5205
  648.1000    68.3355    25.0702    22.2669
  648.2000    69.0109    24.8517    22.0727
  648.3000    69.5819    24.6799    21.8922
  648.4000    69.9651    24.4003    21.5215
  648.5000    70.3179    24.1265    21.5212
  648.6000    71.0705    23.9584    21.4280
  648.7000    71.3134    23.7513    21.3068
  648.8000    71.7443    23.5238    21.1862
  648.9000    72.1114    23.3911    21.0664
  649.0000    72.3592    23.2386    20.9287
  649.1000    72.6068    23.0177    20.9284
  649.2000    72.9009    22.8374    20.9282
  649.3000    73.1021    22.7086    20.9279
  649.4000    73.2079    22.5610    20.9276
  649.5000    73.2948    22.2868    20.9272
  649.6000    73.5153    22.1709    20.9270
  649.7000    73.5180    22.1327    20.9267
  649.8000    73.5201    22.0755    20.9264
  649.9000    73.5226    21.9510    20.9261
  650.0000    73.7448    21.8271    20.9258
  650.1000    74.2822    21.8268    20.9551
  650.2000    74.8197    21.8265    20.9844
  650.3000    75.3571    21.8262    21.0137
  650.4000    75.8945    21.8259    21.0430
  650.5000    76.4320    21.8255    21.0691
  650.6000    76.9694    21.8252    21.0684
  650.7000    77.6374    21.8249    21.0679
  650.8000    79.8790    21.8246    21.0673
  650.9000    80.3105    21.8243    21.0667
  651.0000    80.4841    21.8240    21.0662
  651.1000    80.3772    21.8237    21.0655
  651.2000    80.1291    21.8055    21.0649
  651.3000    79.8790    21.6710    21.0644
  651.4000    79.6329    21.6707    21.0638
  651.5000    79.0014    21.6704    21.0632
  651.6000    78.6687    21.6701    21.0626
  651.7000    78.5859    21.6698    21.0620
  651.8000    78.3094    21.6695    21.0614
  651.9000    77.7610    21.6692    21.0608
  652.0000    77.5390    21.5722    21.0602
  652.1000    77.4584    21.5176    21.0597
  652.2000    77.4584    21.5173    21.0591
  652.3000    77.4584    21.5040    20.9396
  652.4000    77.4584    21.3667    20.9119
  652.5000    77.4584    21.3664    20.8460
  652.6000    77.4584    21.2082    20.7271
  652.7000    77.6016    21.0181    20.6087
  652.8000    77.7610    20.9219    20.4773
  652.9000    77.7610    20.9216    20.4768
  653.0000    77.7610    20.8057    20.3995
  653.1000    77.9888    20.6870    20.3335
  653.2000    78.0635    20.6302    20.3082
  653.3000    78.0635    20.6299    20.1914
  653.4000    77.9990    20.6375    20.0771
  653.5000    77.7610    20.7740    19.9625
  653.6000    77.7610    20.7738    19.9105
  653.7000    77.5572    20.7735    19.9100
  653.8000    77.6077    20.7274    19.9094
  653.9000    77.7610    20.6093    19.9088
  654.0000    77.8011    20.4841    19.9083
  654.1000    78.0635    20.3751    19.9077
  654.2000    78.2973    20.3408    19.9072
  654.3000    78.3661    20.2848    19.8826
  654.4000    78.3661    20.1692    19.7680
  654.5000    78.4366    20.0507    19.7674
  654.6000    78.6687    19.7785    19.6808
  654.7000    78.6687    19.7783    19.5685
  654.8000    78.6687    19.7133    19.4568
  654.9000    78.9792    19.5623    19.3458
  655.0000    79.3746    19.3533    19.2218
  655.1000    79.6228    19.2316    19.1257
  655.2000    79.8790    19.2313    18.9461
  655.3000    80.3591    19.1579    18.8231
  655.4000    80.8555    19.0009    18.7778
  655.5000    81.0893    18.8080    18.5617
  655.6000    81.3195    18.6998    18.3539
  655.7000    82.0194    18.5942    18.2246
  655.8000    82.2995    18.4083    18.0650
  655.9000    82.9475    18.2549    17.8922
  656.0000    83.5303    18.1829    17.7900
  656.1000    84.1335    18.1740    17.6759
  656.2000    84.8780    18.0556    17.5004
  656.3000    85.6278    17.9674    17.3660
  656.4000    85.8739    17.8012    17.2668
  656.5000    86.6971    17.6801    17.1683
  656.6000    87.4151    17.6620    17.0689
  656.7000    87.9112    17.5564    16.8781
  656.8000    88.3793    17.5562    16.8319
  656.9000    88.6536    17.4117    16.7799
  657.0000    89.3195    17.2627    16.6841
  657.1000    89.5613    17.1909    16.5888
  657.2000    89.9001    17.1907    16.4821
  657.3000    90.5275    17.1904    16.4001
  657.4000    90.7756    17.1102    16.3669
  657.5000    91.0237    17.0702    16.3268
  657.6000    91.6671    17.0699    16.2336
  657.7000    92.1250    17.0697    16.1393
  657.8000    92.3731    17.0694    16.0488
  657.9000    92.5870    16.9806    15.9573
  658.0000    92.5870    16.9500    15.9148
  658.1000    92.5870    16.9055    15.9143
  658.2000    92.4136    16.8091    15.9139
  658.3000    92.1655    16.7139    15.9134
  658.4000    91.9818    16.7137    15.9130
  658.5000    91.9818    16.7134    15.9126
  658.6000    91.9818    16.7132    15.8737
  658.7000    91.7781    16.6818    15.8013
  658.8000    91.6793    16.5963    15.8009
  658.9000    91.4897    16.5960    15.8004
  659.0000    91.0337    16.5958    15.8000
  659.1000    90.7716    16.4737    15.7995
  659.2000    90.7716    16.3648    15.7991
  659.3000    90.9511    16.3464    15.7906
  659.4000    91.3241    16.2503    15.6886
  659.5000    91.7497    16.2501    15.6882
  659.6000    92.0140    16.2498    15.6877
  659.7000    92.5870    16.2496    15.6873
  659.8000    93.2168    16.2494    15.7048
  659.9000    93.9608    16.2492    15.7960
  660.0000    94.5032    16.2489    15.7956
  660.1000    94.8443    16.2487    15.7951
  660.2000    95.6127    16.2485    15.7947
  660.3000    96.3330    16.2482    15.8223
  660.4000    96.7061    16.2481    15.9042
  660.5000    96.8230    16.2478    15.9037
  660.6000    96.8230    16.2476    16.0612
  660.7000    96.8009    16.2473    16.1851
  660.8000    96.5204    16.2471    16.2771
  660.9000    96.3044    16.2469    16.3511
  661.0000    95.8948    16.2489    16.3505
  661.1000    95.1846    16.3417    16.5330
  661.2000    94.2445    16.4349    16.6503
  661.3000    93.4947    16.5286    16.7449
  661.4000    93.0024    16.6230    16.8400
  661.5000    91.7392    16.7064    16.9441
  661.6000    90.7996    16.7061    17.1641
  661.7000    90.2206    16.7059    17.2483
  661.8000    89.5330    16.7693    17.2831
  661.9000    89.2587    16.9075    17.3239
  662.0000    89.0367    17.0594    17.4030
  662.1000    88.6212    17.0592    17.4024
  662.2000    88.3510    17.1551    17.5962
  662.3000    88.3510    17.1784    17.6454
  662.4000    88.3510    17.2306    17.6982
  662.5000    88.3510    17.3593    17.7677
  662.6000    88.3510    17.5419    17.7673
  662.7000    88.3510    17.5416    17.7667
  662.8000    88.3510    17.6271    17.8536
  662.9000    88.3168    17.6642    17.9551
  663.0000    88.0484    17.7452    18.0571
  663.1000    88.0484    17.9484    18.1398
  663.2000    87.7015    18.1646    18.1392
  663.3000    87.3243    18.1644    18.2392
  663.4000    86.9473    18.2390    18.2648
  663.5000    86.2130    18.3951    18.3192
  663.6000    85.6278    18.5772    18.4233
  663.7000    85.0172    18.6786    18.5367
  663.8000    84.1236    18.6783    18.7785
  663.9000    83.2257    18.7653    18.8700
  664.0000    82.5218    18.9361    19.0464
  664.1000    81.9970    19.1131    19.2185
  664.2000    81.2955    19.2220    19.3276
  664.3000    80.1922    19.3416    19.4410
  664.4000    79.4513    19.5432    19.5480
  664.5000    79.2031    19.6901    19.6591
  664.6000    78.9713    19.7509    19.7708
  664.7000    78.9713    19.7506    19.8491
  664.8000    78.9713    19.7504    19.8574
  664.9000    79.1265    19.8635    19.9866
  665.0000    79.3746    19.9768    19.9861
  665.1000    79.6228    20.0908    19.9855
  665.2000    79.8790    20.1680    20.0319
  665.3000    80.1188    20.1789    20.1456
  665.4000    80.5527    20.3089    20.2640
  665.5000    80.9179    20.3087    20.2634
  665.6000    81.1660    20.3084    20.1774
  665.7000    81.4365    20.3081    20.1218
  665.8000    81.9970    20.3078    20.0872
  665.9000    82.2127    20.3075    19.9811
  666.0000    82.4609    20.3073    19.9804
  666.1000    82.8160    20.3070    19.8832
