~VERSION INFORMATION
 VERS.                2.0:   CWLS LOG ASCII STANDARD - VERSION 2.0
 WRAP.                 NO:   ONE LINE PER DEPTH STEP
~WELL INFORMATION
#MNEM.UNIT      DATA TYPE    INFORMATION
#----------   ------------   ------------------------------
 STRT.F            1.0000:   START DEPTH
 STOP.F          508.0000:   STOP DEPTH
 STEP.F            0.1000:   STEP LENGTH
 NULL.          -999.2500:   NO VALUE
 COMP.       F D SERV INC:   COMPANY
 WELL. NAVAL PETROLEUM RESERVE 3 SX-1 #83-4-10:   WELL
 FLD .             TEAPOT:   FIELD
 LOC .      S10 T38N R78W:   LOCATION
 CNTY.            NATRONA:   COUNTY
 STAT.            WYOMING:   STATE
 CTRY. UNITED STATES OF AMERICA:   COUNTRY
 SRVC.     Atlas Wireline:   SERVICE COMPANY
 DATE.        26-JAN-1993:   LOGDATE
 API .       490252258300:   API NUMBER
~CURVE INFORMATION
#MNEM.UNIT       API CODE    CURVE DESCRIPTION
#----------   ------------   ------------------------------
 DEPT.F                  :   
 GRR .GAPI   07 310 01 00:   GAMMA RAY
 RILD.OHMM   07 120 46 00:   INDUCTION LOG DEEP RESISTIVITY
 RILM.OHMM   07 120 44 00:   INDUCTION LOG MEDIUM RESISTIVITY
~PARAMETER INFORMATION
#MNEM.UNIT          VALUE    DESCRIPTION
#----------   ------------   ------------------------------
 PD  .                 GL:   PERMANENT DATUM
 EPD .F              5152:   ELEVATION PERMANENT DATUM
 LMF .                 KB:   LOG MEASURED FROM
 DAPD.F                10:   FEET ABOVE PERMANENT DATUM
 DMF .                 KB:   DRILLING MEASURED FROM
 EKB .F              5162:   KELLING BUSHING
 EDF .F              5161:   DRILLING FLOOR
 EGL .F              5152:   GROUND LEVEL
 DATE.        26-JAN-1993:   RUN DATE
 RUN .                  1:   RUN NUMBER
 DD  .F               515:   DEPTH DRILLER
 DL  .F               516:   DEPTH LOGGER
 BLI .F               508:   BOTTOM LOG INTERVAL
 CS  .IN            8.625:   CASING SIZE
 CBD .F                55:   CASING BOTTOM DRILLER
 CBL .F                55:   CASING BOTTOM LOGGER
 BS  .IN            7.875:   BIT SIZE
 BSD .F               515:   BIT SIZE AT DEPTH
 DFT .                AIR:   DRILLING FLUID TYPE
 MRT .F                63:   MAXIMUM RECORDED TEMPERATURE
 LUN .           HL- 6274:   LOGGING UNIT NUMBER
 LUL .             CASPER:   LOGGING UNIT LOCATION
 ENGI.       P. RASMUSSEN:   RECORDING ENGINEER
 WITN.          G. STRONG:   WITNESSED BY
 CLNT.            A2DTECH:   CLIENT CODE
 ORIG.           5" PRINT:   ORIGIN OF DATA
 UWI .       490252258300:   UNIQUE WELL ID
 DICO. A2D Technologies, Inc.:   DIGITIZING COMPANY
~OTHER INFORMATION
~A    DEPT     GRR       RILD       RILM   
# ...
  437.8000   118.8519    11.6512    11.3924
  437.9000   118.2765    11.6506    11.3919
  438.0000   117.9679    11.6499    11.3914
  438.1000   117.4699    11.6493    11.3910
  438.2000   117.4699    11.6485    11.3905
  438.3000   117.4699    11.6480    11.3900
  438.4000   117.4699    11.6473    11.3896
  438.5000   117.5994    11.6467    11.3891
  438.6000   117.8558    11.6461    11.3885
  438.7000   118.1122    11.6454    11.3881
  438.8000   118.3735    11.6448    11.3877
  438.9000   118.9759    11.6440    11.3872
  439.0000   119.1827    11.6435    11.3867
  439.1000   119.9253    11.6428    11.3862
  439.2000   121.1235    11.6422    11.3858
  439.3000   122.5263    11.6415    11.3852
  439.4000   123.9291    11.6409    11.3848
  439.5000   125.3319    11.6402    11.3843
  439.6000   126.7347    11.6396    11.3839
  439.7000   128.1375    11.6390    11.3834
  439.8000   129.8193    11.6383    11.3829
  439.9000   130.0247    11.6377    11.3824
  440.0000   130.2811    11.6370    11.3820
  440.1000   130.4217    11.6364    11.3815
  440.2000   130.3506    11.6357    11.3810
  440.3000   130.1205    11.6351    11.3806
  440.4000   130.1205    11.6344    11.3801
  440.5000   130.1205    11.6338    11.3796
  440.6000   129.5409    11.6332    11.3791
  440.7000   128.7716    11.6325    11.3787
  440.8000   128.2096    11.6310    11.3782
  440.9000   127.9532    11.5509    11.3777
  441.0000   127.6828    11.4935    11.3521
  441.1000   127.1084    11.4700    11.2983
  441.2000   126.8828    11.4693    11.2978
  441.3000   126.6264    11.4687    11.2973
  441.4000   126.0977    11.4587    11.2969
  441.5000   125.5111    11.3883    11.2512
  441.6000   125.2081    11.3877    11.2180
  441.7000   124.6953    11.3870    11.2175
  441.8000   124.0964    11.3452    11.2170
  441.9000   123.4561    11.3072    11.2166
  442.0000   122.6869    11.3066    11.2160
  442.1000   122.0414    11.3059    11.2156
  442.2000   121.3701    11.3053    11.2152
  442.3000   120.4475    11.2438    11.2147
  442.4000   120.1807    11.2261    11.1950
  442.5000   120.1807    11.1880    11.1364
  442.6000   120.1807    11.1473    11.1359
  442.7000   120.1807    11.1467    11.0737
  442.8000   120.1807    11.1461    11.0582
  442.9000   120.2476    11.1454    11.0577
  443.0000   120.4819    11.1449    11.0572
  443.1000   120.4819    11.0988    11.0406
  443.2000   120.4819    11.0667    10.9752
  443.3000   120.4819    11.0437    10.9037
  443.4000   120.4819    10.9891    10.9033
  443.5000   120.4819    10.9885    10.9029
  443.6000   120.4819    10.9878    10.9024
  443.7000   120.4918    10.9873    10.8776
  443.8000   120.7831    10.9867    10.8263
  443.9000   121.0046    10.9556    10.8237
  444.0000   121.0843    10.9097    10.7506
  444.1000   121.2163    10.9091    10.7502
  444.2000   121.4727    10.9084    10.7498
  444.3000   121.6867    10.8471    10.7493
  444.4000   121.6867    10.8320    10.7275
  444.5000   122.2892    10.8314    10.6743
  444.6000   122.2892    10.8308    10.6738
  444.7000   122.4536    10.8302    10.5996
  444.8000   122.7100    10.8248    10.5993
  444.9000   122.8916    10.7542    10.5988
  445.0000   122.8916    10.7537    10.5984
  445.1000   122.8916    10.7072    10.5980
  445.2000   123.1333    10.6783    10.5975
  445.3000   123.3898    10.6777    10.5971
  445.4000   123.6462    10.6771    10.5376
  445.5000   123.9026    10.6748    10.5231
  445.6000   124.2844    10.6021    10.5226
  445.7000   125.0537    10.5485    10.4958
  445.8000   125.9036    10.5279    10.4492
  445.9000   126.8218    10.5273    10.4487
  446.0000   127.8475    10.5267    10.4482
  446.1000   128.7332    10.5261    10.4479
  446.2000   129.4073    10.5255    10.4024
  446.3000   129.8697    10.4522    10.3749
  446.4000   130.1205    10.4023    10.3510
  446.5000   130.1205    10.3791    10.3024
  446.6000   130.1205    10.3785    10.3020
  446.7000   130.1205    10.3608    10.3015
  446.8000   130.1205    10.3057    10.3011
  446.9000   130.2034    10.3051    10.3007
  447.0000   130.4217    10.2482    10.2690
  447.1000   130.1205    10.2329    10.2288
  447.2000   130.1205    10.1973    10.2182
  447.3000   129.9155    10.1368    10.1573
  447.4000   129.3387    10.0766    10.1569
  447.5000   128.6848    10.0203    10.1074
  447.6000   128.1720    10.0197    10.0860
  447.7000   127.6850     9.9671    10.0574
  447.8000   127.4096     9.9495    10.0156
  447.9000   126.9346     9.9489    10.0151
  448.0000   126.6145     9.9273    10.0147
  448.1000   126.3581     9.8684     9.9582
  448.2000   126.1016     9.8104     9.8992
  448.3000   125.8452     9.8098     9.8757
  448.4000   125.5887     9.7612     9.8503
  448.5000   125.3012     9.7033     9.8068
  448.6000   125.3012     9.6734     9.8015
  448.7000   125.3012     9.6551     9.7383
  448.8000   125.3012     9.5978     9.7379
  448.9000   125.2102     9.5387     9.6953
  449.0000   124.9538     9.5382     9.6378
  449.1000   124.6988     9.4935     9.5807
  449.2000   124.6988     9.4372     9.5240
  449.3000   124.4857     9.4054     9.4699
  449.4000   124.2293     9.3903     9.4694
  449.5000   123.9729     9.3346     9.3727
  449.6000   123.7165     9.2745     9.3385
  449.7000   123.4940     9.2740     9.3095
  449.8000   123.4940     9.1931     9.2543
  449.9000   123.4940     9.1454     9.2089
  450.0000   123.4940     9.1239     9.2085
  450.1000   123.6500     9.0697     9.1445
  450.2000   123.9064     9.0137     9.0997
  450.3000   124.0964     8.8935     9.0807
  450.4000   124.0964     8.8931     9.0547
  450.5000   124.0964     8.8564     9.0011
  450.6000   124.3297     8.8039     8.9547
  450.7000   124.5167     8.7516     8.9543
  450.8000   124.6786     8.6997     8.9539
  450.9000   124.8406     8.6478     8.8713
  451.0000   125.0025     8.6472     8.8300
  451.1000   125.1645     8.6051     8.7845
  451.2000   125.3264     8.5541     8.7079
  451.3000   125.4884     8.5269     8.6984
  451.4000   125.6783     8.4969     8.5873
  451.5000   125.9036     8.4087     8.4949
  451.6000   125.9036     8.4082     8.3949
  451.7000   126.1464     8.3146     8.2961
  451.8000   126.4028     8.2167     8.1796
  451.9000   126.5060     8.1200     8.0460
  452.0000   126.5060     8.0243     7.9490
  452.1000   126.6334     7.9070     7.7916
  452.2000   127.1273     7.7220     7.7116
  452.3000   127.4096     7.5234     7.6208
  452.4000   127.6402     7.3657     7.4623
  452.5000   127.8966     7.1636     7.2745
  452.6000   128.1530     6.9551     7.1391
  452.7000   128.5057     6.7819     6.9719
  452.8000   129.0186     6.6626     6.7819
  452.9000   129.5314     6.5452     6.6182
  453.0000   130.1205     6.4132     6.4257
  453.1000   130.3387     6.3173     6.2561
  453.2000   130.7686     6.2063     6.1099
  453.3000   131.1528     6.0971     5.9622
  453.4000   131.4931     5.9785     5.7819
  453.5000   132.0060     5.8438     5.6203
  453.6000   132.5301     5.7387     5.3579
  453.7000   133.1325     5.6203     5.1351
  453.8000   133.9565     5.5410     4.9816
  453.9000   134.9822     5.4436     4.8802
  454.0000   136.2408     5.3763     4.8227
  454.1000   137.6361     5.3357     4.7614
  454.2000   138.6887     5.2760     4.7354
  454.3000   140.0602     5.2425     4.7281
  454.4000   141.2529     5.2423     4.7120
  454.5000   142.9226     5.2420     4.7274
  454.6000   145.0159     5.2417     4.8081
  454.7000   147.0112     5.2414     4.8888
  454.8000   148.6093     5.2411     4.9695
  454.9000   150.3748     5.2426     5.0502
  455.0000   151.8072     5.2769     5.1309
  455.1000   153.6176     5.2767     5.2116
  455.2000   156.3951     5.2985     5.2872
  455.3000   159.4722     5.3127     5.3205
  455.4000   161.8136     5.3237     5.4108
  455.5000   162.8394     5.3549     5.4572
  455.6000   163.8675     5.3859     5.5100
  455.7000   165.3615     5.3856     5.5759
  455.8000   165.7896     5.3853     5.6327
  455.9000   164.6759     5.4061     5.6752
