~VERSION INFORMATION
 VERS.                2.0:   CWLS LOG ASCII STANDARD - VERSION 2.0
 WRAP.                 NO:   ONE LINE PER DEPTH STEP
~WELL INFORMATION
#MNEM.UNIT      DATA TYPE    INFORMATION
#----------   ------------   ------------------------------
 STRT.F            0.0000:   START DEPTH
 STOP.F          666.0000:   STOP DEPTH
 STEP.F            0.1000:   STEP LENGTH
 NULL.          -999.2500:   NO VALUE
 COMP.   FLUOR DANIEL INC:   COMPANY
 WELL.   77-2 X 34 #77-34:   WELL
 FLD .             TEAPOT:   FIELD
 LOC .      S34 T39N R78W:   LOCATION
 CNTY.            NATRONA:   COUNTY
 STAT.            WYOMING:   STATE
 CTRY. UNITED STATES OF AMERICA:   COUNTRY
 SRVC.      Western Atlas:   SERVICE COMPANY
 DATE.        01-APR-1995:   LOGDATE
 API .       490252270000:   API NUMBER
~CURVE INFORMATION
#MNEM.UNIT       API CODE    CURVE DESCRIPTION
#----------   ------------   ------------------------------
 DEPT.F                  :   
 GRR .GAPI   07 310 01 00:   GAMMA RAY
 RILD.OHMM   07 120 46 00:   INDUCTION LOG DEEP RESISTIVITY
 RILM.OHMM   07 120 44 00:   INDUCTION LOG MEDIUM RESISTIVITY
~PARAMETER INFORMATION
#MNEM.UNIT          VALUE    DESCRIPTION
#----------   ------------   ------------------------------
 PD  .                 GL:   PERMANENT DATUM
 EPD .F              5106:   ELEVATION PERMANENT DATUM
 LMF .                 KB:   LOG MEASURED FROM
 DAPD.F                10:   FEET ABOVE PERMANENT DATUM
 DMF .                 KB:   DRILLING MEASURED FROM
 EKB .F              5116:   KELLING BUSHING
 EDF .F              5115:   DRILLING FLOOR
 EGL .F              5106:   GROUND LEVEL
 DATE.        01-APR-1995:   RUN DATE
 RUN .                  1:   RUN NUMBER
 DD  .F               674:   DEPTH DRILLER
 DL  .F               674:   DEPTH LOGGER
 BLI .F               666:   BOTTOM LOG INTERVAL
 TLI .F                52:   TOP LOG INTERVAL
 CS  .IN            9.625:   CASING SIZE
 CBD .F                52:   CASING BOTTOM DRILLER
 CBL .F                52:   CASING BOTTOM LOGGER
 BS  .IN             8.75:   BIT SIZE
 BSD .F               674:   BIT SIZE AT DEPTH
 DFT .                AIR:   DRILLING FLUID TYPE
 MRT .F                89:   MAXIMUM RECORDED TEMPERATURE
 LUN .            HL 6530:   LOGGING UNIT NUMBER
 LUL .             CASPER:   LOGGING UNIT LOCATION
 ENGI.      PAT RASMUSSEN:   RECORDING ENGINEER
 WITN.        GARY STRONG:   WITNESSED BY
 CLNT.            A2DTECH:   CLIENT CODE
 ORIG.           5" PRINT:   ORIGIN OF DATA
 UWI .       490252270000:   UNIQUE WELL ID
 DICO. A2D Technologies, Inc.:   DIGITIZING COMPANY
~OTHER INFORMATION
~A    DEPT      GRR      RILD       RILM   
# ...
  455.0000   155.0629     4.7695     4.5409
  455.1000   155.8695     4.7694     4.5673
  455.2000   156.2699     4.7694     4.6017
  455.3000   156.4651     4.7693     4.6554
  455.4000   156.4633     4.7752     4.7151
  455.5000   156.4612     4.8025     4.7649
  455.6000   156.2466     4.8024     4.8206
  455.7000   155.9913     4.8024     4.8917
  455.8000   155.6195     4.8023     4.9682
  455.9000   155.0425     4.8023     5.0262
  456.0000   154.2403     4.8022     5.0886
  456.1000   152.8306     4.8021     5.1443
  456.2000   151.7028     4.8020     5.2045
  456.3000   150.0801     4.8020     5.2653
  456.4000   148.4333     4.8203     5.3268
  456.5000   146.8307     4.8354     5.3838
  456.6000   145.1516     4.8354     5.4161
  456.7000   144.0717     4.8392     5.4467
  456.8000   143.1206     4.9031     5.5033
  456.9000   142.2943     4.9281     5.5299
  457.0000   141.6731     4.9569     5.5424
  457.1000   141.2571     4.9718     5.5683
  457.2000   141.0019     4.9885     5.5683
  457.3000   140.7427     5.0442     5.5683
  457.4000   140.7409     5.0767     5.5683
  457.5000   140.7391     5.1032     5.5485
  457.6000   140.7373     5.1120     5.5163
  457.7000   140.6308     5.1271     5.4844
  457.8000   140.4320     5.1570     5.4526
  457.9000   140.4302     5.1836     5.4161
  458.0000   140.4281     5.1835     5.3897
  458.1000   140.4265     5.1835     5.3384
  458.2000   140.5896     5.1834     5.2906
  458.3000   140.7246     5.1833     5.2600
  458.4000   140.7912     5.1832     5.2316
  458.5000   141.0428     5.1790     5.2316
  458.6000   141.3223     5.1471     5.1787
  458.7000   141.7711     5.1470     5.1392
  458.8000   142.2761     5.1469     5.1094
  458.9000   142.7811     5.1303     5.0886
  459.0000   143.3665     5.1110     5.0856
  459.1000   144.0927     5.1110     5.0535
  459.2000   144.6298     5.1109     5.0268
  459.3000   145.1027     5.1108     4.9977
  459.4000   145.6077     5.1108     4.9839
  459.5000   146.1127     5.1107     4.9839
  459.6000   146.6177     5.1106     4.9800
  459.7000   147.1227     5.1161     4.9495
  459.8000   147.6356     5.1462     4.9495
  459.9000   148.1325     5.1462     4.9711
  460.0000   148.6374     5.1461     4.9839
  460.1000   149.1424     5.1641     4.9839
  460.2000   149.7520     5.1819     4.9839
  460.3000   150.3978     5.1819     4.9839
  460.4000   150.6574     5.1818     5.0123
  460.5000   151.2425     5.1817     5.0186
  460.6000   151.4542     5.2066     5.0358
  460.7000   151.5409     5.2178     5.0651
  460.8000   151.6557     5.2178     5.0886
  460.9000   151.8389     5.2177     5.0889
  461.0000   151.8572     5.2176     5.1240
  461.1000   152.1367     5.2175     5.1484
  461.2000   151.9099     5.2175     5.1972
  461.3000   151.6547     5.2174     5.2448
  461.4000   151.3995     5.2312     5.2753
  461.5000   150.9835     5.2538     5.3074
  461.6000   150.2215     5.2537     5.3787
  461.7000   149.4110     5.2536     5.4322
  461.8000   148.4603     5.2802     5.4957
  461.9000   147.4447     5.3111     5.5448
  462.0000   146.5700     5.3421     5.5948
  462.1000   145.8080     5.3732     5.6879
  462.2000   145.0461     5.4074     5.7249
  462.3000   144.2721     5.4776     5.7840
  462.4000   144.0209     5.5639     5.8517
  462.5000   143.7657     5.6622     5.9200
  462.6000   143.5106     5.7450     5.9891
  462.7000   143.3599     5.8124     6.0551
  462.8000   143.3581     5.8804     6.0933
  462.9000   143.3643     5.9551     6.1587
  463.0000   143.6558     6.0191     6.2307
  463.1000   143.8675     6.0897     6.2839
  463.2000   144.2840     6.1611     6.3205
  463.3000   144.9056     6.2212     6.3573
  463.4000   145.5956     6.2625     6.3962
  463.5000   146.1006     6.3402     6.4673
  463.6000   146.6616     6.3750     6.5141
  463.7000   147.3360     6.4403     6.5520
  463.8000   147.7402     6.4948     6.5902
  463.9000   148.1204     6.5327     6.6285
  464.0000   148.5450     6.5708     6.6678
  464.1000   148.7646     6.6105     6.7060
  464.2000   148.7625     6.6853     6.7141
  464.3000   148.7608     6.7333     6.7375
  464.4000   148.7590     6.7500     6.7608
  464.5000   148.7572     6.7648     6.7608
  464.6000   148.6628     6.7970     6.7615
  464.7000   148.4519     6.7969     6.8078
  464.8000   148.4500     6.7968     6.8078
  464.9000   148.4483     6.7654     6.8078
  465.0000   148.4464     6.7494     6.8078
  465.1000   148.4446     6.7493     6.8078
  465.2000   148.4428     6.7492     6.8058
  465.3000   148.4973     6.7487     6.7608
  465.4000   148.7409     6.7021     6.7608
  465.5000   148.7388     6.6702     6.7608
  465.6000   148.7373     6.6314     6.7424
  465.7000   148.9004     6.5927     6.7141
  465.8000   148.9187     6.5455     6.7076
  465.9000   148.7318     6.4707     6.6217
  466.0000   148.7099     6.4270     6.5536
  466.1000   148.4263     6.3955     6.4780
  466.2000   148.1994     6.3345     6.4032
  466.3000   147.9442     6.2609     6.3179
  466.4000   147.8178     6.1881     6.2087
  466.5000   147.7356     6.1162     6.0933
  466.6000   147.5125     6.0356     5.9643
  466.7000   147.5106     5.9751     5.8274
  466.8000   147.5089     5.9057     5.7467
  466.9000   147.6961     5.8532     5.6909
  467.0000   147.8069     5.8097     5.5925
  467.1000   147.8977     5.7449     5.4917
  467.2000   148.1935     5.7077     5.4010
  467.3000   148.7065     5.6198     5.3313
  467.4000   149.2035     5.5445     5.2697
  467.5000   149.9096     5.4644     5.2088
  467.6000   150.6679     5.3694     5.1541
  467.7000   151.4262     5.2826     5.1240
  467.8000   152.1282     5.2491     5.0946
  467.9000   152.6494     5.2212     5.0418
  468.0000   153.8217     5.1908     5.0010
  468.1000   154.2466     5.1762     4.9720
  468.2000   154.9165     5.1762     4.9495
  468.3000   155.5582     5.1721     4.9495
  468.4000   155.9948     5.1401     4.9495
  468.5000   156.2264     5.1682     4.9257
  468.6000   156.2242     5.1759     4.9153
  468.7000   156.2226     5.1758     4.9153
  468.8000   156.2208     5.1757     4.9225
  468.9000   156.0902     5.1757     4.9495
  469.0000   155.6741     5.1756     4.9495
  469.1000   154.9123     5.1755     4.9744
  469.2000   154.1019     5.1986     5.0034
  469.3000   153.1510     5.2116     5.0466
  469.4000   152.3247     5.2115     5.1055
  469.5000   151.4220     5.2114     5.1679
  469.6000   150.3140     5.2114     5.2680
  469.7000   149.0450     5.2113     5.3234
  469.8000   147.7562     5.2112     5.3856
  469.9000   146.5074     5.2111     5.4649
  470.0000   145.2387     5.2111     5.5713
  470.1000   144.2757     5.2172     5.6936
  470.2000   143.5137     5.2476     5.7647
  470.3000   142.8080     5.2840     5.8912
  470.4000   142.2996     5.3344     5.9779
  470.5000   141.7101     5.3969     6.0671
  470.6000   141.2822     5.4602     6.1736
  470.7000   140.7737     5.5241     6.2820
  470.8000   140.4983     5.5899     6.3962
  470.9000   140.4282     5.7047     6.4684
  471.0000   140.1528     5.7891     6.5736
  471.1000   139.5877     5.8691     6.6665
  471.2000   139.3609     5.9535     6.7596
  471.3000   139.1057     6.0584     6.8706
  471.4000   138.7216     6.1672     6.9509
  471.5000   138.2936     6.3331     7.0479
  471.6000   138.0384     6.4295     7.1142
  471.7000   137.7670     6.5174     7.1717
  471.8000   137.5280     6.6121     7.2312
  471.9000   137.2728     6.7286     7.3059
  472.0000   137.2991     6.8439     7.3498
  472.1000   137.5507     6.9334     7.4497
  472.2000   137.8023     6.9692     7.4861
  472.3000   138.0579     7.0383     7.5297
  472.4000   139.0537     7.1002     7.5735
  472.5000   139.8643     7.1668     7.6292
  472.6000   140.6227     7.2841     7.7123
  472.7000   141.1719     7.3305     7.7123
  472.8000   141.3671     7.4087     7.7515
  472.9000   141.3411     7.4956     7.7967
  473.0000   140.4582     7.5375     7.8200
  473.1000   140.0304     7.5660     7.8333
