~VERSION INFORMATION
 VERS.                2.0:   CWLS LOG ASCII STANDARD - VERSION 2.0
 WRAP.                 NO:   ONE LINE PER DEPTH STEP
~WELL INFORMATION
#MNEM.UNIT      DATA TYPE    INFORMATION
#----------   ------------   ------------------------------
 STRT.F           12.0000:   START DEPTH
 STOP.F          551.0000:   STOP DEPTH
 STEP.F            0.5000:   STEP LENGTH
 NULL.          -999.2500:   NO VALUE
 COMP. LAWRENCE-ALLISON &AS:   COMPANY
 WELL. NPR 3 #58-46SX3LP4:   WELL
 FLD .             TEAPOT:   FIELD
 LOC .       S3 T38N R78W:   LOCATION
 CNTY.            NATRONA:   COUNTY
 STAT.            WYOMING:   STATE
 CTRY. UNITED STATES OF AMERICA:   COUNTRY
 SRVC.      Dresser Atlas:   SERVICE COMPANY
 DATE.        14-DEC-1984:   LOGDATE
 API .       490251099900:   API NUMBER
~CURVE INFORMATION
#MNEM.UNIT       API CODE    CURVE DESCRIPTION
#----------   ------------   ------------------------------
 DEPT.F                  :   
 RD  .OHMM   11 220 10 00:   RESISTIVITY DEEP
 RS  .OHMM   11 220 09 00:   RESISTIVITY SHALLOW
 SPR .MV     11 010 01 00:   SPONTANEOUS POTENTIAL FROM RES.
 AC  .US/F   60 520 00 00:   ACOUSTIC SONIC
 CALD.IN     45 280 60 00:   CALIPER FROM DENSITY
 CORR.G/C3   45 356 01 00:   DENSITY CORRECTION
 DEN .G/C3   45 350 01 00:   COMPENSATED BULK DENSTIY
 GRD .GAPI   45 310 01 00:   GAMMA RAY FROM DENSITY LOG
 PORD.DEC    45 890 12 00:   POROSITY DENSITY SANDSTONE
 CNC .DEC    42 890 03 00:   NEUTRON POROSITY SANDSTONE
~PARAMETER INFORMATION
#MNEM.UNIT          VALUE    DESCRIPTION
#----------   ------------   ------------------------------
 PD  .                 GL:   PERMANENT DATUM
 EPD .F              5201:   ELEVATION PERMANENT DATUM
 LMF .                 GL:   LOG MEASURED FROM
 DMF .                 GL:   DRILLING MEASURED FROM
 EGL .F              5201:   GROUND LEVEL
 DATE.        14-DEC-1984:   RUN DATE
 RUN .                  1:   RUN NUMBER
 DD  .F               552:   DEPTH DRILLER
 DL  .F               552:   DEPTH LOGGER
 BLI .F               550:   BOTTOM LOG INTERVAL
 TLI .F                20:   TOP LOG INTERVAL
 CS  .IN            8.625:   CASING SIZE
 CBD .F                20:   CASING BOTTOM DRILLER
 CBL .F                20:   CASING BOTTOM LOGGER
 BS  .IN            7.875:   BIT SIZE
 BSD .F               552:   BIT SIZE AT DEPTH
 DFT .          KCL WATER:   DRILLING FLUID TYPE
 MSS .            MUDTANK:   MUD SAMPLE SOURCE
 RMS .OHMM          0.152:   RESISTIVITY MUD SAMPLE
 MST .F                76:   MUD SAMPLE TEMPERATURE
 RMF .OHMM           0.11:   RESISTIVITY MUD FILTRATE SAMPLE
 MFST.F                76:   MUD FILTRATE SAMPLE TEMPERATURE
 RMC .OHMM           0.19:   RESISTIVITY MUD CAKE
 MCST.F                76:   MUD CAKE SAMPLE TEMPERATURE
 MFSS.               CALC:   MUD FILTRATE SAMPLE SOURCE
 MCSS.               CALC:   MUD CAKE SAMPLE SOURCE
 TCS .HRS               5:   TIME CURCULATED STOPPED
 MRT .F               100:   MAXIMUM RECORDED TEMPERATURE
 LUN .               6270:   LOGGING UNIT NUMBER
 ENGI.            LEBSOCK:   RECORDING ENGINEER
 WITN.        GREG GROOMS:   WITNESSED BY
 CLNT.            A2DTECH:   CLIENT CODE
 ORIG.           5" PRINT:   ORIGIN OF DATA
 UWI .       490251099900:   UNIQUE WELL ID
 DICO. A2D Technologies, Inc.:   DIGITIZING COMPANY
~OTHER INFORMATION
~A   DEPT       RD         RS        SPR         AC       CALD       CORR        DEN        GRD       PORD          CNC 
# ...
  347.0000    18.0350    16.6537   -57.1833    93.9095     7.9089     0.0328     2.4020    83.1757     0.1667     0.2297
  347.5000    17.6747    16.5330   -56.2828    93.5270     7.9090     0.0478     2.4148    83.6238     0.1661     0.2299
  348.0000    17.2022    16.2170   -55.6791    93.2197     7.8941     0.0480     2.4170    81.8163     0.1616     0.2260
  348.5000    16.7425    16.1141   -55.0753    93.1378     7.8943     0.0160     2.4170    81.5125     0.1579     0.2236
  349.0000    16.5217    15.9015   -54.3232    93.0559     7.8794    -0.0021     2.4185    82.1110     0.1573     0.2233
  349.5000    16.3016    15.8005   -53.7195    93.0491     7.8796     0.0084     2.4222    83.9125     0.1567     0.2281
  350.0000    16.0519    15.7002   -53.1157    93.1571     7.8815     0.0385     2.4295    84.5118     0.1546     0.2371
  350.5000    15.8404    15.7096   -52.3566    93.3844     7.8925     0.0384     2.4352    83.0107     0.1493     0.2391
  351.0000    15.7760    15.7190   -52.0451    93.6116     7.9104     0.0384     2.4395    81.5092     0.1454     0.2408
  351.5000    15.7882    15.8372   -51.8819    93.8539     7.9092     0.0338     2.4349    81.3618     0.1445     0.2444
  352.0000    16.1289    16.0670   -51.4220    93.9238     7.8809    -0.0099     2.4236    82.7189     0.1448     0.2586
  352.5000    16.2508    16.4151   -51.1104    94.1426     7.8812    -0.0341     2.4123    86.3309     0.1530     0.2607
  353.0000    16.8324    17.2396   -50.6505    94.5882     7.8816    -0.0236     2.4145    89.1910     0.1587     0.2567
  353.5000    18.0478    18.7453   -50.1906    95.8601     7.8819    -0.0130     2.4198    90.2466     0.1590     0.2150
  354.0000    19.6201    20.6636   -50.0274    98.1839     7.8822    -0.0026     2.4228    90.2496     0.1550     0.2129
  354.5000    21.7762    22.7782   -49.7159   100.1321     7.8825     0.0110     2.4190    86.4906     0.1541     0.2637
  355.0000    24.3367    24.7701   -49.5527   102.6813     7.8828     0.0367     2.4038    78.5712     0.1668     0.2706
  355.5000    26.2748    26.9235   -49.5379   104.0284     7.8831     0.0502     2.3766    73.8887     0.1859     0.2673
  356.0000    27.9779    29.0613   -49.8198   105.3755     7.8984     0.0403     2.3411    73.1187     0.2133     0.2467
  356.5000    29.7914    30.9553   -49.9570   105.8975     7.8987     0.0132     2.3109    73.2720     0.2265     0.2452
  357.0000    31.5040    32.7362   -50.2353   105.5904     7.8990     0.0079     2.2927    70.7193     0.2295     0.2500
  357.5000    32.6316    34.6196   -50.5172   104.9841     7.8993     0.0124     2.2950    68.9178     0.2301     0.2548
  358.0000    33.3357    36.5706   -50.5024   104.2275     7.8996    -0.0073     2.2951    68.0178     0.2297     0.2739
  358.5000    33.5877    37.1004   -50.4876   103.3958     7.8999    -0.0133     2.2957    69.8260     0.2288     0.2832
  359.0000    33.3769    37.1206   -50.3244   103.0149     7.9152     0.0093     2.2972    70.5809     0.2273     0.2841
  359.5000    32.9393    36.6310   -50.1612   102.9345     7.9004     0.0168     2.3032    70.1327     0.2240     0.2744
  360.0000    32.5074    36.3987   -49.8497   102.9292     7.9008     0.0288     2.3131    69.9853     0.2182     0.2753
  360.5000    32.7570    36.4192   -49.5381   102.7737     7.8860     0.0408     2.3160    70.4394     0.2163     0.2781
  361.0000    33.9413    36.7109   -49.2266   102.3928     7.8863     0.0378     2.3122    71.6454     0.2188     0.2796
  361.5000    35.3959    37.7622   -49.2118   101.6362     7.8866     0.0317     2.3091    73.4040     0.2203     0.2799
  362.0000    36.1472    38.8220   -49.1969   100.7294     7.8869     0.0196     2.3076    74.9599     0.2211     0.2789
  362.5000    36.4204    38.5754   -49.1821   100.1982     7.8872     0.0165     2.3068    74.6621     0.2214     0.2584
  363.0000    35.6709    37.7822   -49.4640   100.1930     7.8875     0.0256     2.3061    70.6049     0.2217     0.2499
  363.5000    33.7428    36.4950   -49.7497   100.4131     7.8878     0.0271     2.3053    67.4500     0.2217     0.2493
  364.0000    31.9700    35.2953   -49.8832   100.5581     7.9032     0.0254     2.3045    68.0545     0.2214     0.2520
  364.5000    31.0823    34.3507   -50.0168   100.7044     7.9185     0.0192     2.3181    77.0800     0.2168     0.2602
  365.0000    30.1067    33.2010   -50.2950   100.7743     7.9338     0.0089     2.3226    77.9845     0.2117     0.2611
  365.5000    29.4709    32.0670   -50.4286   100.9180     7.9492     0.0013     2.3271    74.6799     0.2095     0.2656
  366.0000    28.7208    30.8019   -50.8589   101.2884     7.9645    -0.0047     2.3301    71.6754     0.2083     0.2689
  366.5000    27.9595    29.9776   -50.9924   101.9593     7.9332     0.0269     2.3316    70.1739     0.2071     0.2637
  367.0000    27.2142    28.9742   -50.9776   102.2559     7.8899     0.0404     2.3316    73.3355     0.2058     0.2562
  367.5000    26.4887    28.1988   -50.9628   102.0990     7.8902     0.0465     2.3330    76.0452     0.2055     0.2562
  368.0000    25.7826    27.2771   -50.9480   100.8166     7.8906     0.0615     2.3345    75.5971     0.2046     0.2607
  368.5000    25.2693    27.1041   -50.7848    99.4589     7.8909     0.0826     2.3375    72.2918     0.2037     0.2610
  369.0000    25.6368    28.3182   -50.7700    98.3267     7.9062     0.0841     2.3421    71.3925     0.2022     0.2586
  369.5000    27.2986    29.7404   -50.7552    96.7437     7.9065     0.0810     2.3562    74.4171     0.1985     0.2525
  370.0000    28.6691    30.5361   -50.8924    94.9353     7.9068     0.0689     2.3795    76.2306     0.1873     0.2419
  370.5000    28.8813    30.0768   -51.0260    95.0051     7.9071     0.0463     2.3987    75.5789     0.1745     0.2320
  371.0000    27.7299    28.9242   -51.3042    96.7279     7.9225     0.0342     2.4069    75.0134     0.1666     0.2316
  371.5000    26.8048    28.1235   -51.4415    98.5258     7.9227     0.0432     2.4054    75.9194     0.1630     0.2358
  372.0000    26.0903    27.5607   -51.5750    99.8729     7.9230     0.0274     2.4008    75.9224     0.1627     0.2525
  372.5000    25.7482    27.1966   -51.8532   100.3936     7.9083     0.0124     2.3759    75.3238     0.1736     0.2743
  373.0000    25.4066    26.8651   -51.8384   100.6137     7.9086     0.0009     2.3464    75.3268     0.1896     0.2866
  373.5000    25.2473    26.8800   -51.9757   100.7587     7.9239     0.0189     2.3403    76.2320     0.1993     0.2858
  374.0000    25.2669    26.7095   -52.1092   100.8299     7.9543     0.0340     2.3486    76.8365     0.2005     0.2713
  374.5000    25.1045    26.7249   -52.0907   100.8998     7.9697     0.0279     2.3509    76.9891     0.1971     0.2646
  375.0000    25.1240    26.7089   -52.0759   101.1199     7.9850     0.0158     2.3501    75.9402     0.1956     0.2555
  375.5000    25.1395    26.5390   -52.0611   101.2649     8.0154     0.0052     2.3402    74.8906     0.1977     0.2533
  376.0000    25.1551    26.2191   -51.8979   101.4850     7.9555     0.0007     2.3327    74.7424     0.2041     0.2542
  376.5000    25.1707    26.0217   -52.0352   101.7039     7.9257     0.0007     2.3266    78.0544     0.2077     0.2787
  377.0000    24.8368    25.6780   -52.3134   101.7750     7.9260     0.0037     2.3387    77.7566     0.2058     0.2841
  377.5000    24.5149    25.3701   -52.7437   101.7685     7.9113     0.0308     2.3432    74.6017     0.2004     0.2835
  378.0000    24.1897    25.1774   -53.0256   101.4627     7.9116     0.0311     2.3371    70.0934     0.2010     0.2596
  378.5000    24.0380    24.8767   -53.3112   100.8564     7.8968     0.0126     2.3265    68.7423     0.2088     0.2448
  379.0000    23.5631    24.8912   -53.5932   100.3252     7.8971     0.0202     2.3265    68.4451     0.2097     0.2427
  379.5000    23.4117    24.9049   -54.0235    99.9443     7.8974     0.0370     2.3406    70.2527     0.2070     0.2469
  380.0000    23.2649    24.9215   -54.3017    99.7136     7.8977     0.0362     2.3642    72.0602     0.1964     0.2629
