~VERSION INFORMATION
 VERS.                2.0:   CWLS LOG ASCII STANDARD - VERSION 2.0
 WRAP.                 NO:   ONE LINE PER DEPTH STEP
~WELL INFORMATION
#MNEM.UNIT      DATA TYPE    INFORMATION
#----------   ------------   ------------------------------
 STRT.F           24.0000:   START DEPTH
 STOP.F          472.0000:   STOP DEPTH
 STEP.F            0.5000:   STEP LENGTH
 NULL.          -999.2500:   NO VALUE
 COMP. FENIX & SCISSON INC:   COMPANY
 WELL. 55-66 SX-3-FP #55-3:   WELL
 FLD .             WLDCAT:   FIELD
 LOC .       S3 T38N R78W:   LOCATION
 CNTY.            NATRONA:   COUNTY
 STAT.            WYOMING:   STATE
 CTRY. UNITED STATES OF AMERICA:   COUNTRY
 SRVC.              Welex:   SERVICE COMPANY
 DATE.        11-JUN-1980:   LOGDATE
 API .       490251082200:   API NUMBER
~CURVE INFORMATION
#MNEM.UNIT       API CODE    CURVE DESCRIPTION
#----------   ------------   ------------------------------
 DEPT.F                  :   
 SPR .MV     07 010 01 00:   SPONTANEOUS POTENTIAL
 GURD.OHMM   07 220 05 00:   GUARD RESISTIVITY
 ILD .OHMM   07 120 46 00:   INDUCTION LOG DEEP RESISTIVITY
 ILM .OHMM   07 120 44 00:   INDUCTION LOG MEDIUM
 DPHI.DEC    45 890 12 00:   DENSITY POROSITY SANDSTONE
 NPHI.DEC    42 890 03 00:   NEUTRON POROSITY SANDSTONE
 CORR.G/C3   45 356 01 00:   DENSITY CORRECTION
 RHOB.G/C3   45 350 01 00:   BULK DENSITY
 CALD.IN     45 280 60 00:   CALIPER
 GRD .GAPI   45 310 01 00:   GAMMA RAY FROM DENSITY LOG
~PARAMETER INFORMATION
#MNEM.UNIT          VALUE    DESCRIPTION
#----------   ------------   ------------------------------
 PD  .                 GL:   PERMANENT DATUM
 EPD .F              5169:   ELEVATION PERMANENT DATUM
 LMF .                 KB:   LOG MEASURED FROM
 DAPD.F                 5:   FEET ABOVE PERMANENT DATUM
 DMF .                 KB:   DRILLING MEASURED FROM
 EKB .F              5174:   KELLING BUSHING
 EGL .F              5169:   GROUND LEVEL
 DATE.            6-11-80:   RUN DATE
 RUN .                  1:   RUN NUMBER
 DD  .F               472:   DEPTH DRILLER
 DL  .F               472:   DEPTH LOGGER
 BLI .F               470:   BOTTOM LOG INTERVAL
 TLI .F                30:   TOP LOG INTERVAL
 BS  .IN            9.875:   BIT SIZE
 BSD .F               472:   BIT SIZE AT DEPTH
 DFT .                KCL:   DRILLING FLUID TYPE
 DFD .                9.5:   DRILLING FLUID DENSITY
 DFV .                 47:   DRILLING FLUID VISCOSITY
 DFPH.                 12:   DRILLING FLUID PH
 DFL .                7.2:   DRILLING FLUID LOSS
 MSS .           MUD TANK:   MUD SAMPLE SOURCE
 RMS .OHMM            .26:   RESISTIVITY MUD SAMPLE
 MST .F                75:   MUD SAMPLE TEMPERATURE
 RMF .OHMM            .21:   RESISTIVITY MUD FILTRATE SAMPLE
 MFST.F                75:   MUD FILTRATE SAMPLE TEMPERATURE
 RMC .OHMM            .31:   RESISTIVITY MUD CAKE
 MCST.F                75:   MUD CAKE SAMPLE TEMPERATURE
 MFSS.           MEASURED:   MUD FILTRATE SAMPLE SOURCE
 MCSS.           MEASURED:   MUD CAKE SAMPLE SOURCE
 RMB .OHMM            .26:   RESISTIVITY MUD AT BHT
 BHT .F                75:   BOTTOM HOLE TEMPERATURE
 TCS .HRS             1.5:   TIME CURCULATED STOPPED
 MRT .F                75:   MAXIMUM RECORDED TEMPERATURE
 LUN .               9685:   LOGGING UNIT NUMBER
 LUL .             CASPER:   LOGGING UNIT LOCATION
 ENGI.               REIN:   RECORDING ENGINEER
 WITN.          DINSMOORE:   WITNESSED BY
 CLNT.            A2DTECH:   CLIENT CODE
 ORIG.           5" PRINT:   ORIGIN OF DATA
 UWI .       490251082200:   UNIQUE WELL ID
 DICO. A2D Technologies, Inc.:   DIGITIZING COMPANY
~OTHER INFORMATION
~A   DEPT      SPR       GURD        ILD        ILM         DPHI       NPHI     CORR       RHOB        CALD       GRD   
# ...
  158.0000   -56.5193     8.1954     5.5799     6.7185     0.1104     0.3021     0.0786     2.4656    10.1881    97.3077
  158.5000   -56.6279     7.9571     5.5156     6.6213     0.1046     0.3045     0.0863     2.4598    10.1896    98.1899
  159.0000   -56.7366     7.7276     5.3624     6.5255     0.1022     0.3070     0.0910     2.4690    10.1910    99.1840
  159.5000   -56.8452     7.4724     5.2186     6.4310     0.1058     0.3088     0.0940     2.4735    10.1924   100.1627
  160.0000   -56.9539     7.7739     5.0787     6.3380     0.1096     0.3101     0.0885     2.4513    10.1938   100.7544
  160.5000   -57.0625     7.8965     4.9425     6.2463     0.1132     0.3115     0.0855     2.4544    10.1952   100.4314
  161.0000   -57.1713     7.3157     4.8099     5.9935     0.1150     0.3156     0.0847     2.4565    10.1967    99.2913
  161.5000   -57.2806     7.1770     4.7169     5.6760     0.1206     0.3202     0.0789     2.4330    10.1981    98.0869
  162.0000   -57.3881     7.0062     4.4358     5.3752     0.1274     0.3230     0.0837     2.4171    10.1995    97.1878
  162.5000   -57.4249     6.0217     4.2229     5.0904     0.1360     0.3208     0.0778     2.4069    10.2009    97.6049
  163.0000   -57.1987     4.9064     4.0179     4.8393     0.1421     0.3199     0.0773     2.3919    10.2023    99.3073
  163.5000   -56.9804     4.2629     3.8525     4.7605     0.1385     0.3212     0.0883     2.3946    10.2038   100.7945
  164.0000   -56.7625     5.5655     3.8525     4.9376     0.1325     0.3207     0.1109     2.3987    10.2052   100.2124
  164.5000   -56.5447     8.0431     4.0590     5.1953     0.1278     0.3161     0.1179     2.4284    10.2066    99.6044
  165.0000   -56.3269     7.6753     4.2225     5.4663     0.1278     0.3115     0.1142     2.4187    10.2080    99.5883
  165.5000   -56.1090     7.2689     4.3927     5.7516     0.1416     0.3070     0.0713     2.3956    10.2095   100.3548
  166.0000   -55.8906     7.7489     4.5697     6.0517     0.1420     0.3024     0.0512     2.4144    10.2072   101.1258
  166.5000   -55.6729     8.7375     4.7538     6.3674     0.1262     0.3010     0.0829     2.4315    10.2024   101.7651
  167.0000   -55.4651     8.8183     4.9454     6.6174     0.1097     0.3022     0.1049     2.4490    10.1977   101.1695
  167.5000   -55.4035     8.1532     5.1446     6.9068     0.1081     0.3041     0.1124     2.4649    10.1929   100.6930
  168.0000   -55.3374     7.8242     5.3519     7.3361     0.1178     0.3059     0.0966     2.4504    10.1882   101.0611
  168.5000   -55.2771     8.6575     5.5676     7.1938     0.1236     0.3078     0.0815     2.4330    10.1834   101.9560
  169.0000   -55.2783     8.4496     5.7919     7.0062     0.1219     0.3097     0.0723     2.4305    10.1786   102.1957
  169.5000   -55.2785     8.1175     5.9248     7.1390     0.1315     0.3070     0.0589     2.4246    10.1739   101.8453
  170.0000   -55.3013     8.0431     5.9952     7.3632     0.1376     0.3039     0.0360     2.3999    10.1691   102.8047
  170.5000   -55.4685     8.2356     6.0663     7.5943     0.1222     0.3029     0.0521     2.4340    10.1643   104.1215
  171.0000   -55.6364     8.4285     6.1384     7.8328     0.1183     0.3050     0.0670     2.4432    10.1596   105.4618
  171.5000   -55.8037     8.6296     6.2113     8.0787     0.1128     0.3065     0.0756     2.4582    10.1548   105.5564
  172.0000   -55.9667     8.8132     6.2850     8.1175     0.1171     0.3054     0.0764     2.4649    10.1520   105.4292
  172.5000   -55.9335     8.9140     6.3597     8.2110     0.1164     0.3037     0.0680     2.4502    10.1513   105.1825
  173.0000   -55.5271     9.0274     6.4352     8.2392     0.1136     0.3064     0.0588     2.4471    10.1506   103.1377
  173.5000   -55.1266     9.1423     6.5116     8.2676     0.1192     0.3097     0.0516     2.4433    10.1499   101.2872
  174.0000   -54.7255     9.2587     6.5889     8.2960     0.1231     0.3094     0.0561     2.4370    10.1492   100.7559
  174.5000   -54.3281     9.3942     6.6671     8.3251     0.1220     0.3071     0.0702     2.4393    10.1485   100.1691
  175.0000   -54.1153     9.6593     6.7531     8.3455     0.1144     0.3052     0.0784     2.4494    10.1478   100.1183
  175.5000   -54.2077     9.8506     6.7504     8.2727     0.1083     0.3049     0.0906     2.4615    10.1471   100.4292
  176.0000   -54.2954     9.8469     6.7256     8.2070     0.0958     0.3045     0.1033     2.4780    10.1464   100.1139
  176.5000   -54.3840     9.6752     6.7009     8.1420     0.0872     0.3043     0.1160     2.5036    10.1457    99.3404
  177.0000   -54.4725     9.5222     6.6763     8.0777     0.1022     0.3025     0.1096     2.4947    10.1449    99.4111
  177.5000   -54.5610     9.3719     6.6518     8.0139     0.1070     0.2982     0.0934     2.4791    10.1442    99.8356
  178.0000   -54.6493     9.2241     6.6273     7.9506     0.1097     0.2967     0.0787     2.4643    10.1435   100.0196
  178.5000   -54.7349     9.0786     6.6030     7.8878     0.1013     0.2959     0.0766     2.4634    10.1428    99.6077
  179.0000   -54.8181     8.9358     6.5787     7.8254     0.0982     0.2975     0.0939     2.4817    10.1421    99.3705
  179.5000   -54.9016     8.8170     6.5546     7.7636     0.0884     0.3022     0.1135     2.4964    10.1414    99.9858
  180.0000   -54.9844     8.7866     6.5305     7.7023     0.0955     0.3045     0.1030     2.5045    10.1407   100.5875
  180.5000   -55.0627     8.7309     6.5067     7.6414     0.0978     0.3055     0.1019     2.4808    10.1400   101.1883
  181.0000   -55.2964     8.6760     6.4834     7.5810     0.0964     0.3029     0.1040     2.4829    10.1393   101.7886
  181.5000   -55.5467     8.6211     6.4579     7.5211     0.0938     0.3014     0.1062     2.4861    10.1386   102.3973
  182.0000   -55.7978     8.5773     6.2452     7.4617     0.0950     0.3039     0.1083     2.4919    10.1379   102.5690
  182.5000   -56.0483     8.3003     5.9228     7.4039     0.1014     0.3089     0.1021     2.4990    10.1372   102.3315
  183.0000   -56.2986     7.9727     5.6171     7.0098     0.1081     0.3138     0.0955     2.4855    10.1365   101.5094
  183.5000   -56.5491     7.6568     5.3272     6.6130     0.1172     0.3188     0.0902     2.4676    10.1357   100.6623
  184.0000   -56.8047     7.3537     5.0522     6.2387     0.1385     0.3238     0.0764     2.4495    10.1350    99.7878
  184.5000   -57.1627     7.0626     4.7914     5.8856     0.1377     0.3246     0.0471     2.3994    10.1343    98.9044
  185.0000   -57.5705     6.7830     4.5441     5.5525     0.1231     0.3235     0.0636     2.4129    10.1336    99.5795
  185.5000   -57.9787     6.5692     4.2993     5.2382     0.1215     0.3222     0.0842     2.4383    10.1329    99.7835
  186.0000   -58.3870     6.1271     3.8654     4.9418     0.1262     0.3211     0.0998     2.4420    10.1322    98.5049
  186.5000   -58.7925     5.5989     3.4753     4.6620     0.1291     0.3286     0.1102     2.4358    10.1315    97.2674
  187.0000   -59.1787     5.1190     3.1246     4.4227     0.1327     0.3361     0.1129     2.4262    10.1308    96.0447
  187.5000   -59.5113     4.7121     2.8775     3.9422     0.1434     0.3391     0.1094     2.4121    10.1301    95.1934
  188.0000   -59.8464     4.1778     2.5881     3.5478     0.1569     0.3380     0.1063     2.3986    10.1294    96.0289
  188.5000   -60.1882     3.7411     2.3278     3.1929     0.1703     0.3373     0.1107     2.3737    10.1287    97.0964
  189.0000   -60.3461     3.3500     2.2192     2.8735     0.1823     0.3392     0.1166     2.3472    10.1280    98.1003
  189.5000   -60.4488     2.9292     2.1644     2.7202     0.1924     0.3409     0.1279     2.3222    10.1272    97.9045
  190.0000   -60.2067     3.9848     2.0983     2.5937     0.1997     0.3352     0.1384     2.2992    10.1265    96.7621
  190.5000   -59.9444     3.7541     2.0989     2.5937     0.2012     0.3286     0.1042     2.2859    10.1258    95.6487
  191.0000   -59.6834     3.5341     2.2091     2.8542     0.1924     0.3253     0.1256     2.2814    10.1251    94.4869
