~VERSION INFORMATION
 VERS.                2.0:   CWLS LOG ASCII STANDARD - VERSION 2.0
 WRAP.                 NO:   ONE LINE PER DEPTH STEP
~WELL INFORMATION
#MNEM.UNIT      DATA TYPE    INFORMATION
#----------   ------------   ------------------------------
 STRT.F           23.0000:   START DEPTH
 STOP.F         2536.0000:   STOP DEPTH
 STEP.F            0.5000:   STEP LENGTH
 NULL.          -999.2500:   NO VALUE
 COMP. FENIX & SCISSON INC:   COMPANY
 WELL.     14 SHX 3 #14-3:   WELL
 FLD .             TEAPOT:   FIELD
 LOC .       S3 T38N R78W:   LOCATION
 CNTY.            NATRONA:   COUNTY
 STAT.            WYOMING:   STATE
 CTRY. UNITED STATES OF AMERICA:   COUNTRY
 SRVC.           BIRDWELL:   SERVICE COMPANY
 DATE.        20-MAR-1979:   LOGDATE
 API .       490251073900:   API NUMBER
~CURVE INFORMATION
#MNEM.UNIT       API CODE    CURVE DESCRIPTION
#----------   ------------   ------------------------------
 DEPT.F                  :   
 SPR .MV     07 010 01 00:   SPONTANEOUS POTENTIAL
 SN  .OHMM   07 040 16 00:   SHORT NORMAL 16'
 IL  .OHMM   07 120 00 00:   INDUCTION LOG
 GRD .GAPI   45 310 01 00:   GAMMA RAY FROM DENSITY LOG
 CALD.IN     45 280 60 00:   CALIPER
 CORR.G/C3   45 356 01 00:   DENSITY CORRECTION
 DEN .G/C3   45 350 01 00:   
 DPHI.DEC    45 890 12 00:   DENSITY POROSITY SANDSTONE
~PARAMETER INFORMATION
#MNEM.UNIT          VALUE    DESCRIPTION
#----------   ------------   ------------------------------
 PD  .                 GL:   PERMANENT DATUM
 EPD .F              5208:   ELEVATION PERMANENT DATUM
 LMF .                 KB:   LOG MEASURED FROM
 DAPD.F                10:   FEET ABOVE PERMANENT DATUM
 DMF .                 KB:   DRILLING MEASURED FROM
 EKB .F              5218:   KELLING BUSHING
 EGL .F              5208:   GROUND LEVEL
 DATE.            3-20-79:   RUN DATE
 RUN .                  1:   RUN NUMBER
 DD  .F              2580:   DEPTH DRILLER
 DL  .F              2536:   DEPTH LOGGER
 BLI .F              2536:   BOTTOM LOG INTERVAL
 TLI .F               400:   TOP LOG INTERVAL
 CS  .IN            9.625:   CASING SIZE
 CBL .F               680:   CASING BOTTOM LOGGER
 BS  .IN             8.75:   BIT SIZE
 BSD .F              2580:   BIT SIZE AT DEPTH
 DFT .                AIR:   DRILLING FLUID TYPE
 TCS .HRS               6:   TIME CURCULATED STOPPED
 LUN .               2959:   LOGGING UNIT NUMBER
 LUL .             CASPER:   LOGGING UNIT LOCATION
 ENGI.            ROLLINS:   RECORDING ENGINEER
 WITN.           DINSMORE:   WITNESSED BY
 CLNT.            A2DTECH:   CLIENT CODE
 ORIG. 1", 2", 2.5", 5" PRINT:   ORIGIN OF DATA
 UWI .       490251073900:   UNIQUE WELL ID
 DICO. A2D Technologies, Inc.:   DIGITIZING COMPANY
~OTHER INFORMATION
~A   DEPT      SPR         SN         IL        GRD       CALD       CORR        DEN       DPHI   
# ...
  995.0000  -999.2500  -999.2500  -999.2500   152.6526    10.3428     0.1235     2.5265     0.0102
  995.5000  -999.2500  -999.2500  -999.2500   149.6168    10.3502     0.1140     2.5204     0.0136
  996.0000  -999.2500  -999.2500  -999.2500   147.5385    10.3597     0.1029     2.5082     0.0170
  996.5000  -999.2500  -999.2500  -999.2500   149.1931    10.3693     0.1014     2.5029     0.0204
  997.0000  -999.2500  -999.2500  -999.2500   150.4924    10.3787     0.1127     2.5050     0.0216
  997.5000  -999.2500  -999.2500  -999.2500   152.0020    10.3882     0.1225     2.5001     0.0216
  998.0000  -999.2500  -999.2500  -999.2500   153.4232    10.3977     0.1320     2.4984     0.0190
  998.5000  -999.2500  -999.2500  -999.2500   154.8689    10.4072     0.1443     2.5103     0.0164
  999.0000  -999.2500  -999.2500  -999.2500   155.4714    10.4166     0.1314     2.5215     0.0159
  999.5000  -999.2500  -999.2500  -999.2500   154.2427    10.4261     0.1010     2.5091     0.0235
 1000.0000  -999.2500  -999.2500  -999.2500   152.6990    10.4356     0.0812     2.4945     0.0273
 1000.5000  -999.2500  -999.2500  -999.2500   151.2531    10.4451     0.0674     2.4897     0.0281
 1001.0000  -999.2500  -999.2500  -999.2500   149.5222    10.4545     0.0582     2.4892     0.0274
 1001.5000  -999.2500  -999.2500  -999.2500   151.8329    10.4640     0.0544     2.4968     0.0242
 1002.0000  -999.2500  -999.2500  -999.2500   160.5324    10.4735     0.0533     2.5039     0.0211
 1002.5000  -999.2500  -999.2500  -999.2500   159.1145    10.4830     0.0554     2.5111     0.0179
 1003.0000  -999.2500  -999.2500  -999.2500   156.3628    10.4924     0.0608     2.5183     0.0147
 1003.5000  -999.2500  -999.2500  -999.2500   153.4846    10.5019     0.0658     2.5261     0.0115
 1004.0000  -999.2500  -999.2500  -999.2500   150.7210    10.5114     0.0697     2.5247     0.0121
 1004.5000  -999.2500  -999.2500  -999.2500   147.8133    10.5209     0.0696     2.5173     0.0150
 1005.0000  -999.2500  -999.2500  -999.2500   146.2989    10.5303     0.0694     2.5081     0.0184
 1005.5000  -999.2500  -999.2500  -999.2500   148.0703    10.5398     0.0601     2.4918     0.0258
 1006.0000  -999.2500  -999.2500  -999.2500   149.9515    10.5493     0.0489     2.4755     0.0347
 1006.5000  -999.2500  -999.2500  -999.2500   150.2428    10.5587     0.0369     2.4593     0.0467
 1007.0000  -999.2500  -999.2500  -999.2500   146.7979    10.5683     0.0346     2.4518     0.0425
 1007.5000  -999.2500  -999.2500  -999.2500   140.9057    10.5780     0.0377     2.4640     0.0362
 1008.0000  -999.2500  -999.2500  -999.2500   140.2801    10.5828     0.0441     2.4784     0.0299
 1008.5000  -999.2500  -999.2500  -999.2500   142.4927    10.5754     0.0500     2.4930     0.0250
 1009.0000  -999.2500  -999.2500  -999.2500   141.0781    10.5684     0.0566     2.5018     0.0220
 1009.5000  -999.2500  -999.2500  -999.2500   143.8170    10.5611     0.0626     2.5077     0.0190
 1010.0000  -999.2500  -999.2500  -999.2500   146.7096    10.5539     0.0690     2.5148     0.0159
 1010.5000  -999.2500  -999.2500  -999.2500   148.7228    10.5467     0.0701     2.5239     0.0129
 1011.0000  -999.2500  -999.2500  -999.2500   150.8206    10.5394     0.0657     2.5299     0.0145
 1011.5000  -999.2500  -999.2500  -999.2500   151.3808    10.5322     0.0578     2.5185     0.0183
 1012.0000  -999.2500  -999.2500  -999.2500   151.9303    10.5249     0.0571     2.5051     0.0224
 1012.5000  -999.2500  -999.2500  -999.2500   155.4028    10.5177     0.0694     2.5030     0.0174
 1013.0000  -999.2500  -999.2500  -999.2500   159.6210    10.5105     0.0812     2.5204     0.0117
 1013.5000  -999.2500  -999.2500  -999.2500   162.0107    10.5033     0.0946     2.5384     0.0060
 1014.0000  -999.2500  -999.2500  -999.2500   165.1043    10.4960     0.1028     2.5470     0.0022
 1014.5000  -999.2500  -999.2500  -999.2500   173.1181    10.4889     0.1016     2.5372     0.0078
 1015.0000  -999.2500  -999.2500  -999.2500   179.1902    10.4816     0.1055     2.5305     0.0095
 1015.5000  -999.2500  -999.2500  -999.2500   183.8787    10.4742     0.1174     2.5382     0.0064
 1016.0000  -999.2500  -999.2500  -999.2500   177.6056    10.4679     0.1284     2.5458     0.0003
 1016.5000  -999.2500  -999.2500  -999.2500   168.5301    10.4520     0.1376     2.5543    -0.0025
 1017.0000  -999.2500  -999.2500  -999.2500   158.8295    10.4271     0.1311     2.5504     0.0021
 1017.5000  -999.2500  -999.2500  -999.2500   155.6303    10.4034     0.1267     2.5414     0.0061
 1018.0000  -999.2500  -999.2500  -999.2500   157.9025    10.3797     0.1269     2.5315     0.0087
 1018.5000  -999.2500  -999.2500  -999.2500   158.7609    10.3556     0.1372     2.5331     0.0095
 1019.0000  -999.2500  -999.2500  -999.2500   153.2578    10.3322     0.1488     2.5442     0.0054
 1019.5000  -999.2500  -999.2500  -999.2500   146.4366    10.3083     0.1596     2.5524     0.0019
 1020.0000  -999.2500  -999.2500  -999.2500   139.4864    10.3020     0.1567     2.5524    -0.0003
 1020.5000  -999.2500  -999.2500  -999.2500   143.0549    10.3023     0.1378     2.5518    -0.0012
 1021.0000  -999.2500  -999.2500  -999.2500   147.0351    10.3024     0.1200     2.5511    -0.0003
 1021.5000  -999.2500  -999.2500  -999.2500   150.4758    10.3023     0.1018     2.5473     0.0051
 1022.0000  -999.2500  -999.2500  -999.2500   152.8608    10.3024     0.0839     2.5333     0.0129
 1022.5000  -999.2500  -999.2500  -999.2500   155.3870    10.3024     0.0657     2.5066     0.0208
 1023.0000  -999.2500  -999.2500  -999.2500   157.8651    10.3024     0.0615     2.4942     0.0257
 1023.5000  -999.2500  -999.2500  -999.2500   159.8183    10.3024     0.0610     2.4927     0.0257
 1024.0000  -999.2500  -999.2500  -999.2500   157.8039    10.3024     0.0608     2.4893     0.0281
 1024.5000  -999.2500  -999.2500  -999.2500   155.2833    10.3024     0.0460     2.4825     0.0384
 1025.0000  -999.2500  -999.2500  -999.2500   152.7449    10.3024     0.0306     2.4560     0.0487
 1025.5000  -999.2500  -999.2500  -999.2500   153.3574    10.3024     0.0289     2.4213     0.0591
 1026.0000  -999.2500  -999.2500  -999.2500   154.8982    10.3024     0.0317     2.3995     0.0653
 1026.5000  -999.2500  -999.2500  -999.2500   151.8839    10.3024     0.1185     2.4340     0.0608
 1027.0000  -999.2500  -999.2500  -999.2500   153.3921    10.3024     0.2508     2.4849     0.0357
 1027.5000  -999.2500  -999.2500  -999.2500   155.4706    10.3024     0.3726     2.5321     0.0106
 1028.0000  -999.2500  -999.2500  -999.2500   157.6977    10.3024     0.4948     2.5797    -0.0145
 1028.5000  -999.2500  -999.2500  -999.2500   154.7015    10.3025     0.4543     2.6505    -0.0438
 1029.0000  -999.2500  -999.2500  -999.2500   154.1955    10.3015     0.3115     2.6339    -0.0229
 1029.5000  -999.2500  -999.2500  -999.2500   157.5282    10.2990     0.2027     2.5586    -0.0034
 1030.0000  -999.2500  -999.2500  -999.2500   156.3945    10.2967     0.1964     2.5562    -0.0026
 1030.5000  -999.2500  -999.2500  -999.2500   152.4754    10.2944     0.1991     2.5557    -0.0011
 1031.0000  -999.2500  -999.2500  -999.2500   149.9830    10.2920     0.2024     2.5500     0.0012
 1031.5000  -999.2500  -999.2500  -999.2500   151.5747    10.2896     0.2061     2.5459     0.0038
 1032.0000  -999.2500  -999.2500  -999.2500   153.5421    10.2873     0.2116     2.5500     0.0014
 1032.5000  -999.2500  -999.2500  -999.2500   152.0298    10.2849     0.2172     2.5546    -0.0015
 1033.0000  -999.2500  -999.2500  -999.2500   150.0941    10.2826     0.2140     2.5594    -0.0042
 1033.5000  -999.2500  -999.2500  -999.2500   149.2452    10.2802     0.1988     2.5534     0.0014
 1034.0000  -999.2500  -999.2500  -999.2500   149.3457    10.2779     0.1965     2.5465    -0.0006
 1034.5000  -999.2500  -999.2500  -999.2500   159.0913    10.2755     0.1998     2.5601    -0.0049
 1035.0000  -999.2500  -999.2500  -999.2500   157.0953    10.2732     0.2020     2.5719    -0.0114
