~VERSION INFORMATION
 VERS.                2.0:   CWLS LOG ASCII STANDARD - VERSION 2.0
 WRAP.                 NO:   ONE LINE PER DEPTH STEP
~WELL INFORMATION
#MNEM.UNIT      DATA TYPE    INFORMATION
#----------   ------------   ------------------------------
 STRT.F          442.0000:   START DEPTH
 STOP.F         2636.0000:   STOP DEPTH
 STEP.F            0.5000:   STEP LENGTH
 NULL.          -999.2500:   NO VALUE
 COMP. FENIX & SCISSON INC:   COMPANY
 WELL.     25 SHX 2 #25-2:   WELL
 FLD .             TEAPOT:   FIELD
 LOC .       S2 T38N R78W:   LOCATION
 CNTY.            NATRONA:   COUNTY
 STAT.            WYOMING:   STATE
 CTRY. UNITED STATES OF AMERICA:   COUNTRY
 SRVC.              Welex:   SERVICE COMPANY
 DATE.        07-JUN-1980:   LOGDATE
 API .       490251080200:   API NUMBER
~CURVE INFORMATION
#MNEM.UNIT       API CODE    CURVE DESCRIPTION
#----------   ------------   ------------------------------
 DEPT.F                  :   
 CALD.IN     45 280 60 00:   CALIPER
 GRD .GAPI   45 310 01 00:   GAMMA RAY FROM DENSITY LOG
 DPHI.DEC    45 890 12 00:   DENSITY POROSITY SANDSTONE
 CORR.G/C3   45 356 01 00:   DENSITY CORRECTION
 RHOB.G/C3   45 350 01 00:   BULK DENSITY
~PARAMETER INFORMATION
#MNEM.UNIT          VALUE    DESCRIPTION
#----------   ------------   ------------------------------
 PD  .                 GL:   PERMANENT DATUM
 EPD .F              5120:   ELEVATION PERMANENT DATUM
 LMF .                 KB:   LOG MEASURED FROM
 DAPD.F                10:   FEET ABOVE PERMANENT DATUM
 DMF .                 KB:   DRILLING MEASURED FROM
 EKB .F              5130:   KELLING BUSHING
 EGL .F              5120:   GROUND LEVEL
 DATE.             6-7-80:   RUN DATE
 RUN .                  1:   RUN NUMBER
 DD  .F              2652:   DEPTH DRILLER
 DL  .F              2638:   DEPTH LOGGER
 BLI .F              2636:   BOTTOM LOG INTERVAL
 TLI .F              1224:   TOP LOG INTERVAL
 BS  .IN             6.75:   BIT SIZE
 BSD .F              2652:   BIT SIZE AT DEPTH
 DFT .        AIR DRILLED:   DRILLING FLUID TYPE
 TCS .HRS               2:   TIME CURCULATED STOPPED
 MRT .F               125:   MAXIMUM RECORDED TEMPERATURE
 ENGI.               REIN:   RECORDING ENGINEER
 WITN.           DINSMORE:   WITNESSED BY
 CLNT.            A2DTECH:   CLIENT CODE
 ORIG.           5" PRINT:   ORIGIN OF DATA
 UWI .       490251080200:   UNIQUE WELL ID
 DICO. A2D Technologies, Inc.:   DIGITIZING COMPANY
~OTHER INFORMATION
~A   DEPT     CALD         GRD      DPHI       CORR       RHOB   
# ...
 1601.0000     8.9945    74.7467     0.0916     0.0980     2.4963
 1601.5000     8.9967    74.8669     0.0965     0.0860     2.4965
 1602.0000     8.9989    75.2620     0.0988     0.0737     2.4829
 1602.5000     9.0012    75.3924     0.0917     0.0827     2.5001
 1603.0000     9.0034    74.9608     0.0876     0.0871     2.5108
 1603.5000     9.0039    75.1329     0.1009     0.0631     2.4849
 1604.0000     9.0039    75.4920     0.1068     0.0500     2.4757
 1604.5000     9.0039    75.8646     0.0996     0.0612     2.4895
 1605.0000     9.0039    76.2333     0.0933     0.0707     2.5064
 1605.5000     9.0039    76.8729     0.0916     0.0712     2.5025
 1606.0000     9.0039    77.5808     0.0976     0.0648     2.4928
 1606.5000     9.0040    78.2903     0.0974     0.0644     2.4905
 1607.0000     9.0071    78.9998     0.0956     0.0628     2.4974
 1607.5000     9.0152    79.7074     0.1054     0.0446     2.4775
 1608.0000     9.0232    80.3212     0.1075     0.0356     2.4706
 1608.5000     9.0312    80.5773     0.1141     0.0272     2.4540
 1609.0000     9.0392    80.8375     0.1200     0.0223     2.4465
 1609.5000     9.0472    81.0965     0.1187     0.0243     2.4487
 1610.0000     9.0553    81.1719     0.1159     0.0299     2.4514
 1610.5000     9.0621    81.0202     0.1132     0.0457     2.4667
 1611.0000     9.0525    80.8876     0.1024     0.0612     2.4867
 1611.5000     9.0427    80.0941     0.0936     0.0765     2.5041
 1612.0000     9.0331    79.2269     0.0976     0.0785     2.4954
 1612.5000     9.0235    78.3335     0.0952     0.0771     2.5044
 1613.0000     9.0139    78.2802     0.1052     0.0552     2.4762
 1613.5000     9.0042    78.2863     0.1128     0.0358     2.4601
 1614.0000     8.9945    78.2880     0.1119     0.0361     2.4599
 1614.5000     8.9847    78.2577     0.1157     0.0457     2.4539
 1615.0000     8.9886    78.0242     0.1117     0.0585     2.4655
 1615.5000     8.9946    77.7893     0.1066     0.0713     2.4738
 1616.0000     9.0005    77.5456     0.1016     0.0842     2.4829
 1616.5000     9.0064    77.6500     0.0971     0.0971     2.4932
 1617.0000     9.0124    77.8439     0.0890     0.1096     2.5035
 1617.5000     9.0183    78.2792     0.0958     0.1017     2.5075
 1618.0000     9.0242    78.7894     0.1104     0.0711     2.4593
 1618.5000     9.0301    78.6822     0.1183     0.0463     2.4419
 1619.0000     9.0361    78.4359     0.1119     0.0689     2.4609
 1619.5000     9.0422    78.1852     0.1010     0.0974     2.4856
 1620.0000     9.0388    77.9311     0.0904     0.1101     2.5071
 1620.5000     9.0337    77.9947     0.0923     0.0995     2.5058
 1621.0000     9.0285    78.1444     0.0937     0.0855     2.4941
 1621.5000     9.0234    78.3892     0.0859     0.1053     2.5211
 1622.0000     9.0197    79.1347     0.0844     0.0989     2.5002
 1622.5000     9.0160    79.8556     0.0892     0.0870     2.5152
 1623.0000     9.0124    80.2693     0.0980     0.0752     2.4962
 1623.5000     9.0087    80.6459     0.1044     0.0642     2.4817
 1624.0000     9.0051    80.6485     0.0964     0.0582     2.4992
 1624.5000     9.0014    80.4710     0.0997     0.0523     2.4884
 1625.0000     8.9978    80.1019     0.0965     0.0441     2.5038
 1625.5000     8.9941    79.7357     0.1100     0.0272     2.4608
 1626.0000     8.9904    79.3680     0.1133     0.0314     2.4548
 1626.5000     8.9868    79.0010     0.1185     0.0218     2.4488
 1627.0000     8.9847    78.5933     0.1234     0.0093     2.4318
 1627.5000     8.9861    77.9929     0.1202     0.0245     2.4509
 1628.0000     8.9875    77.3764     0.1161     0.0426     2.4700
 1628.5000     8.9888    77.3608     0.1152     0.0433     2.4679
 1629.0000     8.9902    77.8054     0.1151     0.0393     2.4548
 1629.5000     8.9915    78.2561     0.1116     0.0478     2.4616
 1630.0000     8.9929    78.7079     0.1054     0.0676     2.4729
 1630.5000     8.9943    79.1604     0.1028     0.0682     2.4743
 1631.0000     8.9956    79.6170     0.1195     0.0553     2.4480
 1631.5000     8.9970    80.0261     0.1134     0.0563     2.4462
 1632.0000     8.9983    79.4023     0.1058     0.0899     2.4794
 1632.5000     8.9997    78.7981     0.0982     0.1037     2.5024
 1633.0000     9.0010    78.4456     0.0952     0.0955     2.5022
 1633.5000     9.0024    78.0918     0.1068     0.0746     2.4757
 1634.0000     9.0037    77.7375     0.1162     0.0539     2.4533
 1634.5000     9.0039    77.3830     0.1255     0.0423     2.4322
 1635.0000     9.0039    77.0265     0.1228     0.0438     2.4368
 1635.5000     9.0039    76.8154     0.1216     0.0467     2.4432
 1636.0000     9.0039    76.6735     0.1195     0.0468     2.4428
 1636.5000     9.0039    76.5367     0.1187     0.0401     2.4476
 1637.0000     9.0039    76.2983     0.1199     0.0353     2.4393
 1637.5000     9.0039    76.2349     0.1161     0.0511     2.4577
 1638.0000     9.0039    76.7158     0.1125     0.0632     2.4765
 1638.5000     9.0039    77.1743     0.1090     0.0612     2.4822
 1639.0000     9.0039    77.6340     0.1075     0.0552     2.4741
 1639.5000     9.0039    78.0918     0.1097     0.0548     2.4672
 1640.0000     9.0039    78.4613     0.1052     0.0617     2.4725
 1640.5000     9.0039    78.1939     0.1148     0.0445     2.4538
 1641.0000     9.0039    77.9343     0.1212     0.0425     2.4412
 1641.5000     9.0039    77.6768     0.1176     0.0476     2.4491
 1642.0000     9.0039    77.4192     0.1131     0.0569     2.4623
 1642.5000     9.0039    77.1560     0.1086     0.0661     2.4724
 1643.0000     9.0039    77.1072     0.1040     0.0696     2.4809
 1643.5000     9.0039    76.9896     0.1011     0.0734     2.4845
 1644.0000     9.0039    76.5587     0.0974     0.0795     2.4984
 1644.5000     9.0039    75.9844     0.0957     0.0845     2.5036
 1645.0000     9.0039    75.5548     0.0992     0.0775     2.4873
 1645.5000     9.0040    75.7462     0.0985     0.0791     2.4855
 1646.0000     9.0032    75.9443     0.0980     0.0746     2.4984
 1646.5000     8.9853    76.5501     0.1011     0.0658     2.4821
 1647.0000     8.9666    77.1593     0.1060     0.0569     2.4746
 1647.5000     8.9929    77.7643     0.1109     0.0486     2.4641
 1648.0000     9.0227    78.0653     0.1136     0.0466     2.4532
 1648.5000     9.0171    78.0044     0.1117     0.0517     2.4548
 1649.0000     9.0107    77.9455     0.1076     0.0584     2.4657
 1649.5000     9.0046    77.9030     0.1034     0.0668     2.4778
 1650.0000     9.0039    78.0807     0.0993     0.0743     2.4910
 1650.5000     9.0039    78.2559     0.0972     0.0695     2.4894
 1651.0000     9.0039    78.4282     0.1076     0.0630     2.4733
 1651.5000     9.0039    78.6042     0.1067     0.0620     2.4701
 1652.0000     9.0039    78.3598     0.1042     0.0739     2.4781
 1652.5000     9.0039    77.7740     0.1047     0.0702     2.4812
 1653.0000     9.0040    77.1844     0.1092     0.0646     2.4645
 1653.5000     9.0041    76.5962     0.1048     0.0712     2.4812
 1654.0000     9.0034    76.0951     0.0972     0.0862     2.4947
 1654.5000     8.9890    76.0212     0.0912     0.0984     2.5047
 1655.0000     8.9786    75.9367     0.0922     0.0933     2.5010
 1655.5000     8.9735    76.0271     0.0928     0.0875     2.4967
 1656.0000     8.9682    76.0764     0.0908     0.0653     2.4841
 1656.5000     8.9629    75.8435     0.1067     0.0400     2.4663
 1657.0000     8.9575    75.6180     0.1197     0.0144     2.4358
 1657.5000     8.9522    75.3930     0.1263     0.0059     2.4274
 1658.0000     8.9469    75.1668     0.1160     0.0302     2.4465
 1658.5000     8.9514    74.9415     0.1072     0.0558     2.4657
 1659.0000     8.9638    74.7738     0.1043     0.0604     2.4797
 1659.5000     8.9760    75.0829     0.1024     0.0524     2.4809
 1660.0000     8.9836    75.3938     0.0974     0.0508     2.4850
 1660.5000     8.9807    75.3928     0.0924     0.0685     2.5072
 1661.0000     8.9780    75.1471     0.0872     0.0786     2.5143
 1661.5000     8.9753    74.8977     0.0928     0.0639     2.5054
