~VERSION INFORMATION
 VERS.                2.0:   CWLS LOG ASCII STANDARD - VERSION 2.0
 WRAP.                 NO:   ONE LINE PER DEPTH STEP
~WELL INFORMATION
#MNEM.UNIT      DATA TYPE    INFORMATION
#----------   ------------   ------------------------------
 STRT.F           42.0000:   START DEPTH
 STOP.F          408.0000:   STOP DEPTH
 STEP.F            0.5000:   STEP LENGTH
 NULL.          -999.2500:   NO VALUE
 COMP. FENIX & SCISSON INC:   COMPANY
 WELL.       SX 3FO #22-3:   WELL
 FLD .             TEAPOT:   FIELD
 LOC .       S3 T38N R78W:   LOCATION
 CNTY.            NATRONA:   COUNTY
 STAT.            WYOMING:   STATE
 CTRY. UNITED STATES OF AMERICA:   COUNTRY
 SRVC.              Welex:   SERVICE COMPANY
 DATE.        01-JUL-1980:   LOGDATE
 API .       490251083000:   API NUMBER
~CURVE INFORMATION
#MNEM.UNIT       API CODE    CURVE DESCRIPTION
#----------   ------------   ------------------------------
 DEPT.F                  :   
 GRD .GAPI   45 310 01 00:   GAMMA RAY FROM DENSITY LOG
 CALD.IN     45 280 60 00:   CALIPER
 RHOB.G/C3   45 350 01 00:   BULK DENSITY
 DPHI.DEC    45 890 12 00:   DENSITY POROSITY SANDSTONE
 CORR.G/C3   45 356 01 00:   DENSITY CORRECTION
~PARAMETER INFORMATION
#MNEM.UNIT          VALUE    DESCRIPTION
#----------   ------------   ------------------------------
 PD  .                 GL:   PERMANENT DATUM
 EPD .F              5152:   ELEVATION PERMANENT DATUM
 LMF .                 KB:   LOG MEASURED FROM
 DAPD.F                 5:   FEET ABOVE PERMANENT DATUM
 DMF .                 KB:   DRILLING MEASURED FROM
 EKB .F              5157:   KELLING BUSHING
 EGL .F              5152:   GROUND LEVEL
 DATE.             7-1-80:   RUN DATE
 RUN .                  1:   RUN NUMBER
 DD  .F               470:   DEPTH DRILLER
 DL  .F               410:   DEPTH LOGGER
 BLI .F               408:   BOTTOM LOG INTERVAL
 TLI .F                40:   TOP LOG INTERVAL
 BS  .IN             8.75:   BIT SIZE
 BSD .F               470:   BIT SIZE AT DEPTH
 DFT .        AIR DRILLED:   DRILLING FLUID TYPE
 BHT .F                75:   BOTTOM HOLE TEMPERATURE
 TCS .HRS             4.5:   TIME CURCULATED STOPPED
 MRT .F                75:   MAXIMUM RECORDED TEMPERATURE
 ENGI.        REIN/GLASER:   RECORDING ENGINEER
 WITN.             ROADES:   WITNESSED BY
 CLNT.            A2DTECH:   CLIENT CODE
 ORIG.           5" PRINT:   ORIGIN OF DATA
 UWI .       490251083000:   UNIQUE WELL ID
 DICO. A2D Technologies, Inc.:   DIGITIZING COMPANY
~OTHER INFORMATION
~A   DEPT       GRD        CALD       RHOB       DPHI       CORR 
# ...
  103.0000   101.1878     8.9959     2.5543     0.0830     0.1373
  103.5000   101.4419     9.0261     2.5714     0.0753     0.1464
  104.0000    99.6536     9.0530     2.5840     0.0682     0.1561
  104.5000    97.1707     9.0245     2.5962     0.0631     0.1681
  105.0000    97.6965     8.9915     2.6015     0.0586     0.1773
  105.5000    95.4457     8.9586     2.5906     0.0646     0.1737
  106.0000    93.4296     8.9300     2.5866     0.0607     0.1710
  106.5000    94.7696     8.9137     2.5902     0.0582     0.1710
  107.0000    96.2521     8.8975     2.5851     0.0642     0.1710
  107.5000    97.9966     8.8956     2.5876     0.0598     0.1719
  108.0000    97.0927     8.8928     2.5741     0.0764     0.1725
  108.5000    95.3579     8.8308     2.5482     0.0826     0.1547
  109.0000    94.9448     8.8130     2.5376     0.0870     0.1370
  109.5000    96.4034     8.8824     2.5280     0.0921     0.1221
  110.0000    95.3903     8.9502     2.5135     0.1099     0.1096
  110.5000    94.4404     9.0128     2.5111     0.1059     0.1051
  111.0000    95.1546     9.0085     2.5079     0.1085     0.1070
  111.5000    95.9923     8.9958     2.5106     0.1069     0.1121
  112.0000    96.2493     8.9838     2.5071     0.1088     0.1112
  112.5000    96.8204     8.9810     2.5018     0.1113     0.1067
  113.0000    99.2555     9.0104     2.5016     0.1109     0.1049
  113.5000   101.0643     9.0179     2.5013     0.1126     0.1102
  114.0000    99.9399     9.0044     2.5113     0.1067     0.1165
  114.5000    99.4299     8.9961     2.5264     0.0957     0.1230
  115.0000    99.4117     8.9877     2.5408     0.0906     0.1272
  115.5000    99.7842     8.9793     2.5351     0.0945     0.1210
  116.0000   100.1481     8.9782     2.5225     0.1012     0.1134
  116.5000   100.9198     8.9965     2.5110     0.1060     0.1068
  117.0000   100.2704     9.0144     2.5076     0.1097     0.1070
  117.5000    99.4515     9.0324     2.5040     0.1110     0.1080
  118.0000    99.8728     9.0509     2.5020     0.1114     0.1089
  118.5000   100.9398     9.0387     2.4998     0.1137     0.1078
  119.0000   102.0125     9.0213     2.4856     0.1168     0.1055
  119.5000   102.6981     9.0036     2.4871     0.1198     0.1065
  120.0000   100.7901     8.9859     2.4911     0.1189     0.1092
  120.5000    98.7904     8.9684     2.4922     0.1175     0.1110
  121.0000    96.8210     8.9569     2.4862     0.1214     0.1089
  121.5000    95.2139     8.9717     2.4896     0.1190     0.1065
  122.0000    95.6570     8.9858     2.4917     0.1202     0.1051
  122.5000    96.4868     8.9999     2.5039     0.1142     0.1136
  123.0000    96.1220     9.0139     2.5204     0.1008     0.1230
  123.5000    96.0441     9.0282     2.5385     0.0862     0.1324
  124.0000    96.4662     9.0241     2.5489     0.0906     0.1373
  124.5000    96.7949     9.0088     2.5410     0.0833     0.1400
  125.0000    94.5114     8.9927     2.5538     0.0830     0.1427
  125.5000    92.1543     8.9766     2.5405     0.0847     0.1400
  126.0000    91.7152     8.9035     2.5215     0.0982     0.1284
  126.5000    92.9303     8.7905     2.5036     0.1095     0.1171
  127.0000    94.1461     8.6985     2.4891     0.1186     0.1067
  127.5000    95.3652     8.7255     2.4765     0.1238     0.0986
  128.0000    96.3616     8.7495     2.4597     0.1379     0.0904
  128.5000    97.1232     8.8830     2.4501     0.1416     0.0831
  129.0000    97.8920     9.0606     2.4571     0.1393     0.0849
  129.5000    98.6736     9.0322     2.4618     0.1382     0.0911
  130.0000    98.8269     9.0052     2.4544     0.1416     0.0878
  130.5000    98.8307     9.0046     2.4484     0.1442     0.0849
  131.0000    98.8384     9.0217     2.4571     0.1388     0.0900
  131.5000    98.9726     9.0389     2.4689     0.1324     0.0958
  132.0000    99.6083     9.0542     2.4771     0.1260     0.1017
  132.5000   100.2412     9.0425     2.4834     0.1226     0.1050
  133.0000   100.8877     9.0285     2.4897     0.1197     0.1057
  133.5000   101.5409     9.0140     2.4919     0.1188     0.1089
  134.0000   102.1757     9.0001     2.4877     0.1196     0.1121
  134.5000   101.9209     8.9689     2.4940     0.1178     0.1153
  135.0000   101.6175     8.9605     2.5011     0.1123     0.1186
  135.5000   101.5785     8.9396     2.5082     0.1068     0.1208
  136.0000   102.5254     8.8968     2.5110     0.1069     0.1147
  136.5000   103.7212     8.9155     2.5063     0.1097     0.1093
  137.0000   104.9278     8.9517     2.5016     0.1128     0.1020
  137.5000   103.6306     8.9881     2.4969     0.1159     0.0991
  138.0000   101.1979     9.0253     2.4938     0.1178     0.0999
  138.5000    99.8225     9.0363     2.4997     0.1141     0.1014
  139.0000    99.6004     9.0415     2.5068     0.1092     0.1029
  139.5000    99.3670     9.0465     2.5168     0.1046     0.1043
  140.0000    99.0535     9.0515     2.5073     0.1111     0.1007
  140.5000    99.0145     9.0566     2.4809     0.1223     0.0891
  141.0000    99.7792     9.0617     2.4672     0.1311     0.0774
  141.5000   101.7118     9.0667     2.4621     0.1354     0.0771
  142.0000   103.5696     9.0719     2.4653     0.1341     0.0830
  142.5000   105.1528     9.0730     2.4710     0.1310     0.0888
  143.0000   104.9756     9.0655     2.4711     0.1310     0.0886
  143.5000   104.7800     9.0573     2.4743     0.1280     0.0873
  144.0000   104.6029     9.0491     2.4804     0.1258     0.0870
  144.5000   105.3680     9.0408     2.4762     0.1284     0.0870
  145.0000   105.8535     9.0326     2.4722     0.1306     0.0870
  145.5000   104.5466     9.0244     2.4737     0.1293     0.0870
  146.0000   102.8697     9.0162     2.4710     0.1278     0.0859
  146.5000   101.1794     9.0079     2.4497     0.1438     0.0776
  147.0000    99.8264     8.9997     2.4287     0.1533     0.0691
  147.5000    99.7990     8.9915     2.4274     0.1582     0.0677
  148.0000   102.1798     8.9831     2.4370     0.1598     0.0726
  148.5000   105.2462     8.9749     2.4522     0.1394     0.0783
  149.0000   108.4412     9.0013     2.4674     0.1329     0.0855
  149.5000   107.6103     9.0322     2.4809     0.1248     0.0931
  150.0000   106.2258     9.0223     2.4900     0.1174     0.0945
  150.5000   104.9570     9.0092     2.4856     0.1237     0.0904
  151.0000   104.8757     8.9962     2.4793     0.1266     0.0872
  151.5000   105.1990     8.9836     2.4798     0.1254     0.0898
  152.0000   105.0002     8.9802     2.4897     0.1213     0.0945
  152.5000   103.5339     9.0043     2.5029     0.1115     0.1015
  153.0000   102.1141     9.0276     2.5145     0.1037     0.1069
  153.5000   100.7608     9.0510     2.5201     0.1014     0.1109
  154.0000   100.8970     9.0383     2.5041     0.1146     0.1049
  154.5000   102.8554     9.0164     2.4743     0.1246     0.0889
  155.0000   103.0620     8.9943     2.4432     0.1510     0.0738
  155.5000   101.1988     8.9753     2.4260     0.1564     0.0611
  156.0000   100.4646     8.9960     2.4269     0.1590     0.0631
  156.5000   100.7995     9.0167     2.4309     0.1538     0.0680
  157.0000   101.6291     9.0371     2.4255     0.1579     0.0658
  157.5000   102.3969     9.0576     2.4101     0.1659     0.0613
  158.0000   103.8134     9.0780     2.4058     0.1681     0.0597
  158.5000   105.9906     9.0928     2.4141     0.1631     0.0609
  159.0000   108.1703     9.0787     2.4091     0.1662     0.0621
  159.5000   109.8387     9.0651     2.4136     0.1670     0.0634
  160.0000   106.7391     9.0516     2.4189     0.1596     0.0646
  160.5000   103.5241     9.0377     2.4321     0.1513     0.0677
  161.0000   102.6206     9.0373     2.4502     0.1443     0.0716
  161.5000   103.7676     9.0531     2.4528     0.1405     0.0756
  162.0000   105.1272     9.0687     2.4607     0.1344     0.0795
  162.5000   105.9012     9.0843     2.4794     0.1265     0.0829
  163.0000   104.5466     9.0923     2.4725     0.1298     0.0817
  163.5000   103.2664     9.0758     2.4651     0.1343     0.0805
