~VERSION INFORMATION
 VERS.                2.0:   CWLS LOG ASCII STANDARD - VERSION 2.0
 WRAP.                 NO:   ONE LINE PER DEPTH STEP
~WELL INFORMATION
#MNEM.UNIT      DATA TYPE    INFORMATION
#----------   ------------   ------------------------------
 STRT.F           30.0000:   START DEPTH
 STOP.F          515.0000:   STOP DEPTH
 STEP.F            0.5000:   STEP LENGTH
 NULL.          -999.2500:   NO VALUE
 COMP. FENIX & SCISSON INC:   COMPANY
 WELL.      FP SX-3 #63-3:   WELL
 FLD .              NPR 3:   FIELD
 LOC .       S3 T38N R78W:   LOCATION
 CNTY.            NATRONA:   COUNTY
 STAT.            WYOMING:   STATE
 CTRY. UNITED STATES OF AMERICA:   COUNTRY
 SRVC.              Welex:   SERVICE COMPANY
 DATE.        21-JUN-1980:   LOGDATE
 API .       490251082100:   API NUMBER
~CURVE INFORMATION
#MNEM.UNIT       API CODE    CURVE DESCRIPTION
#----------   ------------   ------------------------------
 DEPT.F                  :   
 SPR .MV     07 010 01 00:   SPONTANEOUS POTENTIAL
 SGRD.OHMM   07 220 05 00:   SHALLOW GUARD RESISTIVITY
 ILD .OHMM   07 120 46 00:   INDUCTION LOG DEEP RESISTIVITY
 ILM .OHMM   07 120 44 00:   INDUCTION LOG MEDIUM
 CALD.IN     45 280 60 00:   CALIPER
 GRD .GAPI   45 310 01 00:   GAMMA RAY FROM DENSITY LOG
 CORR.G/C3   45 356 01 00:   DENSITY CORRECTION
 RHOB.G/C3   45 350 01 00:   BULK DENSITY
 DPHI.DEC    45 890 12 00:   DENSITY POROSITY SANDSTONE
 NPHI.DEC    42 890 03 00:   NEUTRON POROSITY SANDSTONE
~PARAMETER INFORMATION
#MNEM.UNIT          VALUE    DESCRIPTION
#----------   ------------   ------------------------------
 PD  .                 GL:   PERMANENT DATUM
 EPD .F              5160:   ELEVATION PERMANENT DATUM
 LMF .                 KB:   LOG MEASURED FROM
 DAPD.F                 5:   FEET ABOVE PERMANENT DATUM
 DMF .                 KB:   DRILLING MEASURED FROM
 EKB .F              5165:   KELLING BUSHING
 EGL .F              5160:   GROUND LEVEL
 DATE.            6-21-80:   RUN DATE
 RUN .                  1:   RUN NUMBER
 DD  .F               508:   DEPTH DRILLER
 DL  .F               517:   DEPTH LOGGER
 BLI .F               515:   BOTTOM LOG INTERVAL
 TLI .F                35:   TOP LOG INTERVAL
 BS  .IN            9.875:   BIT SIZE
 BSD .F               508:   BIT SIZE AT DEPTH
 DFT .            KCL MUD:   DRILLING FLUID TYPE
 DFD .                9.2:   DRILLING FLUID DENSITY
 DFV .                 50:   DRILLING FLUID VISCOSITY
 DFPH.                8.5:   DRILLING FLUID PH
 DFL .                  8:   DRILLING FLUID LOSS
 MSS .           FLOWLINE:   MUD SAMPLE SOURCE
 RMS .OHMM            .42:   RESISTIVITY MUD SAMPLE
 MST .F                63:   MUD SAMPLE TEMPERATURE
 RMF .OHMM            .34:   RESISTIVITY MUD FILTRATE SAMPLE
 MFST.F                63:   MUD FILTRATE SAMPLE TEMPERATURE
 RMC .OHMM             .5:   RESISTIVITY MUD CAKE
 MCST.F                63:   MUD CAKE SAMPLE TEMPERATURE
 MFSS.           MEASURED:   MUD FILTRATE SAMPLE SOURCE
 MCSS.           MEASURED:   MUD CAKE SAMPLE SOURCE
 RMB .OHMM            .35:   RESISTIVITY MUD AT BHT
 BHT .F                75:   BOTTOM HOLE TEMPERATURE
 TCS .HRS             1.5:   TIME CURCULATED STOPPED
 MRT .F                75:   MAXIMUM RECORDED TEMPERATURE
 LUN .               9685:   LOGGING UNIT NUMBER
 LUL .             CASPER:   LOGGING UNIT LOCATION
 ENGI.            TOTHILL:   RECORDING ENGINEER
 WITN.           DINSMORE:   WITNESSED BY
 CLNT.            A2DTECH:   CLIENT CODE
 ORIG.           5" PRINT:   ORIGIN OF DATA
 UWI .       490251082100:   UNIQUE WELL ID
 DICO. A2D Technologies, Inc.:   DIGITIZING COMPANY
~OTHER INFORMATION
~A   DEPT      SPR       SGRD        ILD        ILM        CALD       GRD         CORR       RHOB       DPHI       NPHI 
# ...
  432.0000   -22.9992     8.9719     7.6047     8.0954     9.9784    90.6811     0.0858     2.4801     0.1193     0.2592
  432.5000   -23.2996     8.9270     7.5704     8.0158     9.9806    89.6163     0.0816     2.4759     0.1197     0.2607
  433.0000   -23.8969     8.8822     7.5363     7.9547     9.9827    89.0529     0.0777     2.4730     0.1188     0.2607
  433.5000   -24.3778     8.8377     7.5024     7.9739     9.9848    89.3471     0.0741     2.4745     0.1138     0.2605
  434.0000   -24.1838     8.7988     7.4686     7.9927     9.9870    89.9341     0.0782     2.4796     0.1151     0.2604
  434.5000   -24.0019     8.7671     7.4350     8.0115     9.9892    90.0406     0.0823     2.4813     0.1151     0.2608
  435.0000   -23.8240     8.7355     7.4022     8.0292     9.9913    90.7020     0.0792     2.4791     0.1076     0.2635
  435.5000   -24.0710     8.6177     7.3409     7.9213     9.9935    91.5581     0.0835     2.4854     0.1038     0.2683
  436.0000   -24.4411     8.4878     7.2516     7.7613     9.9956    92.8166     0.0986     2.4998     0.1057     0.2714
  436.5000   -24.7888     8.3599     7.1629     7.6044     9.9978    94.0533     0.0968     2.5019     0.1101     0.2745
  437.0000   -24.8006     8.2339     7.0729     7.4508     9.9980    95.2886     0.0922     2.4899     0.1071     0.2776
  437.5000   -24.7920     8.1098     6.9129     7.3152     9.9980    96.1842     0.0904     2.4921     0.1041     0.2787
  438.0000   -25.1787     7.9876     6.7193     7.2536     9.9980    95.9675     0.0987     2.4984     0.0998     0.2779
  438.5000   -25.7495     7.8565     6.5327     7.1810     9.9980    95.6869     0.1077     2.5047     0.1011     0.2767
  439.0000   -26.3294     7.6466     6.3513     6.9345     9.9980    95.4074     0.1108     2.5053     0.0996     0.2783
  439.5000   -26.8326     7.4423     6.1260     6.6759     9.9980    95.3061     0.1134     2.5065     0.0992     0.2826
  440.0000   -26.6239     7.2435     5.8798     6.4270     9.9980    96.4414     0.1194     2.5087     0.1029     0.2865
  440.5000   -26.2083     7.0500     5.6342     6.1874     9.9980    97.5760     0.1184     2.5003     0.1065     0.2894
  441.0000   -26.0176     6.8535     5.3917     5.9335     9.9980    98.7066     0.1118     2.4923     0.1062     0.2928
  441.5000   -26.1568     6.7460     5.1434     5.6828     9.9980    99.8366     0.1144     2.4944     0.1121     0.2961
  442.0000   -26.3130     6.6029     4.9077     5.4426     9.9980   100.9665     0.1169     2.4895     0.1154     0.2977
  442.5000   -26.4156     6.2538     4.6825     5.2126     9.9980   102.0964     0.1077     2.4806     0.1189     0.2984
  443.0000   -26.1941     5.4207     4.4671     4.9923     9.9980   103.2264     0.1083     2.4768     0.1197     0.2990
  443.5000   -25.5332     4.2368     4.2607     4.9472     9.9973   104.3603     0.0979     2.4704     0.1185     0.2991
  444.0000   -25.4322     3.3147     4.2627     5.0402     9.9954   105.4988     0.0969     2.4697     0.1146     0.2992
  444.5000   -25.5038     3.2840     4.2623     4.8985     9.9935   106.0998     0.1102     2.4777     0.1098     0.2993
  445.0000   -25.5782     7.3836     4.3291     5.1361     9.9916   104.8804     0.1122     2.4856     0.1077     0.2994
  445.5000   -25.6099     8.1897     4.4399     5.4383     9.9897   102.9165     0.1106     2.4911     0.1062     0.2982
  446.0000   -25.3694     8.1369     4.5494     5.7598     9.9878   100.9406     0.1032     2.4971     0.1009     0.2908
  446.5000   -24.9891     8.0163     4.8071     6.0721     9.9860    98.9691     0.1022     2.5090     0.0906     0.2847
  447.0000   -24.6053     7.9531     5.0697     6.3250     9.9841    96.9992     0.1023     2.5204     0.0914     0.2841
  447.5000   -24.2205     8.1173     5.3467     6.5605     9.9822    95.0300     0.0990     2.5235     0.0925     0.2823
  448.0000   -23.8365     8.2774     5.6388     6.8017     9.9803    93.7250     0.0962     2.5217     0.0937     0.2789
  448.5000   -23.7845     8.4886     5.9469     6.9824     9.9784    93.3833     0.0970     2.5199     0.0934     0.2771
  449.0000   -23.7846     8.2902     6.2441     7.0184     9.9766    93.1898     0.0987     2.5190     0.0922     0.2789
  449.5000   -23.7853     8.0034     6.4242     7.0492     9.9747    93.3321     0.1003     2.5197     0.0963     0.2815
  450.0000   -23.7854     7.8079     6.5951     7.2283     9.9728    93.6390     0.0978     2.5190     0.0982     0.2839
  450.5000   -23.7854     8.1021     6.7706     7.4019     9.9709    93.9460     0.0949     2.5109     0.0962     0.2835
  451.0000   -23.7854     8.4906     6.9507     7.5604     9.9690    94.2538     0.0945     2.5157     0.0990     0.2808
  451.5000   -23.7855     8.4119     7.1251     7.7250     9.9671    94.5614     0.0955     2.5131     0.1042     0.2779
  452.0000   -23.7862     8.6900     7.2231     7.8927     9.9653    94.8689     0.0941     2.5048     0.1164     0.2750
  452.5000   -23.7862     9.0625     7.3224     8.0640     9.9634    95.1765     0.0751     2.4907     0.1240     0.2733
  453.0000   -23.7352     9.0625     7.4232     8.1801     9.9615    95.4841     0.0552     2.4768     0.1277     0.2714
  453.5000   -23.3733     9.1945     7.5253     8.3249     9.9596    95.7918     0.0423     2.4635     0.1318     0.2688
  454.0000   -23.0123     9.3762     7.6229     8.4906     9.9579    96.1010     0.0291     2.4519     0.1341     0.2666
  454.5000   -22.6390     9.4957     7.7105     8.3835     9.9579    96.4047     0.0294     2.4510     0.1309     0.2646
  455.0000   -22.9669     9.2415     7.7991     8.3339     9.9579    96.7779     0.0312     2.4568     0.1275     0.2619
  455.5000   -23.6580     9.1473     7.8887     8.4604     9.9579    96.7393     0.0340     2.4563     0.1223     0.2591
  456.0000   -23.7968     9.5964     7.9793     8.6899     9.9579    96.2929     0.0380     2.4619     0.1170     0.2564
  456.5000   -23.3294    10.2344     8.0711     8.9256     9.9579    95.3820     0.0503     2.4739     0.1129     0.2560
  457.0000   -22.7550    10.2264     8.1639     9.0625     9.9579    94.4902     0.0586     2.4832     0.1124     0.2556
  457.5000   -22.1752    10.2331     8.2574     8.9964     9.9579    93.5986     0.0602     2.4848     0.1117     0.2582
  458.0000   -22.0254     9.6822     8.3336     8.8847     9.9579    92.7064     0.0631     2.4863     0.1090     0.2614
  458.5000   -22.3203     9.2305     8.2998     8.7744     9.9579    91.8192     0.0662     2.4881     0.1012     0.2646
  459.0000   -22.6046     9.2327     8.2714     8.7311     9.9579    91.1788     0.0760     2.5007     0.0937     0.2627
  459.5000   -22.4457     9.2297     8.2431     8.6287     9.9579    91.1950     0.0890     2.5147     0.0874     0.2573
  460.0000   -21.7622     9.8640     8.2149     8.5282     9.9579    90.9798     0.1022     2.5295     0.0874     0.2531
  460.5000   -22.0317    10.3245     8.1868     8.4906     9.9579    90.9799     0.1081     2.5303     0.0928     0.2516
  461.0000   -22.3531    10.1904     8.1588     8.5204     9.9579    91.6739     0.1047     2.5248     0.0959     0.2487
  461.5000   -22.6800     9.9804     8.1309     8.5414     9.9579    92.6366     0.0984     2.5191     0.0958     0.2475
  462.0000   -22.7882     9.7748     8.1043     8.5700     9.9579    93.6049     0.0941     2.5180     0.0905     0.2479
  462.5000   -22.2233     9.5833     7.9733     8.5080     9.9579    94.5726     0.0975     2.5238     0.0862     0.2511
  463.0000   -21.5936     9.5833     7.8810     8.4129     9.9579    95.5404     0.1035     2.5300     0.0831     0.2544
  463.5000   -21.6665     9.7167     7.8353     8.3188     9.9579    96.5098     0.1095     2.5362     0.0815     0.2564
  464.0000   -22.0457     9.8244     7.7922     8.2258     9.9579    97.4737     0.1155     2.5424     0.0799     0.2583
  464.5000   -22.3779     9.9470     7.7494     8.1339     9.9579    98.0953     0.1195     2.5485     0.0799     0.2603
  465.0000   -22.2606     9.7320     7.7068     8.1043     9.9579    97.4255     0.1220     2.5494     0.0817     0.2623
