~VERSION INFORMATION
 VERS.                2.0:   CWLS LOG ASCII STANDARD - VERSION 2.0
 WRAP.                 NO:   ONE LINE PER DEPTH STEP
~WELL INFORMATION
#MNEM.UNIT      DATA TYPE    INFORMATION
#----------   ------------   ------------------------------
 STRT.F          436.0000:   START DEPTH
 STOP.F         2160.0000:   STOP DEPTH
 STEP.F            0.5000:   STEP LENGTH
 NULL.          -999.2500:   NO VALUE
 COMP.   FLUOR DANIEL INC:   COMPANY
 WELL. NAVAL PETROLEUM RESERVE 3 X-29 #31-29:   WELL
 FLD .            WILDCAT:   FIELD
 LOC .      S29 T39N R78W:   LOCATION
 CNTY.            NATRONA:   COUNTY
 STAT.            WYOMING:   STATE
 CTRY. UNITED STATES OF AMERICA:   COUNTRY
 SRVC.            Unknown:   SERVICE COMPANY
 DATE.        25-JUN-1995:   LOGDATE
 API .       490252272300:   API NUMBER
~CURVE INFORMATION
#MNEM.UNIT       API CODE    CURVE DESCRIPTION
#----------   ------------   ------------------------------
 DEPT.F                  :   
 ROP .FT/HR  91 810 01 00:   RAT OF DRILLING PENETRATION
 TGAS.TC/CC  91 830 01 00:   TOTAL GAS UNIT
~PARAMETER INFORMATION
#MNEM.UNIT          VALUE    DESCRIPTION
#----------   ------------   ------------------------------
 EPD .F              5058:   ELEVATION PERMANENT DATUM
 EKB .F              5068:   KELLING BUSHING
 EGL .F              5058:   GROUND LEVEL
 DATE.        25-JUN-1995:   RUN DATE
 RUN .                  1:   RUN NUMBER
 ENGI.     C.TOWER/R.HUSK:   RECORDING ENGINEER
 CLNT.            A2DTECH:   CLIENT CODE
 ORIG.           5" PRINT:   ORIGIN OF DATA
 UWI .       490252272300:   UNIQUE WELL ID
 DICO. A2D Technologies, Inc.:   DIGITIZING COMPANY
~OTHER INFORMATION
~A   DEPT        ROP     TGAS   
  436.0000     1.0207  -999.2500
  436.5000     1.0212  -999.2500
  437.0000     1.0216  -999.2500
  437.5000     1.0127  -999.2500
  438.0000     1.0038  -999.2500
  438.5000     0.9948  -999.2500
  439.0000     0.9953  -999.2500
  439.5000     0.9959  -999.2500
  440.0000     1.0057  -999.2500
  440.5000     1.0062  -999.2500
  441.0000     1.0066  -999.2500
  441.5000     1.0071  -999.2500
  442.0000     1.1861  -999.2500
  442.5000     1.2806  -999.2500
  443.0000     1.2716  -999.2500
  443.5000     1.2721  -999.2500
  444.0000     1.2726  -999.2500
  444.5000     1.2730  -999.2500
  445.0000     1.2735  -999.2500
  445.5000     1.2835  -999.2500
  446.0000     1.2839  -999.2500
  446.5000     1.0023  -999.2500
  447.0000     1.0123  -999.2500
  447.5000     1.0127  -999.2500
  448.0000     1.0226  -999.2500
  448.5000     1.0325  -999.2500
  449.0000     1.0423  -999.2500
  449.5000     1.0252  -999.2500
  450.0000     1.0056  -999.2500
  450.5000     1.0053  -999.2500
  451.0000     1.0050  -999.2500
  451.5000     1.0142  -999.2500
  452.0000     1.0139  -999.2500
  452.5000     1.0231  -999.2500
  453.0000     1.0227  -999.2500
  453.5000     1.0131  -999.2500
  454.0000     1.0128  -999.2500
  454.5000     1.5294  -999.2500
  455.0000     1.5385  -999.2500
  455.5000     1.5477  -999.2500
  456.0000     1.2748  -999.2500
  456.5000     1.2745  -999.2500
  457.0000     1.2742  -999.2500
  457.5000     1.2739  -999.2500
  458.0000     1.2737  -999.2500
  458.5000  -999.2500  -999.2500
  459.0000  -999.2500  -999.2500
  459.5000  -999.2500  -999.2500
  460.0000  -999.2500  -999.2500
  460.5000  -999.2500  -999.2500
  461.0000  -999.2500  -999.2500
  461.5000  -999.2500  -999.2500
  462.0000  -999.2500  -999.2500
  462.5000     0.5193  -999.2500
  463.0000     0.5190  -999.2500
  463.5000     0.5187  -999.2500
  464.0000     0.5184  -999.2500
  464.5000     0.5181  -999.2500
  465.0000     0.5178  -999.2500
  465.5000     0.5176  -999.2500
  466.0000     0.5173  -999.2500
  466.5000     0.5170  -999.2500
  467.0000     0.5167  -999.2500
  467.5000     0.5164  -999.2500
  468.0000     0.5161     1.1481
  468.5000     0.5158     1.1537
  469.0000     0.5156     1.1593
  469.5000     0.5153     1.1649
  470.0000     0.5150     1.1705
  470.5000     0.5147     1.1761
  471.0000     0.5051     1.1817
  471.5000     0.5048     1.1872
  472.0000     0.5139     1.1928
  472.5000     0.5136     1.1984
  473.0000     0.5133     1.2040
  473.5000     0.5131     1.2096
  474.0000     0.5127     1.2152
  474.5000     0.5124     1.2208
  475.0000     0.5122     1.2264
  475.5000     0.5213     0.8547
  476.0000     0.5305     0.8604
  476.5000     0.5396     0.8660
  477.0000     0.5487     0.8717
  477.5000     0.5484     0.8784
  478.0000     0.5481     1.0727
  478.5000     0.5478     1.0774
  479.0000     0.5382     1.1182
  479.5000     0.5285     1.2782
  480.0000     0.5282     1.0951
  480.5000     0.5185     0.9106
  481.0000     0.5088     0.9176
  481.5000     0.5085     0.9226
  482.0000     0.5082     0.9283
  482.5000     0.5173     0.9344
  483.0000     0.5171     1.1287
  483.5000     0.5450     1.1343
  484.0000     0.6293     1.1398
  484.5000     0.6385     1.3340
  485.0000     0.6476     1.3396
  485.5000     0.6567     1.3453
  486.0000     0.6564     1.3509
  486.5000     0.6467     1.3566
  487.0000     0.6456     1.3623
  487.5000     0.6367     1.3679
  488.0000     0.6364     1.1846
  488.5000     0.6361     0.8142
  489.0000     0.6359     0.6298
  489.5000     0.6356     0.6368
  490.0000     0.6353     0.8310
  490.5000     0.6350     0.8366
  491.0000     0.6442     0.8880
  491.5000     0.6439     1.0358
  492.0000     0.6436     1.0421
  492.5000     0.6433     1.0477
  493.0000     0.6430     1.0533
  493.5000     0.6428     1.0585
  494.0000     0.6425     1.0645
  494.5000     0.6421     1.0701
  495.0000     0.6325     1.0757
  495.5000     0.6322     1.0813
  496.0000     0.6319     1.0868
  496.5000     0.6316     1.0925
  497.0000     0.6408     1.0981
  497.5000     0.6499     1.1038
  498.0000     0.7437     1.1094
  498.5000     0.7433     1.1162
  499.0000     0.7430     1.1218
  499.5000     0.7428     1.1274
  500.0000     0.7519     1.1330
  500.5000     0.5353     1.0911
  501.0000     0.5256     1.0176
  501.5000     0.5252     0.9434
  502.0000     0.5342     1.1321
  502.5000     0.5338     1.1321
  503.0000     0.5334     1.1321
  503.5000     0.5330     1.3208
  504.0000     0.5346     1.1321
  504.5000     0.5418     1.1321
  505.0000     0.5319     1.1321
  505.5000     0.5316     1.1321
  506.0000     0.5312     1.1321
  506.5000     0.5308     1.1321
  507.0000     0.5304     1.1321
  507.5000     0.5301     1.1321
  508.0000     0.5391     0.9434
  508.5000     0.5387     0.9434
  509.0000     0.5289     0.7547
  509.5000     0.5285     0.7547
  510.0000     0.5282     0.7547
  510.5000     0.5278     0.7547
  511.0000     0.5274     0.7547
  511.5000     0.5271     0.7547
  512.0000     0.5267     0.7547
  512.5000     0.5357     0.7547
  513.0000     0.5353     0.7547
  513.5000     0.5255     0.7547
  514.0000     0.5251     0.7547
  514.5000     0.5248     0.7547
  515.0000     0.5244     0.7547
  515.5000     0.5240     0.7547
  516.0000     0.5237     0.7547
  516.5000     0.5233     0.5660
  517.0000     0.5323     0.5660
  517.5000     0.5319     0.5660
  518.0000     0.5316     0.5660
  518.5000     0.5312     0.5660
  519.0000     0.5308     0.5660
  519.5000     0.5304     0.5660
  520.0000     0.5300     0.5660
  520.5000     0.5297     0.6143
  521.0000     0.5293     0.7547
  521.5000     0.5289     0.8784
  522.0000     0.5286     0.9434
  522.5000     0.5282     1.1321
  523.0000     0.5278     1.1321
  523.5000     0.5274     1.1321
  524.0000     0.5177     1.1321
  524.5000     0.5173     1.1321
  525.0000     0.5169     1.1321
  525.5000     0.5259     1.1321
  526.0000     0.5255     1.1321
  526.5000     0.5252     1.1321
  527.0000     0.5248     1.1321
  527.5000     0.5244     1.1321
  528.0000     0.5335     1.1321
  528.5000     0.5331     1.1321
  529.0000     0.5327     1.1321
  529.5000     0.5323     1.1321
  530.0000     0.5320     1.1321
  530.5000     0.5315     1.1321
  531.0000     0.5312     1.1321
  531.5000     0.5308     1.1321
  532.0000     0.5305     1.1321
  532.5000     0.5301     1.1321
  533.0000     0.5297     1.1321
  533.5000     0.5293     1.1321
  534.0000     0.5289     1.1321
  534.5000     0.5286     1.1321
  535.0000     0.5281     1.1321
  535.5000     0.5278     1.1321
  536.0000     0.5274     1.1321
  536.5000     0.5270     1.1321
  537.0000     0.5316     1.1321
  537.5000     0.5451     1.1321
  538.0000     0.5447     1.1321
  538.5000     0.5443     1.1321
  539.0000     0.5440     1.1321
  539.5000     0.5436     1.1321
  540.0000     0.5432     1.1321
  540.5000     0.5523     0.9434
  541.0000     0.5424     0.7547
  541.5000     0.5421     0.7547
  542.0000     0.5229     0.7547
  542.5000     0.5225     0.7547
  543.0000     0.5222     0.7547
  543.5000     0.5218     1.1321
  544.0000     0.5214     1.1321
  544.5000     0.5211     1.1321
  545.0000     0.5301     0.9434
  545.5000     0.5391     0.9434
  546.0000     0.5387     0.9434
  546.5000     0.5383     0.9434
  547.0000     0.5379     0.9434
  547.5000     0.5376     0.9434
  548.0000     0.5372     0.9434
  548.5000     0.5368     0.9434
  549.0000     0.5364     0.9434
  549.5000     0.5361     0.9434
  550.0000     0.5357     0.8697
  550.5000     0.5353     0.6883
  551.0000     0.5349     0.5069
  551.5000     0.5345     0.7781
  552.0000     0.5342     0.9741
  552.5000     0.5338     1.1702
  553.0000     0.5334     1.1774
  553.5000     0.5331     1.1849
  554.0000     0.5327     1.1925
  554.5000     0.5349     1.0113
  555.0000     0.5348     1.0184
  555.5000     0.5347     0.8371
  556.0000     0.5346     0.8453
  556.5000     0.5345     0.8537
  557.0000     0.5344     0.8604
