~VERSION INFORMATION
 VERS.                2.0:   CWLS LOG ASCII STANDARD - VERSION 2.0
 WRAP.                 NO:   ONE LINE PER DEPTH STEP
~WELL INFORMATION
#MNEM.UNIT      DATA TYPE    INFORMATION
#----------   ------------   ------------------------------
 STRT.F           20.0000:   START DEPTH
 STOP.F          632.0000:   STOP DEPTH
 STEP.F            0.5000:   STEP LENGTH
 NULL.          -999.2500:   NO VALUE
 COMP. FENIX & SCISSON INC:   COMPANY
 WELL.    58 SX 34 #34-34:   WELL
 FLD .             TEAPOT:   FIELD
 LOC .      S34 T39N R78W:   LOCATION
 CNTY.            NATRONA:   COUNTY
 STAT.            WYOMING:   STATE
 CTRY. UNITED STATES OF AMERICA:   COUNTRY
 SRVC.            Unknown:   SERVICE COMPANY
 DATE.        30-JAN-1979:   LOGDATE
 API .       490251077300:   API NUMBER
~CURVE INFORMATION
#MNEM.UNIT       API CODE    CURVE DESCRIPTION
#----------   ------------   ------------------------------
 DEPT.F                  :   
 SPR .MV     05 010 01 00:   SPONTANEOUS POTENTIAL FROM RES.
 SN  .OHMM   05 040 16 00:   SHORT NORMAL 16"
 ILD .OHMM   05 120 46 00:   INDUCTION LOG DEEP
 CALD.IN     45 280 60 00:   CALIPER
 CORR.G/C3   45 356 01 00:   DENSITY CORRECTION
 RHOB.G/C3   45 350 01 00:   BULK DENSITY
 GRD .GAPI   45 310 01 00:   GAMMA RAY FROM DENSITY LOG
 DPHI.DEC    45 890 12 00:   DENSITY POROSITY SANDSTONE
~PARAMETER INFORMATION
#MNEM.UNIT          VALUE    DESCRIPTION
#----------   ------------   ------------------------------
 PD  .                 GL:   PERMANENT DATUM
 LMF .                 KB:   LOG MEASURED FROM
 DAPD.F                 4:   FEET ABOVE PERMANENT DATUM
 DMF .                 KB:   DRILLING MEASURED FROM
 DATE.            1-30-79:   RUN DATE
 RUN .                  1:   RUN NUMBER
 DD  .F               635:   DEPTH DRILLER
 DL  .F               632:   DEPTH LOGGER
 BLI .F               626:   BOTTOM LOG INTERVAL
 TLI .F                35:   TOP LOG INTERVAL
 CS  .IN            8.625:   CASING SIZE
 CBD .F                40:   CASING BOTTOM DRILLER
 CBL .F                35:   CASING BOTTOM LOGGER
 BS  .IN            7.875:   BIT SIZE
 BSD .F               635:   BIT SIZE AT DEPTH
 DFT .                KCL:   DRILLING FLUID TYPE
 DFD .                8.9:   DRILLING FLUID DENSITY
 DFV .                230:   DRILLING FLUID VISCOSITY
 DFPH.                  8:   DRILLING FLUID PH
 DFL .                 30:   DRILLING FLUID LOSS
 MSS .           FLOWLINE:   MUD SAMPLE SOURCE
 RMS .OHMM            .18:   RESISTIVITY MUD SAMPLE
 MST .F                62:   MUD SAMPLE TEMPERATURE
 RMF .OHMM            .14:   RESISTIVITY MUD FILTRATE SAMPLE
 MFST.F                59:   MUD FILTRATE SAMPLE TEMPERATURE
 RMC .OHMM            .24:   RESISTIVITY MUD CAKE
 MCST.F                60:   MUD CAKE SAMPLE TEMPERATURE
 MFSS.           MEASURED:   MUD FILTRATE SAMPLE SOURCE
 MCSS.           MEASURED:   MUD CAKE SAMPLE SOURCE
 RMB .OHMM            .17:   RESISTIVITY MUD AT BHT
 BHT .F                70:   BOTTOM HOLE TEMPERATURE
 TCS .HRS               4:   TIME CURCULATED STOPPED
 MRT .F                70:   MAXIMUM RECORDED TEMPERATURE
 LUN .               3006:   LOGGING UNIT NUMBER
 LUL .             CASPER:   LOGGING UNIT LOCATION
 ENGI.            ROLLINS:   RECORDING ENGINEER
 WITN.              AMEND:   WITNESSED BY
 CLNT.            A2DTECH:   CLIENT CODE
 ORIG.         2.5" PRINT:   ORIGIN OF DATA
 UWI .       490251077300:   UNIQUE WELL ID
 DICO. A2D Technologies, Inc.:   DIGITIZING COMPANY
~OTHER INFORMATION
~A   DEPT      SPR         SN        ILD       CALD       CORR       RHOB         GRD      DPHI   
   20.0000  -999.2500  -999.2500  -999.2500  -999.2500  -999.2500  -999.2500    88.5887  -999.2500
   20.5000  -999.2500  -999.2500  -999.2500  -999.2500  -999.2500  -999.2500    88.9991  -999.2500
   21.0000  -999.2500  -999.2500  -999.2500  -999.2500  -999.2500  -999.2500    89.4456  -999.2500
   21.5000  -999.2500  -999.2500  -999.2500  -999.2500  -999.2500  -999.2500    89.3928  -999.2500
   22.0000  -999.2500  -999.2500  -999.2500  -999.2500  -999.2500  -999.2500    87.4582  -999.2500
   22.5000  -999.2500  -999.2500  -999.2500  -999.2500  -999.2500  -999.2500    85.5237  -999.2500
   23.0000  -999.2500  -999.2500  -999.2500  -999.2500  -999.2500  -999.2500    85.3005  -999.2500
   23.5000  -999.2500  -999.2500  -999.2500  -999.2500  -999.2500  -999.2500    86.2175  -999.2500
   24.0000  -999.2500  -999.2500  -999.2500  -999.2500  -999.2500  -999.2500    87.5515  -999.2500
   24.5000  -999.2500  -999.2500  -999.2500  -999.2500  -999.2500  -999.2500    88.1425  -999.2500
   25.0000  -999.2500  -999.2500  -999.2500  -999.2500  -999.2500  -999.2500    86.4323  -999.2500
   25.5000  -999.2500  -999.2500  -999.2500  -999.2500  -999.2500  -999.2500    84.9518  -999.2500
   26.0000  -999.2500  -999.2500  -999.2500  -999.2500  -999.2500  -999.2500    83.1403  -999.2500
   26.5000  -999.2500  -999.2500  -999.2500  -999.2500  -999.2500  -999.2500    84.7883  -999.2500
   27.0000  -999.2500  -999.2500  -999.2500  -999.2500  -999.2500  -999.2500    86.8740  -999.2500
   27.5000  -999.2500  -999.2500  -999.2500  -999.2500  -999.2500  -999.2500    88.8249  -999.2500
   28.0000  -999.2500  -999.2500  -999.2500  -999.2500  -999.2500  -999.2500    87.0610  -999.2500
   28.5000  -999.2500  -999.2500  -999.2500  -999.2500  -999.2500  -999.2500    85.4026  -999.2500
   29.0000  -999.2500  -999.2500  -999.2500  -999.2500  -999.2500  -999.2500    83.7692  -999.2500
   29.5000  -999.2500  -999.2500  -999.2500  -999.2500  -999.2500  -999.2500    81.8881  -999.2500
   30.0000  -999.2500  -999.2500  -999.2500  -999.2500  -999.2500  -999.2500    84.3877  -999.2500
   30.5000  -999.2500  -999.2500  -999.2500  -999.2500  -999.2500  -999.2500    89.1511  -999.2500
   31.0000  -999.2500  -999.2500  -999.2500  -999.2500  -999.2500  -999.2500    89.7936  -999.2500
   31.5000  -999.2500  -999.2500  -999.2500  -999.2500  -999.2500  -999.2500    89.7966  -999.2500
   32.0000  -999.2500  -999.2500  -999.2500  -999.2500  -999.2500  -999.2500    90.2647  -999.2500
   32.5000  -999.2500  -999.2500  -999.2500  -999.2500  -999.2500  -999.2500    92.1438  -999.2500
   33.0000  -999.2500  -999.2500  -999.2500  -999.2500  -999.2500  -999.2500    99.3230  -999.2500
   33.5000  -999.2500  -999.2500  -999.2500  -999.2500  -999.2500  -999.2500   105.3182  -999.2500
   34.0000  -999.2500  -999.2500  -999.2500  -999.2500  -999.2500  -999.2500   112.2667  -999.2500
   34.5000  -999.2500  -999.2500  -999.2500     8.2543  -999.2500  -999.2500    95.0026  -999.2500
   35.0000   -14.4309  -999.2500  -999.2500     8.1449     0.0908     2.4098    90.2997     0.1738
   35.5000   -14.0244  -999.2500  -999.2500     8.0355     0.0883     2.4046    88.8016     0.1775
   36.0000   -13.8155  -999.2500  -999.2500     7.9262     0.0643     2.3902    89.6106     0.1844
   36.5000   -13.6179  -999.2500  -999.2500     7.8168     0.0477     2.3776    92.0769     0.1904
   37.0000   -14.0955     8.3413  -999.2500     7.7074     0.0456     2.3651    94.3840     0.1960
   37.5000   -14.6308     8.3413  -999.2500     7.5980     0.0442     2.3540    94.9775     0.1976
   38.0000   -15.2439     8.3413  -999.2500     7.5492     0.0442     2.3504    93.2340     0.1976
   38.5000   -15.9088     8.5688  -999.2500     7.4676     0.0441     2.3527    91.4364     0.1979
   39.0000   -17.7167     9.1078  -999.2500     7.4602     0.0411     2.3493    89.5566     0.1976
   39.5000   -19.5150     9.6807    12.7965     7.4428     0.0376     2.3519    87.7346     0.1995
   40.0000   -21.3692    10.2395    12.7965     7.4859     0.0351     2.3427    85.9069     0.2016
   40.5000   -22.6056    10.2358    12.7965     7.5626     0.0333     2.3331    85.9315     0.2128
   41.0000   -23.2136    10.4280    12.7965     7.5963     0.0321     2.3227    88.2435     0.2233
   41.5000   -23.7279    10.4280    12.7965     7.5701     0.0321     2.3140    88.9820     0.2247
   42.0000   -24.2672    10.4280    12.7965     7.5507     0.0336     2.3045    87.4024     0.2259
   42.5000   -24.8038    10.4280    12.7965     7.5287     0.0360     2.3043    86.1990     0.2274
   43.0000   -25.1227    10.4280    12.8815     7.5404     0.0420     2.3039    86.3056     0.2267
   43.5000   -25.3051    10.4280    12.7965     7.6213     0.0494     2.3049    88.4064     0.2252
   44.0000   -25.4891    10.4280    13.0757     7.6968     0.0565     2.3110    90.3253     0.2243
   44.5000   -25.6754    10.6414    13.3262     7.8894     0.0645     2.3312    91.8503     0.2222
   45.0000   -25.8605    10.8682    13.5815     8.0730     0.0577     2.3542    91.7543     0.2051
   45.5000   -26.0463    11.0999    13.8418     8.1538     0.0445     2.3758    91.6388     0.1779
   46.0000   -26.2323    11.3364    14.1070     8.2440     0.0383     2.3830    91.4654     0.1731
   46.5000   -26.4172    11.5780    14.3079     8.2444     0.0364     2.3930    91.3395     0.1683
   47.0000   -26.6221    11.8247    14.3000     8.2481     0.0379     2.4019    90.1389     0.1636
   47.5000   -26.9198    12.1018    14.5683     8.2469     0.0393     2.4016    89.2077     0.1590
   48.0000   -27.2565    12.1569    14.8048     8.2724     0.0401     2.3883    88.3687     0.1616
   48.5000   -27.5907    12.2659    15.0725     8.3005     0.0395     2.3768    90.4470     0.1676
   49.0000   -27.9275    12.3759    15.3457     8.3228     0.0391     2.3648    92.4183     0.1736
   49.5000   -28.2569    12.4869    15.4128     8.2667     0.0388     2.3526    95.1958     0.1797
   50.0000   -28.5867    12.5988    15.3970     8.2177     0.0383     2.3445    94.1511     0.1857
   50.5000   -28.6992    12.7118    15.3070     8.1643     0.0379     2.3365    91.2842     0.1918
   51.0000   -28.7958    12.7965    15.2169     8.1121     0.0375     2.3353    89.2291     0.1978
   51.5000   -28.8868    12.6936    15.1349     8.0612     0.0371     2.3343    88.6559     0.2017
   52.0000   -28.9828    12.4821    15.6051     7.9853     0.0366     2.3355    87.3095     0.2028
   52.5000   -29.0769    12.2741    16.0466     7.9022     0.0362     2.3372    84.6329     0.2033
   53.0000   -29.1705    12.0696    16.4994     7.7409     0.0321     2.3392    81.9470     0.2038
   53.5000   -29.2677    11.8685    17.2383     7.5500     0.0264     2.3404    80.5978     0.2040
   54.0000   -29.3570    11.6707    17.2288     7.3675     0.0261     2.3417    81.0839     0.2040
   54.5000   -29.4611    11.4763    17.5508     7.1681     0.0318     2.3287    83.1492     0.2040
   55.0000   -29.4982    11.2851    17.5826     7.1133     0.0361     2.3254    85.1617     0.2055
   55.5000   -29.5787    11.2229    17.6323     7.0519     0.0360     2.3240    87.2865     0.2083
   56.0000   -29.6511    11.1910    17.6821     7.0551     0.0362     2.3263    89.4656     0.2104
   56.5000   -29.7180    11.1596    17.7321     7.1008     0.0364     2.3354    90.7633     0.2101
   57.0000   -29.8035    11.1284    17.7823     7.1424     0.0338     2.3468    90.5365     0.2096
   57.5000   -29.8955    11.0973    17.8326     7.1807     0.0298     2.3574    90.3658     0.2077
   58.0000   -30.4188    11.0663    17.8873     7.2002     0.0260     2.3718    86.8532     0.2057
   58.5000   -30.9862    11.0352    17.4989     7.2097     0.0219     2.3796    83.4330     0.1933
   59.0000   -31.5623    10.9717    17.0838     7.4025     0.0212     2.3696    82.4617     0.1671
   59.5000   -32.0765    10.8197    16.6787     7.5711     0.0251     2.3545    83.3589     0.1704
   60.0000   -32.8608    10.6692    16.2983     7.7512     0.0284     2.3452    87.3967     0.1823
