~VERSION INFORMATION
 VERS.                2.0:   CWLS LOG ASCII STANDARD - VERSION 2.0
 WRAP.                 NO:   ONE LINE PER DEPTH STEP
~WELL INFORMATION
#MNEM.UNIT      DATA TYPE    INFORMATION
#----------   ------------   ------------------------------
 STRT.F          298.0000:   START DEPTH
 STOP.F         1126.0000:   STOP DEPTH
 STEP.F            0.5000:   STEP LENGTH
 NULL.          -999.2500:   NO VALUE
 COMP. BROWN JOHN E&C INC:   COMPANY
 WELL.   52 SHX 15 #52-15:   WELL
 FLD .             TEAPOT:   FIELD
 LOC .      S15 T38N R78W:   LOCATION
 CNTY.            NATRONA:   COUNTY
 STAT.            WYOMING:   STATE
 CTRY. UNITED STATES OF AMERICA:   COUNTRY
 SRVC.              Welex:   SERVICE COMPANY
 DATE.        09-AUG-1979:   LOGDATE
 API .       490251078900:   API NUMBER
~CURVE INFORMATION
#MNEM.UNIT       API CODE    CURVE DESCRIPTION
#----------   ------------   ------------------------------
 DEPT.F                  :   
 CALD.IN     45 280 60 00:   CALIPER
 GRD .GAPI   45 310 01 00:   GAMMA RAY FROM DENSITY LOG
 RHOB.G/C3   45 350 01 00:   BULK DENSITY
 CORR.G/C3   45 356 01 00:   DENSITY CORRECTION
 DPHI.DEC    45 890 12 00:   DENSITY POROSITY SANDSTONE
~PARAMETER INFORMATION
#MNEM.UNIT          VALUE    DESCRIPTION
#----------   ------------   ------------------------------
 PD  .                 GL:   PERMANENT DATUM
 EPD .F              5222:   ELEVATION PERMANENT DATUM
 LMF .                 KB:   LOG MEASURED FROM
 DAPD.F                10:   FEET ABOVE PERMANENT DATUM
 DMF .                 KB:   DRILLING MEASURED FROM
 EKB .F              5232:   KELLING BUSHING
 EGL .F              5222:   GROUND LEVEL
 DATE.             8-9-79:   RUN DATE
 RUN .                  1:   RUN NUMBER
 DD  .F              1130:   DEPTH DRILLER
 DL  .F              1128:   DEPTH LOGGER
 BLI .F              1126:   BOTTOM LOG INTERVAL
 TLI .F               300:   TOP LOG INTERVAL
 CS  .IN            9.625:   CASING SIZE
 CBD .F               676:   CASING BOTTOM DRILLER
 BS  .IN             8.75:   BIT SIZE
 BSD .F              1130:   BIT SIZE AT DEPTH
 DFT .                OIL:   DRILLING FLUID TYPE
 DFD .                9.1:   DRILLING FLUID DENSITY
 TCS .HRS             2.5:   TIME CURCULATED STOPPED
 MRT .F               102:   MAXIMUM RECORDED TEMPERATURE
 ENGI.               REIN:   RECORDING ENGINEER
 WITN.           DINSMORE:   WITNESSED BY
 CLNT.            A2DTECH:   CLIENT CODE
 ORIG.         2.5" PRINT:   ORIGIN OF DATA
 UWI .       490251078900:   UNIQUE WELL ID
 DICO. A2D Technologies, Inc.:   DIGITIZING COMPANY
~OTHER INFORMATION
~A   DEPT     CALD         GRD      RHOB       CORR       DPHI   
# ...
  908.0000     9.7150    93.8023     2.5349     0.0526     0.0082
  908.5000     9.7171    94.6311     2.5408     0.0526     0.0022
  909.0000     9.7192    94.4898     2.5470     0.0526    -0.0049
  909.5000     9.7212    94.3232     2.5533     0.0526    -0.0119
  910.0000     9.7233    95.1013     2.5569     0.0526    -0.0146
  910.5000     9.7254    96.2438     2.5506     0.0526    -0.0084
  911.0000     9.7274    97.3960     2.5445     0.0526    -0.0020
  911.5000     9.7297    98.6340     2.5381     0.0526     0.0044
  912.0000     9.7298    98.0673     2.5317     0.0526     0.0109
  912.5000     9.7299    94.8623     2.5254     0.0526     0.0152
  913.0000     9.7298    95.4654     2.5198     0.0526     0.0185
  913.5000     9.7298    96.4189     2.5150     0.0526     0.0223
  914.0000     9.7298    95.8339     2.5102     0.0526     0.0263
  914.5000     9.7298    93.9433     2.5055     0.0526     0.0302
  915.0000     9.7298    92.6658     2.5001     0.0526     0.0348
  915.5000     9.7298    92.5647     2.5000     0.0526     0.0342
  916.0000     9.7298    93.7500     2.5057     0.0526     0.0335
  916.5000     9.7295    95.7980     2.5080     0.0526     0.0328
  917.0000     9.7336    96.3417     2.5010     0.0526     0.0343
  917.5000     9.7453    96.3357     2.4953     0.0526     0.0397
  918.0000     9.7567    95.3516     2.4893     0.0526     0.0452
  918.5000     9.7683    93.5392     2.4824     0.0526     0.0498
  919.0000     9.7798    91.9376     2.4816     0.0526     0.0516
  919.5000     9.7913    93.2647     2.4893     0.0526     0.0534
  920.0000     9.8028    95.4073     2.4808     0.0526     0.0551
  920.5000     9.8144    94.9161     2.4685     0.0526     0.0537
  921.0000     9.8260    94.0793     2.4764     0.0526     0.0526
  921.5000     9.8375    93.2407     2.4850     0.0526     0.0548
  922.0000     9.8492    92.8730     2.4771     0.0526     0.0567
  922.5000     9.8604    93.6943     2.4700     0.0526     0.0584
  923.0000     9.8720    94.5899     2.4714     0.0526     0.0565
  923.5000     9.8850    94.0343     2.4780     0.0526     0.0497
  924.0000     9.8842    93.3626     2.4857     0.0526     0.0430
  924.5000     9.8589    93.0688     2.4937     0.0526     0.0341
  925.0000     9.8355    93.8876     2.4981     0.0526     0.0364
  925.5000     9.8115    94.5487     2.4944     0.0526     0.0427
  926.0000     9.7871    95.2490     2.4878     0.0526     0.0489
  926.5000     9.7681    95.6412     2.4813     0.0526     0.0559
  927.0000     9.7605    95.8840     2.4752     0.0526     0.0548
  927.5000     9.7526    96.0977     2.4750     0.0526     0.0527
  928.0000     9.7449    96.2664     2.4806     0.0526     0.0507
  928.5000     9.7373    95.7715     2.4857     0.0526     0.0489
  929.0000     9.7296    95.3018     2.4867     0.0526     0.0475
  929.5000     9.7220    95.2745     2.4877     0.0526     0.0461
  930.0000     9.7143    95.8432     2.4847     0.0526     0.0477
  930.5000     9.7066    96.3041     2.4820     0.0526     0.0500
  931.0000     9.6990    96.4835     2.4792     0.0526     0.0523
  931.5000     9.6913    96.6684     2.4764     0.0526     0.0542
  932.0000     9.6866    96.4455     2.4816     0.0526     0.0477
  932.5000     9.6829    96.0916     2.4894     0.0526     0.0421
  933.0000     9.6793    95.7420     2.4974     0.0526     0.0385
  933.5000     9.6755    95.3945     2.5008     0.0526     0.0377
  934.0000     9.6719    95.0392     2.5016     0.0526     0.0368
  934.5000     9.6682    94.7078     2.5025     0.0526     0.0360
  935.0000     9.6645    94.3528     2.5036     0.0526     0.0348
  935.5000     9.6608    94.7293     2.5032     0.0526     0.0348
  936.0000     9.6571    95.3867     2.5004     0.0526     0.0369
  936.5000     9.6534    95.9760     2.4978     0.0526     0.0390
  937.0000     9.6492    96.6469     2.4955     0.0526     0.0410
  937.5000     9.6404    96.2537     2.4914     0.0526     0.0429
  938.0000     9.6302    95.6879     2.4971     0.0526     0.0418
  938.5000     9.6200    95.8596     2.5060     0.0526     0.0359
  939.0000     9.6098    96.7624     2.5099     0.0526     0.0299
  939.5000     9.5997    97.5482     2.5063     0.0526     0.0288
  940.0000     9.5895    98.2740     2.5027     0.0526     0.0309
  940.5000     9.5794    97.9962     2.5014     0.0526     0.0308
  941.0000     9.5692    97.7013     2.5064     0.0526     0.0304
  941.5000     9.5590    97.3807     2.5125     0.0526     0.0287
  942.0000     9.5489    97.1267     2.5181     0.0526     0.0245
  942.5000     9.5387    97.5748     2.5242     0.0526     0.0203
  943.0000     9.5285    98.1779     2.5266     0.0526     0.0161
  943.5000     9.5184    98.8102     2.5270     0.0526     0.0129
  944.0000     9.5082    99.3983     2.5278     0.0526     0.0110
  944.5000     9.4980    99.9155     2.5287     0.0526     0.0098
  945.0000     9.4879    99.5185     2.5347     0.0526     0.0087
  945.5000     9.4777    99.1550     2.5331     0.0526     0.0081
  946.0000     9.4674    98.7496     2.5252     0.0526     0.0106
  946.5000     9.4575    98.3479     2.5181     0.0526     0.0174
  947.0000     9.4481    97.9773     2.5106     0.0526     0.0243
  947.5000     9.4511    97.5519     2.5085     0.0526     0.0275
  948.0000     9.4542    97.6810     2.5154     0.0526     0.0242
  948.5000     9.4577    97.8635     2.5269     0.0526     0.0172
  949.0000     9.4610    98.0705     2.5358     0.0526     0.0057
  949.5000     9.4643    98.2172     2.5303     0.0526     0.0075
  950.0000     9.4677    98.7593     2.5256     0.0526     0.0126
  950.5000     9.4711    99.6182     2.5201     0.0526     0.0177
  951.0000     9.4744   100.4129     2.5147     0.0526     0.0235
  951.5000     9.4778   101.2024     2.5117     0.0526     0.0246
  952.0000     9.4811   102.0796     2.5113     0.0526     0.0259
  952.5000     9.4845   102.1261     2.5108     0.0526     0.0272
  953.0000     9.4878   101.4087     2.5102     0.0526     0.0275
  953.5000     9.4911   100.7764     2.5126     0.0526     0.0226
  954.0000     9.4945   100.1456     2.5176     0.0526     0.0175
  954.5000     9.4978    99.4553     2.5263     0.0526     0.0125
  955.0000     9.5012    99.1563     2.5348     0.0526     0.0074
  955.5000     9.5045    99.2801     2.5434     0.0526     0.0023
  956.0000     9.5078    99.3661     2.5509     0.0526    -0.0027
  956.5000     9.5112    99.4373     2.5527     0.0526    -0.0046
  957.0000     9.5145    99.5294     2.5492     0.0526    -0.0057
  957.5000     9.5179    99.1435     2.5456     0.0526    -0.0018
  958.0000     9.5212    98.6109     2.5419     0.0526     0.0014
  958.5000     9.5246    98.1000     2.5386     0.0526     0.0047
  959.0000     9.5282    97.5495     2.5365     0.0526     0.0057
  959.5000     9.5333    97.3539     2.5346     0.0526     0.0062
  960.0000     9.5391    97.1474     2.5327     0.0526     0.0072
  960.5000     9.5448    96.9650     2.5308     0.0526     0.0083
  961.0000     9.5505    96.7827     2.5317     0.0526     0.0093
  961.5000     9.5562    96.5410     2.5330     0.0526     0.0094
  962.0000     9.5618    95.8894     2.5349     0.0526     0.0082
  962.5000     9.5675    95.7859     2.5368     0.0526     0.0066
  963.0000     9.5732    96.8498     2.5387     0.0526     0.0043
  963.5000     9.5789    97.8718     2.5421     0.0526     0.0020
  964.0000     9.5846    98.9270     2.5445     0.0526    -0.0003
  964.5000     9.5903    99.9866     2.5435     0.0526    -0.0008
  965.0000     9.5960   100.8377     2.5426     0.0526     0.0016
  965.5000     9.6017   101.1349     2.5417     0.0526    -0.0006
  966.0000     9.6074   101.4653     2.5407     0.0526    -0.0006
  966.5000     9.6131   101.5964     2.5433     0.0526     0.0032
  967.0000     9.6188   101.5653     2.5462     0.0526     0.0006
  967.5000     9.6245   101.0841     2.5486     0.0524    -0.0017
  968.0000     9.6302   100.5780     2.5489     0.0522    -0.0041
  968.5000     9.6359   100.0376     2.5459     0.0520    -0.0031
