~VERSION INFORMATION
 VERS.                2.0:   CWLS LOG ASCII STANDARD - VERSION 2.0
 WRAP.                 NO:   ONE LINE PER DEPTH STEP
~WELL INFORMATION
#MNEM.UNIT      DATA TYPE    INFORMATION
#----------   ------------   ------------------------------
 STRT.F           30.0000:   START DEPTH
 STOP.F         2441.0000:   STOP DEPTH
 STEP.F            0.5000:   STEP LENGTH
 NULL.          -999.2500:   NO VALUE
 COMP. FENIX & SCISSON INC:   COMPANY
 WELL.      NPR 3 #81 S-4:   WELL
 FLD .             TEAPOT:   FIELD
 LOC .       S4 T38N R78W:   LOCATION
 CNTY.            NATRONA:   COUNTY
 STAT.            WYOMING:   STATE
 CTRY. UNITED STATES OF AMERICA:   COUNTRY
 SRVC.            Unknown:   SERVICE COMPANY
 DATE.        28-MAR-1978:   LOGDATE
 API .       490251060700:   API NUMBER
~CURVE INFORMATION
#MNEM.UNIT       API CODE    CURVE DESCRIPTION
#----------   ------------   ------------------------------
 DEPT.F                  :   
 CALD.IN     45 280 60 00:   CALIPER
 RHOB.G/C3   45 350 01 00:   BULK DENSITY
 DPHI.DEC    45 890 12 00:   DENSITY POROSITY SANDSTONE
 CORR.G/C3   45 356 01 00:   DENSITY CORRECTION
 GRD .GAPI   45 310 01 00:   GAMMA RAY FROM DENSITY LOG
~PARAMETER INFORMATION
#MNEM.UNIT          VALUE    DESCRIPTION
#----------   ------------   ------------------------------
 PD  .                 GL:   PERMANENT DATUM
 EPD .F              5169:   ELEVATION PERMANENT DATUM
 LMF .                 KB:   LOG MEASURED FROM
 DAPD.F                10:   FEET ABOVE PERMANENT DATUM
 DMF .                 KB:   DRILLING MEASURED FROM
 EKB .F              5179:   KELLING BUSHING
 EGL .F              5169:   GROUND LEVEL
 DATE.          3-28-1978:   RUN DATE
 RUN .                  1:   RUN NUMBER
 DD  .F              2454:   DEPTH DRILLER
 DL  .F              2443:   DEPTH LOGGER
 BLI .F              2441:   BOTTOM LOG INTERVAL
 TLI .F                40:   TOP LOG INTERVAL
 CS  .IN            9.625:   CASING SIZE
 CBD .F               660:   CASING BOTTOM DRILLER
 CBL .F               660:   CASING BOTTOM LOGGER
 BS  .IN             8.75:   BIT SIZE
 BSD .F              2454:   BIT SIZE AT DEPTH
 DFT .           AIR MIST:   DRILLING FLUID TYPE
 TCS .HRS               2:   TIME CURCULATED STOPPED
 LUN .               2958:   LOGGING UNIT NUMBER
 LUL .               CASP:   LOGGING UNIT LOCATION
 ENGI.             MILLER:   RECORDING ENGINEER
 CLNT.            A2DTECH:   CLIENT CODE
 ORIG.       2"  5" PRINT:   ORIGIN OF DATA
 UWI .       490251060700:   UNIQUE WELL ID
 DICO. A2D Technologies, Inc.:   DIGITIZING COMPANY
~OTHER INFORMATION
~A   DEPT     CALD       RHOB       DPHI       CORR        GRD   
# ...
 1494.0000     9.8210     2.5085     0.0832     0.1012   156.0447
 1494.5000     9.8210     2.4935     0.0914     0.0810   152.8915
 1495.0000     9.8318     2.4976     0.0887     0.0605   152.2867
 1495.5000     9.8424     2.5075     0.0850     0.0500   155.4992
 1496.0000     9.8535     2.5275     0.0811     0.0525   159.0694
 1496.5000     9.8440     2.5346     0.0760     0.0553   160.2412
 1497.0000     9.8228     2.5316     0.0696     0.0609   154.6987
 1497.5000     9.8014     2.5366     0.0842     0.0672   149.8421
 1498.0000     9.7798     2.5408     0.0801     0.0715   145.9050
 1498.5000     9.7700     2.5287     0.0782     0.0590   146.8331
 1499.0000     9.7549     2.5190     0.0891     0.0461   148.1362
 1499.5000     9.7400     2.5262     0.0866     0.0424   149.4538
 1500.0000     9.7249     2.5338     0.0843     0.0418   150.8745
 1500.5000     9.7099     2.5336     0.0863     0.0431   152.4202
 1501.0000     9.7029     2.5311     0.0696     0.0474   152.7939
 1501.5000     9.7499     2.5505     0.0737     0.0582   154.6542
 1502.0000     9.7971     2.5405     0.0801     0.0849   156.3598
 1502.5000     9.8160     2.5359     0.0687     0.1081   155.8632
 1503.0000     9.8061     2.5423     0.0815     0.1269   154.6038
 1503.5000     9.7961     2.5087     0.0930     0.1611   152.1879
 1504.0000     9.7871     2.4459     0.1125     0.1252   148.4251
 1504.5000     9.7442     2.4009     0.1274     0.0368   147.9751
 1505.0000     9.7030     2.4728     0.0980     0.0539   148.5816
 1505.5000     9.6577     2.5349     0.0817     0.0971   149.1781
 1506.0000     9.4802     2.5326     0.0763     0.1413   148.3067
 1506.5000     9.2826     2.5031     0.0933     0.1550   147.0857
 1507.0000     9.2165     2.4695     0.1062     0.1350   145.8459
 1507.5000     9.1816     2.4922     0.0858     0.1192   146.0791
 1508.0000     9.1645     2.5156     0.0950     0.1521   148.7504
 1508.5000     9.1721     2.4807     0.1022     0.1803   151.2604
 1509.0000     9.1793     2.4333     0.1150     0.1770   153.4304
 1509.5000     9.1865     2.3786     0.1333     0.1053   155.5831
 1510.0000     9.1938     2.4402     0.1122     0.0969   157.5007
 1510.5000     9.2010     2.5145     0.0870     0.1233   157.3795
 1511.0000     9.2080     2.5141     0.0891     0.1244   157.2219
 1511.5000     9.2150     2.5083     0.0914     0.1253   157.4038
 1512.0000     9.2286     2.5067     0.0930     0.1252   158.2591
 1512.5000     9.3398     2.5122     0.0851     0.1243   159.0824
 1513.0000     9.5993     2.5091     0.0834     0.1093   158.2747
 1513.5000     9.8563     2.5254     0.0906     0.1049   156.9318
 1514.0000     9.9436     2.5435     0.0707     0.1026   155.5822
 1514.5000    10.0002     2.5197     0.0889     0.0931   154.2342
 1515.0000    10.0564     2.4978     0.0983     0.0783   154.6014
 1515.5000    10.1134     2.4832     0.1010     0.0657   155.3422
 1516.0000    10.1705     2.4843     0.0922     0.0633   156.0991
 1516.5000    10.1734     2.5321     0.0822     0.0735   156.7086
 1517.0000    10.1731     2.5383     0.0659     0.0704   155.4228
 1517.5000    10.1729     2.5327     0.0756     0.0656   154.0643
 1518.0000    10.1684     2.5203     0.0874     0.0664   154.2979
 1518.5000    10.1446     2.5314     0.0675     0.0776   158.2759
 1519.0000    10.1211     2.5493     0.0535     0.0896   162.1501
 1519.5000    10.1214     2.5690     0.0443     0.1050   162.4623
 1520.0000    10.1382     2.5795     0.0534     0.1175   157.3151
 1520.5000    10.1552     2.5478     0.0643     0.1120   152.9687
 1521.0000    10.1723     2.5481     0.0680     0.1101   151.9818
 1521.5000    10.1698     2.5469     0.0688     0.1111   152.9058
 1522.0000    10.1653     2.5332     0.0758     0.1075   153.8867
 1522.5000    10.1607     2.5264     0.0794     0.0874   153.1597
 1523.0000    10.1564     2.5308     0.0749     0.0684   152.3405
 1523.5000    10.1599     2.5353     0.0706     0.0632   151.5691
 1524.0000    10.1946     2.5436     0.0659     0.0621   152.4047
 1524.5000    10.2284     2.5527     0.0620     0.0611   153.6624
 1525.0000    10.2620     2.5533     0.0595     0.0602   153.4346
 1525.5000    10.2959     2.5468     0.0697     0.0544   151.6096
 1526.0000    10.3128     2.5404     0.0742     0.0480   150.3085
 1526.5000    10.3157     2.5398     0.0689     0.0492   152.5665
 1527.0000    10.3183     2.5433     0.0663     0.0513   155.4620
 1527.5000    10.3208     2.5381     0.0722     0.0535   157.1000
 1528.0000    10.3234     2.5468     0.0732     0.0520   158.6761
 1528.5000    10.3260     2.5313     0.0854     0.0494   159.9247
 1529.0000    10.3286     2.5302     0.0663     0.0476   159.6203
 1529.5000    10.3312     2.5576     0.0563     0.0582   159.2665
 1530.0000    10.3315     2.5608     0.0626     0.0693   156.9809
 1530.5000    10.3315     2.5503     0.0647     0.0622   155.2586
 1531.0000    10.3315     2.5535     0.0599     0.0587   153.4541
 1531.5000    10.3315     2.5430     0.0709     0.0579   151.0079
 1532.0000    10.3315     2.5413     0.0684     0.0579   150.3736
 1532.5000    10.3315     2.5522     0.0672     0.0569   152.7348
 1533.0000    10.3315     2.5440     0.0717     0.0506   153.2606
 1533.5000    10.3346     2.5306     0.0803     0.0401   153.5381
 1534.0000    10.3418     2.5196     0.0866     0.0238   153.7893
 1534.5000    10.3496     2.5442     0.0675     0.0289   153.3117
 1535.0000    10.3261     2.5407     0.0721     0.0362   151.9565
 1535.5000    10.2903     2.5364     0.0743     0.0377   150.6021
 1536.0000    10.2542     2.5355     0.0731     0.0366   149.2440
 1536.5000    10.2346     2.5419     0.0697     0.0365   149.2508
 1537.0000    10.2115     2.5485     0.0647     0.0549   149.4914
 1537.5000    10.1846     2.5432     0.0740     0.0659   149.2802
 1538.0000    10.1410     2.5337     0.0774     0.0671   148.7795
 1538.5000    10.0975     2.5332     0.0727     0.0694   148.2700
 1539.0000    10.0544     2.5367     0.0838     0.0830   147.7630
 1539.5000    10.0159     2.5435     0.0589     0.0974   147.2919
 1540.0000     9.9741     2.5661     0.0527     0.1295   148.8587
 1540.5000     9.8126     2.5465     0.0794     0.1729   152.2379
 1541.0000     9.6575     2.5191     0.0968     0.1785   155.3280
 1541.5000     9.7187     2.4928     0.1197     0.1413   156.0376
 1542.0000     9.9093     2.5029     0.1021     0.1111   155.0037
 1542.5000    10.0349     2.5099     0.0942     0.1024   151.4422
 1543.0000    10.0185     2.5030     0.0906     0.0739   148.1573
 1543.5000    10.0032     2.5134     0.0845     0.0431   145.7903
 1544.0000     9.9954     2.5256     0.0783     0.0468   148.0484
 1544.5000     9.9975     2.5372     0.0752     0.0520   150.5262
 1545.0000     9.9995     2.5358     0.0743     0.0539   151.5514
 1545.5000    10.0016     2.5336     0.0754     0.0539   151.4288
 1546.0000    10.0037     2.5332     0.0747     0.0539   151.2912
 1546.5000    10.0057     2.5347     0.0716     0.0516   151.1597
 1547.0000    10.0078     2.5345     0.0752     0.0484   151.0279
 1547.5000    10.0099     2.5277     0.0798     0.0452   150.8907
 1548.0000    10.0119     2.5329     0.0790     0.0457   150.7953
 1548.5000    10.0138     2.5433     0.0635     0.0561   151.6805
 1549.0000    10.0238     2.5383     0.0826     0.0554   153.1253
 1549.5000    10.0350     2.5325     0.0751     0.0452   156.6508
 1550.0000    10.0462     2.5353     0.0730     0.0345   160.2235
 1550.5000    10.0573     2.5347     0.0703     0.0311   161.0768
 1551.0000    10.0692     2.5335     0.0761     0.0298   160.1377
 1551.5000    10.0880     2.5363     0.0750     0.0291   158.3748
 1552.0000    10.1198     2.5249     0.0796     0.0284   158.3845
 1552.5000    10.1532     2.5184     0.0897     0.0305   158.6525
 1553.0000    10.1873     2.5276     0.0770     0.0372   158.9037
 1553.5000    10.1928     2.5368     0.0656     0.0438   158.8580
 1554.0000    10.1927     2.5453     0.0619     0.0505   157.6362
 1554.5000    10.1932     2.5371     0.0806     0.0535   156.4528
