~VERSION INFORMATION
 VERS.                2.0:   CWLS LOG ASCII STANDARD - VERSION 2.0
 WRAP.                 NO:   ONE LINE PER DEPTH STEP
~WELL INFORMATION
#MNEM.UNIT      DATA TYPE    INFORMATION
#----------   ------------   ------------------------------
 STRT.F           20.0000:   START DEPTH
 STOP.F          710.0000:   STOP DEPTH
 STEP.F            0.5000:   STEP LENGTH
 NULL.          -999.2500:   NO VALUE
 COMP. FENIX & SCISSON INC:   COMPANY
 WELL.     NPR-3 #42SX-34:   WELL
 FLD .             TEAPOT:   FIELD
 LOC .      S34 T39N R78W:   LOCATION
 CNTY.            NATRONA:   COUNTY
 STAT.            WYOMING:   STATE
 CTRY. UNITED STATES OF AMERICA:   COUNTRY
 SRVC.           BIRDWELL:   SERVICE COMPANY
 DATE.        30-AUG-1978:   LOGDATE
 API .       490251070800:   API NUMBER
~CURVE INFORMATION
#MNEM.UNIT       API CODE    CURVE DESCRIPTION
#----------   ------------   ------------------------------
 DEPT.F                  :   
 SPR .MV     05 010 01 00:   SPONTANEOUS POTENTIAL
 SN  .OHMM   05 040 16 00:   SHORT NORMAL 16'
 ILD .OHMM   05 120 46 00:   INDUCTION LOG DEEP RESISTIVITY
 GRD .GAPI   45 310 01 00:   GAMMA RAY FROM DENSITY LOG
 CALD.IN     45 280 60 00:   CALIPER
 RHOB.G/C3   45 350 01 00:   BULK DENSITY
 DPHI.DEC    45 890 12 00:   DENSITY POROSITY SANDSTONE
 CORR.G/C3   45 356 01 00:   DENSITY CORRECTION
~PARAMETER INFORMATION
#MNEM.UNIT          VALUE    DESCRIPTION
#----------   ------------   ------------------------------
 PD  .                 GL:   PERMANENT DATUM
 EPD .F              5079:   ELEVATION PERMANENT DATUM
 LMF .                 KB:   LOG MEASURED FROM
 DAPD.F                 4:   FEET ABOVE PERMANENT DATUM
 DMF .                 KB:   DRILLING MEASURED FROM
 EKB .F              5083:   KELLING BUSHING
 EGL .F              5079:   GROUND LEVEL
 DATE.            8-30-78:   RUN DATE
 RUN .                  1:   RUN NUMBER
 DD  .F               705:   DEPTH DRILLER
 DL  .F               708:   DEPTH LOGGER
 BLI .F               702:   BOTTOM LOG INTERVAL
 TLI .F                50:   TOP LOG INTERVAL
 CS  .IN            8.625:   CASING SIZE
 CBD .F                40:   CASING BOTTOM DRILLER
 CBL .F                40:   CASING BOTTOM LOGGER
 BS  .IN            7.875:   BIT SIZE
 BSD .F               705:   BIT SIZE AT DEPTH
 DFT .                KCL:   DRILLING FLUID TYPE
 DFD .                8.6:   DRILLING FLUID DENSITY
 DFV .                 34:   DRILLING FLUID VISCOSITY
 DFPH.                  9:   DRILLING FLUID PH
 DFL .                7.4:   DRILLING FLUID LOSS
 MSS .           FLOWLINE:   MUD SAMPLE SOURCE
 RMS .OHMM             .3:   RESISTIVITY MUD SAMPLE
 MST .F                80:   MUD SAMPLE TEMPERATURE
 RMF .OHMM             .4:   RESISTIVITY MUD FILTRATE SAMPLE
 MFST.F                80:   MUD FILTRATE SAMPLE TEMPERATURE
 RMC .OHMM             .5:   RESISTIVITY MUD CAKE
 MCST.F                82:   MUD CAKE SAMPLE TEMPERATURE
 MFSS.               MEAS:   MUD FILTRATE SAMPLE SOURCE
 MCSS.               MEAS:   MUD CAKE SAMPLE SOURCE
 RMB .OHMM            .32:   RESISTIVITY MUD AT BHT
 BHT .F                73:   BOTTOM HOLE TEMPERATURE
 TCS .HRS               3:   TIME CURCULATED STOPPED
 MRT .F                73:   MAXIMUM RECORDED TEMPERATURE
 LUN .               3006:   LOGGING UNIT NUMBER
 LUL .               CASP:   LOGGING UNIT LOCATION
 ENGI.            POINTER:   RECORDING ENGINEER
 WITN.              AMEND:   WITNESSED BY
 CLNT.            A2DTECH:   CLIENT CODE
 ORIG.           5" PRINT:   ORIGIN OF DATA
 UWI .       490251070800:   UNIQUE WELL ID
 DICO. A2D Technologies, Inc.:   DIGITIZING COMPANY
~OTHER INFORMATION
~A   DEPT      SPR         SN        ILD         GRD      CALD       RHOB       DPHI       CORR   
# ...
  668.0000   -52.8026    11.8312    12.6782    92.0030     8.4695     2.5271     0.0913     0.0990
  668.5000   -52.8838    11.8312    12.5035    94.7276     8.4740     2.5267     0.0908     0.0990
  669.0000   -52.9716    11.8312    12.4506    94.6735     8.4814     2.5301     0.0877     0.1036
  669.5000   -52.9687    11.9157    12.2752    92.4025     8.4884     2.5373     0.0842     0.1061
  670.0000   -52.8964    12.0620    12.2752    90.4959     8.4954     2.5440     0.0807     0.1040
  670.5000   -52.8313    12.2101    12.5035    89.6591     8.5021     2.5507     0.0771     0.1019
  671.0000   -52.7691    12.3601    12.6125    90.6001     8.5096     2.5580     0.0732     0.0998
  671.5000   -52.6982    12.5114    12.8362    91.4030     8.5100     2.5604     0.0719     0.0984
  672.0000   -52.6372    12.6653    13.0638    92.0117     8.5102     2.5585     0.0703     0.1003
  672.5000   -52.6113    12.8210    13.2955    90.5362     8.5100     2.5573     0.0688     0.1011
  673.0000   -52.9146    12.9785    13.5312    87.8475     8.5101     2.5616     0.0673     0.0906
  673.5000   -53.2107    13.1378    13.7712    85.2120     8.5101     2.5657     0.0704     0.0817
  674.0000   -53.5229    13.2992    14.0154    83.7235     8.5100     2.5622     0.0760     0.0714
  674.5000   -53.8238    13.4625    14.2243    83.3974     8.5100     2.5504     0.0815     0.0659
  675.0000   -54.1283    13.6277    14.1879    82.9099     8.5100     2.5396     0.0871     0.0682
  675.5000   -54.4553    13.7951    14.0942    83.9179     8.5100     2.5295     0.0924     0.0698
  676.0000   -54.5521    13.9645    14.0011    85.3198     8.5100     2.5298     0.0914     0.0712
  676.5000   -54.3834    14.1360    13.9087    86.8953     8.5100     2.5319     0.0904     0.0729
  677.0000   -54.2341    14.3096    13.8168    86.8245     8.5100     2.5345     0.0894     0.0764
  677.5000   -54.0902    14.4887    13.7256    83.8981     8.5101     2.5369     0.0884     0.0833
  678.0000   -53.9430    14.4669    13.6349    81.1747     8.5101     2.5393     0.0875     0.0898
  678.5000   -53.7897    14.4446    13.5449    79.3350     8.5100     2.5420     0.0865     0.0908
  679.0000   -53.9547    14.4224    13.4554    81.8544     8.5103     2.5422     0.0860     0.0917
  679.5000   -54.2283    14.4001    13.3665    85.4722     8.5099     2.5398     0.0861     0.0925
  680.0000   -54.4916    14.3781    13.2783    87.9275     8.5092     2.5389     0.0864     0.0932
  680.5000   -54.7458    14.3559    13.1906    84.0744     8.4966     2.5390     0.0866     0.0939
  681.0000   -55.0071    14.3338    13.1034    86.0533     8.4861     2.5388     0.0868     0.0946
  681.5000   -55.2709    14.3118    12.9727    92.5315     8.4749     2.5412     0.0868     0.0956
  682.0000   -55.4927    14.2898    13.0158    91.9302     8.4639     2.5461     0.0851     0.0965
  682.5000   -55.6723    14.2680    13.1048    89.4604     8.4527     2.5510     0.0803     0.0977
  683.0000   -55.8546    14.2462    13.1944    87.0900     8.4423     2.5556     0.0754     0.0964
  683.5000   -56.0382    14.2247    13.2846    86.2691     8.4306     2.5608     0.0700     0.0919
  684.0000   -56.2228    14.2248    13.3755    85.4363     8.4382     2.5626     0.0690     0.0875
  684.5000   -56.4007    14.2247    13.4670    85.5957     8.4473     2.5642     0.0678     0.0832
  685.0000   -56.5920    14.2035    13.5591    86.1867     8.4571     2.5670     0.0667     0.0782
  685.5000   -56.6642    14.1355    13.6518    85.6932     8.4663     2.5716     0.0689     0.0672
  686.0000   -56.7398    14.0679    13.7098    83.6516     8.4738     2.5634     0.0758     0.0538
  686.5000   -56.8088    14.0008    13.4243    86.4192     8.4804     2.5496     0.0827     0.0423
  687.0000   -56.8805    13.9369    13.1364    89.9377     8.4867     2.5361     0.0899     0.0422
  687.5000   -56.9525    13.8770    12.8587    90.7783     8.4930     2.5307     0.0931     0.0419
  688.0000   -57.0238    13.8172    12.7265    89.3850     8.4993     2.5320     0.0924     0.0456
  688.5000   -57.0950    13.7574    12.7455    88.2723     8.5057     2.5333     0.0905     0.0500
  689.0000   -57.1667    13.6975    12.4597    86.0919     8.5120     2.5346     0.0887     0.0538
  689.5000   -57.2382    13.6381    12.4021    82.2692     8.5184     2.5359     0.0868     0.0527
  690.0000   -57.3059    13.5796    12.3452    83.5079     8.5247     2.5368     0.0877     0.0518
  690.5000   -57.3802    13.5219    12.2884    85.9489     8.5310     2.5352     0.0885     0.0507
  691.0000   -57.3266    13.4611    12.2752    87.7558     8.5375     2.5339     0.0894     0.0496
  691.5000   -57.2143    13.4609    12.2752    88.1082     8.5434     2.5325     0.0903     0.0486
  692.0000   -57.1253    13.4605    12.3052    87.1389     8.5496     2.5310     0.0909     0.0475
  692.5000   -57.0248    13.4600    12.3788    85.5439     8.5411     2.5312     0.0913     0.0464
  693.0000   -57.4856    13.4594    12.4529    83.9358     8.5315     2.5317     0.0917     0.0453
  693.5000   -58.0347    13.4589    12.5035    82.8885     8.5228     2.5321     0.0921     0.0443
  694.0000   -58.6196    13.4586    12.5035    83.1966     8.5133     2.5325     0.0924     0.0432
  694.5000   -59.1490    13.5125    12.5035    83.5853     8.5380     2.5330     0.0924     0.0421
  695.0000   -59.7180    13.6522    12.5023    88.2254     8.5898     2.5326     0.0924     0.0411
  695.5000   -58.9587    13.7924    12.5088    90.8337     8.5570     2.5322     0.0924     0.0400
  696.0000   -57.4236    13.9342    12.4978    90.3295     8.4690     2.5318     0.0924     0.0389
  696.5000   -55.8494    14.0774    12.4799    89.9638     8.4247     2.5313     0.0924     0.0381
  697.0000   -54.7531    14.2243    12.7601    89.7796     8.4302     2.5309     0.0924     0.0402
  697.5000   -54.2893    14.4261    12.7248    89.7232     8.4352     2.5305     0.0924     0.0421
  698.0000   -53.5103    14.6341    12.7419    93.3650     8.3816     2.5301     0.0922     0.0441
  698.5000   -51.4789    14.8451    12.7302    95.2326     8.3913     2.5297     0.0918     0.0459
  699.0000   -51.0713    15.0325    12.7558    88.6633     8.4455     2.5292     0.0914     0.0480
  699.5000   -50.6306    14.8878    12.7762    86.0730     8.4940     2.5290     0.0910     0.0502
  700.0000   -50.2549    14.7602    12.7963    90.6055     8.5104     2.5291     0.0901     0.0580
  700.5000   -49.8616    14.6337    12.8167    89.6282     8.5101     2.5285     0.0889     0.0661
  701.0000   -49.3965    14.4887    12.8377    88.9445     8.5101     2.5338     0.0877     0.0745
  701.5000   -48.5576    14.4887    12.8586    88.9781     8.5101     2.5419     0.0864     0.0804
  702.0000   -47.5190    14.4887    12.8795    89.6312     8.5102     2.5488     0.0852     0.0845
  702.5000   -46.4217    14.4891    12.9007    90.9120     8.5101     2.5481     0.0846     0.0887
  703.0000   -45.7367    14.4889    12.9215    91.6408     8.5101     2.5473     0.0852     0.0929
  703.5000   -45.8078    14.4896    12.9425   101.2024     8.5100     2.5461     0.0858     0.0971
  704.0000  -999.2500    14.4900    12.9643    94.3520     8.5100     2.5450     0.0863     0.1011
  704.5000  -999.2500    14.4921    12.9735  -999.2500     8.5100     2.5440     0.0865     0.1057
  705.0000  -999.2500    14.4817    12.9727  -999.2500     8.5100     2.5431     0.0848  -999.2500
  705.5000  -999.2500    14.4743    12.9727  -999.2500     8.5100     2.5442     0.0832  -999.2500
  706.0000  -999.2500    14.5058    12.9728  -999.2500     8.5100     2.5452     0.0820  -999.2500
  706.5000  -999.2500    14.1975    12.9727  -999.2500     8.5100     2.5464  -999.2500  -999.2500
  707.0000  -999.2500    14.2367    12.9727  -999.2500  -999.2500  -999.2500  -999.2500  -999.2500
  707.5000  -999.2500    14.2303    12.9727  -999.2500  -999.2500  -999.2500  -999.2500  -999.2500
  708.0000  -999.2500    14.2231    12.9727  -999.2500  -999.2500  -999.2500  -999.2500  -999.2500
