~VERSION INFORMATION
 VERS.                2.0:   CWLS LOG ASCII STANDARD - VERSION 2.0
 WRAP.                 NO:   ONE LINE PER DEPTH STEP
~WELL INFORMATION
#MNEM.UNIT      DATA TYPE    INFORMATION
#----------   ------------   ------------------------------
 STRT.F           40.0000:   START DEPTH
 STOP.F          950.5000:   STOP DEPTH
 STEP.F            0.5000:   STEP LENGTH
 NULL.          -999.2500:   NO VALUE
 COMP. FENIX & SCISSON INC:   COMPANY
 WELL.       NPR 3 #44-14:   WELL
 FLD .             TEAPOT:   FIELD
 LOC .      S14 T38N R78W:   LOCATION
 CNTY.            NATRONA:   COUNTY
 STAT.            WYOMING:   STATE
 CTRY. UNITED STATES OF AMERICA:   COUNTRY
 SRVC.            Unknown:   SERVICE COMPANY
 DATE.        05-JAN-1979:   LOGDATE
 API .       490251076100:   API NUMBER
~CURVE INFORMATION
#MNEM.UNIT       API CODE    CURVE DESCRIPTION
#----------   ------------   ------------------------------
 DEPT.F                  :   
 SPR .MV     05 010 01 00:   SPONTANEOUS POTENTIAL FROM RES.
 SN  .OHMM   05 040 16 00:   SHORT NORMAL 16"
 IL  .OHMM   05 120 00 00:   INDUCTION LOG
 CALD.IN     45 280 60 00:   CALIPER
 GRD .GAPI   45 310 01 00:   GAMMA RAY FROM DENSITY LOG
 RHOB.G/C3   45 350 01 00:   BULK DENSITY
 DPHI.DEC    45 890 12 00:   DENSITY POROSITY SANDSTONE
 CORR.G/C3   45 356 01 00:   DENSITY CORRECTION
~PARAMETER INFORMATION
#MNEM.UNIT          VALUE    DESCRIPTION
#----------   ------------   ------------------------------
 PD  .                 GL:   PERMANENT DATUM
 EPD .F              5266:   ELEVATION PERMANENT DATUM
 LMF .                 KB:   LOG MEASURED FROM
 DAPD.F                 4:   FEET ABOVE PERMANENT DATUM
 DMF .                 KB:   DRILLING MEASURED FROM
 EKB .F              5270:   KELLING BUSHING
 EGL .F              5266:   GROUND LEVEL
 DATE.             1-5-79:   RUN DATE
 RUN .                  1:   RUN NUMBER
 DD  .F               950:   DEPTH DRILLER
 DL  .F               943:   DEPTH LOGGER
 BLI .F               937:   BOTTOM LOG INTERVAL
 TLI .F                40:   TOP LOG INTERVAL
 CS  .IN            8.625:   CASING SIZE
 CBL .F                40:   CASING BOTTOM LOGGER
 BS  .IN            7.875:   BIT SIZE
 BSD .F               950:   BIT SIZE AT DEPTH
 DFT .                KCL:   DRILLING FLUID TYPE
 DFV .                 42:   DRILLING FLUID VISCOSITY
 DFL .               10.5:   DRILLING FLUID LOSS
 MSS .           FLOWLINE:   MUD SAMPLE SOURCE
 RMS .OHMM            .23:   RESISTIVITY MUD SAMPLE
 RMF .OHMM            .23:   RESISTIVITY MUD FILTRATE SAMPLE
 RMC .OHMM             .2:   RESISTIVITY MUD CAKE
 MFSS.           MEASURED:   MUD FILTRATE SAMPLE SOURCE
 MCSS.           MEASURED:   MUD CAKE SAMPLE SOURCE
 RMB .OHMM             .2:   RESISTIVITY MUD AT BHT
 BHT .F                70:   BOTTOM HOLE TEMPERATURE
 TCS .HRS               5:   TIME CURCULATED STOPPED
 MRT .F                70:   MAXIMUM RECORDED TEMPERATURE
 LUL .             CASPER:   LOGGING UNIT LOCATION
 ENGI.             MILLER:   RECORDING ENGINEER
 WITN.           DINSMORE:   WITNESSED BY
 CLNT.            A2DTECH:   CLIENT CODE
 ORIG.           5" PRINT:   ORIGIN OF DATA
 UWI .       490251076100:   UNIQUE WELL ID
 DICO. A2D Technologies, Inc.:   DIGITIZING COMPANY
~OTHER INFORMATION
~A   DEPT      SPR           SN         IL     CALD        GRD       RHOB       DPHI       CORR   
# ...
  445.0000   -36.9260     6.7060     6.9490     7.9070   104.2050     2.4490     0.1490     0.0130
  445.5000   -37.1190     6.7520     7.0050     7.9040   107.1140     2.4420     0.1540     0.0090
  446.0000   -36.7380     6.7980     7.0620     7.8990   111.4810     2.4350     0.1560     0.0060
  446.5000   -36.1770     6.8430     7.1180     7.9770   110.2150     2.4330     0.1570     0.0040
  447.0000   -36.1950     6.8890     7.1750     8.0650   107.7720     2.4320     0.1590     0.0040
  447.5000   -36.1950     6.9340     7.2320     8.0960   105.3210     2.4310     0.1530     0.0040
  448.0000   -36.4730     6.9800     7.2880     8.0310   102.8650     2.4390     0.1500     0.0040
  448.5000   -36.9570     7.0260     7.3450     7.9680   101.6590     2.4480     0.1480     0.0040
  449.0000   -36.9440     7.0710     7.4010     7.9100   103.1330     2.4530     0.1460     0.0040
  449.5000   -36.5220     7.1170     7.4630     8.0850   104.4480     2.4540     0.1460     0.0040
  450.0000   -36.1060     7.1630     7.4410     7.8590   101.1920     2.4490     0.1510    -0.0010
  450.5000   -35.8490     7.2080     7.4170     7.9570   100.0450     2.4430     0.1530    -0.0060
  451.0000   -36.0770     7.2540     7.3930     8.0820   102.9240     2.4390     0.1490    -0.0050
  451.5000   -36.2940     7.2190     7.3690     8.1530   102.5920     2.4510     0.1430     0.0000
  452.0000   -36.5140     7.1730     7.3450     8.0250   101.3390     2.4610     0.1410     0.0060
  452.5000   -36.4010     7.1270     7.3210     7.9020    99.9800     2.4560     0.1420     0.0100
  453.0000   -36.1210     7.0810     7.2970     7.7860    98.5990     2.4490     0.1470     0.0070
  453.5000   -35.8540     7.0350     7.2730     7.7820    99.2500     2.4410     0.1540     0.0040
  454.0000   -35.9290     6.9890     7.2490     7.7830   101.0960     2.4480     0.1450     0.0050
  454.5000   -36.9070     6.9430     7.2250     7.8170   102.9440     2.4610     0.1390     0.0070
  455.0000   -37.4570     6.9330     7.2010     7.8530   104.7930     2.4590     0.1410     0.0080
  455.5000   -38.0340     6.9330     7.1770     7.8880   105.6130     2.4530     0.1420     0.0100
  456.0000   -37.9500     6.9330     7.1530     7.9240    99.5950     2.4590     0.1380     0.0120
  456.5000   -37.2180     6.9330     7.1300     7.9330    95.5390     2.4700     0.1340     0.0140
  457.0000   -37.3400     6.9330     7.1060     7.9170    96.9450     2.4710     0.1340     0.0160
  457.5000   -37.5330     6.9330     7.0820     7.9020    98.9770     2.4660     0.1350     0.0180
  458.0000   -37.0030     6.9330     7.0580     7.8860   105.8260     2.4610     0.1370     0.0200
  458.5000   -36.9600     6.9330     7.0340     7.8710   109.5230     2.4570     0.1400     0.0190
  459.0000   -36.9530     6.9330     6.9970     7.8670   109.4820     2.4570     0.1410     0.0170
  459.5000   -36.2990     6.9330     7.0100     7.8800   107.1450     2.4600     0.1340     0.0180
  460.0000   -36.3630     6.9330     7.0360     7.8920   104.8160     2.4810     0.1220     0.0230
  460.5000   -36.5630     6.9330     7.0620     7.9040   101.1930     2.5030     0.1100     0.0270
  461.0000   -36.2300     6.9330     7.0890     7.9160    95.9170     2.5240     0.0960     0.0320
  461.5000   -35.7900     6.9330     7.1150     7.9290    97.8050     2.5260     0.1050     0.0360
  462.0000   -35.7410     6.9330     7.1410     7.9410   100.1630     2.4980     0.1240     0.0400
  462.5000   -35.9720     6.9330     7.1670     7.9530   102.5340     2.4680     0.1370     0.0490
  463.0000   -36.2020     6.9330     7.1940     7.9650   105.1240     2.4590     0.1390     0.0620
  463.5000   -36.4330     6.9400     7.2200     7.9780   109.4070     2.4600     0.1380     0.0700
  464.0000   -36.6640     6.9800     7.2460     7.9680   106.6610     2.4760     0.1320     0.0790
  464.5000   -36.7820     7.0200     7.2720     7.9500   103.0680     2.4920     0.1210     0.0840
  465.0000   -36.4660     7.0590     7.2980     7.9330   103.1830     2.4880     0.1240     0.0790
  465.5000   -35.7910     7.0990     7.3270     7.9150   103.3050     2.4860     0.1240     0.0820
  466.0000   -35.8100     7.1390     7.3880     7.8910   102.7050     2.4850     0.1240     0.0870
  466.5000   -36.1000     7.1780     7.4550     7.8490   103.1250     2.4750     0.1310     0.0930
  467.0000   -36.3780     7.2180     7.5210     7.8080   101.4870     2.4750     0.1230     0.1050
  467.5000   -36.3900     7.2580     7.5880     7.7660   100.6900     2.5160     0.1010     0.1120
  468.0000   -36.0530     7.2970     7.6540     7.7250   101.9980     2.5040     0.1140     0.0900
  468.5000   -35.5840     7.3370     7.7210     7.6840   110.6240     2.4790     0.1310     0.0500
  469.0000   -35.6000     7.3790     7.7870     7.6930   114.0410     2.4560     0.1420     0.0260
  469.5000   -35.6020     7.4200     7.8540     7.7040   114.2590     2.4570     0.1440     0.0130
  470.0000   -35.6110     7.4610     7.9200     7.7150   115.9090     2.4650     0.1450     0.0090
  470.5000   -36.0500     7.5020     7.9870     7.7260   110.3630     2.4600     0.1450     0.0060
  471.0000   -36.2930     7.5440     8.0530     7.7370   111.6680     2.4510     0.1450     0.0040
  471.5000   -35.8960     7.5850     8.1200     7.7480   114.4060     2.4520     0.1430     0.0050
  472.0000   -35.8940     7.6260     8.1860     7.7590   116.2200     2.4530     0.1410     0.0080
  472.5000   -35.9180     7.6670     8.2530     7.7690   115.6160     2.4600     0.1340     0.0110
  473.0000   -35.5850     7.7090     8.3190     7.7790   119.7480     2.4750     0.1260     0.0110
  473.5000   -35.2590     7.7500     8.3860     7.8230   116.9810     2.4900     0.1180     0.0100
  474.0000   -34.9270     7.7910     8.4520     7.8700   112.7730     2.5050     0.1110     0.0080
  474.5000   -35.0130     7.8320     8.5190     7.9170   112.3180     2.5170     0.1050     0.0040
  475.0000   -35.0950     7.8740     8.5850     7.9650   117.5050     2.5070     0.1120     0.0020
  475.5000   -34.8240     7.9010     8.6460     8.0120   120.1420     2.4960     0.1160     0.0030
  476.0000   -34.9090     7.9220     8.7910     8.0590   120.0030     2.4860     0.1210     0.0040
  476.5000   -34.9960     7.9430     8.9240     8.0620   121.3220     2.4800     0.1260     0.0050
  477.0000   -34.4800     7.9640     9.0090     8.0640   120.4520     2.4780     0.1290     0.0050
  477.5000   -34.3750     7.9850     9.0690     8.0660   115.8200     2.4770     0.1290     0.0060
  478.0000   -34.8160     8.0070     9.1290     8.0670   109.8790     2.4770     0.1290     0.0070
  478.5000   -35.7880     8.0280     9.1890     8.0690   104.6800     2.4740     0.1310     0.0080
  479.0000   -36.1760     8.0490     9.2490     8.0700   105.2930     2.4710     0.1330     0.0070
  479.5000   -36.1950     8.0700     9.3090     8.0720   104.9150     2.4690     0.1340     0.0050
  480.0000   -35.5420     8.0910     9.3680     8.0740   100.5540     2.4670     0.1350     0.0040
  480.5000   -35.3140     8.1120     9.4280     8.0750   103.0550     2.4660     0.1370     0.0020
  481.0000   -35.1880     8.1340     9.4800     8.0770   105.2520     2.4630     0.1390     0.0000
  481.5000   -34.6330     8.1550     9.4900     8.0780   105.1780     2.4580     0.1410    -0.0020
  482.0000   -34.3500     8.1760     9.5000     8.0800   107.6540     2.4570     0.1390     0.0020
  482.5000   -34.2320     8.1820     9.5090     8.0760   110.8700     2.4650     0.1380     0.0040
  483.0000   -34.1140     8.1820     9.5190     8.0670   112.3190     2.4660     0.1380     0.0050
  483.5000   -33.9980     8.1820     9.5280     8.0810   111.2280     2.4650     0.1410     0.0030
  484.0000   -33.8810     8.1820     9.5380     8.1400   109.1660     2.4520     0.1440     0.0010
  484.5000   -33.9050     8.1820     9.5480     8.1970   108.0140     2.4470     0.1440     0.0010
  485.0000   -34.0420     8.1820     9.5570     8.1910   106.8910     2.4520     0.1430     0.0030
