~VERSION INFORMATION
 VERS.                2.0:   CWLS LOG ASCII STANDARD - VERSION 2.0
 WRAP.                 NO:   ONE LINE PER DEPTH STEP
~WELL INFORMATION
#MNEM.UNIT      DATA TYPE    INFORMATION
#----------   ------------   ------------------------------
 STRT.F          248.0000:   START DEPTH
 STOP.F         2495.0000:   STOP DEPTH
 STEP.F            0.5000:   STEP LENGTH
 NULL.          -999.2500:   NO VALUE
 COMP. FENIX & SCISSON INC:   COMPANY
 WELL.      85 SHX #28-28:   WELL
 FLD .             TEAPOT:   FIELD
 LOC .      S28 T39N R78W:   LOCATION
 CNTY.            NATRONA:   COUNTY
 STAT.            WYOMING:   STATE
 CTRY. UNITED STATES OF AMERICA:   COUNTRY
 SRVC.           BIRDWELL:   SERVICE COMPANY
 DATE.        18-AUG-1979:   LOGDATE
 API .       490251079700:   API NUMBER
~CURVE INFORMATION
#MNEM.UNIT       API CODE    CURVE DESCRIPTION
#----------   ------------   ------------------------------
 DEPT.F                  :   
 CALD.IN     45 280 60 00:   CALIPER
 CORR.G/C3   45 356 01 00:   DENSITY CORRECTION
 RHOB.G/C3   45 350 01 00:   BULK DENSITY
 DPHI.DEC    45 890 12 00:   DENSITY POROSITY SANDSTONE
 GRD .GAPI   45 310 01 00:   GAMMA RAY FROM DENSITY LOG
~PARAMETER INFORMATION
#MNEM.UNIT          VALUE    DESCRIPTION
#----------   ------------   ------------------------------
 PD  .                 GL:   PERMANENT DATUM
 EPD .F              5044:   ELEVATION PERMANENT DATUM
 LMF .                 DF:   LOG MEASURED FROM
 DMF .                 KB:   DRILLING MEASURED FROM
 EKB .F              5054:   KELLING BUSHING
 EDF .F              5052:   DRILLING FLOOR
 EGL .F              5044:   GROUND LEVEL
 DATE.            8-18-79:   RUN DATE
 RUN .                  1:   RUN NUMBER
 DD  .F              2500:   DEPTH DRILLER
 DL  .F              2495:   DEPTH LOGGER
 BLI .F              2495:   BOTTOM LOG INTERVAL
 CS  .IN            9.625:   CASING SIZE
 CBD .F               520:   CASING BOTTOM DRILLER
 CBL .F               505:   CASING BOTTOM LOGGER
 BS  .IN             8.75:   BIT SIZE
 BSD .F              2500:   BIT SIZE AT DEPTH
 DFT .                AIR:   DRILLING FLUID TYPE
 TCS .HRS               2:   TIME CURCULATED STOPPED
 ENGI.          B. MILLER:   RECORDING ENGINEER
 WITN.           DINSMORE:   WITNESSED BY
 CLNT.            A2DTECH:   CLIENT CODE
 ORIG.           5" PRINT:   ORIGIN OF DATA
 UWI .       490251079700:   UNIQUE WELL ID
 DICO. A2D Technologies, Inc.:   DIGITIZING COMPANY
~OTHER INFORMATION
~A   DEPT     CALD       CORR       RHOB       DPHI         GRD  
# ...
 1529.0000    10.0565     0.1607     2.4742     0.0427   145.9292
 1529.5000    10.0349     0.1549     2.4973     0.0231   145.1834
 1530.0000    10.0298     0.1318     2.5090     0.0231   144.6078
 1530.5000    10.0371     0.1065     2.4856     0.0387   144.8065
 1531.0000    10.0502     0.0809     2.4647     0.0490   145.3579
 1531.5000    10.0632     0.0712     2.4529     0.0534   145.9146
 1532.0000    10.0763     0.0743     2.4461     0.0558   146.3683
 1532.5000    10.0893     0.0957     2.4420     0.0580   146.6259
 1533.0000    10.1024     0.1407     2.4592     0.0493   146.6292
 1533.5000    10.1155     0.1742     2.4783     0.0332   146.2679
 1534.0000    10.1285     0.2042     2.4972     0.0231   145.0200
 1534.5000    10.1416     0.2079     2.5073     0.0235   141.8724
 1535.0000    10.1546     0.1713     2.4736     0.0408   139.8516
 1535.5000    10.1677     0.1510     2.4467     0.0588   139.8157
 1536.0000    10.1807     0.1754     2.4426     0.0542   139.5702
 1536.5000    10.1941     0.2012     2.4611     0.0473   137.7620
 1537.0000    10.2059     0.2236     2.4719     0.0419   137.3576
 1537.5000    10.2305     0.2299     2.4475     0.0551   139.6895
 1538.0000    10.2198     0.2557     2.4556     0.0497   141.2664
 1538.5000    10.2093     0.2559     2.4688     0.0433   138.0921
 1539.0000    10.1985     0.2181     2.4718     0.0391   136.7581
 1539.5000    10.1878     0.1998     2.4417     0.0619   142.0671
 1540.0000    10.1771     0.2003     2.4223     0.0679   149.1898
 1540.5000    10.1664     0.2325     2.4214     0.0688   154.7142
 1541.0000    10.1557     0.2592     2.4543     0.0507   154.1065
 1541.5000    10.1450     0.2707     2.4853     0.0319   151.9450
 1542.0000    10.1343     0.2458     2.5114     0.0196   149.8994
 1542.5000    10.1236     0.2067     2.4901     0.0281   148.3374
 1543.0000    10.1129     0.1689     2.4826     0.0386   152.2715
 1543.5000    10.1022     0.1497     2.4630     0.0490   158.6087
 1544.0000    10.0915     0.1384     2.4414     0.0616   159.8815
 1544.5000    10.0807     0.1285     2.4137     0.0748   148.5895
 1545.0000    10.0703     0.1369     2.4274     0.0741   147.9948
 1545.5000    10.0710     0.1343     2.4520     0.0489   147.2929
 1546.0000    10.0509     0.0970     2.4770     0.0343   145.8216
 1546.5000    10.0604     0.0627     2.4846     0.0312   141.3026
 1547.0000    10.0706     0.0626     2.5067     0.0191   141.3924
 1547.5000    10.0809     0.0798     2.5325     0.0094   147.0083
 1548.0000    10.0944     0.0750     2.5145     0.0171   145.5664
 1548.5000    10.1247     0.0662     2.4801     0.0381   144.0202
 1549.0000    10.1552     0.0748     2.4678     0.0459   143.5985
 1549.5000    10.1859     0.0896     2.4602     0.0499   142.0085
 1550.0000    10.1731     0.1066     2.4622     0.0428   140.6112
 1550.5000    10.1543     0.1240     2.4803     0.0315   140.8374
 1551.0000    10.1357     0.1225     2.4973     0.0287   144.6949
 1551.5000    10.1156     0.1150     2.5024     0.0227   144.5409
 1552.0000    10.1412     0.1070     2.4890     0.0362   145.1234
 1552.5000    10.1649     0.1187     2.4666     0.0494   149.1300
 1553.0000    10.1903     0.1661     2.4548     0.0496   147.4551
 1553.5000    10.2154     0.2160     2.4719     0.0345   145.9305
 1554.0000    10.2406     0.2663     2.5041     0.0237   150.9100
 1554.5000    10.2657     0.2982     2.5107     0.0149   154.5307
 1555.0000    10.2908     0.3181     2.5314     0.0023   153.2276
 1555.5000    10.3159     0.3267     2.5523    -0.0069   151.9803
 1556.0000    10.3280     0.2923     2.5561     0.0076   151.7457
 1556.5000    10.3216     0.2496     2.4868     0.0391   155.0676
 1557.0000    10.3152     0.2292     2.4719     0.0447   158.3643
 1557.5000    10.3087     0.2150     2.4548     0.0530   160.2832
 1558.0000    10.3023     0.2095     2.4319     0.0629   153.6745
 1558.5000    10.2958     0.2360     2.4458     0.0644   149.4945
 1559.0000    10.2894     0.2888     2.4732     0.0329   151.4671
 1559.5000    10.2830     0.3029     2.4908     0.0328   153.8401
 1560.0000    10.2765     0.3077     2.4734     0.0406   155.8322
 1560.5000    10.2701     0.3237     2.4652     0.0454   155.0729
 1561.0000    10.2636     0.3391     2.4853     0.0325   153.2317
 1561.5000    10.2572     0.3173     2.5022     0.0254   151.4781
 1562.0000    10.2508     0.2909     2.5000     0.0261   148.9002
 1562.5000    10.2443     0.2641     2.4934     0.0293   146.2976
 1563.0000    10.2379     0.2377     2.4825     0.0372   143.6891
 1563.5000    10.2313     0.2161     2.4769     0.0395   141.0704
 1564.0000    10.2407     0.2264     2.4972     0.0217   138.6091
 1564.5000    10.2587     0.2352     2.5176     0.0139   138.8980
 1565.0000    10.2769     0.2365     2.5052     0.0247   145.1912
 1565.5000    10.2951     0.2379     2.4797     0.0387   151.5383
 1566.0000    10.3133     0.2432     2.4537     0.0527   152.9895
 1566.5000    10.3315     0.2564     2.4467     0.0569   151.3826
 1567.0000    10.3483     0.2743     2.4409     0.0651   147.3602
 1567.5000    10.3430     0.2920     2.4229     0.0724   147.0464
 1568.0000    10.3307     0.3223     2.4211     0.0684   150.4000
 1568.5000    10.3186     0.3624     2.4496     0.0550   142.6373
 1569.0000    10.3065     0.3939     2.4739     0.0300   136.8572
 1569.5000    10.2944     0.3909     2.4903     0.0344   136.4479
 1570.0000    10.2822     0.3687     2.4683     0.0421   147.3108
 1570.5000    10.2702     0.3575     2.4833     0.0431   151.1707
 1571.0000    10.2704     0.3316     2.5069     0.0203   148.0427
 1571.5000    10.2725     0.2860     2.5048     0.0263   145.0661
 1572.0000    10.2747     0.2418     2.5006     0.0199   142.1414
 1572.5000    10.2769     0.2435     2.5107     0.0244   140.4059
 1573.0000    10.2790     0.2661     2.4993     0.0299   140.4248
 1573.5000    10.2812     0.2961     2.4901     0.0251   143.4874
 1574.0000    10.2833     0.3236     2.5086     0.0213   147.6394
 1574.5000    10.2855     0.3222     2.5092     0.0220   151.9469
 1575.0000    10.2875     0.3187     2.5095     0.0208   153.1410
 1575.5000    10.2817     0.3116     2.4929     0.0271   153.1125
 1576.0000    10.2645     0.3049     2.4710     0.0402   152.9994
 1576.5000    10.2473     0.3029     2.4822     0.0403   153.2005
 1577.0000    10.2302     0.2851     2.4970     0.0281   155.1567
 1577.5000    10.2130     0.2428     2.4755     0.0420   157.2652
 1578.0000    10.1958     0.1976     2.4565     0.0502   153.8666
 1578.5000    10.1787     0.1650     2.4585     0.0512   147.8516
 1579.0000    10.1699     0.1605     2.4648     0.0452   145.8790
 1579.5000    10.1728     0.1606     2.4692     0.0448   148.2171
 1580.0000    10.1756     0.1712     2.4662     0.0466   153.1726
 1580.5000    10.1784     0.1888     2.4620     0.0487   158.2093
 1581.0000    10.1812     0.2175     2.4681     0.0454   159.5610
 1581.5000    10.1840     0.2449     2.4841     0.0349   161.2529
 1582.0000    10.1868     0.2632     2.5002     0.0264   164.2237
 1582.5000    10.1895     0.2795     2.5050     0.0238   160.9945
 1583.0000    10.1923     0.2809     2.5009     0.0253   159.8896
 1583.5000    10.1951     0.2829     2.4931     0.0319   168.0042
 1584.0000    10.1979     0.2898     2.4864     0.0335   161.2814
 1584.5000    10.2007     0.2968     2.5030     0.0234   158.9752
 1585.0000    10.2035     0.2974     2.5258     0.0115   161.6515
 1585.5000    10.2063     0.2779     2.5007     0.0268   166.7760
 1586.0000    10.2090     0.2581     2.4662     0.0440   162.3479
 1586.5000    10.2142     0.2539     2.4510     0.0547   157.0798
 1587.0000    10.2229     0.2865     2.4500     0.0544   157.8636
 1587.5000    10.2318     0.2961     2.4472     0.0557   156.0393
 1588.0000    10.2406     0.3030     2.4432     0.0588   153.9209
 1588.5000    10.2494     0.3455     2.4567     0.0431   151.8151
 1589.0000    10.2583     0.3877     2.4696     0.0481   150.2825
 1589.5000    10.2671     0.4116     2.4461     0.0576   150.3961
