~VERSION INFORMATION
 VERS.                2.0:   CWLS LOG ASCII STANDARD - VERSION 2.0
 WRAP.                 NO:   ONE LINE PER DEPTH STEP
~WELL INFORMATION
#MNEM.UNIT      DATA TYPE    INFORMATION
#----------   ------------   ------------------------------
 STRT.F         1420.5000:   START DEPTH
 STOP.F         2187.0000:   STOP DEPTH
 STEP.F            0.5000:   STEP LENGTH
 NULL.          -999.2500:   NO VALUE
 COMP. LAWRENCE/ALLISON INC:   COMPANY
 WELL.      22-2 STX #3-3:   WELL
 FLD .            WILDCAT:   FIELD
 LOC .       S3 T38N R78W:   LOCATION
 CNTY.            NATRONA:   COUNTY
 STAT.            WYOMING:   STATE
 CTRY. UNITED STATES OF AMERICA:   COUNTRY
 SRVC.            Unknown:   SERVICE COMPANY
 DATE.        10-JUN-1991:   LOGDATE
 API .       490251103400:   API NUMBER
~CURVE INFORMATION
#MNEM.UNIT       API CODE    CURVE DESCRIPTION
#----------   ------------   ------------------------------
 DEPT.F                  :   
 ROP .MIN/FT 91 810 01 00:   RATE OF DRILLING PENETRATION
 TGAS.UNITS  91 830 01 00:   TOTAL GAS
~PARAMETER INFORMATION
#MNEM.UNIT          VALUE    DESCRIPTION
#----------   ------------   ------------------------------
 EKB .F              5218:   KELLING BUSHING
 EGL .F              5208:   GROUND LEVEL
 DATE.            6-10-91:   RUN DATE
 BLI .F              2187:   BOTTOM LOG INTERVAL
 TLI .F              1420:   TOP LOG INTERVAL
 CS  .IN            8.625:   CASING SIZE
 CBD .F               562:   CASING BOTTOM DRILLER
 TLAB.HRS            0030:   TIME LOGGER AT BOTTOM
 ENGI.              TOWER:   RECORDING ENGINEER
 WITN.               HUSK:   WITNESSED BY
 CLNT.            A2DTECH:   CLIENT CODE
 ORIG.           5" PRINT:   ORIGIN OF DATA
 UWI .       490251103400:   UNIQUE WELL ID
 DICO. A2D Technologies, Inc.:   DIGITIZING COMPANY
~OTHER INFORMATION
~A  DEPT         ROP      TGAS  
# ...
 2028.0000     0.7055   394.8387
 2028.5000     0.6205   395.1906
 2029.0000     0.5341   401.8297
 2029.5000     0.5164   404.0668
 2030.0000     0.5058   404.3654
 2030.5000     0.5056   400.5415
 2031.0000     0.4950   398.3347
 2031.5000     0.4949   392.8687
 2032.0000     0.4947   393.1546
 2032.5000     0.5416   389.3433
 2033.0000     0.6342   389.7109
 2033.5000     0.7049   389.9654
 2034.0000     0.6724   390.2765
 2034.5000     0.6101   390.5907
 2035.0000     0.5498   390.9426
 2035.5000     0.5034   391.2097
 2036.0000     0.4937   391.5208
 2036.5000     0.4936   391.8318
 2037.0000     0.5040   392.1743
 2037.5000     0.5038   392.4539
 2038.0000     0.5037   392.7649
 2038.5000     0.4741   393.0540
 2039.0000     0.4152   389.2396
 2039.5000     0.3345   389.6104
 2040.0000     0.3249   398.1483
 2040.5000     0.3417   398.1048
 2041.0000     0.3847   398.0530
 2041.5000     0.4317   398.0006
 2042.0000     0.4607   397.9415
 2042.5000     0.4944   397.8975
 2043.0000     0.3943   397.8456
 2043.5000     0.3333   397.7938
 2044.0000     0.3134   397.7348
 2044.5000     0.3240   397.6901
 2045.0000     0.3356   397.6382
 2045.5000     0.3559   397.5864
 2046.0000     0.3815   397.5280
 2046.5000     0.3805   397.4827
 2047.0000     0.3503   397.4309
 2047.5000     0.3300   397.3790
 2048.0000     0.3813   397.3213
 2048.5000     0.4486   397.2753
 2049.0000     0.5326   397.2235
 2049.5000     0.6046   397.1717
 2050.0000     0.6881   397.1145
 2050.5000     0.7375   397.0680
 2051.0000     0.7674   397.0161
 2051.5000     0.7618   396.9643
 2052.0000     0.7484   396.9078
 2052.5000     0.7857   396.8606
 2053.0000     0.8659   396.8087
 2053.5000     1.0033   396.7569
 2054.0000     1.0404   396.7010
 2054.5000     1.0126   396.6532
 2055.0000     0.9120   396.6014
 2055.5000     0.8711   396.5496
 2056.0000     0.8721   396.4943
 2056.5000     0.8790   396.4459
 2057.0000     0.9061   396.3940
 2057.5000     0.9173   396.3422
 2058.0000     0.9287   396.2876
 2058.5000     0.8940   396.2285
 2059.0000     0.8237   396.1866
 2059.5000     0.7957   396.1348
 2060.0000     0.7966   396.0808
 2060.5000     0.8167   396.0218
 2061.0000     0.8671   395.9792
 2061.5000     0.9256   395.9274
 2062.0000     0.9402   395.8741
 2062.5000     0.8869   395.8150
 2063.0000     0.8164   395.7719
 2063.5000     0.7619   395.7200
 2064.0000     0.7213   395.6674
 2064.5000     0.7117   300.2166
 2065.0000     0.7160   269.4311
 2065.5000     0.7250   238.1187
 2066.0000     0.7359   208.8247
 2066.5000     0.7432   188.0283
 2067.0000     0.7589   175.5166
 2067.5000     0.7614   161.9730
 2068.0000     0.7715   154.6400
 2068.5000     0.7727   146.3469
 2069.0000     0.7736   144.1233
 2069.5000     0.7746   142.1025
 2070.0000     0.7652   146.1992
 2070.5000     0.7245   146.1402
 2071.0000     0.6888   146.0945
 2071.5000     0.6529   146.0426
 2072.0000     0.6541   145.9908
 2072.5000     0.6762   145.9334
 2073.0000     0.6935   143.5344
 2073.5000     0.7165   130.7109
 2074.0000     0.7421   112.2767
 2074.5000     0.7433   104.2520
 2075.0000     0.7442   100.0576
 2075.5000     0.7453   100.0058
 2076.0000     0.7463    99.9539
 2076.5000     0.7474    99.8978
 2077.0000     0.7381    99.8502
 2077.5000     0.7190   103.9458
 2078.0000     0.6679   104.3987
 2078.5000     0.6258   107.9896
 2079.0000     0.6375   107.9378
 2079.5000     0.6438   112.0334
 2080.0000     0.6289   113.0375
 2080.5000     0.6289   116.3882
 2081.0000     0.6289   116.6475
 2081.5000     0.6289   116.9332
 2082.0000     0.6289   117.1659
 2082.5000     0.6394   117.4251
 2083.0000     0.6936   117.6843
 2083.5000     0.7746   117.9700
 2084.0000     0.7966   118.2028
 2084.5000     0.7128   118.4620
 2085.0000     0.6529   118.7212
 2085.5000     0.6255   119.0069
 2086.0000     0.6184   119.2396
 2086.5000     0.6184   119.4988
 2087.0000     0.6289   119.7581
 2087.5000     0.6289   120.0438
 2088.0000     0.6523   120.2765
 2088.5000     0.7128   120.5357
 2089.0000     0.7574   120.7949
 2089.5000     0.7862   121.0806
 2090.0000     0.7487   121.3134
 2090.5000     0.6813   121.5726
 2091.0000     0.6604   121.8318
 2091.5000     0.6542   122.1175
 2092.0000     0.6709   122.3502
 2092.5000     0.6918   122.6094
 2093.0000     0.7023   122.8687
 2093.5000     0.7023   123.1544
 2094.0000     0.7128   123.3871
 2094.5000     0.7023   123.6463
 2095.0000     0.6813   123.9055
 2095.5000     0.6659   124.1912
 2096.0000     0.6370   124.4240
 2096.5000     0.6289   124.6832
 2097.0000     0.6289   124.9424
 2097.5000     0.6289   125.2281
 2098.0000     0.6289   125.4608
 2098.5000     0.6289   125.7201
 2099.0000     0.6289   125.9793
 2099.5000     0.6289   126.2650
 2100.0000     0.6289   126.4977
 2100.5000     0.6289   126.7569
 2101.0000     0.6289   127.0161
 2101.5000     0.6511   127.3018
 2102.0000     0.6912   127.5346
 2102.5000     0.7472   127.7938
 2103.0000     0.8176   128.0530
 2103.5000     0.8386   128.3387
 2104.0000     0.8137   128.5714
 2104.5000     0.7505   128.8306
 2105.0000     0.6918   129.0899
 2105.5000     0.6709   129.3756
 2106.0000     0.6709   129.6083
 2106.5000     0.6709   129.8675
 2107.0000     0.6813   130.1267
 2107.5000     0.6709   130.4124
 2108.0000     0.6813   130.6452
 2108.5000     0.6918   130.9044
 2109.0000     0.6909   131.1636
 2109.5000     0.7023   131.4493
 2110.0000     0.7023   131.6820
 2110.5000     0.7042   131.9412
 2111.0000     0.7128   132.2005
 2111.5000     0.7128   132.4862
 2112.0000     0.7032   132.7189
 2112.5000     0.6491   132.9781
 2113.0000     0.5451   133.2373
 2113.5000     0.4927   133.5230
 2114.0000     0.4978   133.7558
 2114.5000     0.5162   134.0150
 2115.0000     0.5346   134.2742
 2115.5000     0.5241   134.5599
 2116.0000     0.5082   134.7926
 2116.5000     0.4946   135.0518
 2117.0000     0.3861   135.3111
 2117.5000     0.2830   135.5968
 2118.0000     0.2944   135.8295
 2118.5000     0.3480   136.0887
 2119.0000     0.4100   136.3479
 2119.5000     0.4612   136.6336
 2120.0000     0.5046   136.8664
 2120.5000     0.5588   135.7182
 2121.0000     0.6202   133.1190
 2121.5000     0.6813   133.3525
 2122.0000     0.7379   133.5859
 2122.5000     0.7547   137.9032
 2123.0000     0.7547   138.1106
 2123.5000     0.7547   138.3539
 2124.0000     0.7547   142.6978
 2124.5000     0.7547   147.0276
 2125.0000     0.7517   147.2350
 2125.5000     0.7128   146.9604
 2126.0000     0.6604   135.2198
 2126.5000     0.6456   118.8634
 2127.0000     0.6394   111.1837
 2127.5000     0.6394   101.7245
 2128.0000     0.6709    98.7097
 2128.5000     0.7418    98.9431
 2129.0000     0.8008    99.1244
 2129.5000     0.8386    99.3318
 2130.0000     0.8491    99.0967
 2130.5000     0.8133    95.5991
 2131.0000     0.7814    95.8460
 2131.5000     0.7547    91.8663
 2132.0000     0.7547    91.1844
 2132.5000     0.7547    88.1337
 2133.0000     0.7547    88.3681
 2133.5000     0.7652    84.4009
 2134.0000     0.7862    83.2738
 2134.5000     0.7369    80.2617
 2135.0000     0.6274    76.7281
 2135.5000     0.5765    76.9761
 2136.0000     0.6184    77.1429
 2136.5000     0.6348    81.4977
 2137.0000     0.6427    81.7071
 2137.5000     0.6611    81.9406
 2138.0000     0.6813    82.1198
 2138.5000     0.7302    86.4746
 2139.0000     0.6391    86.6821
 2139.5000     0.5860    86.9050
 2140.0000     0.5765    87.0967
 2140.5000     0.6168    87.3041
 2141.0000     0.6786    87.5115
 2141.5000     0.7141    87.7220
 2142.0000     0.7442    87.9555
 2142.5000     0.7547    88.1337
 2143.0000     0.7442    88.3410
 2143.5000     0.7216    88.5557
 2144.0000     0.7128    88.7724
 2144.5000     0.7023    88.9631
 2145.0000     0.7068    89.1705
 2145.5000     0.7128    93.5253
 2146.0000     0.7128    93.7369
 2146.5000     0.7547    93.9704
 2147.0000     0.8158    94.1474
 2147.5000     0.9000    94.3549
 2148.0000     0.9644    94.5622
 2148.5000     0.9644    94.7873
 2149.0000     0.9644    94.9770
