~VERSION INFORMATION
 VERS.                2.0:   CWLS LOG ASCII STANDARD - VERSION 2.0
 WRAP.                 NO:   ONE LINE PER DEPTH STEP
~WELL INFORMATION
#MNEM.UNIT      DATA TYPE    INFORMATION
#----------   ------------   ------------------------------
 STRT.F           19.5000:   START DEPTH
 STOP.F          635.0000:   STOP DEPTH
 STEP.F            0.5000:   STEP LENGTH
 NULL.          -999.2500:   NO VALUE
 COMP. FENIX & SCISSON INC:   COMPANY
 WELL. NPR-3 68-S-34 #3-34:   WELL
 FLD .  TEAPOT DOME NPR-3:   FIELD
 LOC .      S34 T39N R78W:   LOCATION
 CNTY.            NATRONA:   COUNTY
 STAT.            WYOMING:   STATE
 CTRY. UNITED STATES OF AMERICA:   COUNTRY
 SRVC.           BIRDWELL:   SERVICE COMPANY
 DATE.        01-AUG-1978:   LOGDATE
 API .       490251070600:   API NUMBER
~CURVE INFORMATION
#MNEM.UNIT       API CODE    CURVE DESCRIPTION
#----------   ------------   ------------------------------
 DEPT.F                  :   
 SPR .MV     05 010 01 00:   SPONTANEOUS POTENTIAL
 SN  .OHMM   05 040 16 00:   SHORT NORMAL 16'
 ILD .OHMM   05 120 46 00:   INDUCTION LOG DEEP RESISTIVITY
 GRD .GAPI   45 310 01 00:   GAMMA RAY FROM DENSITY LOG
 CALD.IN     45 280 60 00:   CALIPER
 RHOB.G/C3   45 350 01 00:   BULK DENSITY
 DPHI.DEC    45 890 12 00:   DENSITY POROSITY SANDSTONE
 CORR.G/C3   45 356 01 00:   DENSITY CORRECTION
~PARAMETER INFORMATION
#MNEM.UNIT          VALUE    DESCRIPTION
#----------   ------------   ------------------------------
 PD  .                 GL:   PERMANENT DATUM
 EPD .F              5100:   ELEVATION PERMANENT DATUM
 LMF .                 KB:   LOG MEASURED FROM
 DAPD.F                 4:   FEET ABOVE PERMANENT DATUM
 DMF .                 KB:   DRILLING MEASURED FROM
 EKB .F              5104:   KELLING BUSHING
 EGL .F              5100:   GROUND LEVEL
 DATE.           9-1-1978:   RUN DATE
 RUN .                  1:   RUN NUMBER
 DD  .F               635:   DEPTH DRILLER
 DL  .F               635:   DEPTH LOGGER
 BLI .F               629:   BOTTOM LOG INTERVAL
 TLI .F                40:   TOP LOG INTERVAL
 CS  .IN            8.625:   CASING SIZE
 CBD .F                40:   CASING BOTTOM DRILLER
 CBL .F                40:   CASING BOTTOM LOGGER
 BS  .IN            7.875:   BIT SIZE
 BSD .F               635:   BIT SIZE AT DEPTH
 DFT .                KCL:   DRILLING FLUID TYPE
 DFD .                8.6:   DRILLING FLUID DENSITY
 DFV .                 32:   DRILLING FLUID VISCOSITY
 DFPH.                  9:   DRILLING FLUID PH
 DFL .                  7:   DRILLING FLUID LOSS
 MSS .          FLOW LINE:   MUD SAMPLE SOURCE
 RMS .OHMM             .4:   RESISTIVITY MUD SAMPLE
 MST .F                76:   MUD SAMPLE TEMPERATURE
 RMF .OHMM             .3:   RESISTIVITY MUD FILTRATE SAMPLE
 MFST.F                80:   MUD FILTRATE SAMPLE TEMPERATURE
 RMC .OHMM             .4:   RESISTIVITY MUD CAKE
 MCST.F                80:   MUD CAKE SAMPLE TEMPERATURE
 MFSS.               MEAS:   MUD FILTRATE SAMPLE SOURCE
 MCSS.               MEAS:   MUD CAKE SAMPLE SOURCE
 RMB .OHMM            .43:   RESISTIVITY MUD AT BHT
 BHT .F                70:   BOTTOM HOLE TEMPERATURE
 TCS .HRS               3:   TIME CURCULATED STOPPED
 MRT .F                70:   MAXIMUM RECORDED TEMPERATURE
 LUN .               2958:   LOGGING UNIT NUMBER
 LUL .               CASP:   LOGGING UNIT LOCATION
 ENGI.            POINTER:   RECORDING ENGINEER
 WITN.           MCGINLEY:   WITNESSED BY
 CLNT.            A2DTECH:   CLIENT CODE
 ORIG.           5" PRINT:   ORIGIN OF DATA
 UWI .       490251070600:   UNIQUE WELL ID
 DICO. A2D Technologies, Inc.:   DIGITIZING COMPANY
~OTHER INFORMATION
~A   DEPT      SPR         SN        ILD         GRD      CALD       RHOB       DPHI       CORR   
# ...
  505.5000   -10.7483    12.4999    16.6053    73.2498     7.3634     2.3813     0.1784     0.0232
  506.0000   -10.7812    12.4318    16.5788    77.1215     7.3625     2.3829     0.1801     0.0208
  506.5000   -10.8140    12.3642    16.4557    79.9910     7.3615     2.3820     0.1821     0.0185
  507.0000   -10.8469    12.2795    16.2282    79.0224     7.3606     2.3804     0.1825     0.0160
  507.5000   -10.8798    12.1880    16.0038    78.1386     7.3597     2.3788     0.1812     0.0170
  508.0000   -10.9127    12.0969    15.7825    77.6994     7.3588     2.3782     0.1767     0.0190
  508.5000   -10.9456    12.0082    15.5643    77.6982     7.3579     2.3817     0.1783     0.0212
  509.0000   -10.9785    12.0077    15.3491    77.6811     7.3570     2.3850     0.1798     0.0205
  509.5000   -11.0114    12.0080    15.1103    78.7955     7.3561     2.3837     0.1814     0.0194
  510.0000   -11.0443    12.0081    15.1207    79.5791     7.3552     2.3823     0.1791     0.0183
  510.5000   -11.0772    12.0081    15.1327    77.7126     7.3542     2.3814     0.1769     0.0171
  511.0000   -11.1101    12.0081    15.1446    75.9482     7.3533     2.3840     0.1787     0.0160
  511.5000   -11.1430    12.0081    15.1566    77.2440     7.3524     2.3842     0.1805     0.0135
  512.0000   -11.1759    12.0081    15.1685    80.5583     7.3515     2.3819     0.1812     0.0099
  512.5000   -11.2088    12.0081    15.1805    81.6798     7.3506     2.3801     0.1804     0.0135
  513.0000   -11.2419    12.0081    15.1925    81.8018     7.3530     2.3801     0.1796     0.0183
  513.5000   -11.2760    12.0081    15.2045    81.8893     7.3612     2.3801     0.1830     0.0232
  514.0000   -11.2935    12.0081    15.2165    81.9527     7.3746     2.3768     0.1901     0.0236
  514.5000   -11.3108    12.0081    15.2292    80.4303     7.3889     2.3663     0.1951     0.0203
  515.0000   -11.3282    12.0083    15.2409    77.8142     7.3888     2.3565     0.1933     0.0168
  515.5000   -11.3456    12.0099    15.2499    75.2109     7.3878     2.3574     0.1914     0.0134
  516.0000   -11.3630    12.0081    14.9699    72.6059     7.3870     2.3619     0.1865     0.0140
  516.5000   -11.3805    11.7698    14.7448    72.6406     7.3862     2.3702     0.1810     0.0196
  517.0000   -11.3979    11.5491    14.5231    74.6907     7.3855     2.3776     0.1775     0.0237
  517.5000   -11.4153    11.3558    14.3048    77.0602     7.3847     2.3821     0.1759     0.0240
  518.0000   -11.4324    11.3014    14.1687    77.6891     7.3839     2.3854     0.1731     0.0245
  518.5000   -11.4496    11.2472    14.1676    77.4607     7.3831     2.3890     0.1699     0.0250
  519.0000   -11.4702    11.1933    14.1687    77.2183     7.3824     2.3929     0.1668     0.0254
  519.5000   -11.6339    11.1397    14.1689    78.0673     7.3816     2.4020     0.1636     0.0263
  520.0000   -11.9782    11.0864    14.1687    80.0019     7.3808     2.4108     0.1607     0.0275
  520.5000   -12.2842    11.0332    13.9969    81.9440     7.3800     2.4143     0.1606     0.0275
  521.0000   -12.2764    10.9804    13.7580    83.6697     7.3793     2.4121     0.1604     0.0275
  521.5000   -12.2753    10.9278    13.6461    82.7836     7.3785     2.4139     0.1621     0.0275
  522.0000   -12.2751    10.8754    13.5933    81.7880     7.3777     2.4160     0.1667     0.0275
  522.5000   -12.2773    10.8233    13.5402    83.4565     7.3769     2.4122     0.1707     0.0237
  523.0000   -12.3794    10.7715    13.4867    83.9921     7.3761     2.3975     0.1660     0.0197
  523.5000   -12.6034    10.7199    13.4336    81.3017     7.3754     2.3949     0.1589     0.0211
  524.0000   -12.8265    10.6681    13.3807    79.0473     7.3746     2.4084     0.1524     0.0224
  524.5000   -13.0515    10.6400    13.3280    79.7122     7.3738     2.4230     0.1510     0.0233
  525.0000   -13.2674    10.6189    13.2613    80.3974     7.3730     2.4301     0.1551     0.0218
  525.5000   -13.2749    10.5980    13.1364    80.0181     7.3723     2.4280     0.1600     0.0203
  526.0000   -13.2737    10.5771    13.0126    79.0475     7.3715     2.4257     0.1602     0.0188
  526.5000   -13.2734    10.5563    12.8900    78.0134     7.3707     2.4153     0.1603     0.0178
  527.0000   -13.2734    10.5355    12.8061    76.9508     7.3691     2.4147     0.1543     0.0240
  527.5000   -13.2734    10.5147    12.8061    77.5792     7.3603     2.4199     0.1549     0.0264
  528.0000   -13.2734    10.4940    12.8061    78.9257     7.3514     2.4248     0.1567     0.0271
  528.5000   -13.2734    10.4733    12.8061    79.5304     7.3426     2.4209     0.1585     0.0242
  529.0000   -13.2734    10.4527    12.8061    79.6577     7.3337     2.4165     0.1584     0.0211
  529.5000   -13.2734    10.4321    12.8064    79.7578     7.3249     2.4174     0.1571     0.0195
  530.0000   -13.2734    10.4115    12.8066    80.1723     7.3160     2.4209     0.1558     0.0195
  530.5000   -13.2730    10.3910    12.8083    81.8449     7.3072     2.4244     0.1538     0.0200
  531.0000   -13.2724    10.3705    12.6497    83.0895     7.2983     2.4263     0.1497     0.0217
  531.5000   -13.2771    10.3501    12.5122    80.7480     7.2895     2.4268     0.1459     0.0235
  532.0000   -13.5034    10.3297    12.3760    78.3715     7.2806     2.4341     0.1424     0.0276
  532.5000   -14.0830    10.3093    12.2417    78.3791     7.2710     2.4452     0.1369     0.0317
  533.0000   -14.3264    10.2891    12.1189    79.9655     7.2940     2.4529     0.1308     0.0353
  533.5000   -14.4146    10.2706    12.1189    81.5518     7.3241     2.4608     0.1332     0.0333
  534.0000   -14.4996    10.2709    12.1189    81.4303     7.3543     2.4613     0.1418     0.0309
  534.5000   -14.5850    10.2709    12.1189    79.9761     7.3694     2.4510     0.1527     0.0271
  535.0000   -14.6707    10.2709    12.1189    78.6159     7.3680     2.4337     0.1615     0.0255
  535.5000   -14.7563    10.2709    12.1189    78.3517     7.3666     2.4199     0.1619     0.0254
  536.0000   -14.8429    10.2709    12.1189    79.6459     7.3652     2.4107     0.1617     0.0278
  536.5000   -14.8700    10.2709    12.1189    81.7001     7.3639     2.4166     0.1496     0.0366
  537.0000   -14.8704    10.2709    12.1189    83.7452     7.3625     2.4331     0.1323     0.0518
  537.5000   -14.8703    10.2709    12.1189    83.9321     7.3611     2.4551     0.1256     0.0669
  538.0000   -14.8703    10.2709    12.1189    81.8773     7.3598     2.4771     0.1276     0.0680
  538.5000   -14.8705    10.2709    12.1189    83.2809     7.3584     2.4861     0.1375     0.0504
  539.0000   -14.8720    10.2709    12.1189    84.8552     7.3570     2.4649     0.1433     0.0288
  539.5000   -14.8613    10.2709    12.1189    85.9122     7.3557     2.4499     0.1436     0.0210
  540.0000   -14.6524    10.2709    12.1189    82.8238     7.3543     2.4420     0.1440     0.0184
  540.5000   -14.4452    10.2709    12.1189    78.4754     7.3529     2.4424     0.1437     0.0179
  541.0000   -14.2394    10.2709    12.1173    75.0297     7.3516     2.4430     0.1434     0.0210
  541.5000   -14.0332    10.2709    12.1139    75.3513     7.3502     2.4435     0.1455     0.0242
  542.0000   -13.8282    10.2709    12.3163    79.1427     7.3502     2.4443     0.1532     0.0263
  542.5000   -13.6811    10.2709    12.5687    78.9327     7.3425     2.4344     0.1496     0.0277
  543.0000   -13.7431    10.2709    12.8061    78.3327     7.3339     2.4300     0.1440     0.0291
  543.5000   -13.8002    10.2709    12.8061    78.2383     7.3253     2.4386     0.1385     0.0305
  544.0000   -13.8528    10.2709    12.7422    76.2282     7.3167     2.4473     0.1412     0.0309
  544.5000   -14.1932    10.2709    12.2816    74.9042     7.3108     2.4458     0.1460     0.0291
  545.0000   -14.6180    10.2709    11.9787    77.0371     7.3162     2.4415     0.1431     0.0277
  545.5000   -14.8721    10.2709    11.9033    79.8241     7.3214     2.4386     0.1382     0.0331
