~VERSION INFORMATION
 VERS.                2.0:   CWLS LOG ASCII STANDARD - VERSION 2.0
 WRAP.                 NO:   ONE LINE PER DEPTH STEP
~WELL INFORMATION
#MNEM.UNIT      DATA TYPE    INFORMATION
#----------   ------------   ------------------------------
 STRT.F            2.0000:   START DEPTH
 STOP.F          564.0000:   STOP DEPTH
 STEP.F            0.5000:   STEP LENGTH
 NULL.          -999.2500:   NO VALUE
 COMP.       F D SERV INC:   COMPANY
 WELL. NAVAL PETROLEUM RESERVE 3 SX-3 #88-2-3:   WELL
 FLD .             TEAPOT:   FIELD
 LOC .       S3 T38N R78W:   LOCATION
 CNTY.            NATRONA:   COUNTY
 STAT.            WYOMING:   STATE
 CTRY. UNITED STATES OF AMERICA:   COUNTRY
 SRVC.      Western Atlas:   SERVICE COMPANY
 DATE.        29-OCT-1992:   LOGDATE
 API .       490252255900:   API NUMBER
~CURVE INFORMATION
#MNEM.UNIT       API CODE    CURVE DESCRIPTION
#----------   ------------   ------------------------------
 DEPT.F                  :   
 GRR .GAPI   07 310 01 00:   GAMMA RAY
 RILD.OHMM   07 120 46 00:   INDUCTION LOG DEEP RESISTIVITY
 RILM.OHMM   07 120 44 00:   INDUCTION LOG MEDIUM RESISTIVITY
~PARAMETER INFORMATION
#MNEM.UNIT          VALUE    DESCRIPTION
#----------   ------------   ------------------------------
 PD  .                 GL:   PERMANENT DATUM
 EPD .F              5138:   ELEVATION PERMANENT DATUM
 LMF .                 KB:   LOG MEASURED FROM
 DAPD.F                10:   FEET ABOVE PERMANENT DATUM
 DMF .                 KB:   DRILLING MEASURED FROM
 EKB .F              5148:   KELLING BUSHING
 EDF .F              5147:   DRILLING FLOOR
 EGL .F              5138:   GROUND LEVEL
 DATE.        29-OCT-1992:   RUN DATE
 RUN .                  1:   RUN NUMBER
 DD  .F               570:   DEPTH DRILLER
 DL  .F               572:   DEPTH LOGGER
 BLI .F               564:   BOTTOM LOG INTERVAL
 CS  .IN            8.625:   CASING SIZE
 CBD .F                98:   CASING BOTTOM DRILLER
 CBL .F                98:   CASING BOTTOM LOGGER
 BS  .IN            7.875:   BIT SIZE
 BSD .F               570:   BIT SIZE AT DEPTH
 DFT .           AIR FOAM:   DRILLING FLUID TYPE
 TCS .HRS               2:   TIME CURCULATED STOPPED
 MRT .F                60:   MAXIMUM RECORDED TEMPERATURE
 LUN .            HL-6274:   LOGGING UNIT NUMBER
 LUL .             CASPER:   LOGGING UNIT LOCATION
 ENGI.             RAUTIO:   RECORDING ENGINEER
 WITN.     BRUCE ANDERSON:   WITNESSED BY
 CLNT.            A2DTECH:   CLIENT CODE
 ORIG.           5" PRINT:   ORIGIN OF DATA
 UWI .       490252255900:   UNIQUE WELL ID
 DICO. A2D Technologies, Inc.:   DIGITIZING COMPANY
~OTHER INFORMATION
~A    DEPT      GRR      RILD       RILM   
# ...
  275.0000   129.5626     8.3342     8.5089
  275.5000   134.0839     8.2767     8.4492
  276.0000   135.8917     8.2197     8.3317
  276.5000   131.6649     8.1630     8.2731
  277.0000   128.3438     8.1018     8.2150
  277.5000   128.0386     8.0508     8.1573
  278.0000   127.4324     7.9802     8.0360
  278.5000   127.1279     7.8854     7.8233
  279.0000   127.7284     7.7770     7.6615
  279.5000   130.2293     7.6172     7.3490
  280.0000   134.0568     7.1573     6.9877
  280.5000   134.9597     6.7251     6.4417
  281.0000   133.1462     6.1893     6.0102
  281.5000   131.3233     5.5024     5.6466
  282.0000   130.7265     4.9257     5.1036
  282.5000   129.5170     4.2009     4.2505
  283.0000   126.1959     3.6580     3.8045
  283.5000   122.2715     3.2195     3.2895
  284.0000   119.8553     2.8122     2.9401
  284.5000   125.5833     2.6241     2.6906
  285.0000   127.3911     2.5525     2.5988
  285.5000   123.4660     2.5001     2.5806
  286.0000   119.4208     2.4828     2.6360
  286.5000   115.9181     2.5525     2.7456
  287.0000   114.4070     2.7354     2.9419
  287.5000   117.1190     3.1414     3.3781
  288.0000   123.2700     3.4752     3.7534
  288.5000   133.7039     3.9200     4.0992
  289.0000   135.5117     4.3488     4.5785
  289.5000   136.1122     4.9943     5.0786
  290.0000   137.9185     5.5483     5.6023
  290.5000   141.8366     5.9788     6.0779
  291.0000   139.4204     6.1893     6.3787
  291.5000   137.6076     6.3630     6.5117
  292.0000   136.3981     6.4964     6.5561
  292.5000   138.8078     6.5415     6.6007
  293.0000   139.4090     6.5415     6.5997
  293.5000   139.7071     6.4071     6.4632
  294.0000   140.0060     6.1042     6.1978
  294.5000   140.6064     5.7249     5.8647
  295.0000   141.8095     5.3152     5.4342
  295.5000   143.0133     5.0639     5.0702
  296.0000   144.5187     4.8580     4.7956
  296.5000   147.8743     4.7235     4.5690
  297.0000   151.7521     4.5646     4.5056
  297.5000   153.8616     4.5019     4.4739
  298.0000   150.8414     4.5019     4.4729
  298.5000   145.7104     4.5332     4.5664
  299.0000   138.4670     4.7253     4.8930
  299.5000   136.9559     4.9943     5.2067
  300.0000   136.3504     5.2974     5.5024
  300.5000   140.8544     5.6475     5.8146
  301.0000   142.6512     6.0621     6.1875
  301.5000   138.1044     6.4071     6.6299
  302.0000   136.5390     6.7718     6.9580
  302.5000   138.3710     6.9619     7.2020
  303.0000   138.3529     7.1573     7.4069
  303.5000   138.3316     7.3582     7.6096
  304.0000   138.3141     7.5125     7.7149
  304.5000   137.3916     7.6701     7.7674
  305.0000   136.7708     7.7770     7.8203
  305.5000   138.2616     7.6701     7.6584
  306.0000   140.3557     7.5647     7.5000
  306.5000   141.8863     7.4463     7.3959
  307.0000   143.3328     7.3074     7.2400
  307.5000   142.7120     7.2070     7.0930
  308.0000   142.0912     7.0102     6.9463
  308.5000   142.9786     6.9600     6.7092
  309.0000   144.1678     6.7103     6.4802
  309.5000   144.4927     6.2755     6.2590
  310.0000   142.3228     6.0621     6.0036
  310.5000   142.0036     5.8966     5.7190
  311.0000   142.5894     5.5790     5.4068
  311.5000   142.8692     5.3521     5.2194
  312.0000   144.0583     5.2422     5.0820
  312.5000   147.0574     5.1701     5.0117
  313.0000   149.7548     5.2830     5.2961
  313.5000   146.7207     5.5024     5.8340
  314.0000   143.3443     5.6961     6.2512
  314.5000   140.6481     5.9375     6.5606
  315.0000   138.8250     6.2322     6.8868
  315.5000   142.7247     6.5870     7.1344
  316.0000   145.1204     6.9619     7.3763
  316.5000   144.8013     7.2070     7.5301
  317.0000   145.0854     7.4093     7.5816
  317.5000   146.2745     7.4607     7.6332
  318.0000   148.0669     7.4607     7.6319
  318.5000   143.8218     7.5125     7.6839
  319.0000   141.0894     7.5647     7.7364
  319.5000   138.9603     7.6172     7.7889
  320.0000   140.1494     7.6701     7.7876
  320.5000   140.4379     7.6701     7.7328
  321.0000   141.3210     7.7234     7.7318
  321.5000   143.4550     7.7234     7.6775
  322.0000   147.9181     7.6701     7.6235
  322.5000   150.0165     7.6172     7.5699
  323.0000   146.3747     7.5647     7.5689
  323.5000   143.3406     7.5125     7.5678
  324.0000   142.1165     7.5647     7.5666
  324.5000   143.0039     7.5647     7.5656
  325.0000   145.7014     7.5647     7.5646
  325.5000   147.5334     7.5647     7.5635
  326.0000   149.2819     7.6172     7.5625
  326.5000   152.5826     7.6172     7.6141
  327.0000   157.9949     7.5647     7.3541
  327.5000   160.0934     7.2570     7.1962
  328.0000   156.4516     6.9619     7.0042
  328.5000   152.2109     6.5415     6.8594
  329.0000   149.1564     6.1893     6.4891
  329.5000   151.5681     5.8933     5.9713
  330.0000   154.5672     5.6961     5.8075
  330.5000   157.2646     5.6178     5.8067
  331.0000   158.1565     5.6568     5.8462
  331.5000   156.9279     5.6961     5.8860
  332.0000   153.2905     5.7356     5.9670
  332.5000   149.0498     5.6961     6.0494
  333.0000   148.4284     5.6178     5.9654
  333.5000   149.9153     5.5406     5.5659
  334.0000   149.5962     5.4584     5.2654
  334.5000   149.2770     5.3893     5.0506
  335.0000   150.4661     5.4644     5.1203
  335.5000   151.9569     5.5024     5.4144
  336.0000   153.1460     5.5024     5.6394
  336.5000   147.5577     5.5790     5.7570
  337.0000   139.8336     5.6178     5.9588
  337.5000   138.0061     5.8156     6.2106
  338.0000   137.6913     6.1996     6.5180
  338.5000   140.6860     6.5870     6.7465
  339.0000   142.1768     6.8662     6.9831
  339.5000   140.3493     7.0589     7.0795
  340.0000   136.4102     6.8662     6.7436
  340.5000   131.5656     6.5870     6.2054
  341.0000   134.8625     6.3191     5.9112
  341.5000   137.8616     5.8559     5.5535
  342.0000   144.7823     5.5729     5.3640
  342.5000   147.1780     5.3521     5.2168
  343.0000   149.2721     5.2786     5.1444
  343.5000   150.7629     5.2786     5.2177
  344.0000   149.2167     5.2786     5.3983
  344.5000   148.0086     5.3152     5.5874
  345.0000   146.4827     5.4644     5.8639
  345.5000   143.1470     5.9375     6.2399
  346.0000   138.0013     6.3244     6.6861
  346.5000   135.5705     6.8341     6.9205
  347.0000   135.8546     7.2570     7.3135
  347.5000   138.5520     7.4607     7.6251
  348.0000   141.9730     7.7234     7.7277
  348.5000   145.7524     7.7234     7.7264
  349.0000   146.6443     7.8310     7.7793
  349.5000   141.7958     7.9953     7.8866
  350.0000   138.9276     8.0508     7.9403
  350.5000   135.4383     8.0482     7.9390
  351.0000   133.9244     8.1025     8.0486
  351.5000   132.9764     8.2703     8.2161
  352.0000   131.4984     8.3258     8.3298
  352.5000   133.9060     8.3806     8.4445
  353.0000   136.0119     8.3779     8.4360
  353.5000   134.4966     8.3757     8.3838
  354.0000   133.5874     8.3720     8.3249
  354.5000   136.2952     8.3131     8.3238
  355.0000   138.4012     8.3109     8.3285
  355.5000   135.3775     8.3670     8.3794
  356.0000   134.1652     8.4224     8.4365
  356.5000   133.2545     8.5962     8.5530
  357.0000   129.3152     8.8352     8.7354
  357.5000   126.3037     8.8948     9.0368
  358.0000   125.3930     8.2883     8.9734
  358.5000   126.8957     7.4254     8.4304
  359.0000   128.4423     6.6915     7.2230
  359.5000   130.2026     6.2859     5.8001
  360.0000   132.0055     6.1523     5.1916
  360.5000   142.5579     6.0685     4.9798
  361.0000   151.4530     6.0670     5.4887
  361.5000   153.1046     6.0236     6.2123
  362.0000   144.9527     5.9804     6.6106
  362.5000   136.5006     6.0618     7.1325
  363.0000   129.5554     6.9598     7.6426
  363.5000   129.8514     7.8266     8.2457
  364.0000   131.9574     8.6374     8.8353
  364.5000   129.5384     9.4944     9.4018
  365.0000   125.6098     9.8943     9.5978
  365.5000   123.4925     9.8235     9.7303
