~VERSION INFORMATION
 VERS.                2.0:   CWLS LOG ASCII STANDARD - VERSION 2.0
 WRAP.                 NO:   ONE LINE PER DEPTH STEP
~WELL INFORMATION
#MNEM.UNIT      DATA TYPE    INFORMATION
#----------   ------------   ------------------------------
 STRT.F         1379.5000:   START DEPTH
 STOP.F         2168.0000:   STOP DEPTH
 STEP.F            0.5000:   STEP LENGTH
 NULL.          -999.2500:   NO VALUE
 COMP.   FLUOR DANIEL INC:   COMPANY
 WELL. NAVAL PETROLEUM RESERVE 3  83-5-STX-10 #83-5-10:   WELL
 FLD .            WILDCAT:   FIELD
 LOC .      S10 T38N R78W:   LOCATION
 CNTY.            NATRONA:   COUNTY
 STAT.            WYOMING:   STATE
 CTRY. UNITED STATES OF AMERICA:   COUNTRY
 SRVC.            Unknown:   SERVICE COMPANY
 DATE.        20-JAN-1995:   LOGDATE
 API .       490252265500:   API NUMBER
~CURVE INFORMATION
#MNEM.UNIT       API CODE    CURVE DESCRIPTION
#----------   ------------   ------------------------------
 DEPT.F                  :   
 C1  .VF     91 831 01 00:   METHANE
 C2  .VF     91 832 01 00:   ETHANE
 ROP .FT/HR  91 810 01 00:   RAT OF DRILLING PENETRATION
 TGAS.TC/CC  91 830 01 00:   TOTAL GAS UNIT
~PARAMETER INFORMATION
#MNEM.UNIT          VALUE    DESCRIPTION
#----------   ------------   ------------------------------
 DATE.        20-JAN-1995:   RUN DATE
 BLI .F              2165:   BOTTOM LOG INTERVAL
 TLI .F              1380:   TOP LOG INTERVAL
 CLNT.            A2DTECH:   CLIENT CODE
 ORIG.         2.5" PRINT:   ORIGIN OF DATA
 UWI .       490252265500:   UNIQUE WELL ID
 DICO. A2D Technologies, Inc.:   DIGITIZING COMPANY
~OTHER INFORMATION
~A  DEPT        C1         C2        ROP        TGAS  
# ...
 2036.5000  -999.2500  -999.2500     0.5477   587.5446
 2037.0000  -999.2500  -999.2500     0.5474   587.5074
 2037.5000  -999.2500  -999.2500     0.5471   587.4702
 2038.0000  -999.2500  -999.2500     0.5468   587.4330
 2038.5000  -999.2500  -999.2500     0.5466   587.3958
 2039.0000  -999.2500  -999.2500     0.5463   587.3586
 2039.5000  -999.2500  -999.2500     0.5461   587.3215
 2040.0000  -999.2500  -999.2500     0.5457   587.2842
 2040.5000  -999.2500  -999.2500     0.5272   587.2471
 2041.0000  -999.2500  -999.2500     0.5635   587.2099
 2041.5000  -999.2500  -999.2500     0.7648   587.1727
 2042.0000  -999.2500  -999.2500     0.7644   587.1356
 2042.5000  -999.2500  -999.2500     0.7642   587.0983
 2043.0000  -999.2500  -999.2500     0.7639   587.0612
 2043.5000  -999.2500  -999.2500     0.7636   587.0240
 2044.0000  -999.2500  -999.2500     0.7633   586.9868
 2044.5000  -999.2500  -999.2500     0.7631   586.9496
 2045.0000  -999.2500  -999.2500     0.7628   586.9125
 2045.5000  -999.2500  -999.2500     0.8542   586.8752
 2046.0000  -999.2500  -999.2500     0.8538   586.8381
 2046.5000  -999.2500  -999.2500     0.8535   586.8009
 2047.0000  -999.2500  -999.2500     0.8899   586.7637
 2047.5000  -999.2500  -999.2500     0.6698   586.7266
 2048.0000  -999.2500  -999.2500     0.6146   586.6893
 2048.5000  -999.2500  -999.2500     0.6143   586.6522
 2049.0000  -999.2500  -999.2500     0.8155   586.6150
 2049.5000  -999.2500  -999.2500     0.7787   586.5778
 2050.0000  -999.2500  -999.2500     0.7783   586.5406
 2050.5000  -999.2500  -999.2500     0.7781   586.5079
 2051.0000  -999.2500  -999.2500     0.7778   586.5551
 2051.5000  -999.2500  -999.2500     0.9058   593.9677
 2052.0000  -999.2500  -999.2500     0.9055   645.6425
 2052.5000  -999.2500  -999.2500     0.9052   682.5631
 2053.0000  -999.2500  -999.2500     0.7584   800.6372
 2053.5000  -999.2500  -999.2500     0.6849   667.8858
 2054.0000  -999.2500  -999.2500     0.6846   616.2760
 2054.5000  -999.2500  -999.2500     0.7027   586.8091
 2055.0000  -999.2500  -999.2500     0.7024   586.8505
 2055.5000  -999.2500  -999.2500     0.7388   579.4971
 2056.0000  -999.2500  -999.2500     0.6102   564.7843
 2056.5000  -999.2500  -999.2500     0.5916   564.8257
 2057.0000  -999.2500  -999.2500     0.6097   557.4781
 2057.5000  -999.2500  -999.2500     0.6094   557.5254
 2058.0000  -999.2500  -999.2500     0.6091   557.5608
 2058.5000  -999.2500  -999.2500     0.6088   550.2192
 2059.0000  -999.2500  -999.2500     1.2130   550.2605
 2059.5000  -999.2500  -999.2500     1.2860   550.2960
 2060.0000  -999.2500  -999.2500     1.2857   550.3314
 2060.5000  -999.2500  -999.2500     1.2854   542.9839
 2061.0000  -999.2500  -999.2500     1.3035   543.0311
 2061.5000  -999.2500  -999.2500     0.7354   543.0666
 2062.0000  -999.2500  -999.2500     0.7168   543.1021
 2062.5000  -999.2500  -999.2500     0.7165   543.1375
 2063.0000  -999.2500  -999.2500     0.7163   550.5558
 2063.5000  -999.2500  -999.2500     0.7343   550.5912
 2064.0000  -999.2500  -999.2500     0.7524   550.6267
 2064.5000  -999.2500  -999.2500     0.7521   550.6622
 2065.0000  -999.2500  -999.2500     0.7518   558.0806
 2065.5000  -999.2500  -999.2500     0.5500   558.1160
 2066.0000  -999.2500  -999.2500     0.5315   558.1514
 2066.5000  -999.2500  -999.2500     0.5317   558.1869
 2067.0000  -999.2500  -999.2500     0.5324   558.2282
 2067.5000  -999.2500  -999.2500     0.5331   558.2637
 2068.0000  -999.2500  -999.2500     0.5338   558.2991
 2068.5000  -999.2500  -999.2500     0.5345   536.2034
 2069.0000  -999.2500  -999.2500     0.5352   528.8559
 2069.5000  -999.2500  -999.2500     0.5359   506.7602
 2070.0000  -999.2500  -999.2500     0.5365   499.4245
 2070.5000  -999.2500  -999.2500     0.5372   484.7117
 2071.0000  -999.2500  -999.2500     0.5379   469.9871
 2071.5000  -999.2500  -999.2500     0.5386   447.8973
 2072.0000  -999.2500  -999.2500     0.5393   440.5557
 2072.5000  -999.2500  -999.2500     0.5400   418.4659
 2073.0000  -999.2500  -999.2500     0.5407   411.1184
 2073.5000  -999.2500  -999.2500     0.5413   381.6575
 2074.0000  -999.2500  -999.2500     0.5420   359.5617
 2074.5000  -999.2500  -999.2500     0.5427   344.8431
 2075.0000  -999.2500  -999.2500     0.5434   322.7415
 2075.5000  -999.2500  -999.2500     0.5441   300.6458
 2076.0000  -999.2500  -999.2500     0.6726   293.3042
 2076.5000  -999.2500  -999.2500     0.6722   285.9684
 2077.0000  -999.2500  -999.2500     0.6720   271.2498
 2077.5000  -999.2500  -999.2500     0.6717   263.9082
 2078.0000  -999.2500  -999.2500     0.6714   263.9554
 2078.5000  -999.2500  -999.2500     0.6711   263.9909
 2079.0000  -999.2500  -999.2500     0.6709   256.6433
 2079.5000  -999.2500  -999.2500     0.6706   249.3076
 2080.0000  -999.2500  -999.2500     1.2930   241.9601
 2080.5000  -999.2500  -999.2500     1.3111   242.0074
 2081.0000  -999.2500  -999.2500     1.3291   242.0428
 2081.5000  -999.2500  -999.2500     1.3288   242.0842
 2082.0000  -999.2500  -999.2500     0.8340   249.4966
 2082.5000  -999.2500  -999.2500     0.8338   256.9091
 2083.0000  -999.2500  -999.2500     0.8335   264.3216
 2083.5000  -999.2500  -999.2500     0.8332   264.3629
 2084.0000  -999.2500  -999.2500     0.5765   264.3984
 2084.5000  -999.2500  -999.2500     0.5396   271.8109
 2085.0000  -999.2500  -999.2500     0.5394   271.8463
 2085.5000  -999.2500  -999.2500     0.5390   286.6418
 2086.0000  -999.2500  -999.2500     0.6853   294.0543
 2086.5000  -999.2500  -999.2500     0.7583   294.0897
 2087.0000  -999.2500  -999.2500     0.7580   301.5022
 2087.5000  -999.2500  -999.2500     0.7761   323.6747
 2088.0000  -999.2500  -999.2500     0.7758   323.7101
 2088.5000  -999.2500  -999.2500     0.7572   331.1226
 2089.0000  -999.2500  -999.2500     0.7569   345.9121
 2089.5000  -999.2500  -999.2500     1.1047   360.7076
 2090.0000  -999.2500  -999.2500     1.1228   390.2512
 2090.5000  -999.2500  -999.2500     1.1224   412.4178
 2091.0000  -999.2500  -999.2500     1.1221   441.9615
 2091.5000  -999.2500  -999.2500     1.1401   478.8880
 2092.0000  -999.2500  -999.2500     0.8652   523.1857
 2092.5000  -999.2500  -999.2500     0.8649   560.1064
 2093.0000  -999.2500  -999.2500     0.8646   582.2731
 2093.5000  -999.2500  -999.2500     0.8644   589.6914
 2094.0000  -999.2500  -999.2500     0.8641   589.7269
 2094.5000  -999.2500  -999.2500     0.8638   589.7623
 2095.0000  -999.2500  -999.2500     0.8818   589.7977
 2095.5000  -999.2500  -999.2500     0.7351   589.8391
 2096.0000  -999.2500  -999.2500     0.5333   589.8745
 2096.5000  -999.2500  -999.2500     0.5330   589.9099
 2097.0000  -999.2500  -999.2500     0.5328   589.9454
 2097.5000  -999.2500  -999.2500     0.5508   589.9868
 2098.0000  -999.2500  -999.2500     0.5689   597.3992
 2098.5000  -999.2500  -999.2500     0.5686   604.8117
 2099.0000  -999.2500  -999.2500     0.5683   619.6013
 2099.5000  -999.2500  -999.2500     0.5497   649.1508
 2100.0000  -999.2500  -999.2500     0.5678   678.6885
 2100.5000  -999.2500  -999.2500     0.5649   706.5732
 2101.0000  -999.2500  -999.2500     0.5620   734.4579
 2101.5000  -999.2500  -999.2500     0.5592   767.8025
 2102.0000  -999.2500  -999.2500     0.5563   775.3564
 2102.5000  -999.2500  -999.2500     0.5534   790.2872
 2103.0000  -999.2500  -999.2500     0.5505   790.4641
 2103.5000  -999.2500  -999.2500     0.5678   790.6703
 2104.0000  -999.2500  -999.2500     0.8059   790.8471
 2104.5000  -999.2500  -999.2500     0.8059   791.0240
 2105.0000  -999.2500  -999.2500     0.8059   791.2008
 2105.5000  -999.2500  -999.2500     0.8059   791.4071
 2106.0000  -999.2500  -999.2500     0.8059   791.5839
 2106.5000  -999.2500  -999.2500     0.8059   799.1378
 2107.0000  -999.2500  -999.2500     0.8059   799.3145
 2107.5000  -999.2500  -999.2500     0.8608   792.0848
 2108.0000  -999.2500  -999.2500     0.9341   792.3206
 2108.5000  -999.2500  -999.2500     0.9341   792.4974
 2109.0000  -999.2500  -999.2500     0.9341   785.2678
