~VERSION INFORMATION
 VERS.                2.0:   CWLS LOG ASCII STANDARD - VERSION 2.0
 WRAP.                 NO:   ONE LINE PER DEPTH STEP
~WELL INFORMATION
#MNEM.UNIT      DATA TYPE    INFORMATION
#----------   ------------   ------------------------------
 STRT.F           31.0000:   START DEPTH
 STOP.F          600.0000:   STOP DEPTH
 STEP.F            0.5000:   STEP LENGTH
 NULL.          -999.2500:   NO VALUE
 COMP. FENIX & SCISSON INC:   COMPANY
 WELL.      NPR 3 #84 S-3:   WELL
 FLD .             TEAPOT:   FIELD
 LOC .       S3 T38N R78W:   LOCATION
 CNTY.            NATRONA:   COUNTY
 STAT.            WYOMING:   STATE
 CTRY. UNITED STATES OF AMERICA:   COUNTRY
 SRVC.              Welex:   SERVICE COMPANY
 DATE.        29-MAR-1977:   LOGDATE
 API .       490251032000:   API NUMBER
~CURVE INFORMATION
#MNEM.UNIT       API CODE    CURVE DESCRIPTION
#----------   ------------   ------------------------------
 DEPT.F                  :   
 CALD.IN     45 280 60 00:   CALIPER FROM DENSITY LOG
 GRD .GAPI   45 310 01 00:   GAMMA RAY FROM DENSITY LOG
 CORR.G/C3   45 356 01 00:   DENSITY CORRECTION
 DPHI.DEC    45 890 12 00:   DENSITY POROSITY SANDSTONE
 RHOB.G/C3   45 350 01 00:   BULK DENSITY
 SPR .MV     07 010 01 00:   SPONTANEOUS POTENTIAL
 ILD .OHMM   07 120 46 00:   INDUCTION LOG DEEP
 ILM .OHMM   07 120 44 00:   INDUCTION LOG MEDIUM
 SGRD.OHMM   07 221 05 00:   SHALLOW SHORT GUARD RESISTIVITY
~PARAMETER INFORMATION
#MNEM.UNIT          VALUE    DESCRIPTION
#----------   ------------   ------------------------------
 PD  .                 GL:   PERMANENT DATUM
 EPD .F              5146:   ELEVATION PERMANENT DATUM
 LMF .                 GL:   LOG MEASURED FROM
 DMF .                 GL:   DRILLING MEASURED FROM
 EGL .F              5146:   GROUND LEVEL
 DATE.        29-MAR-1977:   RUN DATE
 RUN .                  1:   RUN NUMBER
 DD  .F               610:   DEPTH DRILLER
 DL  .F               602:   DEPTH LOGGER
 BLI .F               600:   BOTTOM LOG INTERVAL
 TLI .F                30:   TOP LOG INTERVAL
 CS  .IN            8.625:   CASING SIZE
 BSD .F               610:   BIT SIZE AT DEPTH
 DFT .                KCL:   DRILLING FLUID TYPE
 DFD .                8.8:   DRILLING FLUID DENSITY
 BHT .F                63:   BOTTOM HOLE TEMPERATURE
 TCS .HRS            0500:   TIME CURCULATED STOPPED
 MRT .F                63:   MAXIMUM RECORDED TEMPERATURE
 ENGI.            C. DOAK:   RECORDING ENGINEER
 WITN.            R. LYON:   WITNESSED BY
 CLNT.            A2DTECH:   CLIENT CODE
 ORIG.           5" PRINT:   ORIGIN OF DATA
 UWI .       490251032000:   UNIQUE WELL ID
 DICO. A2D Technologies, Inc.:   DIGITIZING COMPANY
~OTHER INFORMATION
~A   DEPT     CALD        GRD       CORR       DPHI       RHOB        SPR        ILD        ILM       SGRD   
# ...
  323.0000     7.9303   124.7669     0.0102     0.1062     2.4701   -46.1216     6.2763     7.4724     9.6038
  323.5000     7.9172   124.9279     0.0058     0.1086     2.4650   -46.2615     6.2350     7.2719     9.3486
  324.0000     7.9190   125.0889    -0.0001     0.1128     2.4583   -44.3090     6.1102     7.0759     9.3557
  324.5000     7.9208   125.3989    -0.0046     0.1181     2.4539   -45.6315     5.8645     7.0313     9.2964
  325.0000     7.9226   126.0070    -0.0045     0.1196     2.4525   -47.2511     5.5514     6.3851     9.0510
  325.5000     7.9244   126.7641    -0.0029     0.1151     2.4638   -47.6840     5.2915     6.1710     8.8104
  326.0000     7.9112   127.9682     0.0002     0.1055     2.4773   -49.0164     4.9745     6.0890     8.6358
  326.5000     7.9130   129.4705     0.0033     0.0920     2.4886   -50.7964     4.7745     5.8442     8.3483
  327.0000     7.9150   130.5257     0.0048     0.0866     2.4983   -52.2596     4.6143     5.3811     7.3755
  327.5000     7.9014   131.4318     0.0079     0.0851     2.5006   -53.4373     4.5528     4.9205     6.6069
  328.0000     7.9035   131.4437     0.0110     0.0848     2.5022   -52.7488     4.6181     5.3183     5.2248
  328.5000     7.9053   130.8595     0.0141     0.0850     2.5022   -49.3205     4.8489     5.7823     4.9461
  329.0000     7.9071   129.8283     0.0157     0.0846     2.5023   -46.9361     5.1266     6.0699     7.7654
  329.5000     7.9088   128.6480     0.0158     0.0832     2.5053   -44.6686     5.3829     6.2018     8.6219
  330.0000     7.9106   127.3186     0.0174     0.0804     2.5114   -41.6740     5.6131     6.6887     9.3114
  330.5000     7.9124   125.8403     0.0189     0.0771     2.5167   -39.4443     5.8531     6.6449     9.7813
  331.0000     7.9143   125.1070     0.0190     0.0747     2.5205   -37.1946     6.0613     6.5567    10.0637
  331.5000     7.9159   125.2680     0.0191     0.0735     2.5235   -35.8365     6.2770     7.0307    10.2828
  332.0000     7.9028   126.6212     0.0192     0.0729     2.5258   -33.8841     6.4556     7.3314     9.8037
  332.5000     7.9046   127.0773     0.0177     0.0732     2.5236   -32.4636     6.6392     7.0367     9.6759
  333.0000     7.9064   126.1950     0.0148     0.0741     2.5199   -30.9629     6.7811     7.5453    10.0247
  333.5000     7.9083   125.9089     0.0119     0.0758     2.5162   -29.6108     6.8783     7.9236    10.4579
  334.0000     7.9100   126.2219     0.0104     0.0776     2.5133   -29.1539     6.9769     7.9274    10.5386
  334.5000     7.9118   126.6810     0.0060     0.0788     2.5118   -30.1755     7.0281     7.8222    10.6199
  335.0000     7.9136   127.1400     0.0030     0.0794     2.5119   -30.9074     7.0310     7.5598    10.6279
  335.5000     7.9154   127.3010     0.0046     0.0785     2.5150   -31.4869     7.0339     7.7221    10.6360
  336.0000     7.9022   126.1207     0.0062     0.0769     2.5180   -30.8741     7.0369     7.9427    10.5706
  336.5000     7.9040   124.0462     0.0093     0.0763     2.5203   -29.6705     7.0398     7.7832    10.5787
  337.0000     7.9058   122.8629     0.0109     0.0763     2.5211   -28.4670     7.0427     7.8955    10.5136
  337.5000     7.9076   126.3055     0.0125     0.0772     2.5196   -28.0064     7.0456     8.0094    10.4490
  338.0000     7.9095   130.6394     0.0125     0.0786     2.5167   -28.1402     7.0000     8.2381    10.3848
  338.5000     7.9112   133.4829     0.0141     0.0804     2.5130   -28.4226     6.9546     8.2520    10.3927
  339.0000     7.9130   132.8987     0.0127     0.0831     2.5078   -28.7050     6.9575     8.3609    10.3288
  339.5000     7.9148   131.5694     0.0128     0.0867     2.5026   -28.9873     6.9604     8.5997    10.3367
  340.0000     7.9165   130.2401     0.0128     0.0893     2.4952   -29.2697     6.9633     8.7237    10.3446
  340.5000     7.9183   130.4010     0.0114     0.0926     2.4885   -29.8492     6.9662     8.7297    10.3525
  341.0000     7.9201   131.6052     0.0115     0.0965     2.4804   -30.4288     6.9691     8.5523    10.3604
  341.5000     7.9219   134.2997     0.0100     0.1004     2.4737   -31.0083     6.9239     8.2064    10.4481
  342.0000     7.9237   136.2491     0.0086     0.1054     2.4662   -31.7365     6.8791     8.0440    10.5938
  342.5000     7.9255   137.0062     0.0072     0.1102     2.4588   -32.3160     6.8345     8.1038    10.3029
  343.0000     7.9273   136.1239     0.0055     0.1111     2.4566   -32.4535     6.7435     7.9411    10.1078
  343.5000     7.9141   134.1985     0.0013     0.1120     2.4552   -31.6920     6.5935     7.7717    10.1158
  344.0000     7.9159   133.0181    -0.0017     0.1140     2.4522   -30.6371     6.3347     7.6254    10.2647
  344.5000     7.9177   132.4340    -0.0046     0.1167     2.4463   -30.1802     6.1640     7.5765    10.4158
  345.0000     7.9195   131.7007    -0.0060     0.1209     2.4381   -31.4990     6.0067     7.4768    10.3533
  345.5000     7.9213   130.8185    -0.0075     0.1259     2.4307   -33.4159     5.9678     7.3267     9.0838
  346.0000     7.9082   130.6784    -0.0074     0.1304     2.4240   -35.3327     5.9285     7.2295     9.2815
  346.5000     7.9100   130.2463    -0.0073     0.1334     2.4195   -36.9524     5.8099     6.9388     9.6158
  347.0000     7.9118   129.3640    -0.0057     0.1328     2.4188   -38.2748     5.6931     6.9422     9.1045
  347.5000     7.9136   127.5876    -0.0041     0.1291     2.4249   -39.4487     5.5402     7.0423     8.8608
  348.0000     7.9153   125.5131     0.0005     0.1240     2.4377   -40.6226     5.4288     7.4261     9.1817
  348.5000     7.9171   123.5876     0.0051     0.1141     2.4534   -42.0937     5.2466     7.4500     9.5124
  349.0000     7.9189   123.2985     0.0097     0.1006     2.4745   -43.5648     5.0356     7.0035     9.6524
  349.5000     7.9207   126.1450     0.0158     0.0919     2.4872   -43.8509     4.9004     6.4933     9.7269
  350.0000     7.9225   129.5707     0.0204     0.0895     2.4920   -44.7241     4.7997     5.8966     7.0787
  350.5000     7.9511   130.9432     0.0255     0.0889     2.4943   -47.3868     4.7804     5.4294     5.1156
  351.0000     7.9707   130.9610     0.0312     0.0889     2.4971   -50.0496     4.8048     5.4320     4.1588
  351.5000     7.9873   130.6807     0.0343     0.0898     2.4949   -50.9322     4.8432     6.5059     5.3400
  352.0000     8.0038   129.5062     0.0329     0.0942     2.4898   -49.8772     5.0511     6.9754     8.7980
  352.5000     8.0054   126.2453     0.0300     0.0990     2.4808   -50.1655     5.2648     6.7875     9.6317
  353.0000     8.0071   126.0616     0.0271     0.1032     2.4712   -50.3022     5.3776     7.0795     8.5679
  353.5000     8.0087   127.6221     0.0242     0.1112     2.4608   -50.5846     5.5692     7.4345     9.1902
  354.0000     7.9950   128.6831     0.0213     0.1181     2.4488   -51.1671     5.8076     7.7534     9.3248
  354.5000     7.9970   130.0421     0.0199     0.1241     2.4369   -51.7496     6.0562     7.9766     9.2652
  355.0000     7.9834   131.6993     0.0201     0.1295     2.4287   -50.6976     6.1787     7.7074     9.2076
  355.5000     7.9701   133.3564     0.0217     0.1331     2.4206   -49.6486     6.0884     8.0380     9.0872
  356.0000     7.9274   133.8212     0.0233     0.1298     2.4146   -50.8254     5.9735     8.2676     9.0951
  356.5000     7.8694   132.1896     0.0234     0.1218     2.4319   -49.1761     5.8127     8.0458     9.4875
  357.0000     7.7965   128.7481     0.0205     0.1078     2.4559   -50.9473     5.6172     7.7760    10.0694
  357.5000     7.7829   126.1249     0.0174     0.1003     2.4732   -49.5981     5.3538     7.3100    10.4666
  358.0000     7.7849   127.3353     0.0118     0.0949     2.4860   -45.7230     5.1738     6.8246     8.9952
  358.5000     7.8610   127.0014     0.0074     0.0892     2.4935   -41.1048     5.0694     6.0283     7.1131
  359.0000     7.9223   125.2409     0.0045     0.0918     2.4951   -36.3382     5.0362     5.4365     4.6013
