~VERSION INFORMATION
 VERS.                2.0:   CWLS LOG ASCII STANDARD - VERSION 2.0
 WRAP.                 NO:   ONE LINE PER DEPTH STEP
~WELL INFORMATION
#MNEM.UNIT      DATA TYPE    INFORMATION
#----------   ------------   ------------------------------
 STRT.F           31.0000:   START DEPTH
 STOP.F          521.0000:   STOP DEPTH
 STEP.F            0.5000:   STEP LENGTH
 NULL.          -999.2500:   NO VALUE
 COMP. FENIX & SCISSON INC:   COMPANY
 WELL.      NPR-3 #52SX-3:   WELL
 FLD .             TEAPOT:   FIELD
 LOC .       S3 T38N R78W:   LOCATION
 CNTY.            NATRONA:   COUNTY
 STAT.            WYOMING:   STATE
 CTRY. UNITED STATES OF AMERICA:   COUNTRY
 SRVC.            Unknown:   SERVICE COMPANY
 DATE.        03-OCT-1978:   LOGDATE
 API .       490251071800:   API NUMBER
~CURVE INFORMATION
#MNEM.UNIT       API CODE    CURVE DESCRIPTION
#----------   ------------   ------------------------------
 DEPT.F                  :   
 SPR .MV     05 010 01 00:   SPONTANEOUS POTENTIAL FROM RES.
 GRD .GAPI   45 310 01 00:   GAMMA RAY FROM DENSITY LOG
 CALD.IN     45 280 60 00:   CALIPER
 RHOB.G/C3   45 350 01 00:   BULK DENSITY
 DPHI.DEC    45 890 12 00:   DENSITY POROSITY SANDSTONE
 CORR.G/C3   45 356 01 00:   DENSITY CORRECTION
 SN  .OHMM   05 040 16 00:   SHORT NORMAL 16"
 IL  .OHMM   05 120 00 00:   INDUCTION LOG
~PARAMETER INFORMATION
#MNEM.UNIT          VALUE    DESCRIPTION
#----------   ------------   ------------------------------
 PD  .                 GL:   PERMANENT DATUM
 EPD .F              5129:   ELEVATION PERMANENT DATUM
 LMF .                 KB:   LOG MEASURED FROM
 DAPD.F                 4:   FEET ABOVE PERMANENT DATUM
 DMF .                 KB:   DRILLING MEASURED FROM
 EKB .F              5133:   KELLING BUSHING
 EGL .F              5129:   GROUND LEVEL
 DATE.            10-3-78:   RUN DATE
 RUN .                  1:   RUN NUMBER
 DD  .F               521:   DEPTH DRILLER
 DL  .F               520:   DEPTH LOGGER
 BLI .F               514:   BOTTOM LOG INTERVAL
 TLI .F                46:   TOP LOG INTERVAL
 CS  .IN            8.625:   CASING SIZE
 CBL .F                44:   CASING BOTTOM LOGGER
 BS  .IN            7.875:   BIT SIZE
 BSD .F               521:   BIT SIZE AT DEPTH
 DFT .                KCL:   DRILLING FLUID TYPE
 DFD .                8.7:   DRILLING FLUID DENSITY
 DFV .                 34:   DRILLING FLUID VISCOSITY
 DFPH.                  9:   DRILLING FLUID PH
 DFL .               10.8:   DRILLING FLUID LOSS
 MSS .            MUD PIT:   MUD SAMPLE SOURCE
 RMS .OHMM            .24:   RESISTIVITY MUD SAMPLE
 MST .F                54:   MUD SAMPLE TEMPERATURE
 RMF .OHMM            .22:   RESISTIVITY MUD FILTRATE SAMPLE
 MFST.F                60:   MUD FILTRATE SAMPLE TEMPERATURE
 RMC .OHMM             .3:   RESISTIVITY MUD CAKE
 MCST.F                64:   MUD CAKE SAMPLE TEMPERATURE
 MFSS.               MEAS:   MUD FILTRATE SAMPLE SOURCE
 MCSS.               MEAS:   MUD CAKE SAMPLE SOURCE
 BHT .F                60:   BOTTOM HOLE TEMPERATURE
 TCS .HRS               3:   TIME CURCULATED STOPPED
 MRT .F                60:   MAXIMUM RECORDED TEMPERATURE
 LUN .               2958:   LOGGING UNIT NUMBER
 LUL .               CASP:   LOGGING UNIT LOCATION
 ENGI.             MILLER:   RECORDING ENGINEER
 WITN.           DINSMORE:   WITNESSED BY
 CLNT.            A2DTECH:   CLIENT CODE
 ORIG.       2", 5" PRINT:   ORIGIN OF DATA
 UWI .       490251071800:   UNIQUE WELL ID
 DICO. A2D Technologies, Inc.:   DIGITIZING COMPANY
~OTHER INFORMATION
~A   DEPT      SPR         GRD      CALD       RHOB       DPHI       CORR         SN         IL   
# ...
  233.5000   -25.9300   110.6467     7.8186     2.4319     0.1516     0.0151     5.3700     5.1394
  234.0000   -26.0050   110.4821     7.8154     2.4351     0.1495     0.0160     5.2053     4.9915
  234.5000   -26.0899   110.3415     7.8123     2.4374     0.1475     0.0169     5.1451     4.9095
  235.0000   -26.1717   110.5954     7.8092     2.4444     0.1431     0.0174     5.0635     4.7908
  235.5000   -26.2590   111.7824     7.8060     2.4724     0.1319     0.0168     5.1097     4.8389
  236.0000   -25.9776   111.4751     7.8027     2.4793     0.1235     0.0161     5.1748     4.9322
  236.5000   -25.4536   110.0018     7.8050     2.4911     0.1151     0.0154     5.3294     5.0273
  237.0000   -24.9266   109.6264     7.8091     2.5024     0.1085     0.0148     5.5694     5.1472
  237.5000   -24.4279   111.2354     7.8134     2.5039     0.1066     0.0141     5.8203     5.4133
  238.0000   -24.0673   112.9875     7.8176     2.5052     0.1054     0.0134     6.0824     5.6932
  238.5000   -23.7186   114.2242     7.8212     2.5064     0.1034     0.0127     6.3372     5.9875
  239.0000   -23.6582   113.5188     7.8030     2.5038     0.1040     0.0121     6.5869     6.2970
  239.5000   -23.6104   112.1816     7.7836     2.5008     0.1074     0.0123     6.8190     6.5205
  240.0000   -23.5629   110.4109     7.7643     2.5021     0.1015     0.0215     6.9274     6.6735
  240.5000   -23.4984   106.7821     7.7451     2.5064     0.1017     0.0340     7.0563     6.8638
  241.0000   -23.1039   104.5040     7.7270     2.5063     0.1036     0.0378     7.0215     6.8544
  241.5000   -22.7295   105.3525     7.6702     2.4994     0.1065     0.0383     6.9864     6.8424
  242.0000   -22.7799   107.9460     7.6088     2.4895     0.1123     0.0388     6.9515     6.8304
  242.5000   -22.8465   110.4392     7.5635     2.4796     0.1214     0.0394     6.9167     6.8185
  243.0000   -22.9217   111.6773     7.5652     2.4707     0.1276     0.0426     6.8822     6.8066
  243.5000   -22.3992   111.5841     7.5167     2.4644     0.1304     0.0545     6.8482     6.7947
  244.0000   -21.7886   111.4070     7.4508     2.4639     0.1309     0.0770     6.8134     6.7828
  244.5000   -21.2983   111.2474     7.4029     2.4691     0.1288     0.1034     6.6696     6.7709
  245.0000   -21.2095   111.6110     7.3965     2.4752     0.1268     0.1300     6.4665     6.7589
  245.5000   -21.1145   113.0447     7.3889     2.4817     0.1217     0.1442     6.2695     6.7473
  246.0000   -21.0174   113.1144     7.4076     2.4815     0.1198     0.1479     6.0883     6.7161
  246.5000   -20.9509   109.9376     7.4434     2.4758     0.1250     0.1400     6.0253     6.6277
  247.0000   -21.3183   106.6984     7.4565     2.4667     0.1299     0.1208     5.9646     6.3560
  247.5000   -21.6808   106.4594     7.4338     2.4409     0.1347     0.1036     5.8517     6.0691
  248.0000   -21.7897   106.6007     7.4116     2.4118     0.1683     0.1050     5.5833     5.7933
  248.5000   -21.8605   106.7480     7.3893     2.3846     0.1778     0.1227     5.3311     5.5314
  249.0000   -21.9313   106.6749     7.3674     2.3851     0.1808     0.1512     5.1858     5.3899
  249.5000   -22.0026   106.5508     7.3434     2.4251     0.1595     0.1690     5.1459     5.3022
  250.0000   -22.0721   107.5506     7.2740     2.4688     0.1262     0.1753     5.1102     5.3173
  250.5000   -22.0858   108.6902     7.2064     2.5120     0.1082     0.1818     5.3517     5.3290
  251.0000   -21.9507   108.9088     7.1601     2.5442     0.0866     0.1778     5.6037     5.3408
  251.5000   -21.8167   109.0697     6.7541     2.5430     0.0905     0.1570     5.8556     5.3847
  252.0000   -21.5307   108.9715     7.3016     2.5100     0.1065     0.1388     6.1473     5.7107
  252.5000   -20.8864   108.6292     7.3184     2.4890     0.1121     0.1388     6.4536     6.0565
  253.0000   -20.2428   108.5237     7.3613     2.5035     0.1070     0.1384     6.7593     6.4232
  253.5000   -19.9677   108.4829     7.4079     2.5283     0.0936     0.1232     6.9493     6.8121
  254.0000   -20.0036   108.4445     7.4545     2.5265     0.0930     0.0967     7.1217     6.9656
  254.5000   -20.0451   108.4055     7.5012     2.5090     0.1047     0.0707     7.1843     7.0194
  255.0000   -20.0878   108.3664     7.5464     2.4924     0.1145     0.0507     7.2533     7.0739
  255.5000   -20.1547   108.3273     7.5865     2.4803     0.1222     0.0470     7.3229     7.1284
  256.0000   -19.1406   108.2881     7.5939     2.4873     0.1195     0.0457     7.3932     7.1834
  256.5000   -18.9962   108.2489     7.6021     2.5032     0.1088     0.0444     7.4642     7.2542
  257.0000   -19.3669   108.2100     7.6104     2.5109     0.1027     0.0413     7.5267     7.2355
  257.5000   -19.6606   108.1701     7.6189     2.5094     0.1018     0.0351     7.4889     7.2098
  258.0000   -19.9511   108.2064     7.6381     2.5035     0.1035     0.0290     7.4555     7.1843
  258.5000   -20.1416   108.2870     7.6753     2.5034     0.1063     0.0228     7.4222     7.1588
  259.0000   -20.1385   108.2467     7.7123     2.5042     0.1065     0.0166     7.3891     7.1334
  259.5000   -20.1390   107.6620     7.7493     2.4978     0.1097     0.0147     7.3559     7.1081
  260.0000   -20.1389   107.4884     7.7863     2.4897     0.1147     0.0137     7.3219     7.0829
  260.5000   -20.1387   111.2324     7.8233     2.4920     0.1159     0.0127     7.3269     7.0578
  261.0000   -20.1374   115.0957     7.8602     2.4979     0.1105     0.0116     7.3331     7.0327
  261.5000   -20.1388   115.8855     7.8814     2.5045     0.1062     0.0106     7.3392     7.0078
  262.0000   -20.2481   116.1124     7.8812     2.5073     0.1051     0.0096     7.3452     6.9829
  262.5000   -20.8841   116.3222     7.8812     2.5039     0.1075     0.0086     7.3513     6.9582
  263.0000   -21.2647   116.3585     7.8813     2.5026     0.1080     0.0076     7.3573     6.9335
  263.5000   -21.4939   114.7504     7.8782     2.5040     0.1070     0.0065     7.3634     6.8856
  264.0000   -21.7202   112.5286     7.8747     2.5062     0.1045     0.0055     7.3695     6.8306
  264.5000   -21.9463   110.9408     7.8711     2.5016     0.1051     0.0045     7.3756     6.7761
  265.0000   -22.1726   111.4843     7.8676     2.4920     0.1134     0.0035     7.3854     6.7218
  265.5000   -22.3990   116.1621     7.8641     2.4773     0.1224     0.0024     7.3905     6.6460
  266.0000   -22.6255   118.6659     7.8605     2.4614     0.1321     0.0015     6.9848     6.4597
  266.5000   -22.8538   120.6412     7.8570     2.4394     0.1466     0.0018     6.4832     6.2787
  267.0000   -23.0898   121.0101     7.8535     2.4397     0.1466     0.0021     6.3493     6.1645
  267.5000   -22.7825   121.1763     7.8500     2.4597     0.1370     0.0023     6.3149     6.0991
  268.0000   -22.3831   120.6535     7.8464     2.4862     0.1239     0.0026     6.2807     6.0327
  268.5000   -21.9785   119.0333     7.8429     2.5056     0.1116     0.0029     6.2270     5.9787
  269.0000   -22.0294   116.3455     7.8394     2.5046     0.1054     0.0031     6.1413     5.9238
  269.5000   -22.1705   115.2241     7.8359     2.4974     0.1116     0.0034     6.0568     5.8693
  270.0000   -22.3904   116.0627     7.8323     2.4839     0.1194     0.0060     5.9735     5.8153
  270.5000   -22.6104   117.4901     7.8288     2.4656     0.1343     0.0105     5.8913     5.7609
  271.0000   -23.0572   118.9729     7.8253     2.4488     0.1387     0.0127     5.8105     5.6744
  271.5000   -23.7795   118.8493     7.8218     2.4321     0.1435     0.0101     5.6956     5.5877
  272.0000   -24.2197   117.2821     7.8182     2.4205     0.1595     0.0076     5.5310     5.5024
  272.5000   -23.7838   116.0150     7.8147     2.4295     0.1515     0.0051     5.4008     5.4011
  273.0000   -23.3715   117.0433     7.8112     2.4559     0.1372     0.0034     5.5748     5.4208
  273.5000   -22.9665   117.5623     7.8077     2.4814     0.1230     0.0033     5.7253     5.4457
