~VERSION INFORMATION
 VERS.                2.0:   CWLS LOG ASCII STANDARD - VERSION 2.0
 WRAP.                 NO:   ONE LINE PER DEPTH STEP
~WELL INFORMATION
#MNEM.UNIT      DATA TYPE    INFORMATION
#----------   ------------   ------------------------------
 STRT.F            5.0000:   START DEPTH
 STOP.F          640.0000:   STOP DEPTH
 STEP.F            0.5000:   STEP LENGTH
 NULL.          -999.2500:   NO VALUE
 COMP. BROWN JOHN E&C INC:   COMPANY
 WELL.     85-1 X 3 #85-3:   WELL
 FLD .             TEAPOT:   FIELD
 LOC .       S3 T38N R78W:   LOCATION
 CNTY.            NATRONA:   COUNTY
 STAT.            WYOMING:   STATE
 CTRY. UNITED STATES OF AMERICA:   COUNTRY
 SRVC.     Atlas Wireline:   SERVICE COMPANY
 DATE.        30-DEC-1991:   LOGDATE
 API .       490252249400:   API NUMBER
~CURVE INFORMATION
#MNEM.UNIT       API CODE    CURVE DESCRIPTION
#----------   ------------   ------------------------------
 DEPT.F                  :   
 GRR .GAPI   06 310 01 00:   GAMMA RAY FROM RESISTIVITY
 RFOC.OHMM   06 220 04 00:   RESISTIVITY FOCUSED LOG RES.
 RILD.OHMM   06 120 46 00:   DEEP INDUCTION RESISTIVITY
 RILM.OHMM   06 120 44 00:   INDUCTION LOG MEDIUM RESISTIVITY
 SPR .MV     06 010 01 00:   SPONTANEOUS POTENTIAL FROM RES.
 CALD.IN     45 280 60 00:   CALIPER FROM DENSITY LOG
 CORR.G/C3   45 356 01 00:   DENSITY CORRECTION
 DEN .G/C3   45 350 01 00:   COMPENSATED BULK DENSTIY
 PORD.DEC    45 890 12 00:   POROSITY DENSITY SANDSTONE
 CNC .DEC    42 890 03 00:   NEUTRON POROSITY SANDSTONE
~PARAMETER INFORMATION
#MNEM.UNIT          VALUE    DESCRIPTION
#----------   ------------   ------------------------------
 PD  .                 GL:   PERMANENT DATUM
 EPD .F              5156:   ELEVATION PERMANENT DATUM
 LMF .                 KB:   LOG MEASURED FROM
 DAPD.F                10:   FEET ABOVE PERMANENT DATUM
 DMF .                 KB:   DRILLING MEASURED FROM
 EKB .F              5166:   KELLING BUSHING
 EGL .F              5156:   GROUND LEVEL
 DATE.        30-DEC-1991:   RUN DATE
 RUN .                  1:   RUN NUMBER
 DD  .F               641:   DEPTH DRILLER
 DL  .F               642:   DEPTH LOGGER
 BLI .F               261:   BOTTOM LOG INTERVAL
 TLI .F               172:   TOP LOG INTERVAL
 CS  .IN            8.625:   CASING SIZE
 CBD .F               163:   CASING BOTTOM DRILLER
 CBL .F               172:   CASING BOTTOM LOGGER
 BS  .IN            7.875:   BIT SIZE
 BSD .F               641:   BIT SIZE AT DEPTH
 DFT .               CHEM:   DRILLING FLUID TYPE
 DFD .               17.1:   DRILLING FLUID DENSITY
 DFV .                 47:   DRILLING FLUID VISCOSITY
 DFPH.                9.0:   DRILLING FLUID PH
 DFL .                6.8:   DRILLING FLUID LOSS
 MSS .                PIT:   MUD SAMPLE SOURCE
 RMS .OHMM           1.40:   RESISTIVITY MUD SAMPLE
 MST .F               100:   MUD SAMPLE TEMPERATURE
 RMF .OHMM           1.12:   RESISTIVITY MUD FILTRATE SAMPLE
 MFST.F               100:   MUD FILTRATE SAMPLE TEMPERATURE
 RMC .OHMM           1.75:   RESISTIVITY MUD CAKE
 MCST.F               100:   MUD CAKE SAMPLE TEMPERATURE
 MFSS.               MEAS:   MUD FILTRATE SAMPLE SOURCE
 MCSS.               CALC:   MUD CAKE SAMPLE SOURCE
 RMB .OHMM           .536:   RESISTIVITY MUD AT BHT
 BHT .F               261:   BOTTOM HOLE TEMPERATURE
 TCS .HRS               4:   TIME CURCULATED STOPPED
 MRT .F               261:   MAXIMUM RECORDED TEMPERATURE
 LUN .            HL-6387:   LOGGING UNIT NUMBER
 LUL .          CASPER/WT:   LOGGING UNIT LOCATION
 ENGI.             ZIEGER:   RECORDING ENGINEER
 WITN.         LOFRENIERI:   WITNESSED BY
 CLNT.            A2DTECH:   CLIENT CODE
 ORIG.           5" PRINT:   ORIGIN OF DATA
 UWI .       490252249400:   UNIQUE WELL ID
 DICO. A2D Technologies, Inc.:   DIGITIZING COMPANY
~OTHER INFORMATION
~A    DEPT      GRR      RFOC       RILD       RILM        SPR       CALD       CORR        DEN       PORD        CNC   
# ...
  608.0000    82.8342     8.5133     7.1204     7.4570   -54.4529     8.6394     0.0153     2.5062     0.1080     0.3038
  608.5000    82.5194     8.3954     7.0146     7.2975   -54.3062     8.6396     0.0199     2.5077     0.1047     0.3032
  609.0000    83.4196     8.2216     6.8769     7.0525   -54.3116     8.6247     0.0230     2.5054     0.1038     0.3017
  609.5000    85.2231     8.1078     6.8291     6.9065   -54.3160     8.6248     0.0215     2.4994     0.1053     0.3002
  610.0000    87.0325     8.0515     6.8291     6.8585   -54.3204     8.6098     0.0140     2.4926     0.1092     0.2984
  610.5000    87.0178     7.9955     6.8291     6.9065   -54.4758     8.5949     0.0050     2.4881     0.1131     0.2993
  611.0000    86.0969     7.9400     6.7816     6.9065   -54.4804     8.5799     0.0036     2.4851     0.1161     0.3023
  611.5000    85.7818     7.8848     6.6411     6.9548   -54.4857     8.5953     0.0067     2.4888     0.1170     0.3044
  612.0000    86.6765     7.9400     6.4583     6.8008   -54.6411     8.5803     0.0113     2.4941     0.1140     0.3023
  612.5000    87.8768     7.9955     6.2806     6.4414   -54.7965     8.5653     0.0128     2.4972     0.1115     0.2995
  613.0000    87.5620     7.9955     6.0652     6.1775   -54.9520     8.5504     0.0129     2.4987     0.1098     0.2953
  613.5000    86.0351     7.9955     5.9812     6.0919   -54.9563     8.5354     0.0160     2.4972     0.1101     0.2956
  614.0000    84.5082     7.9955     5.9812     6.1345   -54.6586     8.5205     0.0236     2.4927     0.1110     0.2993
  614.5000    84.1963     7.5092     5.9812     6.2207   -54.3609     8.5055     0.0344     2.4881     0.1140     0.3086
  615.0000    86.3028     6.8585     6.0259     6.3522   -54.2142     8.5057     0.0448     2.4836     0.1185     0.3313
  615.5000    88.7475     6.5775     6.1077     6.5369   -54.3707     8.5059     0.0313     2.4783     0.1242     0.3412
  616.0000    91.2325     7.0525     6.2369     6.8585   -54.5261     8.5061     0.0193     2.4781     0.1232     0.3346
  616.5000  -999.2500     7.7216     6.3688     7.1018   -54.8326     8.5063     0.0178     2.4920     0.1161     0.3204
  617.0000  -999.2500     8.2216     6.5491     7.3027   -54.9881     8.5065     0.0300     2.4972     0.1121     0.3140
  617.5000  -999.2500     8.2216     6.7345     7.4570   -54.9924     8.5066     0.0511     2.5018     0.1091     0.3104
  618.0000  -999.2500     8.3954     6.9736     7.6147   -54.6707     8.5371     0.0572     2.5124     0.1043     0.3074
  618.5000  -999.2500     8.6933     7.1756     7.8848   -54.2470     8.5525     0.0347     2.5244     0.0976     0.3053
  619.0000  -999.2500     9.0017     7.4775     8.1078   -53.7982     8.5830     0.0181     2.5275     0.0924     0.3010
  619.5000  -999.2500     9.1919     7.6357     8.2792   -53.4994     8.5983     0.0091     2.5275     0.0909     0.2944
  620.0000  -999.2500     9.1281     7.7430     8.3954   -53.0506     8.5985     0.0152     2.5237     0.0937     0.2915
  620.5000  -999.2500     9.2562     7.7430     8.3954   -52.4518     8.5987     0.0228     2.5245     0.0952     0.2900
  621.0000  -999.2500     9.6566     7.7430     8.3954   -52.0030     8.5837     0.0169     2.5313     0.0918     0.2906
  621.5000  -999.2500    10.0640     7.7430     8.3954   -51.7053     8.5363     0.0094     2.5373     0.0882     0.2919
  622.0000  -999.2500    10.1344     7.6892     8.3954   -51.4075     8.4175     0.0064     2.5396     0.0870     0.3001
  622.5000  -999.2500     9.6517     7.6892     8.3954   -51.4130     8.3419     0.0065     2.5351     0.0888     0.3033
  623.0000  -999.2500     9.2562     7.6357     8.3954   -51.4174     8.3269     0.0081     2.5253     0.0942     0.3036
  623.5000  -999.2500     9.1281     7.5299     8.3954   -51.5728     8.3271     0.0096     2.5117     0.0999  -999.2500
  624.0000  -999.2500     9.1919     7.3739     8.3954   -51.5772     8.3121     0.0097     2.5056     0.1048  -999.2500
  624.5000  -999.2500     9.1919     7.2211     8.3954   -51.4305     8.3275     0.0097     2.5049     0.1063  -999.2500
  625.0000  -999.2500     9.2562     7.0716     8.3954   -51.2838     8.3277     0.0128     2.5073     0.1042  -999.2500
  625.5000  -999.2500     9.2562     6.9736     8.4542   -51.2893     8.3430     0.0127     2.5079     0.1038  -999.2500
  626.0000  -999.2500     9.3210     6.9736     8.4542   -51.5958     8.3584     0.0039     2.5042     0.1051  -999.2500
  626.5000  -999.2500     9.5180     7.0224     8.4542   -52.2044     8.3737     0.0040     2.4989     0.1102  -999.2500
  627.0000  -999.2500     9.5846     7.0716     8.4542   -52.5109     8.3890     0.0085     2.4921     0.1138  -999.2500
  627.5000  -999.2500     9.5180     7.1211     8.3954   -52.3640     8.3734     0.0146     2.4868     0.1165  -999.2500
  628.0000  -999.2500     9.3210     7.3165     8.3371   -51.7603     8.3591     0.0192     2.4868     0.1174  -999.2500
  628.5000  -999.2500     9.1203  -999.2500     8.1078   -51.3155     8.3441     0.0223     2.4907     0.1138  -999.2500
  629.0000  -999.2500     8.9391  -999.2500     7.8848   -51.3210     8.3443     0.0239     2.4953     0.1095  -999.2500
  629.5000  -999.2500     8.9391  -999.2500     7.7150   -49.6637     8.3293     0.0224     2.5012     0.1068  -999.2500
  630.0000  -999.2500     8.9391  -999.2500     7.5092   -44.3811     8.3144     0.0180     2.5050     0.1050  -999.2500
  630.5000  -999.2500     8.8770  -999.2500     7.3027   -42.8749     8.2843     0.0120     2.5065     0.1047  -999.2500
  631.0000  -999.2500     8.6933  -999.2500     7.0035   -41.9899     8.2845     0.0105     2.5058     0.1053  -999.2500
  631.5000  -999.2500     8.1078  -999.2500     6.6699  -999.2500     8.2847     0.0136     2.5020     0.1104  -999.2500
  632.0000  -999.2500     7.5534  -999.2500     6.3966  -999.2500     8.2849     0.0227     2.4944     0.1152  -999.2500
  632.5000  -999.2500     7.2016  -999.2500     6.1775  -999.2500     8.2699     0.0258     2.4884     0.1177  -999.2500
  633.0000  -999.2500     7.0035  -999.2500     6.0076  -999.2500     8.2701     0.0183     2.4845     0.1194  -999.2500
  633.5000  -999.2500     6.8585  -999.2500  -999.2500  -999.2500     8.2400    -0.1340     2.4748     0.1203  -999.2500
  634.0000  -999.2500     6.6235  -999.2500  -999.2500  -999.2500     8.1947    -1.5000     2.0000     0.1191  -999.2500
  634.5000  -999.2500     6.3966  -999.2500  -999.2500  -999.2500     8.1494  -999.2500     2.0000    -0.1000  -999.2500
  635.0000  -999.2500     6.0076  -999.2500  -999.2500  -999.2500     8.1345  -999.2500     2.0000    -0.1000  -999.2500
  635.5000  -999.2500     5.2165  -999.2500  -999.2500  -999.2500     8.1195  -999.2500  -999.2500  -999.2500  -999.2500
  636.0000  -999.2500     3.9815  -999.2500  -999.2500  -999.2500     8.0894  -999.2500  -999.2500  -999.2500  -999.2500
  636.5000  -999.2500     3.3214  -999.2500  -999.2500  -999.2500     8.0290  -999.2500  -999.2500  -999.2500  -999.2500
  637.0000  -999.2500     3.0336  -999.2500  -999.2500  -999.2500     7.9989  -999.2500  -999.2500  -999.2500  -999.2500
  637.5000  -999.2500     2.9708  -999.2500  -999.2500  -999.2500     7.9991  -999.2500  -999.2500  -999.2500  -999.2500
  638.0000  -999.2500     3.1544  -999.2500  -999.2500  -999.2500     7.9841  -999.2500  -999.2500  -999.2500  -999.2500
  638.5000  -999.2500  -999.2500  -999.2500  -999.2500  -999.2500     7.9237  -999.2500  -999.2500  -999.2500  -999.2500
  639.0000  -999.2500  -999.2500  -999.2500  -999.2500  -999.2500     7.7269  -999.2500  -999.2500  -999.2500  -999.2500
  639.5000  -999.2500  -999.2500  -999.2500  -999.2500  -999.2500     6.3111  -999.2500  -999.2500  -999.2500  -999.2500
  640.0000  -999.2500  -999.2500  -999.2500  -999.2500  -999.2500     6.0000  -999.2500  -999.2500  -999.2500  -999.2500
