~VERSION INFORMATION
 VERS.                2.0:   CWLS LOG ASCII STANDARD - VERSION 2.0
 WRAP.                 NO:   ONE LINE PER DEPTH STEP
~WELL INFORMATION
#MNEM.UNIT      DATA TYPE    INFORMATION
#----------   ------------   ------------------------------
 STRT.F            2.0000:   START DEPTH
 STOP.F          602.0000:   STOP DEPTH
 STEP.F            0.1000:   STEP LENGTH
 NULL.          -999.2500:   NO VALUE
 COMP.       F D SERV INC:   COMPANY
 WELL.    63-1 SX-3 #63-3:   WELL
 FLD .             TEAPOT:   FIELD
 LOC .       S3 T38N R78W:   LOCATION
 CNTY.            NATRONA:   COUNTY
 STAT.            WYOMING:   STATE
 CTRY. UNITED STATES OF AMERICA:   COUNTRY
 SRVC.     Atlas Wireline:   SERVICE COMPANY
 DATE.        20-APR-1992:   LOGDATE
 API .       490252251300:   API NUMBER
~CURVE INFORMATION
#MNEM.UNIT       API CODE    CURVE DESCRIPTION
#----------   ------------   ------------------------------
 DEPT.F                  :   
 GRR .GAPI   07 310 01 00:   GAMMA RAY
 RILD.OHMM   07 120 46 00:   INDUCTION LOG DEEP RESISTIVITY
 RILM.OHMM   07 120 44 00:   INDUCTION LOG MEDIUM RESISTIVITY
~PARAMETER INFORMATION
#MNEM.UNIT          VALUE    DESCRIPTION
#----------   ------------   ------------------------------
 PD  .                 GL:   PERMANENT DATUM
 EPD .F              5176:   ELEVATION PERMANENT DATUM
 LMF .                 KB:   LOG MEASURED FROM
 DAPD.F                 5:   FEET ABOVE PERMANENT DATUM
 DMF .                 KB:   DRILLING MEASURED FROM
 EKB .F              5181:   KELLING BUSHING
 EDF .F              5180:   DRILLING FLOOR
 EGL .F              5176:   GROUND LEVEL
 DATE.        20-APR-1992:   RUN DATE
 RUN .                  1:   RUN NUMBER
 DD  .F               608:   DEPTH DRILLER
 DL  .F               608:   DEPTH LOGGER
 BLI .F               602:   BOTTOM LOG INTERVAL
 CS  .IN            8.625:   CASING SIZE
 CBD .F                48:   CASING BOTTOM DRILLER
 CBL .F                50:   CASING BOTTOM LOGGER
 BS  .IN            7.875:   BIT SIZE
 BSD .F               608:   BIT SIZE AT DEPTH
 DFT .                AIR:   DRILLING FLUID TYPE
 TCS .HRS               2:   TIME CURCULATED STOPPED
 MRT .F                85:   MAXIMUM RECORDED TEMPERATURE
 LUN .           HL- 6274:   LOGGING UNIT NUMBER
 LUL .             CASPER:   LOGGING UNIT LOCATION
 ENGI.             RAUTIO:   RECORDING ENGINEER
 WITN.        GARY STRONG:   WITNESSED BY
 CLNT.            A2DTECH:   CLIENT CODE
 ORIG.           5" PRINT:   ORIGIN OF DATA
 UWI .       490252251300:   UNIQUE WELL ID
 DICO. A2D Technologies, Inc.:   DIGITIZING COMPANY
~OTHER INFORMATION
~A    DEPT      GRR      RILD       RILM   
# ...
   38.4000    72.9348  -999.2500  -999.2500
   38.5000    73.1816  -999.2500  -999.2500
   38.6000    73.4675  -999.2500  -999.2500
   38.7000    73.4685  -999.2500  -999.2500
   38.8000    73.4697  -999.2500  -999.2500
   38.9000    73.4709  -999.2500  -999.2500
   39.0000    73.4721  -999.2500  -999.2500
   39.1000    73.4734  -999.2500  -999.2500
   39.2000    73.4745  -999.2500  -999.2500
   39.3000    73.4758  -999.2500  -999.2500
   39.4000    73.5924  -999.2500  -999.2500
   39.5000    73.8986  -999.2500  -999.2500
   39.6000    74.3971  -999.2500  -999.2500
   39.7000    75.3809  -999.2500  -999.2500
   39.8000    76.1714  -999.2500  -999.2500
   39.9000    76.7727  -999.2500  -999.2500
   40.0000    77.1846  -999.2500  -999.2500
   40.1000    77.4312  -999.2500  -999.2500
   40.2000    77.7100  -999.2500  -999.2500
   40.3000    77.7110  -999.2500  -999.2500
   40.4000    77.8699  -999.2500  -999.2500
   40.5000    77.9135  -999.2500  -999.2500
   40.6000    77.7144  -999.2500  -999.2500
   40.7000    77.7159  -999.2500  -999.2500
   40.8000    77.2473  -999.2500  -999.2500
   40.9000    77.1149  -999.2500  -999.2500
   41.0000    76.8707  -999.2500  -999.2500
   41.1000    76.3809  -999.2500  -999.2500
   41.2000    75.8909  -999.2500  -999.2500
   41.3000    75.3100  -999.2500  -999.2500
   41.4000    74.9111  -999.2500  -999.2500
   41.5000    74.4212  -999.2500  -999.2500
   41.6000    73.8437  -999.2500  -999.2500
   41.7000    73.1714  -999.2500  -999.2500
   41.8000    72.9027  -999.2500  -999.2500
   41.9000    72.4616  -999.2500  -999.2500
   42.0000    71.8068  -999.2500  -999.2500
   42.1000    70.9626  -999.2500  -999.2500
   42.2000    70.0341  -999.2500  -999.2500
   42.3000    69.2887  -999.2500  -999.2500
   42.4000    69.0477  -999.2500  -999.2500
   42.5000    68.9894  -999.2500  -999.2500
   42.6000    69.1206  -999.2500  -999.2500
   42.7000    69.3674  -999.2500  -999.2500
   42.8000    69.6318  -999.2500  -999.2500
   42.9000    70.2011  -999.2500  -999.2500
   43.0000    70.6164  -999.2500  -999.2500
   43.1000    71.1088  -999.2500  -999.2500
   43.2000    71.6961  -999.2500  -999.2500
   43.3000    72.4726  -999.2500  -999.2500
   43.4000    73.5253  -999.2500  -999.2500
   43.5000    73.9830  -999.2500  -999.2500
   43.6000    74.4753  -999.2500  -999.2500
   43.7000    75.1999  -999.2500  -999.2500
   43.8000    76.1830  -999.2500  -999.2500
   43.9000    77.1590  -999.2500  -999.2500
   44.0000    77.6511  -999.2500  -999.2500
   44.1000    78.3369  -999.2500  -999.2500
   44.2000    78.8003  -999.2500  -999.2500
   44.3000    79.1280  -999.2500  -999.2500
   44.4000    79.6205  -999.2500  -999.2500
   44.5000    80.1751  -999.2500  -999.2500
   44.6000    80.1762  -999.2500  -999.2500
   44.7000    80.1774  -999.2500  -999.2500
   44.8000    80.2808  -999.2500  -999.2500
   44.9000    80.4812  -999.2500  -999.2500
   45.0000    80.1810  -999.2500  -999.2500
   45.1000    79.7110  -999.2500  -999.2500
   45.2000    79.2213  -999.2500  -999.2500
   45.3000    78.6081  -999.2500  -999.2500
   45.4000    77.8725  -999.2500  -999.2500
   45.5000    77.1483  -999.2500  -999.2500
   45.6000    76.5685  -999.2500  -999.2500
   45.7000    75.7674  -999.2500  -999.2500
   45.8000    74.7863  -999.2500  -999.2500
   45.9000    73.6285  -999.2500  -999.2500
   46.0000    72.2856  -999.2500  -999.2500
   46.1000    71.7479  -999.2500  -999.2500
   46.2000    71.3057  -999.2500  -999.2500
   46.3000    71.1469  -999.2500  -999.2500
   46.4000    71.1481  -999.2500  -999.2500
   46.5000    71.2027  -999.2500  -999.2500
   46.6000    71.4522  -999.2500  -999.2500
   46.7000    72.1817  -999.2500  -999.2500
   46.8000    73.4798  -999.2500  -999.2500
   46.9000    74.6930  -999.2500  -999.2500
   47.0000    75.9740  -999.2500  -999.2500
   47.1000    77.9404  -999.2500  -999.2500
   47.2000    80.2077  -999.2500  -999.2500
   47.3000    80.8322  -999.2500  -999.2500
   47.4000    81.5700  -999.2500  -999.2500
   47.5000    82.2123  -999.2500  -999.2500
   47.6000    82.7047  -999.2500  -999.2500
   47.7000    83.2302  -999.2500  -999.2500
   47.8000    83.2313  -999.2500  -999.2500
   47.9000    83.4054  -999.2500  -999.2500
   48.0000    83.1857  -999.2500  -999.2500
   48.1000    82.3900  -999.2500  -999.2500
   48.2000    81.4085  -999.2500  -999.2500
   48.3000    80.4272  -999.2500  -999.2500
   48.4000    79.6403  -999.2500  -999.2500
   48.5000    79.0426  -999.2500  -999.2500
   48.6000    78.6344  -999.2500  -999.2500
   48.7000    78.4156  -999.2500  -999.2500
   48.8000    78.4170  -999.2500  -999.2500
   48.9000    78.2031  -999.2500  -999.2500
   49.0000    78.1176  -999.2500  -999.2500
   49.1000    78.1188  -999.2500  -999.2500
   49.2000    78.1200  -999.2500  -999.2500
   49.3000    78.1213  -999.2500  -999.2500
   49.4000    78.1225  -999.2500  -999.2500
   49.5000    78.1237  -999.2500  -999.2500
   49.6000    78.2488  -999.2500  -999.2500
   49.7000    78.5633  -999.2500  -999.2500
   49.8000    79.1030  -999.2500  -999.2500
   49.9000    80.8437  -999.2500  -999.2500
   50.0000    84.0611  9990.3877  2000.0000
   50.1000    93.0641  9990.7812  1999.9720
   50.2000   101.9475  9991.0732  1999.9441
   50.3000   104.5695  9936.9443  1999.9161
   50.4000   108.6022  9880.6689  1999.8882
   50.5000   112.1575  8419.5020  1999.8602
   50.6000   113.9293  5988.1406  1975.8290
   50.7000   114.4473  4569.8564  1647.5001
   50.8000   114.5322  3151.5718  1051.6510
   50.9000   114.0380  1733.2875   588.2358
   51.0000   113.5527   315.0030   225.9847
   51.1000   113.2499     9.7753   121.7489
   51.2000   112.7434     5.5174    43.8220
   51.3000   112.0830     3.2159    13.0136
   51.4000   111.6307     2.4528     6.4995
   51.5000   111.6322     2.1722     4.0078
   51.6000   111.6332     2.1183     3.7415
   51.7000   111.6344     2.0977     3.5016
   51.8000   111.5394     2.0977     3.3329
   51.9000   111.3349     2.1028     3.2547
   52.0000   111.6381     2.1274     3.2799
   52.1000   113.0158     2.1515     3.4605
   52.2000   114.6634     2.1575     3.7933
   52.3000   116.1491     2.1841     4.1382
   52.4000   117.3172     2.2549     4.4261
   52.5000   118.3149     2.3817     4.6717
   52.6000   120.0357     2.6429     4.8733
   52.7000   120.9778     2.8187     4.9528
   52.8000   121.8540     3.0250     5.0595
   52.9000   122.8375     3.3556     5.1468
   53.0000   123.7164     3.8329     5.2227
   53.1000   123.7178     4.1644     5.3467
   53.2000   124.1499     4.5996     5.5648
   53.3000   124.8017     4.9057     5.8969
   53.4000   125.7463     5.1492     6.3866
   53.5000   126.9277     5.3805     6.9245
   53.6000   127.9469     5.6042     7.4637
   53.7000   128.4214     5.9919     8.1153
   53.8000   129.2749     6.3459     8.6182
   53.9000   130.0094     7.0486     9.1406
   54.0000   130.5016     7.6670     9.5639
   54.1000   130.9696     7.8167     9.7684
   54.2000   130.9709     7.7084     9.6470
   54.3000   130.5685     7.0207     9.3318
   54.4000   130.0787     6.5859     7.9387
   54.5000   129.5889     6.2921     7.1302
   54.6000   129.0989     6.0438     6.9422
   54.7000   128.5636     5.9072     6.9094
   54.8000   127.8963     5.7744     6.9093
   54.9000   127.4942     5.6699     6.9092
   55.0000   127.1394     5.6101     6.9091
   55.1000   126.6494     5.5566     6.9090
   55.2000   126.1563     5.4697     6.9089
   55.3000   125.4257     5.4355     6.9088
   55.4000   124.5026     5.3804     6.9087
   55.5000   123.6532     5.3602     6.9422
   55.6000   122.9177     5.3604     6.9569
   55.7000   122.1825     5.3605     6.9730
   55.8000   121.3371     5.3607     7.0129
   55.9000   120.9204     5.3609     7.0546
   56.0000   120.5832     5.3610     7.0934
   56.1000   120.4356     5.3612     7.1340
   56.2000   120.5989     5.3613     7.1748
   56.3000   121.6447     5.3614     7.2159
   56.4000   122.7958     5.3616     7.2572
   56.5000   123.8510     5.3617     7.3048
