~VERSION INFORMATION
 VERS.                2.0:   CWLS LOG ASCII STANDARD - VERSION 2.0
 WRAP.                 NO:   ONE LINE PER DEPTH STEP
~WELL INFORMATION
#MNEM.UNIT      DATA TYPE    INFORMATION
#----------   ------------   ------------------------------
 STRT.F            5.0000:   START DEPTH
 STOP.F          610.0000:   STOP DEPTH
 STEP.F            0.5000:   STEP LENGTH
 NULL.          -999.2500:   NO VALUE
 COMP. FENIX & SCISSON INC:   COMPANY
 WELL.        NPR 3 #25-3:   WELL
 FLD .        TEAPOT DOME:   FIELD
 LOC .       S3 T38N R78W:   LOCATION
 CNTY.            NATRONA:   COUNTY
 STAT.            WYOMING:   STATE
 CTRY. UNITED STATES OF AMERICA:   COUNTRY
 SRVC.           BIRDWELL:   SERVICE COMPANY
 DATE.        28-SEP-1978:   LOGDATE
 API .       490251068900:   API NUMBER
~CURVE INFORMATION
#MNEM.UNIT       API CODE    CURVE DESCRIPTION
#----------   ------------   ------------------------------
 DEPT.F                  :   
 SPR .MV     05 010 01 00:   SPONTANEOUS POTENTIAL FROM RES.
 IL  .OHMM   05 120 00 00:   INDUCTION LOG
 SN  .OHMM   05 040 16 00:   SHORT NORMAL 16"
 CALD.IN     45 280 60 00:   CALIPER
 GRD .GAPI   45 310 01 00:   GAMMA RAY FROM DENSITY LOG
 CORR.G/C3   45 356 01 00:   DENSITY CORRECTION
 DEN .G/C3   45 350 01 00:   COMPENSATED BULK DENSTIY
 DPHI.DEC    45 890 12 00:   DENSITY POROSITY SANDSTONE
~PARAMETER INFORMATION
#MNEM.UNIT          VALUE    DESCRIPTION
#----------   ------------   ------------------------------
 PD  .                 GL:   PERMANENT DATUM
 EPD .F              5249:   ELEVATION PERMANENT DATUM
 LMF .                 KB:   LOG MEASURED FROM
 DAPD.F                 4:   FEET ABOVE PERMANENT DATUM
 DMF .                 KB:   DRILLING MEASURED FROM
 EKB .F              5253:   KELLING BUSHING
 EGL .F              5249:   GROUND LEVEL
 DATE.            9-28-78:   RUN DATE
 RUN .                  1:   RUN NUMBER
 DD  .F               616:   DEPTH DRILLER
 DL  .F               613:   DEPTH LOGGER
 BLI .F               607:   BOTTOM LOG INTERVAL
 TLI .F                40:   TOP LOG INTERVAL
 BS  .IN            7.875:   BIT SIZE
 BSD .F               616:   BIT SIZE AT DEPTH
 DFT .                KCL:   DRILLING FLUID TYPE
 DFD .                8.7:   DRILLING FLUID DENSITY
 DFV .                 33:   DRILLING FLUID VISCOSITY
 DFPH.                  9:   DRILLING FLUID PH
 DFL .                  5:   DRILLING FLUID LOSS
 MSS .            MUD PIT:   MUD SAMPLE SOURCE
 RMS .OHMM            .14:   RESISTIVITY MUD SAMPLE
 MST .F                65:   MUD SAMPLE TEMPERATURE
 RMF .OHMM            2.1:   RESISTIVITY MUD FILTRATE SAMPLE
 MFST.F                65:   MUD FILTRATE SAMPLE TEMPERATURE
 RMC .OHMM            .32:   RESISTIVITY MUD CAKE
 MCST.F                65:   MUD CAKE SAMPLE TEMPERATURE
 MFSS.               MEAS:   MUD FILTRATE SAMPLE SOURCE
 TCS .HRS               2:   TIME CURCULATED STOPPED
 LUN .               2958:   LOGGING UNIT NUMBER
 LUL .               CASP:   LOGGING UNIT LOCATION
 ENGI.            ROLLINS:   RECORDING ENGINEER
 WITN.              AMEND:   WITNESSED BY
 CLNT.            A2DTECH:   CLIENT CODE
 ORIG.           5" PRINT:   ORIGIN OF DATA
 UWI .       490251068900:   UNIQUE WELL ID
 DICO. A2D Technologies, Inc.:   DIGITIZING COMPANY
~OTHER INFORMATION
~A    DEPT     SPR         IL         SN         CALD       GRD      CORR        DEN       DPHI   
# ...
   86.0000   -32.1960     7.1402     6.9421     8.0249   112.1507     0.0000     2.4964     0.1222
   86.5000   -31.9865     7.2035     6.9229     8.0854   107.7583     0.0075     2.5020     0.1142
   87.0000   -31.7864     7.2677     6.9102     8.1146   107.5971     0.0596     2.4979     0.1122
   87.5000   -31.5864     7.3327     6.8975     8.1432   109.6502     0.1231     2.4960     0.1059
   88.0000   -31.3872     7.4047     6.8849     8.1716   111.5095     0.1835     2.5218     0.1018
   88.5000   -31.2394     7.3962     6.8770     8.1898   111.6291     0.1159     2.5714     0.1181
   89.0000   -31.2670     7.3868     6.9498     8.1707   111.5498     0.0323     2.5843     0.1234
   89.5000   -31.2911     7.3777     7.0051     8.1478   111.4105     0.0188     2.4797     0.1155
   90.0000   -31.3150     7.3687     7.0609     8.1283   114.4581     0.0125     2.4881     0.1102
   90.5000   -31.3388     7.3597     7.1171     8.1287   118.3379     0.0060     2.4965     0.1152
   91.0000   -31.3626     7.3508     7.1738     8.1288   119.1916     0.0050     2.4910     0.1193
   91.5000   -31.3864     7.3418     7.2023     8.1288   118.4860     0.0057     2.4857     0.1214
   92.0000   -31.4103     7.3328     7.1733     8.1288   117.7682     0.0065     2.4805     0.1167
   92.5000   -31.4341     7.3239     7.1538     8.1288   117.2963     0.0067     2.4889     0.1105
   93.0000   -31.4372     7.3149     7.1344     8.1288   117.3656    -0.0006     2.5019     0.1058
   93.5000   -31.4372     7.3060     7.1152     8.1288   117.7837    -0.0080     2.5067     0.1166
   94.0000   -31.4371     7.2971     7.0962     8.1288   118.1881    -0.0081     2.4937     0.1164
   94.5000   -31.4371     7.2882     7.0760     8.1288   119.6913    -0.0070     2.4902     0.1155
   95.0000   -31.4372     7.2793     7.0170     8.1287   121.0967    -0.0060     2.4888     0.1200
   95.5000   -31.4368     7.2704     6.9406     8.1348   121.0583    -0.0049     2.4827     0.1266
   96.0000   -31.4398     7.2615     6.8650     8.1459   120.0603    -0.0038     2.4760     0.1282
   96.5000   -31.2920     7.2527     6.7907     8.1570   116.7684    -0.0027     2.4715     0.1282
   97.0000   -31.0865     7.2438     6.7522     8.1682   113.6502    -0.0017     2.4714     0.1247
   97.5000   -30.8778     7.2350     6.7526     8.1794   113.7572    -0.0006     2.4793     0.1196
   98.0000   -30.6687     7.2261     6.7531     8.1878   115.1247     0.0004     2.4896     0.1162
   98.5000   -30.4622     7.2173     6.7531     8.1738   116.8579     0.0008     2.4904     0.1185
   99.0000   -30.4363     7.2085     6.7531     8.1598   117.6902     0.0003     2.4851     0.1220
   99.5000   -30.3935     7.2027     6.7531     8.1460   117.7057    -0.0003     2.4801     0.1242
  100.0000   -30.3518     7.2187     6.7530     8.1321   117.7063    -0.0008     2.4787     0.1220
  100.5000   -30.3101     7.2312     6.7522     8.1184   117.6851    -0.0021     2.4829     0.1185
  101.0000   -30.2689     7.2438     6.7712     8.1036   118.8410    -0.0042     2.4866     0.1175
  101.5000   -30.2313     7.2564     6.8346     8.0840   120.4126    -0.0063     2.4868     0.1180
  102.0000   -30.2053     7.2690     6.8985     8.0482   121.5475    -0.0085     2.4873     0.1185
  102.5000   -30.1789     7.2817     6.9551     8.0118   121.4120    -0.0090     2.4879     0.1179
  103.0000   -30.1525     7.2944     6.9995     7.9753   121.2898    -0.0090     2.4885     0.1169
  103.5000   -30.1262     7.3071     7.0436     7.9389   121.1974    -0.0090     2.4896     0.1158
  104.0000   -30.0999     7.3198     7.0880     7.9065   118.9346    -0.0090     2.4907     0.1161
  104.5000   -30.0737     7.3325     7.1327     7.9073   116.6348    -0.0090     2.4913     0.1203
  105.0000   -30.0475     7.4146     7.1777     7.9074   117.7500    -0.0090     2.4860     0.1256
  105.5000   -29.9797     7.5252     7.2229     7.9074   119.2000    -0.0090     2.4755     0.1265
  106.0000   -29.8966     7.6377     7.2685     7.9074   119.4278    -0.0090     2.4765     0.1253
  106.5000   -29.8135     7.7518     7.3140     7.9074   119.1784    -0.0090     2.4776     0.1240
  107.0000   -29.7311     7.8669     7.3826     7.9074   118.9406    -0.0090     2.4777     0.1252
  107.5000   -29.6397     7.9728     7.4711     7.9074   119.6738    -0.0090     2.4749     0.1274
  108.0000   -29.2835     7.9874     7.5610     7.9075   121.2329    -0.0090     2.4724     0.1261
  108.5000   -28.9030     8.0036     7.6521     7.9147   122.7967    -0.0090     2.4750     0.1245
  109.0000   -28.6397     8.0196     7.7436     7.9351   124.3706    -0.0083     2.4782     0.1228
  109.5000   -28.5866     8.0357     7.8278     7.9552   126.2247    -0.0040     2.4816     0.1159
  110.0000   -28.5093     8.0518     7.8465     7.9755   128.6033     0.0004     2.4882     0.1159
  110.5000   -28.4244     8.0680     7.8663     7.9956   129.5605     0.0068     2.4895     0.1161
  111.0000   -28.3013     8.0842     7.8861     8.0159   129.5909     0.0168     2.4895     0.1148
  111.5000   -28.0616     8.1004     7.9060     8.0398   130.3268     0.0226     2.4894     0.1086
  112.0000   -27.7177     8.1166     7.9259     8.0698   132.1533     0.0213     2.4988     0.1100
  112.5000   -27.6447     8.1329     7.9458     8.0997   133.7971     0.0201     2.5023     0.1110
  113.0000   -27.6112     8.1492     7.9658     8.1297   133.1093     0.0192     2.4975     0.1126
  113.5000   -27.5774     8.1656     7.9859     8.1598   131.9524     0.0245     2.4924     0.1171
  114.0000   -27.5430     8.1820     8.0060     8.1881   130.7807     0.0300     2.4878     0.1182
  114.5000   -27.5091     8.2226     8.0262     8.1821   130.6381     0.0299     2.4941     0.1074
  115.0000   -27.4773     8.3072     8.0505     8.1747   130.9324     0.0270     2.5006     0.1087
  115.5000   -27.4315     8.3928     8.0971     8.1674   131.2273     0.0242     2.5029     0.1103
  116.0000   -26.8664     8.4792     8.1439     8.1602   131.3515     0.0214     2.4988     0.1150
  116.5000   -26.2713     8.6001     8.1925     8.1530   130.3591     0.0185     2.4948     0.1142
  117.0000   -26.2434     8.7333     8.2913     8.1489   129.7690     0.0157     2.4925     0.1124
  117.5000   -26.2466     8.8685     8.3949     8.1489   131.1355     0.0131     2.4928     0.1114
  118.0000   -26.2477     9.0058     8.4997     8.1489   132.8306     0.0136     2.4935     0.1114
  118.5000   -26.2472     9.1453     8.6059     8.1489   133.0434     0.0165     2.4942     0.1114
  119.0000   -26.2492     9.2872     8.7133     8.1491   131.5922     0.0193     2.4948     0.1114
  119.5000   -26.0648     9.4303     8.7375     8.1407   126.1106     0.0220     2.4955     0.1114
  120.0000   -25.7521     9.5168     8.7070     8.1311   120.6239     0.0301     2.4937     0.1132
  120.5000   -25.4378     9.5580     8.6846     8.1214   119.2981     0.0408     2.4910     0.1170
  121.0000   -25.1234     9.6000     8.6625     8.1123   116.0554     0.0516     2.4886     0.1145
  121.5000   -24.8093     9.6422     8.6107     8.0769   112.9545     0.0553     2.4907     0.1091
  122.0000   -24.4944     9.6682     8.5514     8.0307   109.8631     0.0406     2.5007     0.1074
  122.5000   -24.1835     9.6683     8.4924     7.9884   108.2447     0.0225     2.5025     0.1225
  123.0000   -23.5901     9.6682     8.4341     7.9877   108.3727     0.0108     2.4820     0.1371
  123.5000   -22.8139     9.6682     8.3476     7.9879   108.8967     0.0094     2.4618     0.1422
  124.0000   -22.0325     9.6682     8.2548     7.9879   109.4042     0.0080     2.4516     0.1374
  124.5000   -21.2808     9.6684     8.1631     7.9881   109.8496     0.0066     2.4563     0.1320
  125.0000   -21.2336     9.6684     8.0723     7.9769   109.4826     0.0051     2.4658     0.1256
  125.5000   -21.1368     9.6682     7.9826     7.9617   108.7104     0.0037     2.4737     0.1285
  126.0000   -21.1206     9.5699     7.8939     7.9424   107.8755     0.0023     2.4693     0.1321
