~VERSION INFORMATION
 VERS.                2.0:   CWLS LOG ASCII STANDARD - VERSION 2.0
 WRAP.                 NO:   ONE LINE PER DEPTH STEP
~WELL INFORMATION
#MNEM.UNIT      DATA TYPE    INFORMATION
#----------   ------------   ------------------------------
 STRT.F           16.0000:   START DEPTH
 STOP.F          484.5000:   STOP DEPTH
 STEP.F            0.5000:   STEP LENGTH
 NULL.          -999.2500:   NO VALUE
 COMP. FENIX & SCISSON INC:   COMPANY
 WELL. NPR 3 #83 SX 10-10:   WELL
 FLD .             TEAPOT:   FIELD
 LOC .      S10 T38N R78W:   LOCATION
 CNTY.            NATRONA:   COUNTY
 STAT.            WYOMING:   STATE
 CTRY. UNITED STATES OF AMERICA:   COUNTRY
 SRVC.           BIRDWELL:   SERVICE COMPANY
 DATE.        25-NOV-1978:   LOGDATE
 API .       490251075200:   API NUMBER
~CURVE INFORMATION
#MNEM.UNIT       API CODE    CURVE DESCRIPTION
#----------   ------------   ------------------------------
 DEPT.F                  :   
 SPR .MV     05 010 01 00:   SPONTANEOUS POTENTIAL FROM RES.
 SN  .OHMM   05 040 16 00:   SHORT NORMAL 16"
 IL  .OHMM   05 120 00 00:   INDUCTION LOG
 CALD.IN     45 280 60 00:   CALIPER
 GRD .GAPI   45 310 01 00:   GAMMA RAY FROM DENSITY LOG
 CORR.G/C3   45 356 01 00:   DENSITY CORRECTION
 DPHI.DEC    45 890 12 00:   DENSITY POROSITY SANDSTONE
 RHOB.G/C3   45 350 01 00:   BULK DENSITY
~PARAMETER INFORMATION
#MNEM.UNIT          VALUE    DESCRIPTION
#----------   ------------   ------------------------------
 PD  .                 GL:   PERMANENT DATUM
 EPD .F              5145:   ELEVATION PERMANENT DATUM
 LMF .                 KB:   LOG MEASURED FROM
 DAPD.F                 4:   FEET ABOVE PERMANENT DATUM
 DMF .                 KB:   DRILLING MEASURED FROM
 EKB .F              5149:   KELLING BUSHING
 EGL .F              5145:   GROUND LEVEL
 DATE.           11-25-78:   RUN DATE
 RUN .                  1:   RUN NUMBER
 DD  .F               490:   DEPTH DRILLER
 DL  .F               487:   DEPTH LOGGER
 BLI .F               481:   BOTTOM LOG INTERVAL
 TLI .F                30:   TOP LOG INTERVAL
 CS  .IN            8.625:   CASING SIZE
 CBD .F                40:   CASING BOTTOM DRILLER
 CBL .F                35:   CASING BOTTOM LOGGER
 BS  .IN            7.875:   BIT SIZE
 BSD .F               490:   BIT SIZE AT DEPTH
 DFT .             SEAMUD:   DRILLING FLUID TYPE
 DFD .                8.8:   DRILLING FLUID DENSITY
 DFV .                 38:   DRILLING FLUID VISCOSITY
 DFPH.               11.1:   DRILLING FLUID PH
 DFL .                9.6:   DRILLING FLUID LOSS
 MSS .           FLOWLINE:   MUD SAMPLE SOURCE
 RMS .OHMM            .28:   RESISTIVITY MUD SAMPLE
 MST .F                58:   MUD SAMPLE TEMPERATURE
 RMF .OHMM            .25:   RESISTIVITY MUD FILTRATE SAMPLE
 MFST.F                70:   MUD FILTRATE SAMPLE TEMPERATURE
 RMC .OHMM             .3:   RESISTIVITY MUD CAKE
 MCST.F                70:   MUD CAKE SAMPLE TEMPERATURE
 MFSS.           MEASURED:   MUD FILTRATE SAMPLE SOURCE
 MCSS.           MEASURED:   MUD CAKE SAMPLE SOURCE
 BHT .F                58:   BOTTOM HOLE TEMPERATURE
 TCS .HRS               3:   TIME CURCULATED STOPPED
 MRT .F                58:   MAXIMUM RECORDED TEMPERATURE
 LUN .               3029:   LOGGING UNIT NUMBER
 LUL .               CASP:   LOGGING UNIT LOCATION
 ENGI.           REYNOLDS:   RECORDING ENGINEER
 WITN.           DINSMORE:   WITNESSED BY
 CLNT.            A2DTECH:   CLIENT CODE
 ORIG.     1", 2.5" PRINT:   ORIGIN OF DATA
 UWI .       490251075200:   UNIQUE WELL ID
 DICO. A2D Technologies, Inc.:   DIGITIZING COMPANY
~OTHER INFORMATION
~A   DEPT      SPR         SN         IL       CALD         GRD      CORR       DPHI       RHOB   
# ...
  218.5000   -49.2950     8.5170     7.6700     7.6220   122.3580     0.0640     0.1210     2.4810
  219.0000   -49.2120     8.2860     7.5810     7.6170   123.6660     0.0600     0.1260     2.4790
  219.5000   -49.2040     8.0550     7.4220     7.6110   126.4070     0.0560     0.1300     2.4760
  220.0000   -49.1760     7.8240     7.2130     7.6100   127.1900     0.0520     0.1340     2.4650
  220.5000   -49.4110     7.5930     7.0030     7.6130   128.2280     0.0480     0.1380     2.4560
  221.0000   -49.7990     7.3620     6.7940     7.6160   129.8030     0.0440     0.1410     2.4480
  221.5000   -50.1300     7.1310     6.5850     7.6190   128.6900     0.0400     0.1430     2.4460
  222.0000   -50.4800     6.8760     6.3750     7.6220   123.8370     0.0370     0.1540     2.4330
  222.5000   -50.8240     6.6440     6.1660     7.6250   119.1680     0.0400     0.1670     2.4120
  223.0000   -51.1690     6.3840     5.9570     7.6280   116.6240     0.0430     0.1790     2.3880
  223.5000   -51.5150     6.1250     5.7470     7.6310   116.1690     0.0470     0.1710     2.3950
  224.0000   -51.8580     5.9270     5.5020     7.6340   118.5420     0.0470     0.1560     2.4210
  224.5000   -52.2160     5.9270     5.5180     7.6370   120.7210     0.0440     0.1410     2.4470
  225.0000   -52.4550     6.3500     5.5540     7.6400   121.3340     0.0410     0.1400     2.4570
  225.5000   -52.1130     6.7660     5.5900     7.6430   120.3930     0.0440     0.1390     2.4550
  226.0000   -51.5190     7.1820     5.8160     7.6460   120.4970     0.0500     0.1360     2.4630
  226.5000   -50.9840     7.5980     6.1810     7.6480   122.4630     0.0480     0.1340     2.4680
  227.0000   -50.4390     8.0150     6.5450     7.6380   124.7330     0.0400     0.1370     2.4620
  227.5000   -50.3190     8.2150     6.9100     7.6280   127.4000     0.0400     0.1390     2.4550
  228.0000   -50.2340     8.3370     7.2740     7.6180   131.2740     0.0440     0.1390     2.4580
  228.5000   -50.1520     8.4590     7.6390     7.6080   130.4120     0.0500     0.1390     2.4600
  229.0000   -50.0640     8.5800     7.9770     7.5970   127.2240     0.0550     0.1390     2.4590
  229.5000   -49.9810     8.7020     7.9770     7.5870   124.3590     0.0620     0.1390     2.4540
  230.0000   -49.8950     8.8230     7.9770     7.5770   121.5570     0.0790     0.1370     2.4610
  230.5000   -49.8110     8.9170     7.9770     7.5630   118.3680     0.0950     0.1320     2.4720
  231.0000   -49.7250     9.0020     7.9770     7.4990   119.6190     0.1120     0.1260     2.4780
  231.5000   -49.6410     9.1060     7.9770     7.4430   121.7650     0.1280     0.1170     2.4900
  232.0000   -49.5540     9.2540     7.9770     7.3820   124.0850     0.1440     0.1090     2.5070
  232.5000   -49.4720     9.2420     7.9770     7.3260   124.5260     0.1570     0.1020     2.5190
  233.0000   -49.3830     9.2190     7.9770     7.2640   123.7230     0.1590     0.1010     2.5210
  233.5000   -49.3030     9.1980     7.9770     7.2600   123.3070     0.1610     0.1020     2.5190
  234.0000   -49.2110     9.1750     7.9770     7.2900   122.3120     0.1630     0.1050     2.5150
  234.5000   -49.3630     9.1520     7.9770     7.3140   124.5640     0.1650     0.1080     2.5110
  235.0000   -49.5900     9.1300     7.9770     7.3400   126.5590     0.1670     0.1110     2.5050
  235.5000   -49.8100     9.1070     7.9770     7.3650   125.1540     0.1730     0.1140     2.4960
  236.0000   -50.0290     9.0850     7.9770     7.3730   124.3010     0.1880     0.1070     2.5040
  236.5000   -50.2530     9.0620     7.9770     7.3790   123.3060     0.1820     0.1090     2.5130
  237.0000   -50.4670     9.0400     7.9770     7.3840   124.0130     0.1640     0.1160     2.4980
  237.5000   -50.7010     9.0170     7.9770     7.3910   124.9030     0.1620     0.1120     2.4930
  238.0000   -50.8160     8.9950     7.9770     7.3970   124.8260     0.1890     0.1080     2.5170
  238.5000   -50.7750     8.9730     7.9770     7.4030   124.6500     0.1780     0.1080     2.5500
  239.0000   -50.7380     8.9500     7.9770     7.4090   128.6270     0.1380     0.1080     2.5150
  239.5000   -50.6960     8.9280     7.9770     7.4150   132.7290     0.1020     0.1210     2.4870
  240.0000   -50.6580     8.7530     7.7960     7.4210   136.3680     0.0800     0.1370     2.4650
  240.5000   -50.6160     8.5710     7.6030     7.4270   138.1380     0.0650     0.1520     2.4420
  241.0000   -50.5790     8.3160     7.4100     7.4330   135.7740     0.0560     0.1560     2.4280
  241.5000   -50.5350     8.0610     7.2360     7.4390   133.3270     0.0600     0.1510     2.4320
  242.0000   -50.5010     7.8060     7.1140     7.4450   130.8740     0.0670     0.1440     2.4470
  242.5000   -50.4580     7.5510     6.9920     7.4510   128.1730     0.0780     0.1370     2.4600
  243.0000   -50.4080     7.3900     6.8700     7.4570   127.0740     0.0760     0.1290     2.4730
  243.5000   -50.4830     7.3530     6.7480     7.4630   128.4600     0.0600     0.1450     2.4520
  244.0000   -51.2120     7.3150     6.6250     7.4690   129.5570     0.0450     0.1610     2.4290
  244.5000   -51.9790     7.2700     6.3100     7.4750   130.0390     0.0420     0.1770     2.4050
  245.0000   -52.4760     6.8440     5.9920     7.4810   128.0450     0.0400     0.1870     2.3820
  245.5000   -52.6020     6.2940     5.6740     7.4870   125.5230     0.0460     0.1920     2.3740
  246.0000   -52.9150     5.9270     5.3570     7.4930   123.1280     0.0430     0.1810     2.3930
  246.5000   -53.0950     6.0120     5.2040     7.4990   120.6290     0.0300     0.1670     2.4120
  247.0000   -53.5190     6.1040     5.2040     7.5050   121.1490     0.0250     0.1540     2.4320
  247.5000   -53.3470     6.3390     5.4350     7.5110   122.0470     0.0380     0.1410     2.4520
  248.0000   -52.9890     6.7250     5.6920     7.5170   122.9590     0.0510     0.1290     2.4690
  248.5000   -52.6710     7.1110     5.9500     7.5230   123.8790     0.0470     0.1320     2.4710
  249.0000   -52.3260     7.4330     6.2070     7.5280   124.6690     0.0430     0.1350     2.4640
  249.5000   -52.0160     7.5500     6.4650     7.5240   125.8170     0.0380     0.1380     2.4600
  250.0000   -51.6380     7.6670     6.7230     7.5200   124.4420     0.0340     0.1410     2.4550
  250.5000   -51.5980     7.7840     6.9800     7.5160   120.9610     0.0290     0.1430     2.4500
  251.0000   -51.7630     7.9010     7.4060     7.5120   119.1820     0.0250     0.1460     2.4460
  251.5000   -53.7060     7.9770     7.3100     7.5090   120.5450     0.0200     0.1500     2.4400
  252.0000   -54.3440     7.8190     7.0340     7.5050   121.9100     0.0200     0.1570     2.4300
  252.5000   -52.9930     7.5220     6.7570     7.5010   123.4140     0.0200     0.1630     2.4200
  253.0000   -51.7670     7.2250     6.5030     7.4970   124.7410     0.0240     0.1690     2.4110
  253.5000   -50.5140     6.9290     6.2910     7.4930   126.4070     0.0350     0.1740     2.4030
  254.0000   -49.2430     6.6320     6.0950     7.4900   126.6790     0.0470     0.1580     2.4170
  254.5000   -48.7590     6.3350     5.8980     7.4860   124.3480     0.0410     0.1430     2.4470
  255.0000   -48.8990     6.0380     5.7020     7.4820   122.6940     0.0330     0.1330     2.4630
  255.5000   -48.9420     6.3730     5.5060     7.4780   122.0110     0.0340     0.1270     2.4750
  256.0000   -49.0250     6.7080     5.3020     7.4740   121.6130     0.0360     0.1200     2.4860
  256.5000   -49.0900     7.0430     5.5540     7.4710   112.0320     0.0390     0.1140     2.4980
  257.0000   -49.1630     7.4060     6.0120     7.4670   113.2020     0.0390     0.1080     2.5050
  257.5000   -49.2320     7.6230     6.4700     7.4630   114.2490     0.0340     0.1100     2.5020
  258.0000   -49.3040     7.8580     6.9280     7.4590   115.5200     0.0300     0.1130     2.5010
  258.5000   -49.3720     8.0940     7.3860     7.4560   116.5540     0.0320     0.1100     2.5030
