~VERSION INFORMATION
 VERS.                2.0:   CWLS LOG ASCII STANDARD - VERSION 2.0
 WRAP.                 NO:   ONE LINE PER DEPTH STEP
~WELL INFORMATION
#MNEM.UNIT      DATA TYPE    INFORMATION
#----------   ------------   ------------------------------
 STRT.F           24.0000:   START DEPTH
 STOP.F          472.0000:   STOP DEPTH
 STEP.F            0.5000:   STEP LENGTH
 NULL.          -999.2500:   NO VALUE
 COMP. FENIX & SCISSON INC:   COMPANY
 WELL. 55-66 SX-3-FP #55-3:   WELL
 FLD .             WLDCAT:   FIELD
 LOC .       S3 T38N R78W:   LOCATION
 CNTY.            NATRONA:   COUNTY
 STAT.            WYOMING:   STATE
 CTRY. UNITED STATES OF AMERICA:   COUNTRY
 SRVC.              Welex:   SERVICE COMPANY
 DATE.        11-JUN-1980:   LOGDATE
 API .       490251082200:   API NUMBER
~CURVE INFORMATION
#MNEM.UNIT       API CODE    CURVE DESCRIPTION
#----------   ------------   ------------------------------
 DEPT.F                  :   
 SPR .MV     07 010 01 00:   SPONTANEOUS POTENTIAL
 GURD.OHMM   07 220 05 00:   GUARD RESISTIVITY
 ILD .OHMM   07 120 46 00:   INDUCTION LOG DEEP RESISTIVITY
 ILM .OHMM   07 120 44 00:   INDUCTION LOG MEDIUM
 DPHI.DEC    45 890 12 00:   DENSITY POROSITY SANDSTONE
 NPHI.DEC    42 890 03 00:   NEUTRON POROSITY SANDSTONE
 CORR.G/C3   45 356 01 00:   DENSITY CORRECTION
 RHOB.G/C3   45 350 01 00:   BULK DENSITY
 CALD.IN     45 280 60 00:   CALIPER
 GRD .GAPI   45 310 01 00:   GAMMA RAY FROM DENSITY LOG
~PARAMETER INFORMATION
#MNEM.UNIT          VALUE    DESCRIPTION
#----------   ------------   ------------------------------
 PD  .                 GL:   PERMANENT DATUM
 EPD .F              5169:   ELEVATION PERMANENT DATUM
 LMF .                 KB:   LOG MEASURED FROM
 DAPD.F                 5:   FEET ABOVE PERMANENT DATUM
 DMF .                 KB:   DRILLING MEASURED FROM
 EKB .F              5174:   KELLING BUSHING
 EGL .F              5169:   GROUND LEVEL
 DATE.            6-11-80:   RUN DATE
 RUN .                  1:   RUN NUMBER
 DD  .F               472:   DEPTH DRILLER
 DL  .F               472:   DEPTH LOGGER
 BLI .F               470:   BOTTOM LOG INTERVAL
 TLI .F                30:   TOP LOG INTERVAL
 BS  .IN            9.875:   BIT SIZE
 BSD .F               472:   BIT SIZE AT DEPTH
 DFT .                KCL:   DRILLING FLUID TYPE
 DFD .                9.5:   DRILLING FLUID DENSITY
 DFV .                 47:   DRILLING FLUID VISCOSITY
 DFPH.                 12:   DRILLING FLUID PH
 DFL .                7.2:   DRILLING FLUID LOSS
 MSS .           MUD TANK:   MUD SAMPLE SOURCE
 RMS .OHMM            .26:   RESISTIVITY MUD SAMPLE
 MST .F                75:   MUD SAMPLE TEMPERATURE
 RMF .OHMM            .21:   RESISTIVITY MUD FILTRATE SAMPLE
 MFST.F                75:   MUD FILTRATE SAMPLE TEMPERATURE
 RMC .OHMM            .31:   RESISTIVITY MUD CAKE
 MCST.F                75:   MUD CAKE SAMPLE TEMPERATURE
 MFSS.           MEASURED:   MUD FILTRATE SAMPLE SOURCE
 MCSS.           MEASURED:   MUD CAKE SAMPLE SOURCE
 RMB .OHMM            .26:   RESISTIVITY MUD AT BHT
 BHT .F                75:   BOTTOM HOLE TEMPERATURE
 TCS .HRS             1.5:   TIME CURCULATED STOPPED
 MRT .F                75:   MAXIMUM RECORDED TEMPERATURE
 LUN .               9685:   LOGGING UNIT NUMBER
 LUL .             CASPER:   LOGGING UNIT LOCATION
 ENGI.               REIN:   RECORDING ENGINEER
 WITN.          DINSMOORE:   WITNESSED BY
 CLNT.            A2DTECH:   CLIENT CODE
 ORIG.           5" PRINT:   ORIGIN OF DATA
 UWI .       490251082200:   UNIQUE WELL ID
 DICO. A2D Technologies, Inc.:   DIGITIZING COMPANY
~OTHER INFORMATION
~A   DEPT      SPR       GURD        ILD        ILM         DPHI       NPHI     CORR       RHOB        CALD       GRD   
# ...
  258.5000   -56.0647     9.3590     6.8785     8.4223     0.0898     0.3106     0.0951     2.5287    10.0476   108.1097
  259.0000   -56.1062     9.4919     6.7452     8.3949     0.0870     0.3111     0.1011     2.4969    10.0472   105.1217
  259.5000   -56.1478     9.2386     6.6053     8.3664     0.0812     0.3127     0.1126     2.5112    10.0467   104.4210
  260.0000   -56.1895     9.0121     6.5692     8.3379     0.0793     0.3123     0.1179     2.5212    10.0463   104.8885
  260.5000   -56.2317     8.7343     6.6796     8.3094     0.0811     0.3108     0.1082     2.5339    10.0459   106.0109
  261.0000   -56.2721     8.7385     6.8017     8.2683     0.0846     0.3094     0.0977     2.5101    10.0455   106.6901
  261.5000   -56.2166     8.7375     6.8720     8.4079     0.0881     0.3081     0.0891     2.4970    10.0450   106.7845
  262.0000   -56.1538     9.3408     7.0144     8.6703     0.0951     0.3077     0.0996     2.5084    10.0446   106.5930
  262.5000   -56.0913     9.7534     6.7986     9.0651     0.1015     0.3080     0.0956     2.4882    10.0442   106.3132
  263.0000   -56.0290    10.0307     6.5168     8.8378     0.1041     0.3103     0.0807     2.4717    10.0437   105.5929
  263.5000   -55.9664     9.7679     6.1862     8.4397     0.1067     0.3130     0.0852     2.4699    10.0433   105.0743
  264.0000   -55.9054     9.5796     5.8707     8.1175     0.1170     0.3164     0.0824     2.4762    10.0429   105.2469
  264.5000   -55.6710    10.1234     5.5719     7.1821     0.1322     0.3207     0.0577     2.4271    10.0425   106.4054
  265.0000   -55.3042     8.8998     5.2883     6.3189     0.1413     0.3223     0.0472     2.4097    10.0420   106.8275
  265.5000   -54.9362     6.0731     5.0191     5.5513     0.1501     0.3240     0.0544     2.3926    10.0416   106.4050
  266.0000   -54.5610     3.6667     4.8045     5.0677     0.1664     0.3238     0.0525     2.3774    10.0412   105.7920
  266.5000   -54.3527     5.2285     4.7605     6.4270     0.1846     0.3222     0.0614     2.3391    10.0407   106.0698
  267.0000   -54.1824     8.2760     4.9218     8.2802     0.1854     0.3206     0.0652     2.3073    10.0403   108.2499
  267.5000   -54.0135    10.2719     5.0434     7.5983     0.1852     0.3162     0.0761     2.3137    10.0399   105.7442
  268.0000   -53.8441    10.5384     5.1715     7.1352     0.1847     0.3089     0.0488     2.3180    10.0395   102.5521
  268.5000   -53.6746    10.8118     5.4329     7.0694     0.1191     0.3078     0.0067     2.3702    10.0390    99.2711
  269.0000   -53.5051    11.0925     5.7909     7.8166     0.0930     0.3066     0.0656     2.4501    10.0386    97.2029
  269.5000   -53.3357    11.3823     6.2074     8.4196     0.0820     0.3053     0.0977     2.5090    10.0382    95.7021
  270.0000   -53.1663    11.7331     6.8294     8.7650     0.0908     0.3015     0.0729     2.5161    10.0378    96.2682
  270.5000   -52.9975    11.6510     7.5137     9.0198     0.1010     0.2964     0.0687     2.4912    10.0373    97.1822
  271.0000   -52.8275    11.5475     8.0639     9.2301     0.1113     0.2921     0.0659     2.4758    10.0369    97.1001
  271.5000   -52.6014    11.4459     8.3155     9.4453     0.1133     0.2861     0.0521     2.4522    10.0396    95.7961
  272.0000   -52.0987    11.3461     8.5753     9.6655     0.1076     0.2780     0.0543     2.4453    10.0493    94.3600
  272.5000   -51.5994    11.3052     8.8391     9.8909     0.0995     0.2700     0.0698     2.4660    10.0590    92.8092
  273.0000   -51.0937    11.3052     9.0725    10.1215     0.0863     0.2619     0.0775     2.4914    10.0687    91.2553
  273.5000   -50.4616    12.0573     9.5028    10.4067     0.0738     0.2607     0.0921     2.5166    10.0783    89.7240
  274.0000   -49.8214    14.3146    10.1312    11.1472     0.0718     0.2670     0.1067     2.5345    10.0880    85.2938
  274.5000   -49.1815    18.8087    10.8010    11.9690     0.0794     0.2730     0.1100     2.5310    10.0977    78.7406
  275.0000   -48.5417    24.7137    11.5160    12.8903     0.1079     0.2790     0.0976     2.5192    10.1071    72.0070
  275.5000   -47.9019    30.8817    12.6268    13.8826     0.1238     0.2850     0.0762     2.4855    10.1086    65.9827
  276.0000   -47.2618    32.5700    13.8512    14.9512     0.1142     0.2910     0.0642     2.4443    10.0923    60.5843
  276.5000   -46.6225    23.7229    15.1757    16.1021     0.1275     0.2932     0.0878     2.4291    10.0763    58.4599
  277.0000   -46.0210    20.7498    15.2766    16.6549     0.1460     0.2939     0.0753     2.4008    10.0603    58.8772
  277.5000   -45.5820    22.4295    15.3775    17.0603     0.1856     0.2924     0.0761     2.3586    10.0443    60.7646
  278.0000   -45.1410    23.3797    15.5526    17.4756     0.2008     0.2906     0.0799     2.2655    10.0283    62.6831
  278.5000   -44.6996    23.8925    16.0251    17.9010     0.1996     0.2887     0.0667     2.2749    10.0123    64.4535
  279.0000   -44.2582    24.4164    16.5016    18.2419     0.1968     0.2884     0.0722     2.2845     9.9963    64.7104
  279.5000   -43.8168    24.9422    16.7974    18.1436     0.1868     0.2908     0.0677     2.2882     9.9803    64.9240
  280.0000   -43.3753    24.7137    15.0438    18.0245     0.1712     0.2935     0.1015     2.3153     9.9643    65.1468
  280.5000   -42.9339    27.3460    16.1298    17.9043     0.1899     0.2930     0.1131     2.3290     9.9483    65.3585
  281.0000   -42.4924    27.3460    17.2621    17.9032     0.2068     0.2896     0.0859     2.2841     9.9421    66.3146
  281.5000   -42.0503    25.6402    17.3032    19.0255     0.2134     0.2862     0.0616     2.2622     9.9459    67.6594
  282.0000   -41.6082    22.9599    17.3531    19.8573     0.2059     0.2840     0.0724     2.2527     9.9496    69.0152
  282.5000   -41.3683    25.2278    17.4032    20.1483     0.1972     0.2842     0.0541     2.2647     9.9534    70.3732
  283.0000   -41.1685    29.1653    17.6108    20.3289     0.2028     0.2861     0.0503     2.2797     9.9572    71.0633
  283.5000   -40.9692    31.2548    17.9150    20.5111     0.2124     0.2841     0.0479     2.2856     9.9609    69.6294
  284.0000   -40.7697    33.7911    18.2243    20.6949     0.2138     0.2794     0.0306     2.2552     9.9647    67.7298
  284.5000   -40.5701    32.1778    18.5391    20.8804     0.2000     0.2745     0.0663     2.2684     9.9684    65.8189
  285.0000   -40.3705    30.8207    18.8593    21.0675     0.1920     0.2702     0.0972     2.2868     9.9722    63.9275
  285.5000   -40.1709    32.5700    19.1850    21.7104     0.1883     0.2669     0.1140     2.3052     9.9759    62.4453
  286.0000   -39.9713    28.3437    19.5162    22.6395     0.2059     0.2637     0.1209     2.3078     9.9797    62.3164
  286.5000   -39.7717    27.8539    19.7366    23.6084     0.1995     0.2621     0.1064     2.2693     9.9834    63.2441
  287.0000   -39.5720    31.3931    20.1545    24.6188     0.1869     0.2656     0.1190     2.2893     9.9872    64.3167
  287.5000   -39.3714    29.9127    20.5820    25.4054     0.1847     0.2700     0.1271     2.3126     9.9909    65.3916
  288.0000   -39.1687    29.4349    21.0195    24.3631     0.1933     0.2743     0.1016     2.3071     9.9947    66.3744
  288.5000   -39.2422    33.7911    21.5351    23.6025     0.1907     0.2786     0.1057     2.2965     9.9984    66.8097
  289.0000   -39.3586    33.7911    21.1185    24.2752     0.1863     0.2805     0.1128     2.2976    10.0022    67.2728
  289.5000   -39.4759    30.5567    20.6421    24.9457     0.1807     0.2794     0.1264     2.3165    10.0059    67.6698
  290.0000   -39.5926    28.9680    20.1814    25.4091     0.1795     0.2797     0.1360     2.3287    10.0097    67.9883
  290.5000   -39.7092    26.3579    19.7311    24.2631     0.1944     0.2813     0.1065     2.3078    10.0135    69.0571
  291.0000   -39.8257    27.1755    19.2910    23.8426     0.1906     0.2764     0.1014     2.2912    10.0172    70.1172
  291.5000   -39.9423    27.8539    18.8607    23.4533     0.1819     0.2696     0.0957     2.3075    10.0210    71.1715
