~VERSION INFORMATION
 VERS.                2.0:   CWLS LOG ASCII STANDARD - VERSION 2.0
 WRAP.                 NO:   ONE LINE PER DEPTH STEP
~WELL INFORMATION
#MNEM.UNIT      DATA TYPE    INFORMATION
#----------   ------------   ------------------------------
 STRT.F           41.0000:   START DEPTH
 STOP.F          468.0000:   STOP DEPTH
 STEP.F            0.1000:   STEP LENGTH
 NULL.          -999.2500:   NO VALUE
 COMP.       F D SERV INC:   COMPANY
 WELL. NAVAL PETROLEUM RESERVE 3 SX-1 #53-1-10:   WELL
 FLD .             TEAPOT:   FIELD
 LOC .      S10 T38N R78W:   LOCATION
 CNTY.            NATRONA:   COUNTY
 STAT.            WYOMING:   STATE
 CTRY. UNITED STATES OF AMERICA:   COUNTRY
 SRVC.     Atlas Wireline:   SERVICE COMPANY
 DATE.        22-DEC-1992:   LOGDATE
 API .       490252256900:   API NUMBER
~CURVE INFORMATION
#MNEM.UNIT       API CODE    CURVE DESCRIPTION
#----------   ------------   ------------------------------
 DEPT.F                  :   
 GRR .GAPI   07 310 01 00:   GAMMA RAY
 RILD.OHMM   07 120 46 00:   INDUCTION LOG DEEP RESISTIVITY
 RILM.OHMM   07 120 44 00:   RESITIVITY LONG MEDIUM
~PARAMETER INFORMATION
#MNEM.UNIT          VALUE    DESCRIPTION
#----------   ------------   ------------------------------
 PD  .                 GL:   PERMANENT DATUM
 EPD .F              5185:   ELEVATION PERMANENT DATUM
 LMF .                 KB:   LOG MEASURED FROM
 DAPD.F                10:   FEET ABOVE PERMANENT DATUM
 DMF .                 KB:   DRILLING MEASURED FROM
 EKB .F              5195:   KELLING BUSHING
 EDF .F              5194:   DRILLING FLOOR
 EGL .F              5185:   GROUND LEVEL
 DATE.        22-DEC-1992:   RUN DATE
 RUN .                  1:   RUN NUMBER
 DD  .F               475:   DEPTH DRILLER
 DL  .F               472:   DEPTH LOGGER
 BLI .F               470:   BOTTOM LOG INTERVAL
 CS  .IN            8.625:   CASING SIZE
 CBL .F                80:   CASING BOTTOM LOGGER
 BS  .IN            7.875:   BIT SIZE
 BSD .F               475:   BIT SIZE AT DEPTH
 DFT .        AIR DRILLED:   DRILLING FLUID TYPE
 LUN .            HL 6321:   LOGGING UNIT NUMBER
 LUL .       RCK, SPRINGS:   LOGGING UNIT LOCATION
 ENGI.      JOHN THOMPSON:   RECORDING ENGINEER
 WITN.          G. STRONG:   WITNESSED BY
 CLNT.            A2DTECH:   CLIENT CODE
 ORIG.           5" PRINT:   ORIGIN OF DATA
 UWI .       490252256900:   UNIQUE WELL ID
 DICO. A2D Technologies, Inc.:   DIGITIZING COMPANY
~OTHER INFORMATION
~A   DEPT      GRR       RILD       RILM   
# ...
  241.2000   158.5212     6.0433     6.1904
  241.3000   158.3667     6.0049     6.1511
  241.4000   158.1219     6.0052     6.1212
  241.5000   157.8771     5.9835     6.1093
  241.6000   157.6243     5.9499     6.1097
  241.7000   158.3465     5.9230     6.1101
  241.8000   159.4619     5.9234     6.1105
  241.9000   161.4796     5.9237     6.1110
  242.0000   164.4310     5.9240     6.1114
  242.1000   167.7525     5.9244     6.1302
  242.2000   169.4610     5.9350     6.1656
  242.3000   170.5210     5.9665     6.2069
  242.4000   171.4505     5.9668     6.3297
  242.5000   172.2980     5.9671     6.4236
  242.6000   173.3381     5.9890     6.5347
  242.7000   174.6274     6.0095     6.6476
  242.8000   174.8687     6.0098     6.7624
  242.9000   174.7532     6.0102     6.8835
  243.0000   173.7408     6.0105     6.9983
  243.1000   171.6453     6.0362     7.1497
  243.2000   168.6046     6.0532     7.2931
  243.3000   164.0399     6.0637     7.4190
  243.4000   160.6808     6.1010     7.5471
  243.5000   156.8737     6.1822     7.6979
  243.6000   152.4620     6.1824     7.7729
  243.7000   147.5021     6.2269     7.8905
  243.8000   144.6607     6.2985     8.0085
  243.9000   139.2121     6.3709     8.1006
  244.0000   136.2426     6.4478     8.1984
  244.1000   134.7694     6.6258     8.3335
  244.2000   133.9953     6.7893     8.4777
  244.3000   133.7343     6.9665     8.6242
  244.4000   133.1641     7.1561     8.7732
  244.5000   132.9579     7.3209     8.9276
  244.6000   132.7131     7.5184     9.1683
  244.7000   132.6650     7.6635     9.3452
  244.8000   133.1313     7.8406     9.5612
  244.9000   134.6941     8.0397     9.7383
  245.0000   137.7609     8.2561     9.8596
  245.1000   141.3464     8.4073    10.0402
  245.2000   144.4403     8.5902    10.1490
  245.3000   146.7814     8.7168    10.2240
  245.4000   148.7523     8.8422    10.2830
  245.5000   150.7732     8.9949    10.3424
  245.6000   151.6054     9.1501    10.3994
  245.7000   152.7518     9.3366    10.4003
  245.8000   153.9939     9.3809    10.4009
  245.9000   155.1943     9.4350    10.4016
  246.0000   156.2426     9.4691    10.4023
  246.1000   156.7141     9.4779    10.4030
  246.2000   156.8546     9.5364    10.4038
  246.3000   156.8576     9.5369    10.4045
  246.4000   156.8606     9.5375    10.3636
  246.5000   156.8232     9.5642    10.3337
  246.6000   155.9581     9.6052    10.3345
  246.7000   155.5485     9.6057    10.3352
  246.8000   154.9050     9.6064    10.3360
  246.9000   154.2603     9.6068    10.3366
  247.0000   153.7677     9.6073    10.3373
  247.1000   153.2456     9.6279    10.3381
  247.2000   153.2485     9.6756    10.3388
  247.3000   153.0738     9.6762    10.3395
  247.4000   152.8290     9.6767    10.3402
  247.5000   152.6515     9.7155    10.3409
  247.6000   152.6667     9.7454    10.3417
  247.7000   152.9611     9.7460    10.3424
  247.8000   152.9636     9.7478    10.3431
  247.9000   153.1162     9.8040    10.3438
  248.0000   153.2727     9.8157    10.3445
  248.1000   153.2758     9.8486    10.3453
  248.2000   153.2790     9.9054    10.3460
  248.3000   153.2818     9.9551    10.3543
  248.4000   153.1084     9.9557    10.4198
  248.5000   152.6212    10.0077    10.4743
  248.6000   151.8148    10.1048    10.5760
  248.7000   150.8266    10.1943    10.6697
  248.8000   149.6611    10.2669    10.7458
  248.9000   149.0535    10.3849    10.8686
  249.0000   148.3131    10.5046    10.9315
  249.1000   147.6656    10.6256    11.0942
  249.2000   147.1354    10.7828    11.2495
  249.3000   146.3426    10.9476    11.3790
  249.4000   145.8849    11.0735    11.5177
  249.5000   145.3923    11.2144    11.7379
  249.6000   144.8997    11.3880    11.9196
  249.7000   144.4071    11.5850    12.1258
  249.8000   143.9239    11.7853    12.3354
  249.9000   143.6339    11.9888    12.5647
  250.0000   142.8282    12.1956    12.8541
  250.1000   141.9868    12.5497    13.2574
  250.2000   141.2464    12.8559    13.6606
  250.3000   140.4333    13.1529    14.0639
  250.4000   139.1033    13.4307    14.4672
  250.5000   138.1902    13.6625    14.8704
  250.6000   136.3334    13.9265    15.2737
  250.7000   133.9876    14.0681    15.6616
  250.8000   131.0695    14.2301    15.9611
  250.9000   126.9222    14.4300    16.3826
  251.0000   124.6307    14.6792    16.6604
  251.1000   122.3391    14.9354    16.8539
  251.2000   119.7253    15.2773    17.0495
  251.3000   116.1930    15.5620    17.2518
  251.4000   111.2808    15.8311    17.6040
  251.5000   108.5534    16.1046    17.8591
  251.6000   105.9393    16.3735    18.2355
  251.7000   103.8003    16.5863    18.6162
  251.8000   101.8578    17.2655    18.9817
  251.9000   100.0922    17.7897    19.5496
  252.0000    99.6040    18.0865    20.2184
  252.1000    99.3026    18.4808    21.0215
  252.2000    99.1976    18.9107    21.6768
  252.3000    99.1160    19.3502    22.1385
  252.4000    98.9036    19.8104    22.5089
  252.5000    98.9095    20.4582    22.7968
  252.6000    98.9139    21.0906    23.0351
  252.7000    98.9188    21.6631    23.3027
  252.8000    98.8008    22.0520    23.5096
  252.9000    98.6255    22.3076    23.6466
  253.0000    98.6303    22.5661    23.7845
  253.1000    98.6359    22.8804    23.9474
  253.2000    98.4275    23.0931    24.0628
  253.3000    98.3418    23.2824    24.2886
  253.4000    98.3467    23.4178    24.4586
  253.5000    98.3515    23.5540    24.4863
  253.6000    98.3564    23.6995    24.6336
  253.7000    98.3612    23.8289    24.7727
  253.8000    98.3661    23.9676    24.8098
  253.9000    98.3709    24.1070    24.8887
  254.0000    98.4647    24.2473    25.0338
  254.1000    98.7192    24.3883    25.1640
  254.2000    98.9919    24.5500    25.1663
  254.3000    99.2283    24.5514    25.2977
  254.4000    99.6615    24.6442    25.3461
  254.5000   100.1657    24.7265    25.4161
  254.6000   100.6699    24.7588    25.5274
  254.7000   101.1742    24.9033    25.5296
  254.8000   101.7486    25.0477    25.5321
  254.9000   102.3976    25.0805    25.5338
  255.0000   102.9899    25.1641    25.6252
  255.1000   103.6024    25.2593    25.7165
  255.2000   104.3014    25.2611    25.7187
  255.3000   104.8057    25.2630    25.7209
  255.4000   105.3099    25.3984    25.8655
  255.5000   105.8141    25.4430    25.9048
  255.6000   106.1737    25.5164    25.9070
  255.7000   106.5196    25.6245    25.9092
  255.8000   106.9479    25.6349    25.9113
  255.9000   106.9530    25.8075    25.9135
  256.0000   106.9576    25.8090    25.9157
  256.1000   106.9624    25.9039    26.0186
  256.2000   106.8396    25.9931    26.1011
  256.3000   106.5948    25.9949    26.1032
  256.4000   106.3290    25.9967    26.1054
  256.5000   105.7703    26.1451    26.1080
  256.6000   105.5572    26.1821    26.1098
  256.7000   105.3123    26.2667    26.2026
  256.8000   105.0675    26.3688    26.2966
  256.9000   104.7653    26.3886    26.2988
  257.0000   104.2747    26.5570    26.3011
  257.1000   103.9816    26.6277    26.4483
  257.2000   103.3844    26.7059    26.4891
  257.3000   102.7872    26.7481    26.5721
  257.4000   102.1990    26.7894    26.6786
  257.5000   101.4950    26.9452    26.6964
  257.6000   100.9748    27.1294    26.8698
  257.7000   100.5059    27.1310    26.8718
  257.8000   100.3782    27.2280    26.8740
  257.9000   100.2529    27.3554    26.9470
  258.0000   100.0080    27.4359    27.0663
  258.1000    99.7862    27.5194    27.0729
  258.2000    99.7921    27.5213    27.2603
  258.3000    99.7964    27.6415    27.2622
  258.4000    99.8012    27.7175    27.3584
  258.5000    99.9192    27.7195    27.4572
  258.6000   100.1738    27.7374    27.4864
  258.7000   100.4349    27.9174    27.6538
  258.8000   101.0336    27.9191    27.6560
  258.9000   101.2404    28.0285    27.6583
  259.0000   101.4949    28.1916    27.7443
  259.1000   101.7495    28.3168    27.8562
  259.2000   102.0041    28.3187    27.8585
  259.3000   102.2693    28.3211    27.8611
