~VERSION INFORMATION
 VERS.                2.0:   CWLS LOG ASCII STANDARD - VERSION 2.0
 WRAP.                 NO:   ONE LINE PER DEPTH STEP
~WELL INFORMATION
#MNEM.UNIT      DATA TYPE    INFORMATION
#----------   ------------   ------------------------------
 STRT.F           22.0000:   START DEPTH
 STOP.F          654.0000:   STOP DEPTH
 STEP.F            0.5000:   STEP LENGTH
 NULL.          -999.2500:   NO VALUE
 COMP. FENIX & SCISSON INC:   COMPANY
 WELL.     54 S 34 #54-34:   WELL
 FLD .             TEAPOT:   FIELD
 LOC .      S34 T39N R78W:   LOCATION
 CNTY.            NATRONA:   COUNTY
 STAT.            WYOMING:   STATE
 CTRY. UNITED STATES OF AMERICA:   COUNTRY
 SRVC.           BIRDWELL:   SERVICE COMPANY
 DATE.        22-AUG-1978:   LOGDATE
 API .       490251070100:   API NUMBER
~CURVE INFORMATION
#MNEM.UNIT       API CODE    CURVE DESCRIPTION
#----------   ------------   ------------------------------
 DEPT.F                  :   
 SPR .MV     05 010 01 00:   SPONTANEOUS POTENTIAL FROM RES.
 SN  .OHMM   05 040 16 00:   SHORT NORMAL 16"
 ILD .OHMM   05 120 46 00:   INDUCTION LOG DEEP
 CALD.IN     45 280 60 00:   CALIPER
 GRD .GAPI   45 310 01 00:   GAMMA RAY FROM DENSITY LOG
 DPHI.DEC    45 890 12 00:   DENSITY POROSITY SANDSTONE
 RHOB.G/C3   45 350 01 00:   BULK DENSITY
 CORR.G/C3   45 356 01 00:   DENSITY CORRECTION
~PARAMETER INFORMATION
#MNEM.UNIT          VALUE    DESCRIPTION
#----------   ------------   ------------------------------
 PD  .                 GL:   PERMANENT DATUM
 EPD .F              5085:   ELEVATION PERMANENT DATUM
 LMF .                 KB:   LOG MEASURED FROM
 DAPD.F                 4:   FEET ABOVE PERMANENT DATUM
 DMF .                 KB:   DRILLING MEASURED FROM
 EKB .F              5089:   KELLING BUSHING
 EGL .F              5085:   GROUND LEVEL
 DATE.            8-22-78:   RUN DATE
 RUN .                  1:   RUN NUMBER
 DD  .F               685:   DEPTH DRILLER
 DL  .F               653:   DEPTH LOGGER
 BLI .F               646:   BOTTOM LOG INTERVAL
 TLI .F                30:   TOP LOG INTERVAL
 CS  .IN            8.625:   CASING SIZE
 CBD .F                46:   CASING BOTTOM DRILLER
 CBL .F                46:   CASING BOTTOM LOGGER
 BS  .IN            7.875:   BIT SIZE
 BSD .F               685:   BIT SIZE AT DEPTH
 DFT .                KCL:   DRILLING FLUID TYPE
 DFD .                8.7:   DRILLING FLUID DENSITY
 DFV .                 33:   DRILLING FLUID VISCOSITY
 DFPH.                  9:   DRILLING FLUID PH
 MSS .           FLOWLINE:   MUD SAMPLE SOURCE
 RMS .OHMM            .18:   RESISTIVITY MUD SAMPLE
 MST .F                86:   MUD SAMPLE TEMPERATURE
 RMF .OHMM            .16:   RESISTIVITY MUD FILTRATE SAMPLE
 MFST.F                86:   MUD FILTRATE SAMPLE TEMPERATURE
 RMC .OHMM            .52:   RESISTIVITY MUD CAKE
 MCST.F                86:   MUD CAKE SAMPLE TEMPERATURE
 MFSS.               MEAS:   MUD FILTRATE SAMPLE SOURCE
 MCSS.               MEAS:   MUD CAKE SAMPLE SOURCE
 BHT .F                70:   BOTTOM HOLE TEMPERATURE
 TCS .HRS               2:   TIME CURCULATED STOPPED
 MRT .F                70:   MAXIMUM RECORDED TEMPERATURE
 LUN .               2958:   LOGGING UNIT NUMBER
 LUL .               CASP:   LOGGING UNIT LOCATION
 ENGI.           REYNOLDS:   RECORDING ENGINEER
 WITN.              AMEND:   WITNESSED BY
 CLNT.            A2DTECH:   CLIENT CODE
 ORIG.           5" PRINT:   ORIGIN OF DATA
 UWI .       490251070100:   UNIQUE WELL ID
 DICO. A2D Technologies, Inc.:   DIGITIZING COMPANY
~OTHER INFORMATION
~A   DEPT      SPR         SN        ILD       CALD         GRD      DPHI       RHOB       CORR   
# ...
  508.0000   -38.6659     9.2246    10.1512     7.7018    97.2229     0.0931     2.5281     0.0278
  508.5000   -38.0645     9.4777    10.1312     7.7113    99.6645     0.0952     2.5199     0.0279
  509.0000   -37.4635     9.8021    10.2271     7.7209   100.1102     0.0944     2.5207     0.0280
  509.5000   -36.8635    10.1375    10.5164     7.7304   100.3096     0.0932     2.5272     0.0282
  510.0000   -36.2641    10.4841    11.0945     7.7400   100.0512     0.0962     2.5220     0.0284
  510.5000   -35.6652    10.8426    12.0456     7.7495    99.2811     0.0984     2.5151     0.0286
  511.0000   -35.0366    11.2133    13.0780     7.7590    95.8908     0.0950     2.5201     0.0249
  511.5000   -33.8592    11.5967    14.1994     7.7685    86.0298     0.0948     2.5251     0.0206
  512.0000   -32.6176    11.9932    15.4180     7.7781    76.0390     0.0964     2.5224     0.0162
  512.5000   -31.3752    12.4030    16.7385     7.7879    66.0789     0.1138     2.5033     0.0188
  513.0000   -30.1323    12.8301    18.2452     7.7897    56.1554     0.1312     2.4758     0.0257
  513.5000   -28.8920    13.1835    18.0560     7.7753    51.4424     0.1486     2.4481     0.0279
  514.0000   -27.6830    13.5998    17.8592     7.7595    52.0514     0.1660     2.4205     0.0279
  514.5000   -26.7940    13.7253    17.6647     7.7438    54.7186     0.1782     2.3928     0.0362
  515.0000   -25.8549    13.7253    17.4722     7.7281    57.3548     0.1890     2.3754     0.0443
  515.5000   -24.4064    13.9043    17.4265     7.7124    59.8849     0.1985     2.3607     0.0523
  516.0000   -22.9013    14.1432    18.1241     7.6967    60.2769     0.2061     2.3456     0.0497
  516.5000   -21.4732    14.3863    18.8530     7.6814    60.3117     0.1990     2.3429     0.0416
  517.0000   -21.4496    14.6335    19.6113     7.6656    60.3469     0.1861     2.3811     0.0336
  517.5000   -21.4602    14.8850    20.4001     7.6510    58.3113     0.1508     2.4187     0.0263
  518.0000   -21.4365    15.0575    21.2206     7.8604    56.1142     0.1549     2.4287     0.0265
  518.5000   -20.6178    15.0906    22.0744     8.0740    54.4434     0.1623     2.4163     0.0340
  519.0000   -20.0352    15.1239    22.9620     7.8422    54.0731     0.1696     2.4028     0.0541
  519.5000   -19.9925    15.1567    23.8856     7.5338    54.9123     0.1770     2.3890     0.0745
  520.0000   -19.9411    15.1840    24.7033     7.2263    56.0442     0.1805     2.3822     0.0951
  520.5000   -19.8891    15.1599    23.7112     6.9213    56.9280     0.1792     2.3834     0.1125
  521.0000   -19.7005    15.1398    22.7400     6.6890    54.9450     0.1762     2.3890     0.1169
  521.5000   -19.2722    15.1195    22.3017     6.6349    52.6790     0.1731     2.3943     0.1140
  522.0000   -18.8476    15.0993    22.0067     6.5985    51.7537     0.1730     2.3963     0.1102
  522.5000   -18.4224    15.0791    21.7155     6.5637    50.8077     0.1869     2.3758     0.0914
  523.0000   -17.9974    15.0589    21.4282     6.5656    48.5122     0.2009     2.3551     0.0587
  523.5000   -17.5725    15.0387    21.1447     6.5957    46.3462     0.2149     2.3361     0.0312
  524.0000   -17.1485    15.0186    20.8646     6.7022    46.2551     0.2288     2.3179     0.0281
  524.5000   -16.7204    14.9985    20.5869     6.8132    47.1054     0.2428     2.2935     0.0269
  525.0000   -16.3069    14.9784    20.3707     6.9243    48.1009     0.2568     2.2700     0.0278
  525.5000   -16.0158    14.9583    20.1845     7.0351    49.7005     0.2578     2.2568     0.0304
  526.0000   -15.7664    14.9383    20.1845     7.1458    52.2701     0.2525     2.2602     0.0331
  526.5000   -15.5169    14.9183    20.3707     7.2569    54.7947     0.2436     2.2766     0.0359
  527.0000   -15.2672    14.8983    20.6899     7.3705    56.9497     0.2429     2.2785     0.0341
  527.5000   -15.0662    14.8784    21.3343     7.3949    57.0793     0.2433     2.2788     0.0306
  528.0000   -15.0615    14.8584    21.9988     7.4085    57.3307     0.2417     2.2798     0.0271
  528.5000   -15.6188    14.8385    22.6840     7.4215    58.1317     0.2365     2.2933     0.0243
  529.0000   -16.4362    14.8187    23.3790     7.4301    59.7778     0.2253     2.3083     0.0269
  529.5000   -17.2625    14.7988    22.7819     7.4300    62.2411     0.2156     2.3329     0.0276
  530.0000   -18.0905    14.7790    21.8885     7.4300    63.7972     0.1834     2.3916     0.0283
  530.5000   -18.9198    14.7715    21.0302     7.4299    61.3285     0.1533     2.4489     0.0291
  531.0000   -19.3449    14.4768    20.2055     7.4299    59.3889     0.1231     2.5057     0.0298
  531.5000   -19.6893    14.1945    19.4131     7.4347    58.4819     0.1004     2.5397     0.0305
  532.0000   -20.0322    13.9171    18.4068     7.4722    58.4987     0.1169     2.5098     0.0311
  532.5000   -20.3760    13.6454    17.4042     7.5100    59.0140     0.1362     2.4738     0.0316
  533.0000   -20.7197    13.3790    16.4563     7.5477    62.0951     0.1557     2.4384     0.0320
  533.5000   -21.0625    13.1178    15.5599     7.5855    64.6421     0.1672     2.4101     0.0326
  534.0000   -21.2617    12.8617    14.9078     7.6231    67.0742     0.1673     2.4038     0.0350
  534.5000   -21.2425    12.6105    15.2668     7.6543    70.8175     0.1677     2.4055     0.0373
  535.0000   -20.8712    12.5210    15.5636     7.6681    74.4593     0.1654     2.4075     0.0397
  535.5000   -20.4937    12.5210    15.8662     7.6821    78.2346     0.1625     2.4097     0.0421
  536.0000   -20.1182    12.5210    16.1748     7.6961    79.3047     0.1701     2.4043     0.0426
  536.5000   -19.7433    12.5210    16.4893     7.7101    77.5155     0.1723     2.3982     0.0422
  537.0000   -19.3682    12.5210    16.8101     7.7241    75.4530     0.1735     2.3957     0.0417
  537.5000   -18.9928    12.5210    17.1368     7.7381    75.5202     0.1747     2.3930     0.0412
  538.0000   -18.6171    12.5210    17.4700     7.7522    75.3492     0.1752     2.3942     0.0407
  538.5000   -18.2661    12.5210    17.5872     7.7662    73.0071     0.1730     2.3981     0.0402
  539.0000   -18.1778    12.5210    17.7495     7.7802    70.2514     0.1742     2.3926     0.0397
  539.5000   -18.0989    12.5210    17.7495     7.7942    69.7516     0.1810     2.3788     0.0392
  540.0000   -18.0188    12.5211    17.7495     7.8082    68.8719     0.1900     2.3651     0.0387
  540.5000   -17.9397    12.5213    17.5450     7.8223    65.7674     0.1993     2.3528     0.0364
  541.0000   -17.8593    12.5196    17.3843     7.8363    63.7611     0.1987     2.3529     0.0336
  541.5000   -18.2274    12.4877    17.2250     7.8502    63.3810     0.1961     2.3592     0.0309
  542.0000   -18.7599    12.4559    17.0673     7.8643    63.0014     0.1933     2.3629     0.0284
  542.5000   -19.2986    12.4244    16.9110     7.8562    62.6857     0.1949     2.3596     0.0285
  543.0000   -19.8376    12.3931    16.7561     7.8339    62.5994     0.2023     2.3503     0.0287
  543.5000   -20.3799    12.3618    16.6026     7.8114    66.0216     0.2105     2.3409     0.0381
  544.0000   -20.8981    12.3306    16.4504     7.7889    70.4200     0.2062     2.3387     0.0483
  544.5000   -21.3966    12.2994    16.2997     7.7667    69.1328     0.2005     2.3522     0.0503
  545.0000   -21.4908    12.2684    16.1921     7.7510    66.7686     0.1947     2.3609     0.0502
  545.5000   -21.5275    12.2374    16.2180     7.7348    66.1073     0.1909     2.3630     0.0495
  546.0000   -21.5638    12.2065    16.2381     7.7185    65.5276     0.1887     2.3686     0.0488
  546.5000   -21.6007    12.1757    16.2583     7.7022    66.0567     0.1816     2.3773     0.0481
  547.0000   -21.6378    12.1450    16.2786     7.6860    66.6588     0.1794     2.3847     0.0474
  547.5000   -21.6748    12.1143    16.2989     7.6697    67.2569     0.1802     2.3838     0.0468
  548.0000   -21.7118    12.0837    16.3188     7.6534    67.8909     0.1811     2.3828     0.0461
