~VERSION INFORMATION
 VERS.                2.0:   CWLS LOG ASCII STANDARD - VERSION 2.0
 WRAP.                 NO:   ONE LINE PER DEPTH STEP
~WELL INFORMATION
#MNEM.UNIT      DATA TYPE    INFORMATION
#----------   ------------   ------------------------------
 STRT.F           34.0000:   START DEPTH
 STOP.F          616.0000:   STOP DEPTH
 STEP.F            0.5000:   STEP LENGTH
 NULL.          -999.2500:   NO VALUE
 COMP. FENIX & SCISSON INC:   COMPANY
 WELL. NAVAL PETROLEUM RESERVE 3 S-10 #86-10:   WELL
 FLD .             TEAPOT:   FIELD
 LOC .      S10 T38N R78W:   LOCATION
 CNTY.            NATRONA:   COUNTY
 STAT.            WYOMING:   STATE
 CTRY. UNITED STATES OF AMERICA:   COUNTRY
 SRVC.              Welex:   SERVICE COMPANY
 DATE.        12-APR-1977:   LOGDATE
 API .       490251033800:   API NUMBER
~CURVE INFORMATION
#MNEM.UNIT       API CODE    CURVE DESCRIPTION
#----------   ------------   ------------------------------
 DEPT.F                  :   
 CALD.IN     45 280 60 00:   CALIPER FROM DENSITY LOG
 GRD .GAPI   45 310 01 00:   GAMMA RAY FROM DENSITY LOG
 CORR.G/C3   45 356 01 00:   DENSITY CORRECTION
 DPHI.DEC    45 890 12 00:   DENSITY POROSITY SANDSTONE
 RHOB.G/C3   45 350 01 00:   BULK DENSITY
 SPR .MV     07 010 01 00:   SPONTANEOUS POTENTIAL
 ILD .OHMM   07 120 46 00:   INDUCTION LOG DEEP
 ILM .OHMM   07 120 44 00:   INDUCTION LOG MEDIUM
 SGRD.OHMM   07 221 05 00:   SHALLOW SHORT GUARD RESISTIVITY
~PARAMETER INFORMATION
#MNEM.UNIT          VALUE    DESCRIPTION
#----------   ------------   ------------------------------
 PD  .                 GL:   PERMANENT DATUM
 EPD .F              5240:   ELEVATION PERMANENT DATUM
 LMF .                 KB:   LOG MEASURED FROM
 DAPD.F                 5:   FEET ABOVE PERMANENT DATUM
 DMF .                 KB:   DRILLING MEASURED FROM
 EKB .F              5245:   KELLING BUSHING
 EGL .F              5240:   GROUND LEVEL
 DATE.        12-APR-1977:   RUN DATE
 RUN .                  1:   RUN NUMBER
 DD  .F               625:   DEPTH DRILLER
 DL  .F               617:   DEPTH LOGGER
 BLI .F               615:   BOTTOM LOG INTERVAL
 TLI .F                35:   TOP LOG INTERVAL
 CS  .IN            8.625:   CASING SIZE
 BS  .IN            7.875:   BIT SIZE
 BSD .F               625:   BIT SIZE AT DEPTH
 DFT .           KCL- GEL:   DRILLING FLUID TYPE
 DFD .                8.8:   DRILLING FLUID DENSITY
 BHT .F                68:   BOTTOM HOLE TEMPERATURE
 TCS .HRS            0100:   TIME CURCULATED STOPPED
 MRT .F                68:   MAXIMUM RECORDED TEMPERATURE
 ENGI.        E. CALLAHAN:   RECORDING ENGINEER
 WITN.            R. LYON:   WITNESSED BY
 CLNT.            A2DTECH:   CLIENT CODE
 ORIG.           5" PRINT:   ORIGIN OF DATA
 UWI .       490251033800:   UNIQUE WELL ID
 DICO. A2D Technologies, Inc.:   DIGITIZING COMPANY
~OTHER INFORMATION
~A   DEPT     CALD        GRD       CORR       DPHI         RHOB      SPR        ILD        ILM       SGRD   
# ...
  216.5000     7.9879   114.3367     0.0170     0.1194     2.4561   -75.3487     9.8635    12.0553    15.5018
  217.0000     7.9892   114.2001     0.0186     0.1200     2.4518   -75.3506     9.7245    12.3894    15.6038
  217.5000     7.9906   113.9151     0.0217     0.1185     2.4519   -75.3521     9.5876    12.5588    15.7027
  218.0000     7.9919   113.6331     0.0248     0.1160     2.4597   -75.3536     9.5181    11.8773    15.6951
  218.5000     7.9932   113.4936     0.0279     0.1133     2.4685   -75.3551     9.4492    11.7100    15.3652
  219.0000     7.9945   112.7665     0.0280     0.1127     2.4669   -75.3566     9.3808    11.9525    14.5307
  219.5000     7.9959   111.7397     0.0311     0.1115     2.4656   -75.3578     9.3776    12.2837    14.3258
  220.0000     7.9972   110.5646     0.0327     0.1079     2.4762   -75.3593     9.3743    11.9432    15.1320
  220.5000     7.9985   109.0927     0.0343     0.1033     2.4830   -75.3608     9.4369    11.9391    15.4438
  221.0000     7.9998   107.0273     0.0345     0.0997     2.4920   -75.5120     9.4992    12.1013    15.1174
  221.5000     8.0012   105.1103     0.0346     0.0964     2.4988   -75.5135     9.5610    12.2656    14.2963
  222.0000     8.0025   105.1221     0.0347     0.0985     2.5026   -75.3652     9.5577    12.0929    14.3887
  222.5000     8.0038   105.4307     0.0348     0.0976     2.5012   -75.3668     9.5544    11.9225    16.1771
  223.0000     8.0200   105.1457     0.0333     0.0975     2.4945   -75.3683     9.5510    12.1684    17.2103
  223.5000     8.0213   104.1187     0.0319     0.1011     2.4826   -75.3698     9.4819    12.5924    16.9635
  224.0000     8.0226   104.5758     0.0276     0.1089     2.4699   -75.3713     9.3483    11.9102    15.4967
  224.5000     8.0240   105.7746     0.0262     0.1149     2.4617   -75.3728     9.2166    11.5021    14.3539
  225.0000     8.0253   107.7151     0.0263     0.1175     2.4550   -75.3743     9.0868    11.9019    13.9553
  225.5000     8.0266   107.4184     0.0279     0.1175     2.4558   -75.3758     9.0210    11.9814    13.9485
  226.0000     8.0279   105.6538     0.0310     0.1157     2.4611   -75.3773     8.8939    11.1755    13.3748
  226.5000     8.0293   105.6855     0.0326     0.1136     2.4657   -75.3788     8.7687    10.7173    13.0937
  227.0000     8.0306   106.5915     0.0327     0.1118     2.4703   -75.3803     8.7052    11.0143    13.1798
  227.5000     8.0319   107.2206     0.0328     0.1099     2.4756   -75.2320     8.5234    11.2424    13.5415
  228.0000     8.0332   107.8101     0.0329     0.1093     2.4771   -75.2116     8.4617    10.9308    14.2067
  228.5000     8.0346   108.3917     0.0315     0.1106     2.4757   -74.9356     8.3425    10.4103    14.3002
  229.0000     8.0359   108.8510     0.0286     0.1129     2.4683   -74.9371     8.2821    10.2637    13.7103
  229.5000     8.0372   109.1595     0.0257     0.1143     2.4623   -74.7889     8.1654    10.3323    13.0557
  230.0000     8.0386   109.3197     0.0213     0.1164     2.4564   -74.7904     8.1063    10.6186    13.5088
  230.5000     8.0399   109.4798     0.0169     0.1185     2.4519   -74.7919     8.0476    10.5408    13.7872
  231.0000     8.0412   109.6400     0.0125     0.1305     2.4453   -74.6437     8.0448    10.4654    13.6838
  231.5000     8.0428   109.6518     0.0095     0.1359     2.4356   -74.6452     8.0420    10.6803    13.3038
  232.0000     8.0442   109.6636     0.0051     0.1376     2.4289   -74.6467     8.0392    10.5298    12.9344
  232.5000     8.0455   109.8237     0.0022     0.1388     2.4237   -74.4985     8.0364    10.0285    12.4039
  233.0000     8.0468   109.9839    -0.0007     0.1394     2.4200   -74.3503     7.9782     9.8872    13.0116
  233.5000     8.0481   110.1440    -0.0020     0.1403     2.4171   -74.5015     7.9755    10.0215    13.0972
  234.0000     8.0495   110.3042    -0.0019     0.1412     2.4194   -74.6526     7.9727    10.0885    12.2990
  234.5000     8.0507   110.3160    -0.0018     0.1390     2.4232   -74.8039     8.0260     9.8088    12.3784
  235.0000     8.0519   110.1794     0.0001     0.1351     2.4285   -74.9550     8.0225     9.7378    12.6335
  235.5000     8.0533   110.1912     0.0045     0.1312     2.4316   -75.1064     8.0197    10.0771    12.3664
  236.0000     8.0548   110.2030     0.0076     0.1285     2.4361   -75.2575     8.0169    10.2149    12.3133
  236.5000     8.0561   110.2148     0.0122     0.1291     2.4392   -75.4086     7.9589     9.9318    13.7058
  237.0000     8.0574   110.2266     0.0183     0.1326     2.4317   -75.4101     7.9561     9.4589    13.4177
  237.5000     8.0587   110.6835     0.0229     0.1302     2.4363   -75.4116     7.9534     9.7210    11.8406
  238.0000     8.0601   111.7338     0.0275     0.1254     2.4461   -75.4131     7.8413    10.0606    12.5953
  238.5000     8.0614   113.0809     0.0276     0.1230     2.4469   -75.5643     7.7846     9.4490    12.2456
  239.0000     8.0627   114.4280     0.0232     0.1259     2.4357   -75.5658     7.6220     9.3806    12.5832
  239.5000     8.0640   114.5882     0.0188     0.1346     2.4275   -75.7170     7.4628     9.7075    13.2013
  240.0000     8.0654   113.8582     0.0144     0.1367     2.4253   -75.7185     7.3582     9.7042    12.3127
  240.5000     8.0667   114.3151     0.0175     0.1364     2.4254   -75.5703     7.1950     9.3709    12.1376
  241.0000     8.0680   115.3654     0.0206     0.1352     2.4277   -75.5718     7.0942     8.9247    11.8825
  241.5000     8.0693   116.2674     0.0238     0.1330     2.4308   -75.5733     6.9547     8.6781    11.3937
  242.0000     8.0707   117.3178     0.0254     0.1277     2.4338   -75.4251     6.8491     8.4382    10.7006
  242.5000     8.0720   119.2584     0.0270     0.1189     2.4451   -75.4266     6.7601     8.2620     9.3131
  243.0000     8.0733   119.1218     0.0301     0.1156     2.4572   -75.2784     6.7578     8.2029     8.3908
  243.5000     8.0746   117.0564     0.0302     0.1123     2.4670   -74.9805     6.7554     8.4880    10.8340
  244.0000     8.0760   116.0257     0.0303     0.1128     2.4663   -74.8323     6.7531     8.6040    11.7730
  244.5000     8.0773   114.8427     0.0319     0.1128     2.4679   -74.6786     6.7560     8.4236    11.2824
  245.0000     8.0786   113.6696     0.0335     0.1122     2.4709   -74.3812     6.7954     8.1908    11.1219
  245.5000     8.0800   112.7873     0.0351     0.1137     2.4665   -74.0883     6.8877     8.3597    10.8131
  246.0000     8.0813   112.3502     0.0367     0.1116     2.4688   -73.7865     6.9331     8.6511    10.8000
  246.5000     8.0826   111.7646     0.0398     0.1085     2.4808   -73.4925     6.9788     8.8915    10.9532
  247.0000     8.0840   111.3274     0.0429     0.1052     2.4906   -73.0449     7.0277     8.8264    11.3333
  247.5000     8.0853   110.4771     0.0430     0.0998     2.4990   -72.5948     7.1203     8.5233    11.6457
  248.0000     8.0869   109.5987     0.0431     0.0932     2.5050   -72.1477     7.1178     8.4040    11.6401
  248.5000     8.0882   109.7589     0.0402     0.0953     2.5036   -71.7021     7.1662     8.9401    11.1613
  249.0000     8.0896   111.4027     0.0373     0.0988     2.4946   -71.2545     7.2621     9.0624    10.9267
  249.5000     8.0909   113.0466     0.0359     0.1000     2.4864   -71.1063     7.3100     8.8723    11.0736
  250.0000     8.0895   113.9456     0.0375     0.0952     2.4910   -70.9581     7.3582     8.5684    11.2223
  250.5000     8.0606   113.3085     0.0437     0.0949     2.4978   -70.6571     7.4069     8.9294    11.6158
  251.0000     8.0492   112.6254     0.0453     0.0955     2.4994   -69.9072     7.5080     9.0524    12.0230
  251.5000     8.0503   113.8216     0.0499     0.0918     2.4987   -69.4611     7.5581     9.2399    12.1893
  252.0000     8.0512   115.3127     0.0530     0.0903     2.5010   -69.3114     7.6618     9.3667    12.3575
  252.5000     8.0521   116.3586     0.0502     0.0897     2.5033   -69.3114     7.7129     9.4958    12.3554
