~VERSION INFORMATION
 VERS.                2.0:   CWLS LOG ASCII STANDARD - VERSION 2.0
 WRAP.                 NO:   ONE LINE PER DEPTH STEP
~WELL INFORMATION
#MNEM.UNIT      DATA TYPE    INFORMATION
#----------   ------------   ------------------------------
 STRT.F            8.0000:   START DEPTH
 STOP.F          473.0000:   STOP DEPTH
 STEP.F            0.5000:   STEP LENGTH
 NULL.          -999.2500:   NO VALUE
 COMP.   LAWRENCE-ALLISON:   COMPANY
 WELL. NPR 3 #58-55SX3OB1:   WELL
 FLD .             TEAPOT:   FIELD
 LOC .       S3 T38N R78W:   LOCATION
 CNTY.            NATRONA:   COUNTY
 STAT.            WYOMING:   STATE
 CTRY. UNITED STATES OF AMERICA:   COUNTRY
 SRVC.      Dresser Atlas:   SERVICE COMPANY
 DATE.        17-DEC-1984:   LOGDATE
 API .       490251100600:   API NUMBER
~CURVE INFORMATION
#MNEM.UNIT       API CODE    CURVE DESCRIPTION
#----------   ------------   ------------------------------
 DEPT.F                  :   
 AC  .US/F   60 520 00 00:   ACCOUSTIC
 PORD.DEC    45 890 12 00:   POROSITY DENSITY SANDSTONE
 CNC .DEC    42 890 03 00:   NEUTRON POROSITY SANDSTONE
 CALD.IN     45 280 60 00:   CALIPER FROM DENSITY
 GRD .GAPI   45 310 01 00:   GAMMA RAY FROM DENSITY LOG
 CORR.G/C3   45 356 01 00:   DENSITY CORRECTION
 DEN .G/C3   45 350 01 00:   COMPENSATED BULK DENSTIY
~PARAMETER INFORMATION
#MNEM.UNIT          VALUE    DESCRIPTION
#----------   ------------   ------------------------------
 PD  .                 GL:   PERMANENT DATUM
 EPD .F              5194:   ELEVATION PERMANENT DATUM
 LMF .                 GL:   LOG MEASURED FROM
 DMF .                 GL:   DRILLING MEASURED FROM
 EGL .F              5194:   GROUND LEVEL
 DATE.        17-DEC-1984:   RUN DATE
 RUN .                  1:   RUN NUMBER
 DD  .F               480:   DEPTH DRILLER
 DL  .F               475:   DEPTH LOGGER
 BLI .F               473:   BOTTOM LOG INTERVAL
 TLI .F                20:   TOP LOG INTERVAL
 CS  .IN            8.625:   CASING SIZE
 CBD .F                20:   CASING BOTTOM DRILLER
 CBL .F                20:   CASING BOTTOM LOGGER
 BS  .IN             6.25:   BIT SIZE
 BSD .F               480:   BIT SIZE AT DEPTH
 DFT .          KCL WATER:   DRILLING FLUID TYPE
 MSS .           FLOWLINE:   MUD SAMPLE SOURCE
 RMS .OHMM          0.134:   RESISTIVITY MUD SAMPLE
 MST .F                72:   MUD SAMPLE TEMPERATURE
 RMF .OHMM           0.10:   RESISTIVITY MUD FILTRATE SAMPLE
 MFST.F                72:   MUD FILTRATE SAMPLE TEMPERATURE
 RMC .OHMM           0.17:   RESISTIVITY MUD CAKE
 MCST.F                72:   MUD CAKE SAMPLE TEMPERATURE
 MFSS.               CALC:   MUD FILTRATE SAMPLE SOURCE
 MCSS.               CALC:   MUD CAKE SAMPLE SOURCE
 TCS .HRS               2:   TIME CURCULATED STOPPED
 MRT .F               100:   MAXIMUM RECORDED TEMPERATURE
 LUN .               6270:   LOGGING UNIT NUMBER
 ENGI.            LEBSOCK:   RECORDING ENGINEER
 WITN.          DAN LUERS:   WITNESSED BY
 CLNT.            A2DTECH:   CLIENT CODE
 ORIG.           5" PRINT:   ORIGIN OF DATA
 UWI .       490251100600:   UNIQUE WELL ID
 DICO. A2D Technologies, Inc.:   DIGITIZING COMPANY
~OTHER INFORMATION
~A    DEPT      AC       PORD        CNC       CALD        GRD       CORR        DEN   
# ...
  326.5000    94.3021     0.1672     0.2754     6.3094    84.8858     0.0238     2.3922
  327.0000    94.4395     0.1729     0.2669     6.3093    83.0810     0.0117     2.3831
  327.5000    94.5842     0.1796     0.2530     6.3091    79.3243    -0.0020     2.3755
  328.0000    94.5777     0.1835     0.2431     6.3090    78.7207    -0.0081     2.3710
  328.5000    94.5725     0.1841     0.2426     6.3088    83.6726     0.0114     2.3717
  329.0000    94.4923     0.1805     0.2426     6.3087    86.6726     0.0143     2.3769
  329.5000    94.2622     0.1763     0.2429     6.3085    87.1201     0.0127     2.3866
  330.0000    93.9572     0.1718     0.2439     6.3233    86.0661     0.0081     2.3911
  330.5000    93.6521     0.1712     0.2466     6.3232    84.7042     0.0035     2.3911
  331.0000    93.1971     0.1712     0.2521     6.3230    83.0520     0.0034     2.3918
  331.5000    92.8171     0.1703     0.2554     6.3229    83.0541     0.0111     2.3970
  332.0000    92.4371     0.1640     0.2536     6.3227    84.4324     0.0230     2.4067
  332.5000    92.2833     0.1504     0.2476     6.3226    84.6998     0.0319     2.4233
  333.0000    92.5766     0.1505     0.2434     6.3224    82.4144     0.0347     2.4262
  333.5000    92.8713     0.1568     0.2419     6.3223    81.6732     0.0299     2.4187
  334.0000    93.0922     0.1629     0.2459     6.3221    81.2372     0.0219     2.4103
  334.5000    93.0108     0.1614     0.2519     6.3220    83.2163     0.0043     2.4065
  335.0000    92.4059     0.1542     0.2619     6.3218    87.0371     0.0062     2.4148
  335.5000    92.1008     0.1478     0.2743     6.3217    88.0125     0.0149     2.4270
  336.0000    91.7958     0.1415     0.2782     6.3215    87.0805     0.0281     2.4395
  336.5000    91.6406     0.1430     0.2659     6.3214    83.6240     0.0401     2.4395
  337.0000    91.6354     0.1461     0.2454     6.3212    83.3215     0.0385     2.4342
  337.5000    91.8551     0.1536     0.2421     6.3211    87.6721     0.0294     2.4228
  338.0000    92.1498     0.1576     0.2431     6.3209    90.5220     0.0157     2.4152
  338.5000    92.5194     0.1552     0.2542     6.3208    91.4206     0.0096     2.4152
  339.0000    92.9639     0.1546     0.2627     6.3206    87.3628     0.0080     2.4212
  339.5000    93.2586     0.1555     0.2654     6.3205    85.4079     0.0094     2.4211
  340.0000    93.5532     0.1573     0.2583     6.3203    84.2037     0.0154     2.4172
  340.5000    93.5480     0.1588     0.2340     6.3202    85.2518     0.0183     2.4127
  341.0000    93.4628     0.1592     0.2332     6.3201    86.6009     0.0182     2.4112
  341.5000    93.3126     0.1549     0.2360     6.3199    86.2968     0.0256     2.4152
  342.0000    93.2324     0.1525     0.2423     6.3198    84.1917     0.0376     2.4233
  342.5000    93.0772     0.1526     0.2469     6.3196    81.7864     0.0510     2.4215
  343.0000    92.9210     0.1538     0.2503     6.3195    79.9816     0.0404     2.4193
  343.5000    92.7659     0.1535     0.2515     6.3193    79.3780     0.0192     2.4208
  344.0000    92.6107     0.1492     0.2501     6.3192    80.5762     0.0086     2.4271
  344.5000    92.4556     0.1465     0.2462     6.3190    84.0266     0.0160     2.4353
  345.0000    92.3005     0.1418     0.2515     6.3189    88.6537     0.0235     2.4417
  345.5000    92.2953     0.1400     0.2645     6.3037    91.8564     0.0264     2.4432
  346.0000    92.2901     0.1412     0.2636     6.3036    91.2246     0.0338     2.4409
  346.5000    92.2849     0.1421     0.2525     6.2885    90.1706     0.0428     2.4416
  347.0000    92.2797     0.1382     0.2516     6.2734    88.6661     0.0472     2.4476
  347.5000    92.3494     0.1343     0.2541     6.2582    87.0115     0.0516     2.4535
  348.0000    92.5704     0.1331     0.2634     6.2581    85.5070     0.0546     2.4535
  348.5000    92.5639     0.1410     0.2653     6.2579    87.4559     0.0213     2.4444
  349.0000    92.5587     0.1449     0.2541     6.2428    87.7540     0.0122     2.4353
  349.5000    92.5535     0.1452     0.2517     6.2427    86.9995     0.0001     2.4353
  350.0000    92.7729     0.1464     0.2563     6.2425    86.1423    -0.0045     2.4343
  350.5000    94.3417     0.1564     0.2583     6.2421    84.8868     0.0015     2.4224
  351.0000    97.0352     0.1740     0.2602     6.2416    82.6926     0.0077     2.3809
  351.5000    99.4287     0.2003     0.2561     6.2412    77.4699     0.0166     2.3470
  352.0000   102.0472     0.2236     0.2642     6.2407    75.6897     0.0229     2.3251
  352.5000   104.0660     0.2321     0.2775     6.2252    75.1051     0.0313     2.2844
  353.0000   104.8853     0.2355     0.2796     6.2098    74.9478     0.0251     2.2814
  353.5000   104.9564     0.2325     0.2809     6.1944    73.2902     0.0175     2.2844
  354.0000   104.5001     0.2277     0.2848     6.1939    70.7317     0.0084     2.2911
  354.5000   103.6703     0.2228     0.2887     6.1935    69.0741     0.0144     2.3002
  355.0000   102.9154     0.2174     0.2872     6.1931    71.4705     0.0248     2.3107
  355.5000   102.3855     0.2135     0.2775     6.2077    75.5186     0.0323     2.3175
  356.0000   102.0054     0.2160     0.2655     6.2071    78.0652     0.0353     2.3160
  356.5000   101.8503     0.2218     0.2641     6.2067    76.5578     0.0186     2.3052
  357.0000   101.9950     0.2227     0.2616     6.2062    74.1494     0.0125     2.3022
  357.5000   101.9898     0.2193     0.2556     6.2058    72.9423     0.0124     2.3104
  358.0000   101.7597     0.2188     0.2470     6.2204    71.4348     0.0169     2.3081
  358.5000   100.5550     0.2216     0.2461     6.2350    70.0775     0.0213     2.3051
  359.0000    99.3504     0.2200     0.2573     6.2344    70.8223     0.0227     2.3043
  359.5000    98.6705     0.2134     0.2700     6.2340    71.8674     0.0242     2.3133
  360.0000    98.1406     0.2056     0.2664     6.2335    72.6122     0.0286     2.3260
  360.5000    98.7351     0.2020     0.2585     6.2331    75.4591     0.0300     2.3339
  361.0000    99.3308     0.1996     0.2628     6.2485    72.9006     0.0345     2.3410
  361.5000    99.6255     0.2015     0.2728     6.2691    70.4923     0.0359     2.3380
  362.0000    99.9188     0.2030     0.2912     6.2898    70.1682     0.0404     2.3372
  362.5000    99.9136     0.2033     0.2930     6.2936    73.9338     0.0420     2.3379
  363.0000    99.8334     0.2003     0.2825     6.2458    76.7807     0.0477     2.3424
  363.5000    99.6782     0.1970     0.2734     6.2154    78.2763     0.0537     2.3476
  364.0000    99.3732     0.1928     0.2720     6.2150    79.0250     0.0581     2.3566
  364.5000    98.6933     0.1877     0.2837     6.2298    79.7753     0.0415     2.3649
  365.0000    97.7885     0.1832     0.2850     6.2440    80.2252     0.0218     2.3724
  365.5000    96.9587     0.1820     0.2838     6.2585    80.3546     0.0052     2.3708
  366.0000    96.4287     0.1866     0.2817     6.2557    79.7937     0.0021     2.3595
  366.5000    96.1237     0.1899     0.2724     6.2577    77.3382     0.0050     2.3564
  367.0000    96.2684     0.1912     0.2676     6.2571    76.5830     0.0095     2.3572
  367.5000    96.5630     0.1906     0.2672     6.2567    78.5275     0.0124     2.3586
  368.0000    96.5418     0.1894     0.2691     6.2562    79.7242     0.0169     2.3601
  368.5000    94.7039     0.1858     0.2673     6.2558    79.7168     0.0213     2.3676
  369.0000    90.7730     0.1780     0.2453     6.2553    78.2093     0.0242     2.3894
  369.5000    84.3216     0.1508     0.2261     6.2700    72.6478     0.0212     2.4256
  370.0000    80.8746     0.1136     0.2176     6.2845    67.6869     0.0136     2.4842
  370.5000    80.3398     0.1067     0.2156     6.2989    67.0803     0.0150     2.4962
  371.0000    82.3613     0.1291     0.2166     6.2985    71.7290     0.0209     2.4668
  371.5000    88.3955     0.1582     0.2235     6.2980    75.4768     0.0239     2.4133
