~VERSION INFORMATION
 VERS.                2.0:   CWLS LOG ASCII STANDARD - VERSION 2.0
 WRAP.                 NO:   ONE LINE PER DEPTH STEP
~WELL INFORMATION
#MNEM.UNIT      DATA TYPE    INFORMATION
#----------   ------------   ------------------------------
 STRT.F           14.0000:   START DEPTH
 STOP.F          513.0000:   STOP DEPTH
 STEP.F            0.1000:   STEP LENGTH
 NULL.          -999.2500:   NO VALUE
 COMP.       F D SERV INC:   COMPANY
 WELL.    52-1 SX-3 #52-3:   WELL
 FLD .             TEAPOT:   FIELD
 LOC .       S3 T38N R78W:   LOCATION
 CNTY.            NATRONA:   COUNTY
 STAT.            WYOMING:   STATE
 CTRY. UNITED STATES OF AMERICA:   COUNTRY
 SRVC.     Atlas Wireline:   SERVICE COMPANY
 DATE.        21-APR-1992:   LOGDATE
 API .       490252251400:   API NUMBER
~CURVE INFORMATION
#MNEM.UNIT       API CODE    CURVE DESCRIPTION
#----------   ------------   ------------------------------
 DEPT.F                  :   
 GRR .GAPI   07 310 01 00:   GAMMA RAY
 RILD.OHMM   07 120 46 00:   INDUCTION LOG DEEP RESISTIVITY
 RILM.OHMM   07 120 44 00:   INDUCTION LOG MEDIUM RESISTIVITY
~PARAMETER INFORMATION
#MNEM.UNIT          VALUE    DESCRIPTION
#----------   ------------   ------------------------------
 PD  .                 GL:   PERMANENT DATUM
 EPD .F              5115:   ELEVATION PERMANENT DATUM
 LMF .                 KB:   LOG MEASURED FROM
 DAPD.F                 5:   FEET ABOVE PERMANENT DATUM
 DMF .                 KB:   DRILLING MEASURED FROM
 EKB .F              5120:   KELLING BUSHING
 EDF .F              5119:   DRILLING FLOOR
 EGL .F              5115:   GROUND LEVEL
 DATE.        21-APR-1992:   RUN DATE
 RUN .                  1:   RUN NUMBER
 DD  .F               515:   DEPTH DRILLER
 DL  .F               520:   DEPTH LOGGER
 BLI .F               517:   BOTTOM LOG INTERVAL
 TLI .F                50:   TOP LOG INTERVAL
 CS  .IN            9.625:   CASING SIZE
 CBD .F                45:   CASING BOTTOM DRILLER
 CBL .F                50:   CASING BOTTOM LOGGER
 BS  .IN            7.875:   BIT SIZE
 BSD .F               515:   BIT SIZE AT DEPTH
 DFT .                AIR:   DRILLING FLUID TYPE
 LUN .            HL-6272:   LOGGING UNIT NUMBER
 LUL .             CASPER:   LOGGING UNIT LOCATION
 ENGI.       P. RASMUSSEN:   RECORDING ENGINEER
 WITN.          G. STRONG:   WITNESSED BY
 CLNT.            A2DTECH:   CLIENT CODE
 ORIG.           5" PRINT:   ORIGIN OF DATA
 UWI .       490252251400:   UNIQUE WELL ID
 DICO. A2D Technologies, Inc.:   DIGITIZING COMPANY
~OTHER INFORMATION
~A   DEPT      GRR       RILD       RILM   
# ...
  232.4000   138.2888     6.1995     6.3331
  232.5000   137.2809     6.2699     6.3742
  232.6000   136.5546     6.3485     6.3742
  232.7000   136.3698     6.3806     6.3742
  232.8000   136.3674     6.4166     6.3742
  232.9000   136.5128     6.4528     6.3742
  233.0000   137.0030     6.4892     6.3742
  233.1000   137.5682     6.5263     6.4083
  233.2000   138.1921     6.5626     6.4187
  233.3000   139.2345     6.5713     6.4187
  233.4000   140.3666     6.5710     6.4187
  233.5000   141.3495     6.5708     6.4187
  233.6000   142.3902     6.5705     6.4187
  233.7000   143.0833     6.5702     6.4187
  233.8000   143.6439     6.5699     6.4187
  233.9000   144.1341     6.5697     6.4187
  234.0000   144.5599     6.5694     6.4187
  234.1000   144.8038     6.5691     6.4187
  234.2000   145.0944     6.5688     6.4187
  234.3000   145.4908     6.5686     6.3949
  234.4000   145.6943     6.5683     6.3742
  234.5000   145.7795     6.5680     6.3742
  234.6000   146.0234     6.5678     6.3742
  234.7000   146.2910     6.5664     6.3393
  234.8000   146.7335     6.5216     6.3301
  234.9000   147.0572     6.5214     6.3301
  235.0000   147.4119     6.5000     6.3198
  235.1000   147.9571     6.4630     6.2841
  235.2000   148.6961     6.4262     6.2427
  235.3000   149.4303     6.3856     6.2135
  235.4000   150.1668     6.3533     6.1784
  235.5000   150.6355     6.3171     6.1565
  235.6000   150.8012     6.2812     6.1515
  235.7000   150.7541     6.2454     6.1138
  235.8000   150.1918     6.2091     6.0823
  235.9000   149.7639     6.1745     6.0246
  236.0000   149.1118     6.0875     5.9722
  236.1000   148.4717     6.0201     5.9308
  236.2000   147.9311     5.9758     5.8640
  236.3000   147.1588     5.9104     5.7981
  236.4000   146.4483     5.8715     5.7329
  236.5000   145.7070     5.7880     5.6684
  236.6000   144.9656     5.7100     5.5947
  236.7000   144.2242     5.6331     5.5030
  236.8000   143.5086     5.5378     5.4324
  236.9000   143.2165     5.4379     5.3800
  237.0000   143.2145     5.3523     5.3006
  237.1000   143.3597     5.2828     5.2349
  237.2000   143.6955     5.1952     5.2003
  237.3000   144.2218     5.0998     5.1386
  237.4000   145.0173     5.0694     5.0840
  237.5000   145.6948     4.9839     5.0268
  237.6000   146.2606     4.9439     4.9702
  237.7000   146.5208     4.9001     4.9214
  237.8000   146.4592     4.8539     4.8920
  237.9000   146.2105     4.8263     4.7935
  238.0000   145.9617     4.7956     4.7718
  238.1000   145.3250     4.7477     4.7296
  238.2000   144.7218     4.7114     4.6854
  238.3000   144.2268     4.6846     4.6590
  238.4000   143.7583     4.6526     4.6298
  238.5000   143.4801     4.5987     4.6066
  238.6000   143.4780     4.5731     4.5806
  238.7000   143.4755     4.5471     4.5547
  238.8000   143.5786     4.5080     4.5290
  238.9000   143.9220     4.4643     4.5028
  239.0000   144.6767     4.4405     4.5028
  239.1000   145.1549     4.4403     4.4839
  239.2000   145.6452     4.4191     4.4586
  239.3000   146.2641     4.4092     4.4334
  239.4000   147.0735     4.3995     4.4099
  239.5000   148.1418     4.3744     4.4099
  239.6000   150.7042     4.3477     4.4099
  239.7000   151.3251     4.3475     4.4099
  239.8000   151.6060     4.3474     4.4005
  239.9000   151.6036     4.3472     4.3793
  240.0000   151.5206     4.3470     4.3793
  240.1000   150.9944     4.3473     4.3793
  240.2000   150.7613     4.3718     4.3793
  240.3000   149.9876     4.3965     4.3793
  240.4000   148.6422     4.4213     4.3851
  240.5000   146.8520     4.4462     4.4099
  240.6000   144.8713     4.4713     4.4099
  240.7000   142.2183     4.4995     4.4099
  240.8000   140.8290     4.5446     4.4236
  240.9000   139.2448     4.5791     4.4487
  241.0000   137.9375     4.6162     4.4739
  241.1000   136.9497     4.6633     4.5028
  241.2000   135.8620     4.6903     4.5248
  241.3000   134.9744     4.7421     4.5505
  241.4000   133.9868     4.7960     4.5869
  241.5000   133.1088     4.8362     4.6344
  241.6000   132.4214     4.8715     4.6621
  241.7000   131.9226     4.9268     4.6871
  241.8000   131.4312     4.9921     4.7330
  241.9000   131.3136     5.0394     4.7736
  242.0000   131.3112     5.0791     4.8151
  242.1000   131.3859     5.1299     4.8954
  242.2000   131.6298     5.2085     4.9287
  242.3000   131.9078     5.2401     4.9967
  242.4000   132.5414     5.2951     5.0490
  242.5000   133.4340     5.3553     5.0979
  242.6000   134.6175     5.4017     5.1815
  242.7000   136.0930     5.4396     5.2468
  242.8000   137.6362     5.5009     5.3270
  242.9000   139.0441     5.5319     5.4183
  243.0000   140.3405     5.5881     5.4974
  243.1000   141.4462     5.6516     5.5664
  243.2000   142.2260     5.7049     5.6638
  243.3000   142.4699     5.7405     5.6952
  243.4000   142.7573     5.8138     5.7519
  243.5000   142.5529     5.8425     5.8174
  243.6000   142.3041     5.9191     5.8836
  243.7000   142.0554     5.9914     5.9483
  243.8000   141.7365     6.0386     5.9876
  243.9000   140.9327     6.1453     6.0160
  244.0000   140.0282     6.1788     6.0711
  244.1000   138.5312     6.2398     6.1269
  244.2000   137.2605     6.3106     6.1669
  244.3000   136.5772     6.3927     6.2427
  244.4000   136.0870     6.4997     6.3081
  244.5000   136.0846     6.5863     6.3549
  244.6000   136.2751     6.6483     6.4079
  244.7000   136.5190     6.7009     6.4721
  244.8000   137.0071     6.7530     6.5093
  244.9000   138.0925     6.8296     6.6209
  245.0000   140.3018     6.9135     6.6750
  245.1000   141.3803     6.9494     6.7339
  245.2000   142.2888     7.0161     6.8105
  245.3000   143.0253     7.0770     6.8843
  245.4000   143.7619     7.1170     6.9287
  245.5000   144.5196     7.1574     6.9969
  245.6000   145.9529     7.2388     7.0511
  245.7000   147.4285     7.2886     7.0747
  245.8000   148.1378     7.3068     7.0747
  245.9000   148.1354     7.3336     7.0747
  246.0000   148.1008     7.4126     7.1129
  246.1000   147.5259     7.4599     7.1241
  246.2000   146.6973     7.4965     7.1440
  246.3000   145.4078     7.5114     7.1845
  246.4000   144.0226     7.5111     7.2238
  246.5000   142.7492     7.5188     7.2238
  246.6000   141.1696     7.5628     7.2238
  246.7000   140.0183     7.5625     7.2476
  246.8000   138.4361     7.5622     7.2742
  246.9000   136.7094     7.5619     7.2792
  247.0000   135.1078     7.5616     7.3249
  247.1000   133.9003     7.5591     7.3621
  247.2000   133.6019     7.5085     7.4039
  247.3000   133.7972     7.5082     7.4275
  247.4000   134.0411     7.5079     7.4275
  247.5000   134.2850     7.4920     7.4275
  247.6000   134.5587     7.4552     7.3865
  247.7000   135.1006     7.4549     7.3760
  247.8000   135.7596     7.4162     7.3543
  247.9000   137.1542     7.3740     7.3128
  248.0000   138.9847     7.3320     7.2742
  248.1000   141.0059     7.2997     7.2742
  248.2000   143.2459     7.2993     7.2399
  248.3000   145.1916     7.2578     7.2238
  248.4000   147.1598     7.2165     7.2083
  248.5000   148.6002     7.1754     7.1676
  248.6000   149.2785     7.1345     7.1241
  248.7000   149.2761     7.0977     7.0870
  248.8000   149.2734     7.0973     7.0747
  248.9000   148.8495     7.0971     7.0747
  249.0000   148.3545     7.0712     7.0652
  249.1000   147.7601     7.0473     7.0257
  249.2000   147.0188     7.0470     7.0257
  249.3000   146.2404     7.0467     6.9948
  249.4000   145.5359     7.0084     6.9770
  249.5000   144.7945     6.9972     6.9643
  249.6000   143.9306     6.9772     6.9287
  249.7000   143.0763     6.9374     6.9287
  249.8000   142.5813     6.8997     6.9287
  249.9000   141.9959     6.8994     6.9038
  250.0000   141.6918     6.8673     6.9127
  250.1000   141.6894     6.8513     6.8806
  250.2000   141.4957     6.8371     6.8805
  250.3000   141.1106     6.7983     6.8433
  250.4000   140.6953     6.7566     6.8045
  250.5000   140.4461     6.7215     6.7468
