~VERSION INFORMATION
 VERS.                2.0:   CWLS LOG ASCII STANDARD - VERSION 2.0
 WRAP.                 NO:   ONE LINE PER DEPTH STEP
~WELL INFORMATION
#MNEM.UNIT      DATA TYPE    INFORMATION
#----------   ------------   ------------------------------
 STRT.F           34.0000:   START DEPTH
 STOP.F          616.0000:   STOP DEPTH
 STEP.F            0.5000:   STEP LENGTH
 NULL.          -999.2500:   NO VALUE
 COMP. FENIX & SCISSON INC:   COMPANY
 WELL. NAVAL PETROLEUM RESERVE 3 S-10 #86-10:   WELL
 FLD .             TEAPOT:   FIELD
 LOC .      S10 T38N R78W:   LOCATION
 CNTY.            NATRONA:   COUNTY
 STAT.            WYOMING:   STATE
 CTRY. UNITED STATES OF AMERICA:   COUNTRY
 SRVC.              Welex:   SERVICE COMPANY
 DATE.        12-APR-1977:   LOGDATE
 API .       490251033800:   API NUMBER
~CURVE INFORMATION
#MNEM.UNIT       API CODE    CURVE DESCRIPTION
#----------   ------------   ------------------------------
 DEPT.F                  :   
 CALD.IN     45 280 60 00:   CALIPER FROM DENSITY LOG
 GRD .GAPI   45 310 01 00:   GAMMA RAY FROM DENSITY LOG
 CORR.G/C3   45 356 01 00:   DENSITY CORRECTION
 DPHI.DEC    45 890 12 00:   DENSITY POROSITY SANDSTONE
 RHOB.G/C3   45 350 01 00:   BULK DENSITY
 SPR .MV     07 010 01 00:   SPONTANEOUS POTENTIAL
 ILD .OHMM   07 120 46 00:   INDUCTION LOG DEEP
 ILM .OHMM   07 120 44 00:   INDUCTION LOG MEDIUM
 SGRD.OHMM   07 221 05 00:   SHALLOW SHORT GUARD RESISTIVITY
~PARAMETER INFORMATION
#MNEM.UNIT          VALUE    DESCRIPTION
#----------   ------------   ------------------------------
 PD  .                 GL:   PERMANENT DATUM
 EPD .F              5240:   ELEVATION PERMANENT DATUM
 LMF .                 KB:   LOG MEASURED FROM
 DAPD.F                 5:   FEET ABOVE PERMANENT DATUM
 DMF .                 KB:   DRILLING MEASURED FROM
 EKB .F              5245:   KELLING BUSHING
 EGL .F              5240:   GROUND LEVEL
 DATE.        12-APR-1977:   RUN DATE
 RUN .                  1:   RUN NUMBER
 DD  .F               625:   DEPTH DRILLER
 DL  .F               617:   DEPTH LOGGER
 BLI .F               615:   BOTTOM LOG INTERVAL
 TLI .F                35:   TOP LOG INTERVAL
 CS  .IN            8.625:   CASING SIZE
 BS  .IN            7.875:   BIT SIZE
 BSD .F               625:   BIT SIZE AT DEPTH
 DFT .           KCL- GEL:   DRILLING FLUID TYPE
 DFD .                8.8:   DRILLING FLUID DENSITY
 BHT .F                68:   BOTTOM HOLE TEMPERATURE
 TCS .HRS            0100:   TIME CURCULATED STOPPED
 MRT .F                68:   MAXIMUM RECORDED TEMPERATURE
 ENGI.        E. CALLAHAN:   RECORDING ENGINEER
 WITN.            R. LYON:   WITNESSED BY
 CLNT.            A2DTECH:   CLIENT CODE
 ORIG.           5" PRINT:   ORIGIN OF DATA
 UWI .       490251033800:   UNIQUE WELL ID
 DICO. A2D Technologies, Inc.:   DIGITIZING COMPANY
~OTHER INFORMATION
~A   DEPT     CALD        GRD       CORR       DPHI         RHOB      SPR        ILD        ILM       SGRD   
# ...
  253.0000     8.0529   116.5144     0.0443     0.0936     2.5032   -69.3114     7.7643     9.4933    12.1839
  253.5000     8.0538   116.3716     0.0414     0.0984     2.4978   -69.4611     7.7617     9.4914    12.0982
  254.0000     8.0547   116.3808     0.0430     0.1013     2.4862   -69.4611     7.7060     9.3590    12.0131
  254.5000     8.0556   116.2380     0.0446     0.0974     2.4927   -69.4611     7.6508     9.3571    11.7646
  255.0000     8.0565   116.0970     0.0477     0.0938     2.5006   -69.4611     7.5436     9.5514    11.5213
  255.5000     8.0574   116.1062     0.0479     0.0926     2.5013   -69.4775     7.4895     9.3532    11.4403
  256.0000     8.0583   115.6685     0.0465     0.0997     2.4984   -69.6108     7.4358     9.2228    12.0065
  256.5000     8.0592   115.0824     0.0436     0.1045     2.4909   -69.7800     7.3316     9.0314    11.7582
  257.0000     8.0600   114.3480     0.0392     0.1072     2.4805   -69.9102     7.3295     8.9673    11.0467
  257.5000     8.0609   113.1684     0.0333     0.1092     2.4686   -70.0599     7.3275     8.8422    11.5134
  258.0000     8.0618   111.9889     0.0304     0.1164     2.4469   -70.2336     7.3764     8.9042    12.1675
  258.5000     8.0627   110.9577     0.0276     0.1260     2.4387   -70.6587     7.4261     9.1578    11.9982
  259.0000     8.0636   110.2214     0.0292     0.1308     2.4380   -70.8084     7.4235     9.4699    11.6690
  259.5000     8.0645   113.0496     0.0308     0.1298     2.4425   -71.1078     7.4215     9.2524    11.6674
  260.0000     8.0654   114.8374     0.0324     0.1283     2.4456   -71.2575     7.4709     8.6515    11.9936
  260.5000     8.0663   116.6252     0.0281     0.1289     2.4404   -71.2575     7.4174     8.7704    11.3458
  261.0000     8.0671   116.4842     0.0237     0.1271     2.4412   -71.2575     7.4153     8.7685    11.3442
  261.5000     8.0680   115.3047     0.0238     0.1246     2.4457   -71.2575     7.4133     8.7663    11.5007
  262.0000     8.0689   115.1618     0.0284     0.1213     2.4510   -71.2575     7.4113     8.6440    11.7408
  262.5000     8.0698   116.5064     0.0300     0.1183     2.4571   -71.2294     7.4092     8.5826    11.6578
  263.0000     8.0707   119.6295     0.0332     0.1150     2.4631   -71.1078     7.3561     8.5217    11.3380
  263.5000     8.0716   119.7834     0.0348     0.1122     2.4692   -70.8084     7.3034     8.5199    10.8754
  264.0000     8.0725   118.4573     0.0349     0.1095     2.4737   -70.8084     7.2510     8.4594    10.7989
  264.5000     8.0734   116.0908     0.0350     0.1099     2.4760   -70.6587     7.1990     8.3414    10.7974
  265.0000     8.0742   113.8727     0.0321     0.1134     2.4693   -70.5090     7.0981     8.2822    11.0990
  265.5000     8.0751   112.5448     0.0292     0.1145     2.4642   -70.2096     7.0472     8.1667    11.4089
  266.0000     8.0760   111.9585     0.0233     0.1161     2.4575   -70.0599     6.9446     8.0528    11.0958
  266.5000     8.0769   111.9661     0.0190     0.1191     2.4515   -70.0599     6.8510     7.9956    10.7914
  267.0000     8.0778   111.9735     0.0221     0.1177     2.4561   -69.9102     6.7026     7.8841    10.5683
  267.5000     8.0787   111.9809     0.0237     0.1150     2.4629   -69.6108     6.5234     7.8281    10.6402
  268.0000     8.0796   111.9883     0.0269     0.1132     2.4674   -69.4611     6.4167     7.7725    10.7870
  268.5000     8.0805   111.9956     0.0270     0.1149     2.4570   -69.3114     6.1684     7.4549    10.7111
  269.0000     8.0813   112.0079     0.0256     0.1210     2.4450   -69.0120     6.0400     7.0519     9.9936
  269.5000     8.0822   112.1588     0.0257     0.1206     2.4421   -69.0120     5.9143     6.8107     8.8833
  270.0000     8.0831   112.1662     0.0318     0.1143     2.4586   -68.8623     5.8314     6.7623     8.3458
  270.5000     8.0840   112.1736     0.0380     0.1092     2.4729   -68.8623     5.8298     6.8082     7.9491
  271.0000     8.0849   112.4777     0.0456     0.1038     2.4850   -68.8623     5.9098     6.9975     7.6768
  271.5000     8.0858   112.6410     0.0487     0.0978     2.4940   -68.8623     5.9492     7.0450     8.6606
  272.0000     8.0867   112.9476     0.0488     0.0929     2.4993   -68.8623     6.0719     7.1909    10.4183
  272.5000     8.0876   113.4025     0.0505     0.0908     2.5001   -68.8623     6.1548     7.2896    10.4795
  273.0000     8.0884   114.0059     0.0491     0.0914     2.5009   -68.8623     6.2826     7.3901    10.0449
  273.5000     8.0893   114.6093     0.0477     0.0947     2.4980   -68.8623     6.4567     7.5432     9.9812
  274.0000     8.0902   115.2127     0.0433     0.1000     2.4935   -68.8623     6.5904     7.6467    10.1282
  274.5000     8.0911   115.4968     0.0404     0.1006     2.4868   -68.8623     6.6804     7.8056    10.2692
  275.0000     8.0920   115.2074     0.0375     0.0988     2.4846   -68.7126     6.7721     7.9676    10.4723
  275.5000     8.0929   115.0664     0.0377     0.0976     2.4892   -68.7126     6.8641     8.0213    10.6302
  276.0000     8.1086   114.9254     0.0378     0.0972     2.4900   -68.7126     6.9103     8.0196    10.8376
  276.5000     8.1095   114.9347     0.0354     0.1002     2.4878   -68.4132     6.9564     7.9627    10.9871
  277.0000     8.1104   114.9421     0.0335     0.1056     2.4818   -68.1138     7.0028     8.0472    10.9856
  277.5000     8.1113   115.0978     0.0321     0.1089     2.4759   -67.6647     7.0004     8.0453    10.8331
  278.0000     8.1122   115.6987     0.0383     0.1052     2.4760   -67.5150     6.9984     8.0434    10.6827
  278.5000     8.1131   116.1512     0.0444     0.1019     2.4858   -67.2156     6.9483     8.0416    10.4618
  279.0000     8.0991   116.7520     0.0505     0.0995     2.4911   -67.0659     6.8985     8.0397    10.2455
  279.5000     8.1000   117.7980     0.0536     0.0986     2.4926   -66.7665     6.8018     8.0379    10.1032
  280.0000     8.1009   118.6956     0.0539     0.0998     2.4919   -66.4671     6.7530     7.9684     9.8943
  280.5000     8.1018   119.4448     0.0509     0.1051     2.4836   -66.4671     6.6124     7.5426     9.8251
  281.0000     8.1027   121.3810     0.0435     0.1105     2.4708   -66.3174     6.4301     7.3918    10.0991
  281.5000     8.1036   121.6851     0.0331     0.1180     2.4483   -66.3174     6.1669     7.2884     9.8902
  282.0000     8.1193   121.2474     0.0226     0.1368     2.4213   -66.3174     5.9145     7.1304     9.2918
  282.5000     8.1204   120.3646     0.0138     0.1518     2.4020   -66.3174     5.6333     6.9337     9.0996
  283.0000     8.1212   119.4818     0.0157     0.1560     2.3947   -66.3174     5.4027     6.7424     8.9114
  283.5000     8.1221   118.7473     0.0217     0.1566     2.3941   -66.4671     5.1816     6.5497     8.7271
  284.0000     8.1230   117.5678     0.0309     0.1550     2.3988   -66.4671     5.1089     5.9776     8.3133
  284.5000     8.1239   116.3882     0.0403     0.1492     2.4118   -66.6168     5.0026     5.5434     7.1384
  285.0000     8.1248   113.8733     0.0565     0.1289     2.4396   -66.9162     4.8985     5.4027     5.0849
  285.5000     8.1257   112.9905     0.0716     0.1187     2.4674   -67.0659     4.8971     5.5281     5.1908
  286.0000     8.1266   112.2561     0.0883     0.1067     2.4858   -67.5150     4.9644     5.8421     9.6083
  286.5000     8.1275   111.8165     0.0944     0.1060     2.4806   -67.6647     5.0343     6.0470     9.2163
  287.0000     8.1283   111.5271     0.0960     0.1126     2.4724   -67.9641     5.2096     6.2673     8.9016
  287.5000     8.1292   113.0201     0.0961     0.1165     2.4597   -68.2635     5.3214     6.8004     9.1502
  288.0000     8.1153   114.3628     0.0902     0.1204     2.4478   -68.5629     5.5432     7.1169     9.6030
  288.5000     8.0568   116.4473     0.0828     0.1149     2.4621   -68.8623     5.7376     7.2144    10.1482
  289.0000     7.9538   116.6031     0.0740     0.1134     2.4651   -69.0120     5.8980     7.3642    10.4319
