~VERSION INFORMATION
 VERS.                2.0:   CWLS LOG ASCII STANDARD - VERSION 2.0
 WRAP.                 NO:   ONE LINE PER DEPTH STEP
~WELL INFORMATION
#MNEM.UNIT      DATA TYPE    INFORMATION
#----------   ------------   ------------------------------
 STRT.F            6.0000:   START DEPTH
 STOP.F          765.0000:   STOP DEPTH
 STEP.F            0.5000:   STEP LENGTH
 NULL.          -999.2500:   NO VALUE
 COMP. FENIX & SCISSON INC:   COMPANY
 WELL.      24 SX 2 #24-2:   WELL
 FLD .        TEAPOT DOME:   FIELD
 LOC .       S2 T38N R78W:   LOCATION
 CNTY.            NATRONA:   COUNTY
 STAT.            WYOMING:   STATE
 CTRY. UNITED STATES OF AMERICA:   COUNTRY
 SRVC.           BIRDWELL:   SERVICE COMPANY
 DATE.        20-JAN-1978:   LOGDATE
 API .       490251055700:   API NUMBER
~CURVE INFORMATION
#MNEM.UNIT       API CODE    CURVE DESCRIPTION
#----------   ------------   ------------------------------
 DEPT.F                  :   
 SPR .MV     05 010 01 00:   SPONTANEOUS POTENTIAL FROM RES.
 SN  .OHMM   05 040 16 00:   SHORT NORMAL 16"
 ILD .OHMM   05 120 46 00:   INDUCTION LOG DEEP
 CALD.IN     45 280 60 00:   CALIPER FROM DENSITY LOG
 CORR.G/C3   45 356 01 00:   DENSITY CORRECTION
 DEN .G/C3   45 350 01 00:   COMPENSATED BULK DENSTIY
 DPHI.DEC    45 890 12 00:   DENSITY POROSITY SANDSTONE
 GRD .GAPI   45 310 01 00:   GAMMA RAY FROM DENSITY LOG
~PARAMETER INFORMATION
#MNEM.UNIT          VALUE    DESCRIPTION
#----------   ------------   ------------------------------
 PD  .                 GL:   PERMANENT DATUM
 EPD .F              5131:   ELEVATION PERMANENT DATUM
 LMF .                 KB:   LOG MEASURED FROM
 DMF .                 KB:   DRILLING MEASURED FROM
 EKB .F              5134:   KELLING BUSHING
 EGL .F              5131:   GROUND LEVEL
 DATE.        20-JAN-1978:   RUN DATE
 RUN .                  1:   RUN NUMBER
 DD  .F               775:   DEPTH DRILLER
 DL  .F               770:   DEPTH LOGGER
 BLI .F               770:   BOTTOM LOG INTERVAL
 TLI .F                40:   TOP LOG INTERVAL
 CS  .IN            8.625:   CASING SIZE
 CBD .F                39:   CASING BOTTOM DRILLER
 CBL .F                39:   CASING BOTTOM LOGGER
 BS  .IN            7.875:   BIT SIZE
 BSD .F               775:   BIT SIZE AT DEPTH
 DFT .                KCL:   DRILLING FLUID TYPE
 DFD .                8.6:   DRILLING FLUID DENSITY
 DFV .                 33:   DRILLING FLUID VISCOSITY
 DFPH.                9.5:   DRILLING FLUID PH
 DFL .                  8:   DRILLING FLUID LOSS
 MSS .           FLOWLINE:   MUD SAMPLE SOURCE
 RMS .OHMM            .31:   RESISTIVITY MUD SAMPLE
 MST .F                54:   MUD SAMPLE TEMPERATURE
 RMF .OHMM            .28:   RESISTIVITY MUD FILTRATE SAMPLE
 MFST.F                64:   MUD FILTRATE SAMPLE TEMPERATURE
 RMC .OHMM             .8:   RESISTIVITY MUD CAKE
 MCST.F                64:   MUD CAKE SAMPLE TEMPERATURE
 MFSS.               MEAS:   MUD FILTRATE SAMPLE SOURCE
 MCSS.               MEAS:   MUD CAKE SAMPLE SOURCE
 RMB .OHMM            .22:   RESISTIVITY MUD AT BHT
 BHT .F                76:   BOTTOM HOLE TEMPERATURE
 TCS .HRS            0400:   TIME CURCULATED STOPPED
 MRT .F                76:   MAXIMUM RECORDED TEMPERATURE
 LUN .               2958:   LOGGING UNIT NUMBER
 LUL .             CASPER:   LOGGING UNIT LOCATION
 ENGI.            POINTER:   RECORDING ENGINEER
 WITN.           MCGINLEY:   WITNESSED BY
 CLNT.            A2DTECH:   CLIENT CODE
 ORIG.           5" PRINT:   ORIGIN OF DATA
 UWI .       490251055700:   UNIQUE WELL ID
 DICO. A2D Technologies, Inc.:   DIGITIZING COMPANY
~OTHER INFORMATION
~A    DEPT     SPR         SN        ILD       CALD       CORR        DEN       DPHI         GRD  
# ...
  492.0000   -45.7901     6.9132     5.8028     8.0749     0.0781     2.4221     0.1546   118.9151
  492.5000   -45.6484     6.9570     5.8004     8.0894     0.0863     2.4040     0.1535   116.4904
  493.0000   -45.5045     6.9517     5.7579     8.1041     0.0864     2.3889     0.1529   112.5597
  493.5000   -45.3628     6.9969     5.6371     8.1035     0.0855     2.4032     0.1571   109.2314
  494.0000   -45.3740     6.9914     5.4808     8.1031     0.0854     2.4001     0.1643   104.6983
  494.5000   -45.3829     6.9871     5.3287     8.1026     0.0854     2.3865     0.1692   110.4062
  495.0000   -45.5425     6.9828     5.2169     8.1022     0.0869     2.3737     0.1740   114.9093
  495.5000   -45.7020     6.8823     5.0722     8.1017     0.0883     2.3668     0.1788   114.5930
  496.0000   -46.0121     6.5519     4.9658     8.1013     0.0913     2.3615     0.1831   108.2527
  496.5000   -46.0221     5.9415     4.8280     8.1008     0.0943     2.3570     0.1813   114.2618
  497.0000   -46.1806     5.7353     4.5342     8.1004     0.0928     2.3554     0.1705   119.0660
  497.5000   -46.0389     5.6527     4.4391     8.1000     0.0927     2.3779     0.1687   119.9699
  498.0000   -46.0482     5.6492     4.4682     8.0995     0.0972     2.3809     0.1690   110.6023
  498.5000   -46.0590     5.6458     4.4974     8.0991     0.1017     2.3809     0.1681   103.9607
  499.0000   -45.9151     5.7211     4.5583     8.0986     0.1031     2.3808     0.1579   108.1626
  499.5000   -45.4745     5.7975     4.6200     8.0982     0.1046     2.3943     0.1480   116.5813
  500.0000   -45.1701     5.8749     4.7809     8.0986     0.1053     2.4128     0.1458   121.3855
  500.5000   -45.0505     6.2102     5.1732     8.1030     0.1049     2.4198     0.1453   123.0675
  501.0000   -44.9310     6.4672     5.6045     8.1074     0.1045     2.4213     0.1453   124.9820
  501.5000   -44.7560     6.8327     6.0054     8.1115     0.1030     2.4236     0.1417   121.2859
  502.0000   -44.7652     7.1193     6.3026     8.0959     0.1015     2.4235     0.1429   110.9271
  502.5000   -44.7743     7.5216     6.4785     8.0954     0.1029     2.4235     0.1442   101.1446
  503.0000   -44.7834     7.8370     6.5766     8.0799     0.1081     2.4234     0.1432   100.8494
  503.5000   -44.6416     8.1093     6.7590     8.0644     0.1096     2.4234     0.1405   101.4429
  504.0000   -44.6509     8.2182     6.8984     8.0640     0.1088     2.4288     0.1363   100.4578
  504.5000   -44.5094     8.2134     6.9862     8.0635     0.1080     2.4324     0.1361    93.8132
  505.0000   -44.3678     8.1521     6.9798     8.0631     0.1058     2.4331     0.1370    91.4761
  505.5000   -44.3769     8.1475     6.8395     8.0626     0.1027     2.4330     0.1370    95.4489
  506.0000   -44.3860     8.1430     6.7884     8.0622     0.1027     2.4299     0.1394    95.9762
  506.5000   -44.3951     8.0822     6.6498     8.0617     0.1057     2.4260     0.1394    97.0271
  507.0000   -44.4041     8.0218     6.6481     8.0613     0.1101     2.4247     0.1385   107.1385
  507.5000   -44.5638     7.9068     6.6011     8.0608     0.1116     2.4247     0.1405   115.4066
  508.0000   -44.8741     7.7934     6.4639     8.0604     0.1123     2.4239     0.1445   115.0240
  508.5000   -45.0338     7.7891     6.3736     8.0449     0.1131     2.4193     0.1524   108.8763
  509.0000   -45.1935     7.5716     6.1980     8.0445     0.1130     2.4056     0.1549   104.9036
  509.5000   -45.3531     7.2587     5.7419     8.0440     0.1122     2.4025     0.1568   106.5692
  510.0000   -45.5128     6.9588     5.3563     8.0285     0.1115     2.3967     0.1600   111.8657
  510.5000   -45.6725     6.7177     4.9279     8.0130     0.1122     2.3921     0.1627   116.3747
  511.0000   -45.9828     6.3074     4.8590     7.9976     0.1129     2.3891     0.1648   119.6790
  511.5000   -46.2930     5.7201     4.8580     7.9971     0.1129     2.3815     0.1675   122.3808
  512.0000   -46.1492     5.5604     4.9250     7.9816     0.1159     2.3755     0.1757   124.4802
  512.5000   -46.0077     5.5960     4.9927     7.9812     0.1173     2.3612     0.1820   121.7604
  513.0000   -45.8662     5.7106     5.0963     7.9356     0.1081     2.3574     0.1673   105.4863
  513.5000   -45.5741     5.8680     5.1666     7.9201     0.1029     2.3905     0.1553    99.4532
  514.0000   -45.1336     6.0719     5.3104     7.8896     0.1015     2.4032     0.1571    97.0368
  514.5000   -45.1427     6.5956     5.8099     7.8741     0.0991     2.4039     0.1565   102.1460
  515.0000   -45.1517     7.1644     6.4450     7.8737     0.0953     2.4077     0.1481   103.0428
  515.5000   -45.0079     7.5169     6.8584     7.8732     0.0914     2.4137     0.1469   103.9352
  516.0000   -44.8664     7.6188     6.9530     7.8728     0.0871     2.4151     0.1505   106.6370
  516.5000   -44.5743     7.7199     6.9512     7.8723     0.0863     2.4113     0.1541   111.1461
  517.0000   -44.4328     7.7704     6.9017     7.8719     0.0863     2.4045     0.1565   111.4405
  517.5000   -44.4441     7.9284     6.8526     7.8866     0.0870     2.4015     0.1581   111.4293
  518.0000   -44.4532     8.0359     6.8512     7.8860     0.0870     2.4022     0.1484   110.2154
  518.5000   -44.4622     8.1437     6.8498     7.8855     0.0870     2.4157     0.1472   108.3992
  519.0000   -44.4713     8.1380     6.8483     7.8851     0.0862     2.4142     0.1518   105.3781
  519.5000   -44.4804     8.1912     6.8469     7.8846     0.0862     2.4112     0.1521   105.3691
  520.0000   -44.4895     8.1289     6.8455     7.8842     0.0854     2.4081     0.1509   105.3601
  520.5000   -44.6491     8.1244     6.8440     7.9138     0.0846     2.4058     0.1521   105.3511
  521.0000   -44.5053     8.1199     6.8426     7.9134     0.0838     2.4043     0.1578   105.3421
  521.5000   -44.5167     8.1153     6.8412     7.9280     0.0838     2.3952     0.1627   105.9355
  522.0000   -44.5258     8.1108     6.8397     7.9426     0.0838     2.3914     0.1642   107.7337
  522.5000   -44.5348     8.1063     6.8383     7.9571     0.0837     2.3899     0.1648   108.3293
  523.0000   -44.5439     8.1018     6.8369     7.9717     0.0837     2.3884     0.1627   107.4144
  523.5000   -44.4001     8.0972     6.8355     7.9713     0.0837     2.3891     0.1606   106.5041
  524.0000   -44.4096     8.0266     6.9294     7.9708     0.0836     2.3898     0.1606   107.9988
  524.5000   -44.4187     7.9776     6.9765     7.9704     0.0836     2.3928     0.1615   110.7007
  525.0000   -44.4277     7.9732     7.0805     7.9699     0.0836     2.3928     0.1597   121.8362
  525.5000   -44.4367     7.9604     7.1696     7.9695     0.0828     2.3927     0.1580   133.8754
  526.0000   -44.5964     7.8546     7.0577     7.9690     0.0828     2.3927     0.1598   131.7579
  526.5000   -44.7560     7.7896     6.7198     7.9686     0.0827     2.3919     0.1631   125.7248
  527.0000   -45.0663     7.6310     6.2314     7.9681     0.0805     2.3889     0.1640   114.8725
  527.5000   -45.2259     7.5697     5.8513     7.9687     0.0797     2.3859     0.1637   111.5502
  528.0000   -45.3855     7.4104     5.2423     7.9823     0.0797     2.3775     0.1698   112.1436
  528.5000   -45.3946     7.2019     5.0987     7.9818     0.0796     2.3692     0.1770   125.3876
  529.0000   -45.4036     6.7620     5.0626     7.9814     0.0811     2.3587     0.1869   127.7882
  529.5000   -45.1114     6.2204     5.0600     7.9809     0.0841     2.3413     0.1939   128.6828
  530.0000   -44.8193     5.9653     5.0255     7.9805     0.0863     2.3315     0.1879   129.8786
  530.5000   -44.2259     5.9620     5.0594     7.9800     0.0855     2.3503     0.1725   119.6286
  531.0000   -43.9337     6.0420     5.1289     7.9645     0.0840     2.3698     0.1596   112.0895
  531.5000   -43.6417     6.3392     5.3087     7.9314     0.0832     2.3864     0.1587   112.0805
  532.0000   -43.6508     6.6974     5.3877     7.9157     0.0847     2.3924     0.1620   114.1799
