~VERSION INFORMATION
 VERS.                2.0:   CWLS LOG ASCII STANDARD - VERSION 2.0
 WRAP.                 NO:   ONE LINE PER DEPTH STEP
~WELL INFORMATION
#MNEM.UNIT      DATA TYPE    INFORMATION
#----------   ------------   ------------------------------
 STRT.F            3.5000:   START DEPTH
 STOP.F          523.0000:   STOP DEPTH
 STEP.F            0.5000:   STEP LENGTH
 NULL.          -999.2500:   NO VALUE
 COMP.       F D SERV INC:   COMPANY
 WELL.    88-8 SX 3 #88-3:   WELL
 FLD .             TEAPOT:   FIELD
 LOC .       S3 T38N R78W:   LOCATION
 CNTY.            NATRONA:   COUNTY
 STAT.            WYOMING:   STATE
 CTRY. UNITED STATES OF AMERICA:   COUNTRY
 SRVC.      Western Atlas:   SERVICE COMPANY
 DATE.        28-NOV-1992:   LOGDATE
 API .       490252256200:   API NUMBER
~CURVE INFORMATION
#MNEM.UNIT       API CODE    CURVE DESCRIPTION
#----------   ------------   ------------------------------
 DEPT.F                  :   
 GRR .GAPI   07 310 01 00:   GAMMA RAY
 RILD.OHMM   07 120 46 00:   INDUCTION LOG DEEP RESISTIVITY
 RILM.OHMM   07 120 44 00:   RESITIVITY LONG MEDIUM
 C13 .IN     45 280 13 00:   CALIPER X
 PORZ.DEC    45 890 12 00:   DENSITY POROSITY SANDSTONE
 NPHI.DEC    42 890 03 00:   NEUTRON POROSITY SANDSTONE
 ZCOR.G/C3   45 356 01 00:   DENSITY CORRECTION
 ZDEN.G/C3   45 350 01 00:   BULK DENSITY
~PARAMETER INFORMATION
#MNEM.UNIT          VALUE    DESCRIPTION
#----------   ------------   ------------------------------
 PD  .                 GL:   PERMANENT DATUM
 EPD .F              5126:   ELEVATION PERMANENT DATUM
 LMF .                 KB:   LOG MEASURED FROM
 DAPD.F                10:   FEET ABOVE PERMANENT DATUM
 DMF .                 KB:   DRILLING MEASURED FROM
 EKB .F              5136:   KELLING BUSHING
 EDF .F              5135:   DRILLING FLOOR
 EGL .F              5126:   GROUND LEVEL
 DATE.        28-NOV-1992:   RUN DATE
 RUN .                  1:   RUN NUMBER
 DD  .F               525:   DEPTH DRILLER
 DL  .F               525:   DEPTH LOGGER
 BLI .F               516:   BOTTOM LOG INTERVAL
 TLI .F                76:   TOP LOG INTERVAL
 CS  .IN            8.625:   CASING SIZE
 CBD .F                95:   CASING BOTTOM DRILLER
 CBL .F                76:   CASING BOTTOM LOGGER
 BS  .IN            7.875:   BIT SIZE
 BSD .F               525:   BIT SIZE AT DEPTH
 DFT .           AIR FOAM:   DRILLING FLUID TYPE
 MRT .F                70:   MAXIMUM RECORDED TEMPERATURE
 LUN .            HL-6274:   LOGGING UNIT NUMBER
 LUL .             CASPER:   LOGGING UNIT LOCATION
 ENGI.             RAUTIO:   RECORDING ENGINEER
 WITN.           ED REISH:   WITNESSED BY
 CLNT.            A2DTECH:   CLIENT CODE
 ORIG.           5" PRINT:   ORIGIN OF DATA
 UWI .       490252256200:   UNIQUE WELL ID
 DICO. A2D Technologies, Inc.:   DIGITIZING COMPANY
~OTHER INFORMATION
~A    DEPT     GRR       RILD       RILM        C13       PORZ       NPHI       ZCOR       ZDEN   
# ...
  125.0000   155.4203     8.1349     8.2712     8.2481     0.1009     0.3215     0.0382     2.4823
  125.5000   156.3379     8.0792     8.1018     8.2630     0.1024     0.3215     0.0305     2.4785
  126.0000   155.7229     7.9138     7.9909     8.2629     0.1066     0.3215     0.0262     2.4748
  126.5000   154.2548     7.8035     7.8784     8.2627     0.1054     0.3227     0.0322     2.4786
  127.0000   151.5552     7.6988     7.7736     8.2625     0.1006     0.3243     0.0337     2.4823
  127.5000   147.9520     7.6462     7.6144     8.2624     0.0991     0.3267     0.0338     2.4861
  128.0000   145.2523     7.5417     7.5623     8.2472     0.0994     0.3270     0.0337     2.4853
  128.5000   148.5796     7.4902     7.4073     8.2458     0.1015     0.3261     0.0337     2.4801
  129.0000   157.6270     7.3877     7.3567     8.2469     0.1069     0.3246     0.0322     2.4748
  129.5000   161.5542     7.3373     7.3064     8.2618     0.1099     0.3224     0.0337     2.4666
  130.0000   158.5559     7.3379     7.3070     8.2917     0.1108     0.3200     0.0398     2.4666
  130.5000   156.4587     7.4407     7.4094     8.3217     0.1105     0.3191     0.0487     2.4666
  131.0000   157.0723     7.5448     7.4614     8.3516     0.1099     0.3182     0.0502     2.4681
  131.5000   157.3848     7.6035     7.5660     8.3665     0.1075     0.3179     0.0517     2.4718
  132.0000   153.1820     7.7042     7.6721     8.3663     0.1012     0.3170     0.0487     2.4832
  132.5000   149.8771     7.7582     7.7796     8.3662     0.0951     0.3143     0.0457     2.4921
  133.0000   148.9875     7.8131     7.8342     8.3660     0.0933     0.3128     0.0517     2.4974
  133.5000   148.3992     7.9221     7.9726     8.3658     0.0948     0.3137     0.0577     2.4944
  134.0000   148.1092     7.9226     8.0554     8.3507     0.0924     0.3140     0.0577     2.4951
  134.5000   147.5181     7.9781     8.0559     8.3355     0.0912     0.3122     0.0546     2.4981
  135.0000   144.5200     8.0342     8.1181     8.3504     0.0909     0.3116     0.0487     2.4981
  135.5000   141.2180     8.1056     8.1694     8.3502     0.0912     0.3123     0.0427     2.4974
  136.0000   141.8317     8.2277     8.2267     8.3501     0.0939     0.3147     0.0412     2.4966
  136.5000   149.6770     8.3188     8.3131     8.3499     0.0927     0.3153     0.0412     2.4943
  137.0000   151.1915     8.3192     8.4007     8.3347     0.0939     0.3120     0.0412     2.4921
  137.5000   146.3862     8.3198     8.4012     8.3496     0.0969     0.3099     0.0427     2.4914
  138.0000   139.1446     8.3782     8.3437     8.3344     0.1014     0.3129     0.0457     2.4869
  138.5000   138.5774     8.3788     8.4024     8.3192     0.1041     0.3201     0.0487     2.4823
  139.0000   141.6035     8.4376     8.4029     8.2877     0.1069     0.3243     0.0426     2.4726
  139.5000   144.0244     8.4381     8.4619     8.2287     0.1092     0.3267     0.0277     2.4673
  140.0000   145.5444     8.3806     8.4625     8.1985     0.1053     0.3288     0.0187     2.4681
  140.5000   145.2545     8.3232     8.3467     8.2134     0.1041     0.3301     0.0142     2.4718
  141.0000   143.7597     8.2665     8.2895     8.2132     0.1032     0.3312     0.0217     2.4756
  141.5000   143.8133     8.2100     8.1197     8.2131     0.1026     0.3322     0.0292     2.4779
  142.0000   146.7970     8.1539     8.1204     8.2129     0.1026     0.3322     0.0307     2.4801
  142.5000   148.0130     8.1545     8.0649     8.2128     0.1041     0.3295     0.0262     2.4808
  143.0000   144.7110     8.0940     8.0654     8.2277     0.1065     0.3264     0.0217     2.4741
  143.5000   142.3154     8.0435     8.1220     8.2275     0.1095     0.3255     0.0234     2.4681
  144.0000   141.4230     8.1562     8.1791     8.2273     0.1110     0.3265     0.0292     2.4636
  144.5000   141.1302     8.2704     8.2364     8.2573     0.1116     0.3280     0.0352     2.4621
  145.0000   141.1747     8.4115     8.2961     8.2571     0.1101     0.3277     0.0397     2.4636
  145.5000   143.5680     8.5216     8.4690     8.2871     0.1086     0.3225     0.0427     2.4666
  146.0000   147.7961     8.6364     8.7074     8.3020     0.1062     0.3138     0.0412     2.4726
  146.5000   147.2049     8.7437     8.8294     8.3018     0.1050     0.3051     0.0367     2.4748
  147.0000   139.3876     8.8662     9.0782     8.2716     0.1065     0.3033     0.0337     2.4733
  147.5000   136.0856     8.9283     9.2693     8.2564     0.1074     0.3045     0.0307     2.4718
  148.0000   136.6992     9.1162     9.3992     8.2412     0.1071     0.3045     0.0291     2.4734
  148.5000   141.0060     9.3217     9.6045     8.2410     0.1059     0.3036     0.0277     2.4771
  149.0000   142.1462     9.5279     9.8675     8.2259     0.1044     0.3021     0.0262     2.4793
  149.5000   141.5550     9.7714    10.0058     8.2107     0.1019     0.3003     0.0292     2.4831
  150.0000   138.2530    10.0464    10.2165     8.2105     0.0980     0.2994     0.0322     2.4869
  150.5000   135.2522    10.2578    10.4318     8.2104     0.0968     0.2958     0.0382     2.4899
  151.0000   135.8687    10.4737    10.5779     8.2102     0.0992     0.2895     0.0442     2.4876
  151.5000   135.8799    10.6942    10.7262     8.2101     0.1004     0.2871     0.0442     2.4853
  152.0000   134.9903    10.9193    10.8766     8.2099     0.0977     0.2859     0.0427     2.4891
  152.5000   133.7967    11.1490    11.0290     8.2275     0.0938     0.2853     0.0397     2.4951
  153.0000   131.3983    11.3838    11.1836     8.2120     0.0923     0.2841     0.0367     2.4981
  153.5000   127.7951    11.6233    11.3403     8.2117     0.0920     0.2817     0.0307     2.4966
  154.0000   127.1084    11.7048    11.4994     8.1813     0.0929     0.2796     0.0262     2.4936
  154.5000   129.5181    11.7921    11.5800     8.1810     0.0971     0.2778     0.0232     2.4899
  155.0000   131.9277    11.9521    11.6612     8.1807     0.0989     0.2766     0.0232     2.4869
  155.5000   134.9398    12.0358    11.8889     8.1804     0.0977     0.2757     0.0397     2.4891
  156.0000   135.5904    12.0366    11.8879     8.1951     0.0980     0.2748     0.0502     2.4861
  156.5000   130.4217    11.8721    11.8050     8.2099     0.1007     0.2742     0.0457     2.4815
  157.0000   129.5181    11.7095    11.8042     8.1946     0.1025     0.2742     0.0366     2.4793
  157.5000   128.6145    11.7105    11.7218     8.2139     0.1028     0.2742     0.0307     2.4793
  158.0000   129.5181    11.4708    11.4800     8.2139     0.1022     0.2742     0.0322     2.4801
  158.5000   131.3253    11.3922    11.4001     8.2289     0.1010     0.2748     0.0412     2.4831
  159.0000   132.5301    11.2366    11.1649     8.2440     0.0995     0.2760     0.0457     2.4861
  159.5000   131.0241    11.1598    11.0871     8.2440     0.0989     0.2772     0.0487     2.4876
  160.0000   130.7229    10.9312    11.0099     8.2289     0.0998     0.2785     0.0457     2.4813
  160.5000   131.6265    10.8723    11.0090     8.1988     0.1037     0.2781     0.0382     2.4696
  161.0000   131.3253    10.7987    11.0082     8.1988     0.1083     0.2761     0.0367     2.4628
  161.5000   127.7108    10.8755    11.0075     8.2289     0.1130     0.2746     0.0427     2.4636
  162.0000   124.6988    10.9528    10.9308     8.2741     0.1115     0.2734     0.0442     2.4651
  162.5000   125.6024    10.9542    10.8546     8.3042     0.1115     0.2764     0.0427     2.4666
  163.0000   128.3132    11.1083    11.0053     8.3193     0.1115     0.2797     0.0337     2.4681
  163.5000   129.8614    11.3428    11.0045     8.3343     0.1091     0.2809     0.0382     2.4733
  164.0000   130.4217    11.3446    11.1571     8.3343     0.1061     0.2794     0.0487     2.4801
  164.5000   130.1205    11.2674    11.1564     8.3343     0.1022     0.2737     0.0547     2.4861
  165.0000   129.8193    11.1143    11.0786     8.3193     0.0988     0.2671     0.0562     2.4891
