~VERSION INFORMATION
 VERS.                2.0:   CWLS LOG ASCII STANDARD - VERSION 2.0
 WRAP.                 NO:   ONE LINE PER DEPTH STEP
~WELL INFORMATION
#MNEM.UNIT      DATA TYPE    INFORMATION
#----------   ------------   ------------------------------
 STRT.F           43.0000:   START DEPTH
 STOP.F          620.0000:   STOP DEPTH
 STEP.F            0.5000:   STEP LENGTH
 NULL.          -999.2500:   NO VALUE
 COMP. FENIX & SCISSON INC:   COMPANY
 WELL.      16 SX 2 #16-2:   WELL
 FLD .             TEAPOT:   FIELD
 LOC .       S2 T38N R78W:   LOCATION
 CNTY.            NATRONA:   COUNTY
 STAT.            WYOMING:   STATE
 CTRY. UNITED STATES OF AMERICA:   COUNTRY
 SRVC.            Unknown:   SERVICE COMPANY
 DATE.        11-OCT-1978:   LOGDATE
 API .       490251071400:   API NUMBER
~CURVE INFORMATION
#MNEM.UNIT       API CODE    CURVE DESCRIPTION
#----------   ------------   ------------------------------
 DEPT.F                  :   
 SPR .MV     05 010 01 00:   SPONTANEOUS POTENTIAL FROM RES.
 SN  .OHMM   05 040 16 00:   SHORT NORMAL 16"
 ILD .OHMM   05 120 46 00:   INDUCTION LOG DEEP
 CALD.IN     45 280 60 00:   CALIPER
 GRD .GAPI   45 310 01 00:   GAMMA RAY FROM DENSITY LOG
 DPHI.DEC    45 890 12 00:   DENSITY POROSITY SANDSTONE
 RHOB.G/C3   45 350 01 00:   BULK DENSITY
 DRHO.G/C3   45 356 01 00:   DENSITY CORRECTION
~PARAMETER INFORMATION
#MNEM.UNIT          VALUE    DESCRIPTION
#----------   ------------   ------------------------------
 PD  .                 GL:   PERMANENT DATUM
 EPD .F              5135:   ELEVATION PERMANENT DATUM
 LMF .                 KB:   LOG MEASURED FROM
 DAPD.F                 4:   FEET ABOVE PERMANENT DATUM
 DMF .                 KB:   DRILLING MEASURED FROM
 EKB .F              5139:   KELLING BUSHING
 EGL .F              5135:   GROUND LEVEL
 DATE.           10-11-78:   RUN DATE
 RUN .                  1:   RUN NUMBER
 DD  .F               620:   DEPTH DRILLER
 DL  .F               620:   DEPTH LOGGER
 BLI .F               614:   BOTTOM LOG INTERVAL
 TLI .F                40:   TOP LOG INTERVAL
 CS  .IN            8.625:   CASING SIZE
 CBD .F                40:   CASING BOTTOM DRILLER
 CBL .F                40:   CASING BOTTOM LOGGER
 BS  .IN            7.875:   BIT SIZE
 BSD .F               620:   BIT SIZE AT DEPTH
 DFT .                KCL:   DRILLING FLUID TYPE
 RMS .OHMM            .16:   RESISTIVITY MUD SAMPLE
 MST .F                66:   MUD SAMPLE TEMPERATURE
 RMF .OHMM            .16:   RESISTIVITY MUD FILTRATE SAMPLE
 MFST.F                70:   MUD FILTRATE SAMPLE TEMPERATURE
 RMC .OHMM             .2:   RESISTIVITY MUD CAKE
 MCST.F                71:   MUD CAKE SAMPLE TEMPERATURE
 TCS .HRS               1:   TIME CURCULATED STOPPED
 MRT .F                70:   MAXIMUM RECORDED TEMPERATURE
 LUN .               2958:   LOGGING UNIT NUMBER
 LUL .               CASP:   LOGGING UNIT LOCATION
 ENGI.             MILLER:   RECORDING ENGINEER
 WITN.              AMEND:   WITNESSED BY
 CLNT.            A2DTECH:   CLIENT CODE
 ORIG.           5" PRINT:   ORIGIN OF DATA
 UWI .       490251071400:   UNIQUE WELL ID
 DICO. A2D Technologies, Inc.:   DIGITIZING COMPANY
~OTHER INFORMATION
~A   DEPT      SPR         SN        ILD       CALD         GRD      DPHI       RHOB       DRHO   
# ...
  407.5000   -26.6473    15.8577    26.8632     7.7970    78.0349     0.1567     2.4083     0.0184
  408.0000   -26.8679    15.6046    25.9186     7.7815    77.7117     0.1676     2.3930     0.0184
  408.5000   -27.0884    15.3556    25.0729     7.7663    78.3076     0.1786     2.3776     0.0184
  409.0000   -27.3090    15.1106    24.2548     7.7256    85.0031     0.1896     2.3623     0.0184
  409.5000   -27.5296    14.8694    23.4634     7.6632    96.4050     0.2006     2.3468     0.0184
  410.0000   -27.7502    14.6321    22.6978     7.6014   102.1757     0.2036     2.3445     0.0184
  410.5000   -27.9707    14.3987    21.9571     7.5518    92.5793     0.1952     2.3750     0.0184
  411.0000   -28.1913    14.1689    21.2407     7.5300    84.5118     0.1797     2.3970     0.0184
  411.5000   -28.4118    13.9428    20.5476     7.5244    78.8549     0.1712     2.4076     0.0184
  412.0000   -28.6324    13.7203    20.0000     7.5322    82.5082     0.1656     2.4138     0.0184
  412.5000   -28.8530    13.5013    19.8165     7.5402    86.5032     0.1600     2.4199     0.0184
  413.0000   -29.0736    13.3114    19.8165     7.5482    90.5179     0.1567     2.4241     0.0185
  413.5000   -29.2944    13.2198    19.8160     7.5562    94.5658     0.1556     2.4223     0.0162
  414.0000   -29.5165    13.1287    19.8165     7.5642    98.3527     0.1619     2.4135     0.0131
  414.5000   -29.6461    13.0383    19.8165     7.5723    91.3917     0.1688     2.4047     0.0099
  415.0000   -29.7376    12.9485    19.8165     7.5804    85.8451     0.1758     2.3958     0.0068
  415.5000   -29.8293    12.8593    19.8165     7.5885    85.1337     0.1795     2.3869     0.0069
  416.0000   -29.9210    12.7707    19.8165     7.5966    87.2704     0.1811     2.3844     0.0083
  416.5000   -30.0129    12.6828    19.8165     7.6047    90.5558     0.1787     2.3891     0.0098
  417.0000   -30.1047    12.5954    19.8165     7.6128    93.8053     0.1754     2.3945     0.0112
  417.5000   -30.1965    12.5087    19.8165     7.6249    97.0886     0.1752     2.3991     0.0126
  418.0000   -30.2883    12.4225    19.8165     7.6585    97.7614     0.1754     2.3980     0.0140
  418.5000   -30.3801    12.3523    19.8165     7.6931    96.6392     0.1755     2.3967     0.0154
  419.0000   -30.4712    12.2955    19.8165     7.6759    96.8843     0.1749     2.3971     0.0169
  419.5000   -30.5568    12.2389    19.8165     7.6451    99.7008     0.1736     2.3987     0.0183
  420.0000   -30.8513    12.1827    19.8165     7.6561   102.2378     0.1724     2.4003     0.0184
  420.5000   -31.1742    12.1267    19.8165     7.6771    97.8604     0.1711     2.4019     0.0158
  421.0000   -31.4984    12.0709    19.8165     7.7001    93.0006     0.1707     2.4029     0.0106
  421.5000   -31.8245    12.0154    19.8165     7.7619    92.2579     0.1707     2.3990     0.0054
  422.0000   -32.1549    11.9602    19.8165     7.8287    92.4457     0.1753     2.3905     0.0002
  422.5000   -32.1278    11.9052    19.8165     7.7507    92.7546     0.1908     2.3699    -0.0024
  423.0000   -32.0751    11.8505    19.8167     7.6421    95.3679     0.2062     2.3496     0.0021
  423.5000   -32.0240    11.7960    19.8202     7.5993    98.0654     0.2078     2.3353     0.0120
  424.0000   -31.9735    11.7418    19.8216     7.5604   100.4521     0.2025     2.3557     0.0226
  424.5000   -31.9230    11.6878    19.5089     7.6282    93.4817     0.1861     2.3784     0.0334
  425.0000   -31.8722    11.6341    19.0550     7.7509    85.3555     0.1698     2.4010     0.0340
  425.5000   -31.8208    11.5806    18.6158     7.7913    83.1753     0.1587     2.4206     0.0308
  426.0000   -31.7789    11.5024    18.1866     7.7812    87.2287     0.1625     2.4155     0.0271
  426.5000   -31.9131    11.5192    17.7625     7.7701    94.2222     0.1662     2.4102     0.0226
  427.0000   -32.0519    11.5508    17.4111     7.7589   101.2527     0.1699     2.4047     0.0196
  427.5000   -32.1899    11.5826    17.4169     7.7478   106.1726     0.1700     2.4070     0.0179
  428.0000   -32.3276    11.6144    17.4169     7.7347   107.8092     0.1669     2.4122     0.0162
  428.5000   -32.4653    11.6463    17.4169     7.7122   101.1652     0.1637     2.4174     0.0145
  429.0000   -32.6032    11.6783    17.4169     7.6900    95.4619     0.1606     2.4227     0.0127
  429.5000   -32.7410    11.7156    17.4169     7.6676    94.0539     0.1582     2.4234     0.0110
  430.0000   -32.8771    11.7010    17.4169     7.6595    93.2502     0.1580     2.4224     0.0093
  430.5000   -32.9595    11.6818    17.4167     7.6593    94.8930     0.1585     2.4213     0.0084
  431.0000   -32.9279    11.6627    17.4165     7.6593    91.1927     0.1603     2.4199     0.0082
  431.5000   -32.8984    11.6437    17.4201     7.6590    87.3296     0.1639     2.4124     0.0080
  432.0000   -32.8686    11.6246    17.2209     7.6713    84.4069     0.1717     2.4006     0.0078
  432.5000   -32.8389    11.6056    17.0356     7.6859    82.7667     0.1794     2.3889     0.0076
  433.0000   -32.8092    11.5866    16.9334     7.6955    82.7849     0.1872     2.3777     0.0074
  433.5000   -32.7795    11.5677    16.9173     7.6213    84.5368     0.1924     2.3704     0.0072
  434.0000   -32.7498    11.5488    16.9009     7.6010    87.1821     0.1915     2.3692     0.0070
  434.5000   -32.7201    11.5299    16.8844     7.6517    91.0484     0.1907     2.3704     0.0068
  435.0000   -32.6904    11.5111    16.8680     7.6981    94.9246     0.1898     2.3716     0.0066
  435.5000   -32.6607    11.4624    16.8516     7.6965    96.9329     0.1888     2.3738     0.0066
  436.0000   -32.6308    11.3890    16.8353     7.6934    96.4052     0.1859     2.3789     0.0069
  436.5000   -32.5999    11.3161    16.8189     7.6904    95.6182     0.1794     2.3883     0.0071
  437.0000   -32.5739    11.2438    16.8026     7.6875    94.8877     0.1730     2.3983     0.0074
  437.5000   -32.7713    11.1719    16.7863     7.6846    91.0864     0.1672     2.4042     0.0077
  438.0000   -32.9885    11.1005    16.6051     7.6817    87.2193     0.1677     2.4060     0.0080
  438.5000   -33.2054    11.0295    16.3097     7.6788    88.1284     0.1682     2.4085     0.0083
  439.0000   -33.4219    10.9590    16.0298     7.6760    88.5563     0.1665     2.4126     0.0091
  439.5000   -33.6374    10.8889    15.9079     7.6730    87.8989     0.1627     2.4160     0.0114
  440.0000   -33.7842    10.8193    15.7914     7.6702    87.3003     0.1652     2.4137     0.0136
  440.5000   -33.8269    10.7501    15.6756     7.6673    89.1486     0.1683     2.4113     0.0158
  441.0000   -33.8711    10.6814    15.5384     7.6644    94.1006     0.1711     2.4089     0.0180
  441.5000   -33.9143    10.6131    15.3463     7.6615    96.5074     0.1672     2.4092     0.0202
  442.0000   -33.9542    10.5452    15.1566     7.6611    96.6814     0.1624     2.4181     0.0225
  442.5000   -34.1202    10.4778    15.0238     7.6691    92.5645     0.1554     2.4271     0.0248
  443.0000   -34.2980    10.4108    15.0101     7.6768    88.4636     0.1483     2.4361     0.0271
  443.5000   -34.4772    10.3834    14.9964     7.6845    86.2744     0.1453     2.4442     0.0294
  444.0000   -34.5935    10.3703    14.9826     7.6923    87.1998     0.1516     2.4397     0.0317
  444.5000   -34.6581    10.3572    14.9690     7.6985    88.6277     0.1561     2.4332     0.0340
  445.0000   -34.7209    10.3441    14.9553     7.6847    93.1685     0.1606     2.4267     0.0363
  445.5000   -34.7713    10.3310    14.9416     7.6709   100.7521     0.1649     2.4201     0.0390
  446.0000   -34.7982    10.3180    14.9279     7.6573   102.5362     0.1614     2.4165     0.0448
  446.5000   -34.8256    10.3049    14.9142     7.6436   102.9555     0.1556     2.4317     0.0506
  447.0000   -34.8529    10.2919    14.9007     7.6366    95.9176     0.1498     2.4470     0.0564
  447.5000   -34.8802    10.2789    14.8903     7.6324    89.1576     0.1450     2.4472     0.0622
