~VERSION INFORMATION
 VERS.                2.0:   CWLS LOG ASCII STANDARD - VERSION 2.0
 WRAP.                 NO:   ONE LINE PER DEPTH STEP
~WELL INFORMATION
#MNEM.UNIT      DATA TYPE    INFORMATION
#----------   ------------   ------------------------------
 STRT.F           34.0000:   START DEPTH
 STOP.F          582.0000:   STOP DEPTH
 STEP.F            0.5000:   STEP LENGTH
 NULL.          -999.2500:   NO VALUE
 COMP. FENIX & SCISSON INC:   COMPANY
 WELL. NPR 3 SX-33 #88-33:   WELL
 FLD .             TEAPOT:   FIELD
 LOC .      S33 T39N R78W:   LOCATION
 CNTY.            NATRONA:   COUNTY
 STAT.            WYOMING:   STATE
 CTRY. UNITED STATES OF AMERICA:   COUNTRY
 SRVC.           BIRDWELL:   SERVICE COMPANY
 DATE.        04-AUG-1978:   LOGDATE
 API .       490251068000:   API NUMBER
~CURVE INFORMATION
#MNEM.UNIT       API CODE    CURVE DESCRIPTION
#----------   ------------   ------------------------------
 DEPT.F                  :   
 SPR .MV     05 010 01 00:   SPONTANEOUS POTENTIAL FROM RES.
 ILD .OHMM   05 120 46 00:   INDUCTION LOG DEEP
 SN  .OHMM   05 040 16 00:   SHORT NORMAL 16"
 CALD.IN     45 280 60 00:   CALIPER
 GRD .GAPI   45 310 01 00:   GAMMA RAY FROM DENSITY LOG
 DEN .G/C3   45 350 01 00:   COMPENSATED BULK DENSTIY
 CORR.G/C3   45 356 01 00:   DENSITY CORRECTION
 DPHI.DEC    45 890 12 00:   DENSITY POROSITY SANDSTONE
~PARAMETER INFORMATION
#MNEM.UNIT          VALUE    DESCRIPTION
#----------   ------------   ------------------------------
 PD  .                 GL:   PERMANENT DATUM
 EPD .F              5146:   ELEVATION PERMANENT DATUM
 LMF .                 KB:   LOG MEASURED FROM
 DAPD.F                 4:   FEET ABOVE PERMANENT DATUM
 DMF .                 KB:   DRILLING MEASURED FROM
 EKB .F              5150:   KELLING BUSHING
 EGL .F              5146:   GROUND LEVEL
 DATE.             8-4-78:   RUN DATE
 RUN .                  1:   RUN NUMBER
 DD  .F               570:   DEPTH DRILLER
 DL  .F               588:   DEPTH LOGGER
 BLI .F               582:   BOTTOM LOG INTERVAL
 TLI .F                50:   TOP LOG INTERVAL
 CS  .IN            8.625:   CASING SIZE
 CBD .F                40:   CASING BOTTOM DRILLER
 BS  .IN            7.875:   BIT SIZE
 BSD .F               570:   BIT SIZE AT DEPTH
 DFT .                KCL:   DRILLING FLUID TYPE
 DFD .                8.7:   DRILLING FLUID DENSITY
 DFV .                 34:   DRILLING FLUID VISCOSITY
 DFPH.                  9:   DRILLING FLUID PH
 DFL .                9.6:   DRILLING FLUID LOSS
 MSS .          FLOW LINE:   MUD SAMPLE SOURCE
 RMS .OHMM            .24:   RESISTIVITY MUD SAMPLE
 MST .F                70:   MUD SAMPLE TEMPERATURE
 RMF .OHMM            .24:   RESISTIVITY MUD FILTRATE SAMPLE
 MFST.F                80:   MUD FILTRATE SAMPLE TEMPERATURE
 RMC .OHMM             .3:   RESISTIVITY MUD CAKE
 MCST.F                75:   MUD CAKE SAMPLE TEMPERATURE
 MFSS.               MEAS:   MUD FILTRATE SAMPLE SOURCE
 TCS .HRS               2:   TIME CURCULATED STOPPED
 LUN .               3006:   LOGGING UNIT NUMBER
 LUL .               CASP:   LOGGING UNIT LOCATION
 ENGI.             MILLER:   RECORDING ENGINEER
 WITN.           MCGINLEY:   WITNESSED BY
 CLNT.            A2DTECH:   CLIENT CODE
 ORIG.        2" 5" PRINT:   ORIGIN OF DATA
 UWI .       490251068000:   UNIQUE WELL ID
 DICO. A2D Technologies, Inc.:   DIGITIZING COMPANY
~OTHER INFORMATION
~A   DEPT      SPR        ILD         SN       CALD         GRD       DEN       CORR       DPHI   
# ...
  236.5000   -24.7095     9.7619     8.8110     7.7034    93.0675     2.4950     0.0463     0.1070
  237.0000   -24.7370    10.0068     8.8395     7.7315    95.2255     2.4986     0.0526     0.1069
  237.5000   -24.7646    10.0445     8.8674     7.7597    95.0214     2.5075     0.0589     0.1017
  238.0000   -24.7881    10.0445     8.8952     7.7877   100.4524     2.5168     0.0650     0.0965
  238.5000   -25.0553    10.0445     8.9232     7.8059    97.0467     2.5195     0.0659     0.0957
  239.0000   -25.4161    10.0445     8.9512     7.7803    98.1678     2.5195     0.0659     0.0966
  239.5000   -25.6038    10.0445     8.9793     7.7582    99.4746     2.5194     0.0657     0.0973
  240.0000   -25.6162    10.0445     9.0076     7.5985    99.0126     2.5210     0.0727     0.0982
  240.5000   -25.6290    10.0445     9.0359     7.4138    97.4675     2.5262     0.0830     0.0949
  241.0000   -25.6412    10.0445     9.0650     7.2489    95.9567     2.5323     0.0944     0.0909
  241.5000   -25.6537    10.0445     9.0790     7.1610    94.8289     2.5384     0.1056     0.0878
  242.0000   -25.6661     9.7348     8.9654     7.0727    97.2204     2.5386     0.1141     0.0901
  242.5000   -25.6786     9.3892     8.8884     6.9846    98.4561     2.5299     0.1058     0.0926
  243.0000   -25.6910     9.0794     8.8251     6.9503    96.8228     2.5214     0.0962     0.1002
  243.5000   -25.7035     9.0685     8.7969     6.9642    95.2369     2.5127     0.0866     0.1087
  244.0000   -25.7160     9.0453     8.7689     6.9856    95.7149     2.5037     0.0769     0.1215
  244.5000   -25.7284     9.0222     8.7409     7.0074   100.5931     2.4768     0.0610     0.1323
  245.0000   -25.7409     8.9992     8.7130     7.0291   101.1218     2.4588     0.0371     0.1345
  245.5000   -25.7533     8.9762     8.6852     7.0508    95.9083     2.4507     0.0333     0.1367
  246.0000   -25.7658     8.9533     8.6575     7.0724    99.7463     2.4487     0.0326     0.1389
  246.5000   -25.7783     8.9305     8.6299     7.0943   100.6021     2.4492     0.0319     0.1251
  247.0000   -25.7907     8.9077     8.6024     7.1262    97.9890     2.4533     0.0369     0.1223
  247.5000   -25.8032     8.8849     8.5749     7.1952    99.1640     2.4713     0.0442     0.1232
  248.0000   -25.8156     8.8623     8.5476     7.2608    99.3237     2.4716     0.0476     0.1240
  248.5000   -25.8281     8.8397     8.5203     7.2942    96.7043     2.4674     0.0404     0.1257
  249.0000   -25.8405     8.8171     8.4931     7.3014    98.8127     2.4632     0.0334     0.1286
  249.5000   -25.8530     8.7946     8.4659     7.3070    95.8428     2.4590     0.0292     0.1337
  250.0000   -25.8655     8.7722     8.4366     7.3705    93.1071     2.4587     0.0277     0.1345
  250.5000   -25.8779     8.7541     8.4036     7.4542    96.1725     2.4590     0.0262     0.1331
  251.0000   -25.8904     8.7962     8.3676     7.5320    98.5184     2.4594     0.0247     0.1305
  251.5000   -25.9028     8.8367     8.3317     7.5172    99.7702     2.4616     0.0245     0.1226
  252.0000   -25.9153     8.8774     8.2959     7.5204    98.3172     2.4742     0.0254     0.1135
  252.5000   -25.9278     8.9183     8.2603     7.6118    98.3139     2.5040     0.0392     0.1070
  253.0000   -25.9402     8.9593     8.2248     7.7049    98.3607     2.5025     0.0477     0.1065
  253.5000   -25.9527     8.9931     8.1259     7.7493    96.2693     2.4978     0.0459     0.1078
  254.0000   -25.9652     8.6830     7.9658     7.7578    98.3122     2.4927     0.0438     0.1134
  254.5000   -25.9775     8.4065     7.8089     7.7665    94.0779     2.4931     0.0428     0.1072
  255.0000   -25.9902     8.1390     7.6550     7.7750    92.8779     2.4977     0.0500     0.1046
  255.5000   -25.9653     7.8802     7.5040     7.7836    94.0789     2.5026     0.0572     0.1130
  256.0000   -25.9070     7.6297     7.3562     7.7922    94.0171     2.4900     0.0617     0.1264
  256.5000   -25.8484     7.4870     7.2833     7.8009    91.7965     2.4673     0.0478     0.1293
  257.0000   -25.7684     7.4870     7.2833     7.8095    91.4803     2.4645     0.0363     0.1211
  257.5000   -25.5560     7.4870     7.2833     7.8008    93.8840     2.4688     0.0391     0.1173
  258.0000   -25.3441     7.4866     7.2834     7.7907    94.5931     2.4787     0.0447     0.1210
  258.5000   -25.1968     7.4865     7.3718     7.7807    95.1447     2.4753     0.0419     0.1234
  259.0000   -25.1996     7.6749     7.4712     7.7706    97.0127     2.4706     0.0302     0.1224
  259.5000   -25.1991     7.8894     7.5721     7.7606    95.8583     2.4727     0.0279     0.1212
  260.0000   -25.1992     8.1097     7.6741     7.7506    94.6812     2.4746     0.0280     0.1246
  260.5000   -25.1992     8.1321     7.7663     7.7406    94.1551     2.4720     0.0302     0.1258
  261.0000   -25.1992     8.1115     7.7571     7.7305    94.0354     2.4692     0.0325     0.1202
  261.5000   -25.1992     8.0956     7.7480     7.7203    93.9358     2.4733     0.0348     0.1168
  262.0000   -25.1992     8.0798     7.7389     7.7103    93.2641     2.4766     0.0371     0.1160
  262.5000   -25.1992     8.0641     7.7298     7.7170    92.6946     2.4772     0.0395     0.1186
  263.0000   -25.1992     8.0483     7.7207     7.7676    92.8332     2.4776     0.0386     0.1234
  263.5000   -25.1992     8.0326     7.7116     7.8186    93.9590     2.4748     0.0365     0.1240
  264.0000   -25.1992     8.0169     7.7028     7.8719    95.8598     2.4718     0.0343     0.1228
  264.5000   -25.1992     8.0013     7.6732     7.8704    98.7545     2.4725     0.0364     0.1196
  265.0000   -25.1992     7.9857     7.5947     7.8714    99.4791     2.4771     0.0402     0.1171
  265.5000   -25.1992     7.7598     7.4114     7.8319    96.3404     2.4818     0.0441     0.1158
  266.0000   -25.1992     7.5179     7.1304     7.7828    95.0753     2.4846     0.0483     0.1158
  266.5000   -25.1992     7.2836     6.8599     7.5996    92.9261     2.4851     0.0598     0.1147
  267.0000   -25.1992     7.0566     6.5997     7.4176    92.3270     2.4857     0.0684     0.1147
  267.5000   -25.1992     6.8362     6.4403     7.2356    95.6522     2.4862     0.0754     0.1158
  268.0000   -25.1992     6.6442     6.3231     7.0523    91.5759     2.4938     0.0703     0.1062
  268.5000   -25.1992     6.5834     6.2481     6.9888    90.9806     2.5000     0.0816     0.1167
  269.0000   -25.1992     6.5838     6.1768     6.9968    94.4235     2.4841     0.0859     0.1214
  269.5000   -25.1990     6.6169     6.1933     7.0175    91.6985     2.4696     0.0698     0.1212
  270.0000   -25.1883     6.7283     6.2217     7.0376    90.5494     2.4710     0.0518     0.1207
  270.5000   -25.1587     6.8455     6.3995     7.0577    93.3669     2.4734     0.0398     0.1205
  271.0000   -25.1294     7.0619     6.6495     7.0776    93.1093     2.4707     0.0389     0.1264
  271.5000   -25.1000     7.2778     6.8971     7.1139    92.6247     2.4673     0.0419     0.1287
  272.0000   -25.0706     7.5001     7.1252     7.1997   100.1869     2.4647     0.0503     0.1248
  272.5000   -25.0414     7.7291     7.3606     7.2914    98.5054     2.4723     0.0584     0.1192
  273.0000   -25.0112     7.9652     7.6040     7.3667    95.4871     2.4752     0.0658     0.1190
  273.5000   -25.0461     8.2089     7.8553     7.4386    94.7786     2.4740     0.0632     0.1230
  274.0000   -25.1222     8.3193     8.0578     7.5072    95.1528     2.4745     0.0593     0.1198
  274.5000   -25.1990     8.3708     8.1321     7.5371    95.5437     2.4915     0.0555     0.1149
  275.0000   -25.2758     8.4228     8.2099     7.5699    95.5512     2.4911     0.0512     0.1138
  275.5000   -25.3526     8.4752     8.2383     7.6027    95.2330     2.4800     0.0365     0.1190
  276.0000   -25.4293     8.5279     8.2667     7.6342    96.6140     2.4732     0.0224     0.1234
  276.5000   -25.5065     8.5810     8.2952     7.7446    97.9432     2.4726     0.0096     0.1224
