~VERSION INFORMATION
 VERS.                2.0:   CWLS LOG ASCII STANDARD - VERSION 2.0
 WRAP.                 NO:   ONE LINE PER DEPTH STEP
~WELL INFORMATION
#MNEM.UNIT      DATA TYPE    INFORMATION
#----------   ------------   ------------------------------
 STRT.F            7.0000:   START DEPTH
 STOP.F          549.0000:   STOP DEPTH
 STEP.F            0.5000:   STEP LENGTH
 NULL.          -999.2500:   NO VALUE
 COMP. LAWRENCE-ALLISON &AS:   COMPANY
 WELL. NPR 3 #51-62-SX-10-LP3:   WELL
 FLD .             TEAPOT:   FIELD
 LOC .      S10 T38N R78W:   LOCATION
 CNTY.            NATRONA:   COUNTY
 STAT.            WYOMING:   STATE
 CTRY. UNITED STATES OF AMERICA:   COUNTRY
 SRVC.      Dresser Atlas:   SERVICE COMPANY
 DATE.        10-DEC-1984:   LOGDATE
 API .       490251099500:   API NUMBER
~CURVE INFORMATION
#MNEM.UNIT       API CODE    CURVE DESCRIPTION
#----------   ------------   ------------------------------
 DEPT.F                  :   
 SPR .MV     07 010 01 00:   SPONTANEOUS POTENTIAL
 RILD.OHMM   07 120 46 00:   INDUCTION LOG DEEP RESISTIVITY
 RILM.OHMM   07 120 44 00:   INDUCTION LOG MEDIUM RESISTIVITY
 RFOC.OHMM   07 220 04 00:   RESISTIVITY FOCUSED LOG
 DT  .US/F   60 520 00 00:   INTERVAL TRANSIT TIME
 PORD.DEC    45 890 12 00:   POROSITY DENSITY SANDSTONE
 CNCF.DEC    42 890 03 00:   NEUTRON POROSITY SANDSTONE
 CALD.IN     45 280 60 00:   CALIPER FROM DENSITY LOG
 GRD .GAPI   45 310 01 00:   GAMMA RAY FROM DENSITY LOG
 CORR.G/C3   45 356 01 00:   DENSITY CORRECTION
 DEN .G/C3   45 350 01 00:   COMPENSATED BULK DENSTIY
~PARAMETER INFORMATION
#MNEM.UNIT          VALUE    DESCRIPTION
#----------   ------------   ------------------------------
 PD  .                 GL:   PERMANENT DATUM
 EPD .F              5179:   ELEVATION PERMANENT DATUM
 LMF .                 GL:   LOG MEASURED FROM
 DMF .                 GL:   DRILLING MEASURED FROM
 EGL .F              5179:   GROUND LEVEL
 DATE.        10-DEC-1984:   RUN DATE
 RUN .                  1:   RUN NUMBER
 DD  .F               554:   DEPTH DRILLER
 DL  .F               551:   DEPTH LOGGER
 BLI .F               549:   BOTTOM LOG INTERVAL
 TLI .F                20:   TOP LOG INTERVAL
 CS  .IN            8.625:   CASING SIZE
 CBD .F                20:   CASING BOTTOM DRILLER
 CBL .F                20:   CASING BOTTOM LOGGER
 BS  .IN            7.875:   BIT SIZE
 BSD .F               554:   BIT SIZE AT DEPTH
 DFT .         KCL- WATER:   DRILLING FLUID TYPE
 MSS .           MUD TANK:   MUD SAMPLE SOURCE
 RMS .OHMM           .168:   RESISTIVITY MUD SAMPLE
 MST .F                77:   MUD SAMPLE TEMPERATURE
 RMF .OHMM           .126:   RESISTIVITY MUD FILTRATE SAMPLE
 MFST.F                77:   MUD FILTRATE SAMPLE TEMPERATURE
 RMC .OHMM            .21:   RESISTIVITY MUD CAKE
 MCST.F                77:   MUD CAKE SAMPLE TEMPERATURE
 MFSS.               CALC:   MUD FILTRATE SAMPLE SOURCE
 MCSS.               CALC:   MUD CAKE SAMPLE SOURCE
 RMB .OHMM            .15:   RESISTIVITY MUD AT BHT
 BHT .F                85:   BOTTOM HOLE TEMPERATURE
 TCS .HRS             3.5:   TIME CURCULATED STOPPED
 MRT .F               100:   MAXIMUM RECORDED TEMPERATURE
 LUN .               6270:   LOGGING UNIT NUMBER
 LUL .                 FM:   LOGGING UNIT LOCATION
 ENGI.          E. GOVETT:   RECORDING ENGINEER
 WITN.             GROOMS:   WITNESSED BY
 CLNT.            A2DTECH:   CLIENT CODE
 ORIG.           5" PRINT:   ORIGIN OF DATA
 UWI .       490251099500:   UNIQUE WELL ID
 DICO. A2D Technologies, Inc.:   DIGITIZING COMPANY
~OTHER INFORMATION
~A    DEPT     SPR       RILD       RILM       RFOC         DT       PORD         CNCF     CALD        GRD       CORR        DEN   
# ...
   37.5000   -82.3069     6.8140     6.8252     6.8968  -999.2500     0.1756     0.0451     7.5852   180.4135     0.0177     2.3845
   38.0000   -78.7417     6.8186     6.9232     6.9000  -999.2500     0.1756     0.0451     7.5554   175.4457     0.0116     2.3838
   38.5000   -71.9124     6.8232     7.0222     6.9512  -999.2500     0.1744     0.0463     7.5560   172.2834     0.0161     2.3837
   39.0000   -69.2374     6.8753     7.1721     7.0534  -999.2500     0.1732     0.0476     7.5564   164.9105     0.0221     2.3845
   39.5000   -67.5739     7.0244     7.2244     7.2036  -999.2500     0.1717     0.0485     7.5870   160.0940     0.0235     2.3875
   40.0000   -61.7116     7.2266     7.3276     7.3075  -999.2500     0.1702     0.0491     7.6176   153.9241     0.0114     2.3905
   40.5000   -56.2488     7.4346     7.4324     7.4128  -999.2500     0.1715     0.0488     7.6331   154.0712    -0.0218     2.3905
   41.0000   -54.9525     7.5994     7.5386     7.5197  -999.2500     0.1742     0.0485     7.6635   152.8626    -0.0204     2.3875
   41.5000   -53.6356     7.7155     7.5936     7.6281  -999.2500     0.1769     0.0482     7.6188   150.3017    -0.0024     2.3829
   42.0000   -54.8182     7.8211     7.7022     7.6848  -999.2500     0.1808     0.0482     7.5891   146.8386     0.0006     2.3724
   42.5000   -56.5942     7.8808     7.8123     7.7426  -999.2500     0.1805     0.0479     7.5896   147.2853    -0.0070     2.3724
   43.0000   -57.0360     7.8861     7.7610     7.8000  -999.2500     0.1745     0.0473     7.5900   148.6342    -0.0086     2.3844
   43.5000   -57.3283     7.8914     7.7637     7.8578  -999.2500     0.1703     0.0470     7.5905   151.6373    -0.0086     2.3935
   44.0000   -57.4712     7.8968     7.8203     7.8615  -999.2500     0.1721     0.0464     7.5909   158.7005    -0.0132     2.3904
   44.5000   -57.4668     7.9021     7.8774     7.8651  -999.2500     0.1791     0.0458     7.5914   174.9366    -0.0193     2.3784
   45.0000   -57.6119     7.9075     7.9348     7.8154  -999.2500     0.1813     0.0467     7.5919   165.1577    -0.0254     2.3739
   45.5000   -57.7558     8.0232     7.9376     7.8733  -999.2500     0.1842     0.0485     7.5923   156.4315    -0.0330     2.3693
   46.0000   -57.7503     8.0286     7.9403     7.9317  -999.2500     0.1830     0.0498     7.5777   133.4187    -0.0452     2.3686
   46.5000   -57.4492     8.1462     7.9982     7.9906  -999.2500     0.1785     0.0498     7.5631   124.2414    -0.0371     2.3746
   47.0000   -56.9997     8.2085     8.0010     8.1621  -999.2500     0.1710     0.0495     7.5635   123.1843    -0.0317     2.3912
   47.5000   -56.5502     8.2723     8.0037     8.3374  -999.2500     0.1665     0.0489     7.5791   121.3753    -0.0270     2.3987
   48.0000   -56.2491     7.9410     7.8963     8.0582  -999.2500     0.1674     0.0477     7.5795   121.3708    -0.0236     2.3994
   48.5000   -56.0963     7.5704     7.0218     6.6409  -999.2500     0.1698     0.0468     7.5649   122.5694    -0.0138     2.3941
   49.0000   -56.0919     7.2672     6.2010     5.5110  -999.2500     0.1747     0.0456     7.5654   124.6702     0.0073     2.3904
   49.5000   -56.2360     7.1226     5.5525     5.2526  -999.2500     0.1822     0.0447     7.5658   125.7184     0.0313     2.3693
   50.0000   -55.9347     7.0294     5.3284     5.1115  -999.2500     0.1940     0.0453     7.5512   122.5560     0.0162     2.3451
   50.5000   -55.1885     6.8418     5.9552     8.6571  -999.2500     0.1974     0.0483     7.5500   121.1982     0.0161     2.3451
   51.0000   -55.4945     6.6244     6.1670    38.6543  -999.2500     0.1985     0.0671     7.5488   116.9832     0.0266     2.3451
   51.5000   -56.0905     6.4070     6.2986    12.9482  -999.2500     0.1979     0.0986     7.5475   111.1141     0.0340     2.3511
   52.0000   -56.5106     6.2970     6.3444     8.8511  -999.2500     0.1895     0.2085     7.5614   105.5457     0.0128     2.3691
   52.5000   -56.8029     6.2986     6.3027     9.3597  -999.2500     0.1823     0.2933     7.5903   101.9088    -0.0038     2.3721
   53.0000   -56.9469     6.5218     6.3487    10.1869  -999.2500     0.1823     0.2985     7.5590    98.2909    -0.0220     2.3713
   53.5000   -56.9414     6.7529     6.5296    10.6133  -999.2500     0.1817     0.3036     7.5579    98.2820    -0.0402     2.3720
   54.0000   -56.3435     6.8484     6.7153    12.1955  -999.2500     0.1763     0.3212     7.5567   100.6791    -0.0404     2.3833
   54.5000   -55.5973     7.0911     6.9061    12.9858  -999.2500     0.1534     0.3272     7.5554   101.8754    -0.0193     2.4143
   55.0000   -54.5543     7.2985     7.0048    12.9919  -999.2500     0.1395     0.3248     7.5540   101.2628     0.0093     2.4468
   55.5000   -53.8081     7.4984     7.1587    12.9979  -999.2500     0.1305     0.3094     7.5682   101.1035     0.0380     2.4616
   56.0000   -52.7651     7.7106     7.4093    13.1091   138.5543     0.1284     0.2955     7.5820    98.8389     0.0514     2.4662
   56.5000   -52.0189     7.9287     7.5673    13.4699   128.5401     0.1263     0.2931     7.5959    94.9203     0.0527     2.4682
   57.0000   -51.8672     8.0409     7.6754    13.5698   118.5258     0.1260     0.3034     7.6098    95.2320     0.0496     2.4682
   57.5000   -53.0486     8.1546     7.7850    13.8611   109.3758     0.1257     0.3182     7.6083    99.3258     0.0495     2.4704
   58.0000   -54.9730     8.2704     7.8417    14.7593   106.1412     0.1233     0.3188     7.6071   101.6102     0.0328     2.4772
   58.5000   -56.1556     8.3296     7.8995    14.9721   109.3728     0.1164     0.3097     7.6059   103.4831     0.0192     2.4839
   59.0000   -56.4481     8.4474     7.9021    14.3711   115.2109     0.1173     0.3094     7.6348   104.7983     0.0010     2.4824
   59.5000   -56.4435     8.5078     7.8502    14.1783   127.9304     0.1192     0.3116     7.6337   105.5435    -0.0021     2.4763
   60.0000   -56.4391     8.5686     7.8528    14.3844   139.5941     0.1210     0.3188     7.6478   100.4196     0.0038     2.4763
   60.5000   -56.5831     8.5112     7.8554    15.0016   139.5364     0.1210     0.3067     7.6463   101.7640     0.0128     2.4770
   61.0000   -56.7309     8.4541     7.9132    15.5374   139.4832     0.1222     0.3007     7.6452   102.3589     0.0263     2.4754
   61.5000   -57.0302     8.3975     7.7720    16.5605   134.4014     0.1246     0.3049     7.6440   102.6485     0.0412     2.4701
   62.0000   -57.4777     8.3995     7.5964    17.0188   124.0243     0.1303     0.3004     7.6428    99.3313     0.0366     2.4610
   62.5000   -58.2220     8.3428     7.4944    13.5482   132.9698     0.1337     0.2986     7.6265    97.3675     0.0245     2.4557
   63.0000   -59.2306     8.3449     7.4445    12.0491   134.6228     0.1349     0.3056     7.6253    96.1556     0.0138     2.4534
   63.5000   -59.8197     8.2894     7.4476    11.4843   126.7883     0.1355     0.3174     7.5937    96.8985     0.0077     2.4511
   64.0000   -60.1131     8.2910     7.3986    11.2503   112.9652     0.1403     0.3171     7.5925   100.5009     0.0076     2.4466
   64.5000   -60.2571     8.2350     7.2489    10.9523   110.1818     0.1418     0.2926     7.5914   100.3394     0.0136     2.4405
   65.0000   -60.4010     8.2371     7.2012    10.8818   109.8795     0.1442     0.2901     7.5902   100.7816     0.0135     2.4375
   65.5000   -60.3955     8.2387     7.3047    10.8104   109.5773     0.1476     0.2969     7.5890   102.2764     0.0119     2.4314
   66.0000   -60.2428     8.2976     7.3071    10.7408   108.2976     0.1512     0.3083     7.5878   101.8164    -0.0168     2.4253
   66.5000   -60.2384     8.4739     7.4115    10.8217   107.1683     0.1503     0.3365     7.5866    98.0481    -0.0199     2.4313
   67.0000   -60.0856     8.5938     7.6223    10.7520   105.9637     0.1467     0.3528     7.5854    96.9865    -0.0215     2.4365
   67.5000   -59.9328     8.8369     7.8940    10.7583   105.2856     0.1416     0.3432     7.5842    98.0552    -0.0171     2.4434
