~VERSION INFORMATION
 VERS.                2.0:   CWLS LOG ASCII STANDARD - VERSION 2.0
 WRAP.                 NO:   ONE LINE PER DEPTH STEP
~WELL INFORMATION
#MNEM.UNIT      DATA TYPE    INFORMATION
#----------   ------------   ------------------------------
 STRT.F            0.0000:   START DEPTH
 STOP.F          551.0000:   STOP DEPTH
 STEP.F            0.1000:   STEP LENGTH
 NULL.          -999.2500:   NO VALUE
 COMP.       F D SERV INC:   COMPANY
 WELL.    62-2 SX-3 #62-3:   WELL
 FLD .          N.P.R. #3:   FIELD
 LOC .       S3 T38N R78W:   LOCATION
 CNTY.            NATRONA:   COUNTY
 STAT.            WYOMING:   STATE
 CTRY. UNITED STATES OF AMERICA:   COUNTRY
 SRVC.     Atlas Wireline:   SERVICE COMPANY
 DATE.        17-APR-1992:   LOGDATE
 API .       490252250700:   API NUMBER
~CURVE INFORMATION
#MNEM.UNIT       API CODE    CURVE DESCRIPTION
#----------   ------------   ------------------------------
 DEPT.F                  :   
 GRR .GAPI   07 310 01 00:   GAMMA RAY
 RILD.OHMM   07 120 46 00:   INDUCTION LOG DEEP RESISTIVITY
 RILM.OHMM   07 120 44 00:   INDUCTION LOG MEDIUM RESISTIVITY
~PARAMETER INFORMATION
#MNEM.UNIT          VALUE    DESCRIPTION
#----------   ------------   ------------------------------
 PD  .                 GL:   PERMANENT DATUM
 EPD .F              5130:   ELEVATION PERMANENT DATUM
 LMF .                 KB:   LOG MEASURED FROM
 DAPD.F                 5:   FEET ABOVE PERMANENT DATUM
 DMF .                 KB:   DRILLING MEASURED FROM
 EKB .F              5135:   KELLING BUSHING
 EDF .F              5134:   DRILLING FLOOR
 EGL .F              5130:   GROUND LEVEL
 DATE.        17-APR-1992:   RUN DATE
 RUN .                  1:   RUN NUMBER
 DD  .F               560:   DEPTH DRILLER
 DL  .F               560:   DEPTH LOGGER
 BLI .F               558:   BOTTOM LOG INTERVAL
 CS  .IN            8.625:   CASING SIZE
 CBD .F                47:   CASING BOTTOM DRILLER
 CBL .F                50:   CASING BOTTOM LOGGER
 BS  .IN            7.875:   BIT SIZE
 BSD .F               560:   BIT SIZE AT DEPTH
 DFT .                AIR:   DRILLING FLUID TYPE
 TCS .HRS               2:   TIME CURCULATED STOPPED
 MRT .F                83:   MAXIMUM RECORDED TEMPERATURE
 LUN .           HL- 6274:   LOGGING UNIT NUMBER
 LUL .             CASPER:   LOGGING UNIT LOCATION
 ENGI.            LEBSOCK:   RECORDING ENGINEER
 WITN.        GARY STRONG:   WITNESSED BY
 CLNT.            A2DTECH:   CLIENT CODE
 ORIG.           5" PRINT:   ORIGIN OF DATA
 UWI .       490252250700:   UNIQUE WELL ID
 DICO. A2D Technologies, Inc.:   DIGITIZING COMPANY
~OTHER INFORMATION
~A    DEPT      GRR      RILD       RILM   
# ...
  127.4000   139.4695     8.8919     8.8297
  127.5000   138.5426     8.8527     8.8000
  127.6000   137.4960     8.8529     8.7682
  127.7000   136.7617     8.8029     8.7682
  127.8000   135.9568     8.7914     8.7682
  127.9000   135.5158     8.7646     8.7234
  128.0000   135.0277     8.7303     8.7072
  128.1000   134.6483     8.7304     8.7072
  128.2000   134.4060     8.7306     8.6967
  128.3000   134.1592     8.7307     8.6465
  128.4000   134.4041     8.6998     8.5985
  128.5000   135.0227     8.6505     8.5863
  128.6000   135.6359     8.6097     8.5610
  128.7000   136.2024     8.6098     8.5125
  128.8000   136.9149     8.5639     8.4671
  128.9000   137.2073     8.5154     8.4671
  129.0000   137.8216     8.4905     8.4274
  129.1000   138.4156     8.4906     8.3797
  129.2000   138.9110     8.4895     8.3323
  129.3000   139.4065     8.4414     8.2915
  129.4000   139.9483     8.3936     8.2915
  129.5000   140.1744     8.3730     8.2489
  129.6000   140.4239     8.3570     8.2022
  129.7000   140.5640     8.3096     8.1764
  129.8000   140.5676     8.2570     8.1665
  129.9000   140.5713     8.2571     8.1195
  130.0000   140.5749     8.2573     8.1195
  130.1000   140.5785     8.2574     8.1195
  130.2000   140.5821     8.2575     8.1195
  130.3000   140.5138     8.2576     8.1060
  130.4000   140.2563     8.2123     8.0629
  130.5000   139.6859     8.2003     8.0629
  130.6000   139.4844     8.2003     8.0629
  130.7000   139.3900     8.2004     8.0629
  130.8000   139.3024     8.2006     8.0629
  130.9000   139.0258     8.2007     8.0629
  131.0000   138.4935     8.1623     8.0629
  131.1000   138.2731     8.1437     8.0629
  131.2000   138.0308     8.1438     8.0629
  131.3000   137.6782     8.1439     8.0424
  131.4000   137.2438     8.1441     8.0068
  131.5000   136.9985     8.1442     8.0068
  131.6000   136.2736     8.1443     8.0068
  131.7000   135.9118     8.1444     8.0068
  131.8000   135.4105     8.1445     8.0068
  131.9000   134.8222     8.1446     8.0068
  132.0000   134.5958     8.1448     8.0068
  132.1000   134.6003     8.1449     8.0068
  132.2000   134.6033     8.1450     8.0068
  132.3000   134.7557     8.1451     8.0068
  132.4000   135.0052     8.1452     8.0068
  132.5000   135.2547     8.1453     8.0068
  132.6000   135.5259     8.1454     8.0068
  132.7000   135.7538     8.1456     8.0068
  132.8000   135.8354     8.1643     8.0068
  132.9000   135.9502     8.2030     8.0068
  133.0000   136.1998     8.2031     8.0068
  133.1000   136.4515     8.2033     8.0068
  133.2000   136.6986     8.2034     8.0068
  133.3000   136.9483     8.2034     8.0128
  133.4000   136.9371     8.2156     8.0206
  133.5000   136.6948     8.2613     8.0284
  133.6000   136.4526     8.2614     8.0362
  133.7000   136.1712     8.2615     8.0441
  133.8000   135.9681     8.2616     8.0519
  133.9000   135.5765     8.2618     8.0597
  134.0000   135.1811     8.2673     8.0676
  134.1000   134.9387     8.3200     8.0754
  134.2000   134.6763     8.3201     8.0832
  134.3000   134.0036     8.3203     8.0910
  134.4000   133.4382     8.3408     8.0989
  134.5000   132.8382     8.3789     8.1067
  134.6000   132.2146     8.3790     8.1145
  134.7000   131.9710     8.4257     8.1224
  134.8000   132.2191     8.4381     8.1302
  134.9000   132.2808     8.4631     8.1380
  135.0000   132.5467     8.4976     8.1459
  135.1000   133.0421     8.4977     8.1537
  135.2000   133.5551     8.4979     8.1615
  135.3000   134.4139     8.4980     8.1693
  135.4000   134.8309     8.5273     8.1772
  135.5000   135.3263     8.5579     8.1850
  135.6000   135.9154     8.5651     8.1928
  135.7000   136.5827     8.6183     8.2007
  135.8000   136.8523     8.6184     8.2085
  135.9000   137.0818     8.6524     8.2163
  136.0000   137.5009     8.6791     8.2242
  136.1000   137.8835     8.6906     8.2320
  136.2000   138.1890     8.7403     8.2337
  136.3000   138.6856     8.7405     8.2337
  136.4000   139.1798     8.7406     8.2806
  136.5000   139.6751     8.7679     8.2915
  136.6000   140.0387     8.8022     8.3168
  136.7000   140.3635     8.8067     8.3496
  136.8000   140.8218     8.8643     8.3496
  136.9000   140.8260     8.8644     8.3496
  137.0000   141.0367     8.8965     8.3898
  137.1000   141.1352     8.9269     8.4082
  137.2000   141.0445     8.9359     8.4266
  137.3000   140.8023     8.9899     8.4671
  137.4000   140.5413     8.9900     8.4671
  137.5000   140.0909     8.9901     8.5116
  137.6000   139.7729     8.9902     8.5265
  137.7000   139.4170     8.9903     8.5489
  137.8000   138.9290     8.9921     8.5863
  137.9000   138.4404     9.0538     8.5863
  138.0000   137.7066     9.0539     8.5863
  138.1000   137.3513     9.0837     8.6240
  138.2000   136.8436     9.1178     8.6465
  138.3000   136.1096     9.1179     8.6617
  138.4000   135.3948     9.1180     8.7072
  138.5000   134.8326     9.1644     8.7072
  138.6000   134.2099     9.1823     8.7072
  138.7000   133.7798     9.2051     8.7378
  138.8000   133.5375     9.2470     8.7875
  138.9000   133.3332     9.2472     8.8297
  139.0000   133.3376     9.2473     8.8297
  139.1000   133.5688     9.2474     8.8297
  139.2000   133.8183     9.2749     8.8297
  139.3000   134.1822     9.3126     8.8531
  139.4000   134.6777     9.3128     8.8916
  139.5000   135.1729     9.3129     8.8918
  139.6000   135.6681     9.3130     8.9425
  139.7000   136.1637     9.3131     8.9540
  139.8000   136.6593     9.3133     8.9540
  139.9000   137.0779     9.3134     8.9700
  140.0000   137.3474     9.3136     9.0168
  140.1000   137.9164     9.3137     9.0168
  140.2000   138.1289     9.3138     9.0168
  140.3000   138.3784     9.3139     9.0168
  140.4000   138.5319     9.3140     9.0168
  140.5000   138.4962     9.3142     9.0168
  140.6000   138.2369     9.2612     9.0168
  140.7000   137.7832     9.2495     9.0168
  140.8000   137.4669     9.2496     9.0168
  140.9000   137.2247     9.2498     8.9929
  141.0000   136.9238     9.2499     8.9540
  141.1000   136.4359     9.2500     8.9540
  141.2000   135.9475     9.2049     8.9540
  141.3000   135.4594     9.1858     8.9146
  141.4000   135.1056     9.1647     8.8916
  141.5000   134.7856     9.1219     8.8916
  141.6000   134.2977     9.1221     8.8873
  141.7000   133.7385     9.1222     8.8297
  141.8000   133.3213     9.0851     8.8297
  141.9000   132.8331     9.0588     8.8297
  142.0000   132.4417     9.0455     8.8297
  142.1000   132.1193     8.9959     8.8215
  142.2000   131.3358     8.9961     8.7682
  142.3000   130.8805     8.9962     8.7220
  142.4000   130.3923     8.9963     8.7072
  142.5000   130.0201     8.9964     8.6839
  142.6000   129.7186     8.9904     8.6465
  142.7000   129.2330     8.9339     8.6460
  142.8000   128.9909     8.9340     8.5971
  142.9000   128.7486     8.9005     8.5863
  143.0000   128.6415     8.8720     8.5863
  143.1000   128.5666     8.8721     8.5863
  143.2000   128.3458     8.8722     8.5863
  143.3000   128.3503     8.8231     8.5863
  143.4000   128.3534     8.8106     8.5446
  143.5000   128.3570     8.8107     8.5265
  143.6000   128.4583     8.8108     8.5073
  143.7000   128.7079     8.8110     8.4671
  143.8000   128.9733     8.8111     8.4671
  143.9000   129.2069     8.8112     8.4671
  144.0000   129.6300     8.8113     8.4333
  144.1000   130.0085     8.8115     8.4082
  144.2000   130.2579     8.8116     8.4082
  144.3000   130.5075     8.8117     8.4082
  144.4000   130.7572     8.8118     8.4082
  144.5000   130.8139     8.7774     8.4082
  144.6000   130.9535     8.7506     8.4082
  144.7000   131.1238     8.7507     8.4082
  144.8000   131.1500     8.7509     8.4082
  144.9000   131.4341     8.7510     8.4082
  145.0000   131.6490     8.7511     8.4082
  145.1000   132.0536     8.7512     8.4082
  145.2000   132.5490     8.7514     8.4082
  145.3000   133.0863     8.7562     8.4082
  145.4000   133.8725     8.8131     8.4082
  145.5000   134.7999     8.8132     8.4532
