~VERSION INFORMATION
 VERS.                2.0:   CWLS LOG ASCII STANDARD - VERSION 2.0
 WRAP.                 NO:   ONE LINE PER DEPTH STEP
~WELL INFORMATION
#MNEM.UNIT      DATA TYPE    INFORMATION
#----------   ------------   ------------------------------
 STRT.F            7.0000:   START DEPTH
 STOP.F          480.0000:   STOP DEPTH
 STEP.F            0.1000:   STEP LENGTH
 NULL.          -999.2500:   NO VALUE
 COMP.       F D SERV INC:   COMPANY
 WELL.    67-2 SX-3 #67-3:   WELL
 FLD .          N.P.R. #3:   FIELD
 LOC .       S3 T38N R78W:   LOCATION
 CNTY.            NATRONA:   COUNTY
 STAT.            WYOMING:   STATE
 CTRY. UNITED STATES OF AMERICA:   COUNTRY
 SRVC.     Atlas Wireline:   SERVICE COMPANY
 DATE.        12-FEB-1992:   LOGDATE
 API .       490252250400:   API NUMBER
~CURVE INFORMATION
#MNEM.UNIT       API CODE    CURVE DESCRIPTION
#----------   ------------   ------------------------------
 DEPT.F                  :   
 SPR .MV     07 010 01 00:   SPONTANEOUS POTENTIAL
 GRR .GAPI   07 310 01 00:   GAMMA RAY
 RILD.OHMM   07 120 46 00:   INDUCTION LOG DEEP RESISTIVITY
 RILM.OHMM   07 120 44 00:   INDUCTION LOG MEDIUM RESISTIVITY
 RFOC.OHMM   07 220 04 00:   RESISTIVITY FOCUSED LOG
~PARAMETER INFORMATION
#MNEM.UNIT          VALUE    DESCRIPTION
#----------   ------------   ------------------------------
 PD  .                 GL:   PERMANENT DATUM
 EPD .F              5165:   ELEVATION PERMANENT DATUM
 LMF .                 KB:   LOG MEASURED FROM
 DAPD.F                10:   FEET ABOVE PERMANENT DATUM
 DMF .                 KB:   DRILLING MEASURED FROM
 EKB .F              5175:   KELLING BUSHING
 EDF .F              5174:   DRILLING FLOOR
 EGL .F              5165:   GROUND LEVEL
 DATE.        12-FEB-1992:   RUN DATE
 RUN .                  1:   RUN NUMBER
 DD  .F               487:   DEPTH DRILLER
 DL  .F               485:   DEPTH LOGGER
 BLI .F               482:   BOTTOM LOG INTERVAL
 CS  .IN            8.625:   CASING SIZE
 CBD .F               183:   CASING BOTTOM DRILLER
 CBL .F               186:   CASING BOTTOM LOGGER
 BS  .IN            7.875:   BIT SIZE
 BSD .F               487:   BIT SIZE AT DEPTH
 DFT .           CHEM GEL:   DRILLING FLUID TYPE
 DFD .               16.1:   DRILLING FLUID DENSITY
 DFV .                 43:   DRILLING FLUID VISCOSITY
 DFPH.                9.5:   DRILLING FLUID PH
 DFL .               11.8:   DRILLING FLUID LOSS
 MSS .           MUD TANK:   MUD SAMPLE SOURCE
 RMS .OHMM           2.36:   RESISTIVITY MUD SAMPLE
 MST .F                65:   MUD SAMPLE TEMPERATURE
 RMF .OHMM           1.17:   RESISTIVITY MUD FILTRATE SAMPLE
 MFST.F                65:   MUD FILTRATE SAMPLE TEMPERATURE
 RMC .OHMM           5.18:   RESISTIVITY MUD CAKE
 MCST.F                65:   MUD CAKE SAMPLE TEMPERATURE
 MFSS.               MEAS:   MUD FILTRATE SAMPLE SOURCE
 MCSS.               CALC:   MUD CAKE SAMPLE SOURCE
 RMB .OHMM           1.67:   RESISTIVITY MUD AT BHT
 BHT .F                92:   BOTTOM HOLE TEMPERATURE
 TCS .HRS               2:   TIME CURCULATED STOPPED
 MRT .F                92:   MAXIMUM RECORDED TEMPERATURE
 LUN .           HL- 6224:   LOGGING UNIT NUMBER
 LUL .             CASPER:   LOGGING UNIT LOCATION
 ENGI.        VERN RAUTIO:   RECORDING ENGINEER
 WITN.        GARY STRONG:   WITNESSED BY
 CLNT.            A2DTECH:   CLIENT CODE
 ORIG.           5" PRINT:   ORIGIN OF DATA
 UWI .       490252250400:   UNIQUE WELL ID
 DICO. A2D Technologies, Inc.:   DIGITIZING COMPANY
~OTHER INFORMATION
~A    DEPT     SPR        GRR       RILD       RILM       RFOC   
# ...
  238.8000   -36.2907   102.3787     4.4987     4.6616     4.3911
  238.9000   -36.2360   102.8368     4.5502     4.7610     4.5948
  239.0000   -36.1932   103.3304     4.6025     4.8705     4.8120
  239.1000   -36.0823   103.7072     4.6766     4.9896     5.0819
  239.2000   -36.0803   104.0176     4.7574     5.1329     5.3302
  239.3000   -36.0787   104.5111     4.8298     5.2813     5.7982
  239.4000   -35.9982   105.1031     4.8921     5.4339     6.2603
  239.5000   -35.9250   105.4982     5.0164     5.5543     6.6055
  239.6000   -35.9232   105.8511     5.1206     5.6498     6.9086
  239.7000   -35.9212   106.0999     5.2592     5.7395     7.0676
  239.8000   -35.9195   106.3792     5.4113     5.7761     7.2301
  239.9000   -35.9177   106.9228     5.5530     5.8052     7.3491
  240.0000   -35.9159   107.1464     5.6486     5.8601     7.4330
  240.1000   -35.9141   107.5600     5.7791     5.9127     7.5135
  240.2000   -35.9123   107.9440     5.9127     5.9464     7.5618
  240.3000   -35.9101   108.1929     6.0300     5.9812     7.5993
  240.4000   -35.9087   108.4426     6.1455     6.0144     7.6706
  240.5000   -35.9069   108.6906     6.2870     6.0744     7.7398
  240.6000   -35.9051   109.6944     6.4499     6.1621     7.7838
  240.7000   -35.9166   110.5214     6.5477     6.2786     7.8300
  240.8000   -36.0514   110.9365     6.6860     6.4273     7.8727
  240.9000   -36.1571   111.2086     6.8232     6.6876     7.9175
  241.0000   -36.2773   111.7667     6.9490     6.7838     7.9626
  241.1000   -36.3975   111.7703     7.1122     6.9247     7.9955
  241.2000   -36.4952   111.7745     7.1923     7.0683     7.9936
  241.3000   -36.4930   111.7787     7.2749     7.1834     7.9400
  241.4000   -36.6080   111.7357     7.3809     7.2717     7.9400
  241.5000   -36.6396   111.4874     7.4949     7.3876     7.9400
  241.6000   -36.6983   111.0181     7.5808     7.4848     7.9239
  241.7000   -36.7862   110.3514     7.6803     7.5704     7.8791
  241.8000   -36.7843   109.6216     7.7559     7.6462     7.8300
  241.9000   -36.7822   108.8917     7.8166     7.6904     7.7902
  242.0000   -36.7808   108.1779     7.8430     7.7785     7.7756
  242.1000   -36.7089   107.6151     7.8431     7.8322     7.7561
  242.2000   -36.6270   107.4131     7.8433     7.8518     7.7216
  242.3000   -36.6252   107.1726     7.8434     7.8518     7.7216
  242.4000   -36.6232   107.0273     7.7782     7.8471     7.6785
  242.5000   -36.5140   107.0715     7.6462     7.7972     7.6679
  242.6000   -36.4696   107.3358     7.4501     7.7200     7.6679
  242.7000   -36.4165   107.5692     7.1990     7.6327     7.6679
  242.8000   -36.3159   108.1667     6.9181     7.5464     7.6679
  242.9000   -36.3140   108.9049     6.7244     7.4611     7.6679
  243.0000   -36.1952   109.7711     6.5209     7.3739     7.6679
  243.1000   -36.1604   110.9811     6.3377     7.2535     7.6679
  243.2000   -36.1586   111.8593     6.1650     7.1310     7.6679
  243.3000   -36.1240   112.0610     6.0174     6.9903     7.6679
  243.4000   -36.0048   112.1667     5.9220     6.8439     7.6679
  243.5000   -36.0027   112.1709     5.8217     6.7216     7.6679
  243.6000   -35.9027   112.1423     5.7549     6.4583     7.6679
  243.7000   -35.8493   111.8798     5.7137     6.3382     7.6886
  243.8000   -35.8475   111.4391     5.6490     6.1958     7.7216
  243.9000   -35.8315   111.1210     5.5733     6.0819     7.7216
  244.0000   -35.6935   110.6566     5.5219     6.0131     7.7216
  244.1000   -35.6919   109.8701     5.4778     5.9396     7.7216
  244.2000   -35.6102   108.8955     5.4354     5.8474     7.7216
  244.3000   -35.5381   107.9211     5.3738     5.7041     7.7216
  244.4000   -35.5364   106.7554     5.3080     5.5586     7.7216
  244.5000   -35.5345   105.9440     5.2804     5.4263     7.7216
  244.6000   -35.5328   105.5396     5.2505     5.2741     7.7216
  244.7000   -35.5309   105.2991     5.2208     5.1558     7.7216
  244.8000   -35.5291   105.0296     5.1911     5.0401     7.7034
  244.9000   -35.5273   105.0333     5.1617     4.9576     7.6598
  245.0000   -35.5255   105.6772     5.1325     4.9106     7.6147
  245.1000   -35.5234   106.6601     5.1034     4.8827     7.5734
  245.2000   -35.4230   107.5934     5.0909     4.8515     7.4687
  245.3000   -35.3700   108.3485     5.0810     4.8276     7.3016
  245.4000   -35.3682   109.0699     5.0522     4.8002     7.0757
  245.5000   -35.3809   109.8081     5.0206     4.7843     6.7990
  245.6000   -35.5145   110.4176     4.9951     4.7843     6.4864
  245.7000   -35.5129   110.9112     4.9859     4.7843     6.1681
  245.8000   -35.5111   111.4047     4.9732     4.7843     5.7584
  245.9000   -35.5093   111.9724     4.9513     4.7644     5.4105
  246.0000   -35.5075   111.9760     4.9514     4.7510     5.2028
  246.1000   -35.5056   111.8275     4.9515     4.7586     5.0115
  246.2000   -35.5039   111.5870     4.9516     4.7843     4.8607
  246.3000   -35.5021   111.3465     4.9516     4.7843     4.8062
  246.4000   -35.5619   111.0935     4.9516     4.8068     4.8430
  246.5000   -35.6486   110.6337     4.9517     4.8342     4.9200
  246.6000   -35.6468   110.1485     4.9518     4.8721     4.9767
  246.7000   -35.6447   109.6634     4.9767     4.9237     5.0329
  246.8000   -35.6432   109.2446     5.0053     4.9542     5.1126
  246.9000   -35.7126   109.0151     5.0463     4.9800     5.2648
  247.0000   -35.7898   109.0202     5.0982     5.0281     5.4778
  247.1000   -35.7880   109.0237     5.1280     5.0856     5.6914
  247.2000   -35.7860   108.8824     5.1857     5.1437     5.8423
  247.3000   -35.7844   108.7322     5.2453     5.2026     5.9561
  247.4000   -35.7826   108.7364     5.2893     5.2922     6.0930
  247.5000   -35.7808   108.7410     5.3384     5.3357     6.2188
  247.6000   -35.7789   108.7448     5.4253     5.3830     6.3314
  247.7000   -35.7771   108.9185     5.4608     5.4345     6.4864
  247.8000   -35.7754   109.1674     5.5146     5.4685     6.6256
  247.9000   -35.7736   109.4754     5.5779     5.5393     6.7235
  248.0000   -35.7718   109.9690     5.6418     5.5943     6.7454
  248.1000   -35.7700   110.4625     5.7065     5.6583     6.7166
  248.2000   -35.7682   110.9561     5.7747     5.7230     6.7166
  248.3000   -35.7660   111.4497     5.8383     5.7945     6.7166
  248.4000   -35.7645   111.8601     5.9053     5.8983     6.7166
  248.5000   -35.7628   112.0810     5.9731     5.9956     6.7166
  248.6000   -35.7610   112.0856     6.0417     6.0734     6.7293
  248.7000   -35.7745   112.0894     6.1131     6.1606     6.7676
  248.8000   -35.9073   112.0936     6.2359     6.2764     6.8109
  248.9000   -35.9057   111.9906     6.3261     6.4205     6.9135
  249.0000   -35.9039   111.7501     6.4127     6.5950     7.0323
  249.1000   -35.9021   111.5065     6.5008     6.6881     7.1703
  249.2000   -35.9003   111.0276     6.6128     6.7801     7.3346
  249.3000   -35.8984   110.3562     6.7338     6.8720     7.5092
  249.4000   -35.8967   109.7575     6.8431     6.9845     7.6334
  249.5000   -35.8949   109.1204     6.9613     7.0716     7.7322
  249.6000   -35.8931   108.1460     7.0814     7.1824     7.8204
  249.7000   -35.8913   107.0345     7.2146     7.2776     7.9097
  249.8000   -35.8895   106.1969     7.3789     7.3608     7.9999
  249.9000   -35.8874   105.3775     7.5298     7.4449     8.1078
  250.0000   -35.8736   104.5477     7.5884     7.5299     8.1222
  250.1000   -35.8569   103.5732     7.6603     7.5941     8.1398
  250.2000   -35.8401   102.5573     7.7322     7.6582     8.1575
  250.3000   -35.8233   101.6242     7.8040     7.7224     8.1751
  250.4000   -35.8066   101.3692     7.8759     7.7866     8.1927
  250.5000   -35.7898   101.3777     7.9478     7.8508     8.2103
  250.6000   -35.7730   101.3862     8.0196     7.9150     8.2280
  250.7000   -35.7563   101.3946     8.0915     7.9792     8.2456
  250.8000   -35.7395   101.7859     8.1634     8.0434     8.2632
  250.9000   -35.7222   102.5841     8.2352     8.1075     8.2808
