~VERSION INFORMATION
 VERS.                2.0:   CWLS LOG ASCII STANDARD - VERSION 2.0
 WRAP.                 NO:   ONE LINE PER DEPTH STEP
~WELL INFORMATION
#MNEM.UNIT      DATA TYPE    INFORMATION
#----------   ------------   ------------------------------
 STRT.F            0.0000:   START DEPTH
 STOP.F          562.0000:   STOP DEPTH
 STEP.F            0.1000:   STEP LENGTH
 NULL.          -999.2500:   NO VALUE
 COMP. BROWN JOHN E&C INC:   COMPANY
 WELL.    73-1 SX-3 #73-3:   WELL
 FLD .             TEAPOT:   FIELD
 LOC .       S3 T38N R78W:   LOCATION
 CNTY.            NATRONA:   COUNTY
 STAT.            WYOMING:   STATE
 CTRY. UNITED STATES OF AMERICA:   COUNTRY
 SRVC.      Western Atlas:   SERVICE COMPANY
 DATE.        23-APR-1992:   LOGDATE
 API .       490252251200:   API NUMBER
~CURVE INFORMATION
#MNEM.UNIT       API CODE    CURVE DESCRIPTION
#----------   ------------   ------------------------------
 DEPT.F                  :   
 GRR .GAPI   07 310 01 00:   GAMMA RAY
 RILD.OHMM   07 120 46 00:   INDUCTION LOG DEEP RESISTIVITY
 RILM.OHMM   07 120 44 00:   INDUCTION LOG MEDIUM RESISTIVITY
 CILD.MMHO   07 110 46 00:   CONDUCTIVITY INDUCTION LOG DEEP
~PARAMETER INFORMATION
#MNEM.UNIT          VALUE    DESCRIPTION
#----------   ------------   ------------------------------
 PD  .                 GL:   PERMANENT DATUM
 EPD .F              5164:   ELEVATION PERMANENT DATUM
 LMF .                 KB:   LOG MEASURED FROM
 DAPD.F                 5:   FEET ABOVE PERMANENT DATUM
 DMF .                 KB:   DRILLING MEASURED FROM
 EKB .F              5169:   KELLING BUSHING
 EDF .F              5168:   DRILLING FLOOR
 EGL .F              5164:   GROUND LEVEL
 DATE.        23-APR-1992:   RUN DATE
 RUN .                  1:   RUN NUMBER
 DD  .F               561:   DEPTH DRILLER
 DL  .F               564:   DEPTH LOGGER
 BLI .F               562:   BOTTOM LOG INTERVAL
 CS  .IN            8.625:   CASING SIZE
 CBD .F                48:   CASING BOTTOM DRILLER
 CBL .F                49:   CASING BOTTOM LOGGER
 BS  .IN            7.875:   BIT SIZE
 BSD .F               561:   BIT SIZE AT DEPTH
 DFT .                AIR:   DRILLING FLUID TYPE
 TCS .HRS               2:   TIME CURCULATED STOPPED
 LUN .           HL- 6272:   LOGGING UNIT NUMBER
 LUL .             CASPER:   LOGGING UNIT LOCATION
 ENGI.            LEBSOCK:   RECORDING ENGINEER
 WITN.        GARY STRONG:   WITNESSED BY
 CLNT.            A2DTECH:   CLIENT CODE
 ORIG.       2", 5" PRINT:   ORIGIN OF DATA
 UWI .       490252251200:   UNIQUE WELL ID
 DICO. A2D Technologies, Inc.:   DIGITIZING COMPANY
~OTHER INFORMATION
~A    DEPT      GRR      RILD       RILM       CILD   
# ...
  175.2000   144.2746     7.8518     7.9621   128.0684
  175.3000   145.4024     7.8518     7.9621   128.3142
  175.4000   146.7808     7.8907     7.9621   128.5601
  175.5000   148.2347     7.9068     7.9621   128.8059
  175.6000   149.8382     7.9068     7.9621   129.0518
  175.7000   152.1000     7.9068     7.9621   129.2977
  175.8000   152.8002     7.9068     8.0018   129.4701
  175.9000   153.3514     7.9068     8.0179   129.4711
  176.0000   153.6024     7.9356     8.0179   129.4721
  176.1000   153.4857     7.9621     8.0179   129.4193
  176.2000   152.9976     7.9690     8.0179   129.1754
  176.3000   152.5128     8.0179     8.0179   128.9315
  176.4000   151.6604     8.0179     8.0179   128.7218
  176.5000   150.3159     8.0179     8.0344   128.7229
  176.6000   148.4852     8.0365     8.0791   128.7240
  176.7000   146.3070     8.0740     8.1306   128.7103
  176.8000   144.3655     8.0740     8.1306   128.4664
  176.9000   141.0865     8.0740     8.1581   128.2226
  177.0000   138.2411     8.0740     8.1875   127.9739
  177.1000   136.4258     8.0740     8.1875   127.7350
  177.2000   135.5003     8.0740     8.1875   127.4912
  177.3000   135.2130     8.0740     8.2260   127.2228
  177.4000   135.0127     8.0740     8.2448   126.5634
  177.5000   135.0503     8.0740     8.2448   125.8298
  177.6000   135.2917     8.0740     8.2485   124.9635
  177.7000   135.5330     8.0740     8.3026   124.5633
  177.8000   135.8095     8.0740     8.3409   124.0746
  177.9000   135.8085     8.0740     8.3874   123.5859
  178.0000   135.9558     8.1057     8.4342   123.2781
  178.1000   136.0173     8.1306     8.4782   123.0342
  178.2000   135.7736     8.1306     8.4782   122.7904
  178.3000   135.5023     8.1306     8.5165   122.3851
  178.4000   135.0706     8.1306     8.5640   121.8964
  178.5000   134.7410     8.1630     8.6118   121.4077
  178.6000   134.3013     8.2088     8.6575   121.0608
  178.7000   133.6118     8.2448     8.6575   120.8170
  178.8000   133.0867     8.2448     8.6958   120.5732
  178.9000   132.4155     8.2898     8.7181   120.4515
  179.0000   131.5220     8.3026     8.7319   120.4525
  179.1000   130.8687     8.3248     8.7807   120.4535
  179.2000   130.6249     8.3715     8.8297   120.3519
  179.3000   130.3698     8.4192     8.8407   120.1080
  179.4000   130.3687     8.5125     8.8407   119.8642
  179.5000   130.5401     8.5375     8.8407   119.5373
  179.6000   130.7814     8.5375     8.8407   119.0486
  179.7000   131.0781     8.5375     8.8407   118.5599
  179.8000   131.5686     8.5375     8.8035   118.1981
  179.9000   132.0462     8.5375     8.7792   118.1991
  180.0000   132.3494     8.5375     8.7792   118.2001
  180.1000   132.5908     8.5375     8.7792   118.1573
  180.2000   132.8322     8.5375     8.7792   117.9135
  180.3000   133.0687     8.5375     8.7430   117.6698
  180.4000   132.8201     8.5375     8.7181   117.4260
  180.5000   132.5764     8.5375     8.7181   117.1821
  180.6000   132.2025     8.5375     8.7181   116.9383
  180.7000   131.7875     8.5375     8.6707   116.6944
  180.8000   131.5309     8.5375     8.6575   116.4505
  180.9000   130.9528     8.5375     8.6349   116.2066
  181.0000   130.9518     8.5375     8.5973   115.9478
  181.1000   130.9506     8.5375     8.5973   116.1786
  181.2000   131.0289     8.5375     8.5514   116.4243
  181.3000   131.2911     8.5375     8.5375   116.7050
  181.4000   131.8504     8.5375     8.5160   116.9160
  181.5000   132.0542     8.5375     8.4782   117.1619
  181.6000   132.5881     8.5375     8.4782   117.4077
  181.7000   133.2269     8.5375     8.4782   117.4631
  181.8000   133.7397     8.5375     8.4782   117.4641
  181.9000   134.5553     8.5375     8.4782   117.4651
  182.0000   135.4059     8.5375     8.4782   117.4661
  182.1000   136.3748     8.5375     8.4782   117.4671
  182.2000   137.3436     8.5375     8.4782   117.4681
  182.3000   138.3493     8.5375     8.4464   117.6204
  182.4000   139.6698     8.5375     8.4192   117.8663
  182.5000   141.2148     8.5375     8.4271   118.1121
  182.6000   142.7493     8.5375     8.4782   118.2262
  182.7000   143.8926     8.5224     8.4782   118.2272
  182.8000   144.5293     8.4749     8.5094   118.2283
  182.9000   144.7843     8.4192     8.5568   118.2293
  183.0000   144.7832     8.3806     8.6045   118.2303
  183.1000   144.6117     8.3339     8.6575   118.2313
  183.2000   144.3679     8.3026     8.7008   118.3248
  183.3000   144.0178     8.2988     8.7181   118.5707
  183.4000   143.2723     8.2448     8.7370   118.8165
  183.5000   142.0864     8.1683     8.7858   119.1353
  183.6000   140.6943     8.1306     8.8407   119.6261
  183.7000   139.5964     8.1151     8.8841   120.1168
  183.8000   138.8672     8.0740     8.9026   120.5541
  183.9000   138.1458     8.0740     8.9026   120.8000
  184.0000   138.1446     8.0740     8.9026   121.0459
  184.1000   138.1434     8.0740     8.9026   121.2917
  184.2000   138.2698     8.0740     8.9026   121.5375
  184.3000   138.5804     8.0740     8.9329   121.7832
  184.4000   139.0642     8.0740     8.9649   122.0290
  184.5000   139.6443     8.0740     8.9599   122.2749
  184.6000   140.2266     8.0740     8.9026   122.5208
  184.7000   140.9532     8.0740     8.8608   122.7723
  184.8000   141.6796     8.0740     8.7828   123.0125
  184.9000   142.3875     8.0740     8.7018   123.2583
  185.0000   142.9516     8.0740     8.6495   123.5295
  185.1000   143.1530     8.0740     8.5375   123.7501
  185.2000   143.3944     8.0569     8.4983   123.9959
  185.3000   143.5506     8.0179     8.4511   124.2868
  185.4000   143.5494     8.0179     8.4042   124.2876
  185.5000   143.5480     8.0179     8.3576   124.2886
  185.6000   143.5470     7.9893     8.3026   124.2896
  185.7000   143.3939     7.9447     8.2651   124.4711
  185.8000   143.1502     7.9068     8.2448   124.7169
  185.9000   142.9409     7.9068     8.2448   124.9628
  186.0000   142.9396     7.9068     8.2448   125.3695
  186.1000   142.2830     7.8781     8.2448   125.8602
  186.2000   141.7141     7.8518     8.2448   126.3510
  186.3000   141.0253     7.8449     8.2448   126.7004
  186.4000   139.9680     7.7972     8.2448   126.9462
  186.5000   138.4156     7.7972     8.2433   127.1921
  186.6000   137.2820     7.7398     8.1976   127.4379
  186.7000   135.9003     7.6892     8.1875   127.6838
  186.8000   134.5527     7.6819     8.1875   127.9296
  186.9000   133.4395     7.6357     8.1752   128.2776
  187.0000   132.6867     7.5964     8.1306   128.7683
  187.1000   132.2165     7.5540     8.1306   129.2590
  187.2000   132.0819     7.5119     8.0962   129.7497
  187.3000   132.1981     7.4699     8.0513   130.2405
  187.4000   132.4981     7.4255     8.0179   130.7312
  187.5000   132.9819     7.4255     8.0179   131.2219
  187.6000   133.4657     7.3970     7.9734   131.7126
  187.7000   133.9495     7.3557     7.9621   132.2033
  187.8000   134.4336     7.3146     7.9404   132.6940
  187.9000   134.9178     7.2717     7.8861   133.1847
  188.0000   135.4016     7.2717     7.7972   133.6754
  188.1000   135.8854     7.2717     7.7972   134.1661
  188.2000   136.5615     7.2717     7.7657   134.6566
  188.3000   137.1547     7.2717     7.7430   135.1472
  188.4000   137.6385     7.2717     7.7241   135.6299
  188.5000   138.1384     7.2717     7.6357   135.6309
  188.6000   138.9926     7.2717     7.5948   135.6319
  188.7000   139.3916     7.2717     7.5826   135.6330
  188.8000   139.5928     7.2717     7.5826   135.6339
  188.9000   139.5916     7.2717     7.5826   135.6349
  189.0000   139.5904     7.2717     7.5826   135.6361
  189.1000   139.5890     7.3013     7.5826   135.6370
  189.2000   139.5880     7.3226     7.5826   135.6380
  189.3000   139.5867     7.3321     7.5826   135.6390
  189.4000   139.6763     7.3739     7.5905   135.6400
  189.5000   139.8857     7.3739     7.6357   135.6410
  189.6000   139.8842     7.3739     7.6755   135.6420
  189.7000   140.0992     7.3942     7.6892   135.6430
