~VERSION INFORMATION
 VERS.                2.0:   CWLS LOG ASCII STANDARD - VERSION 2.0
 WRAP.                 NO:   ONE LINE PER DEPTH STEP
~WELL INFORMATION
#MNEM.UNIT      DATA TYPE    INFORMATION
#----------   ------------   ------------------------------
 STRT.F           24.5000:   START DEPTH
 STOP.F          506.0000:   STOP DEPTH
 STEP.F            0.5000:   STEP LENGTH
 NULL.          -999.2500:   NO VALUE
 COMP. FENIX & SCISSON INC:   COMPANY
 WELL.    NPR 3 SX #44-10:   WELL
 FLD .        TEAPOT DOME:   FIELD
 LOC .      S10 T38N R78W:   LOCATION
 CNTY.            NATRONA:   COUNTY
 STAT.            WYOMING:   STATE
 CTRY. UNITED STATES OF AMERICA:   COUNTRY
 SRVC.           BIRDWELL:   SERVICE COMPANY
 DATE.        14-NOV-1978:   LOGDATE
 API .       490251074700:   API NUMBER
~CURVE INFORMATION
#MNEM.UNIT       API CODE    CURVE DESCRIPTION
#----------   ------------   ------------------------------
 DEPT.F                  :   
 SPR .MV     05 010 01 00:   SPONTANEOUS POTENTIAL FROM RES.
 IL  .OHMM   05 120 00 00:   INDUCTION LOG
 SN  .OHMM   05 040 16 00:   SHORT NORMAL 16"
 CALD.IN     45 280 60 00:   CALIPER
 GRD .GAPI   45 310 01 00:   GAMMA RAY FROM DENSITY LOG
 RHOB.G/C3   45 350 01 00:   BULK DENSITY
 DPHI.DEC    45 890 12 00:   DENSITY POROSITY SANDSTONE
 DRHO.G/C3   45 356 01 00:   DENSITY CORRECTION
~PARAMETER INFORMATION
#MNEM.UNIT          VALUE    DESCRIPTION
#----------   ------------   ------------------------------
 PD  .                 GL:   PERMANENT DATUM
 EPD .F              5211:   ELEVATION PERMANENT DATUM
 LMF .                 KB:   LOG MEASURED FROM
 DAPD.F                 4:   FEET ABOVE PERMANENT DATUM
 DMF .                 KB:   DRILLING MEASURED FROM
 EKB .F              5215:   KELLING BUSHING
 EGL .F              5211:   GROUND LEVEL
 DATE.           11-14-78:   RUN DATE
 RUN .                  1:   RUN NUMBER
 DD  .F               510:   DEPTH DRILLER
 DL  .F               506:   DEPTH LOGGER
 BLI .F               500:   BOTTOM LOG INTERVAL
 TLI .F                45:   TOP LOG INTERVAL
 CS  .IN            8.625:   CASING SIZE
 CBD .F                40:   CASING BOTTOM DRILLER
 CBL .F                40:   CASING BOTTOM LOGGER
 BS  .IN            7.875:   BIT SIZE
 BSD .F               510:   BIT SIZE AT DEPTH
 DFT .            SEA MUD:   DRILLING FLUID TYPE
 DFD .                8.7:   DRILLING FLUID DENSITY
 DFV .                 35:   DRILLING FLUID VISCOSITY
 DFPH.               10.5:   DRILLING FLUID PH
 MSS .            MUD PIT:   MUD SAMPLE SOURCE
 RMS .OHMM            .51:   RESISTIVITY MUD SAMPLE
 MST .F                54:   MUD SAMPLE TEMPERATURE
 RMF .OHMM            .45:   RESISTIVITY MUD FILTRATE SAMPLE
 MFST.F                54:   MUD FILTRATE SAMPLE TEMPERATURE
 RMC .OHMM             .5:   RESISTIVITY MUD CAKE
 MCST.F                60:   MUD CAKE SAMPLE TEMPERATURE
 MFSS.           MEASURED:   MUD FILTRATE SAMPLE SOURCE
 MCSS.           MEASURED:   MUD CAKE SAMPLE SOURCE
 RMB .OHMM            .49:   RESISTIVITY MUD AT BHT
 BHT .F                56:   BOTTOM HOLE TEMPERATURE
 TCS .HRS               2:   TIME CURCULATED STOPPED
 MRT .F                56:   MAXIMUM RECORDED TEMPERATURE
 LUN .               2958:   LOGGING UNIT NUMBER
 LUL .               CASP:   LOGGING UNIT LOCATION
 ENGI.             MILLER:   RECORDING ENGINEER
 WITN.           DINSMORE:   WITNESSED BY
 CLNT.            A2DTECH:   CLIENT CODE
 ORIG.       2", 5" PRINT:   ORIGIN OF DATA
 UWI .       490251074700:   UNIQUE WELL ID
 DICO. A2D Technologies, Inc.:   DIGITIZING COMPANY
~OTHER INFORMATION
~A   DEPT      SPR         IL         SN       CALD         GRD      RHOB       DPHI       DRHO   
# ...
  105.5000   -33.3480     9.9250    11.0860     8.1600   106.0990     2.5120     0.1000     0.0060
  106.0000   -30.5910     9.9250    11.0860     8.1610   104.9230     2.5080     0.1000     0.0060
  106.5000   -29.4940     9.9250    11.0860     8.1610   103.2810     2.5080     0.1000     0.0060
  107.0000   -29.3090     9.9250    11.0860     8.1620   102.0730     2.5090     0.1000     0.0070
  107.5000   -29.1050     9.9250    11.0860     8.1630   102.6320     2.5090     0.1000     0.0070
  108.0000   -28.6580     9.9250    11.0860     8.1640   103.7210     2.5100     0.1000     0.0070
  108.5000   -27.4920     9.9250    11.0860     8.1650   104.8710     2.5100     0.1000     0.0070
  109.0000   -26.5950     9.9250    11.1120     8.1650   102.7070     2.5110     0.1010     0.0070
  109.5000   -26.5380     9.9250    11.1830     8.1660    99.6630     2.5120     0.1030     0.0070
  110.0000   -26.5090    10.0750    11.2540     8.1670    98.3670     2.5110     0.1040     0.0070
  110.5000   -26.4810    10.2290    11.3250     8.1680    97.1710     2.5090     0.1050     0.0070
  111.0000   -26.4520    10.3830    11.3970     8.1690    96.4430     2.5080     0.1040     0.0090
  111.5000   -26.4230    10.5370    11.6970     8.1690    97.0450     2.5100     0.1020     0.0110
  112.0000   -26.3950    10.6900    11.9210     8.1650    95.7080     2.5130     0.1000     0.0130
  112.5000   -26.3560    10.8440    12.1460     8.1460    94.3460     2.5170     0.0980     0.0150
  113.0000   -26.0170    10.9980    12.3710     8.1270    94.8140     2.5180     0.0960     0.0170
  113.5000   -25.6530    11.1520    12.5960     8.1080    96.7960     2.5140     0.0960     0.0200
  114.0000   -25.2880    11.3060    12.8200     8.0890    98.7150     2.5140     0.0980     0.0210
  114.5000   -24.9250    11.4600    13.0450     8.0710    99.9650     2.5200     0.1010     0.0230
  115.0000   -24.5690    11.6140    13.2700     8.0560    98.5230     2.5140     0.1060     0.0250
  115.5000   -24.6900    11.7670    13.4950     8.0450    96.1650     2.5060     0.1140     0.0270
  116.0000   -25.1700    12.0290    13.7640     8.0130    93.8190     2.4990     0.1110     0.0340
  116.5000   -25.6360    12.3540    14.0610     7.9800    91.5680     2.4920     0.1050     0.0460
  117.0000   -26.0950    12.6790    14.3570     7.9460    90.2690     2.4970     0.0990     0.0530
  117.5000   -26.4310    13.0050    14.6540     7.9310    89.3090     2.5070     0.0930     0.0530
  118.0000   -23.0800    13.3300    14.9510     7.9300    88.3620     2.5160     0.0880     0.0530
  118.5000   -22.9220    13.6550    15.2470     7.9300    87.7400     2.5260     0.0850     0.0490
  119.0000   -22.9260    13.7050    15.5440     7.9300    90.9710     2.5330     0.0870     0.0420
  119.5000   -22.3370    13.6650    15.8400     7.9300    94.7100     2.5290     0.0910     0.0340
  120.0000   -21.3280    13.6340    15.8830     7.9230    96.0050     2.5220     0.0970     0.0270
  120.5000   -20.3190    13.6020    15.8830     7.9080    97.1140     2.5160     0.1020     0.0230
  121.0000   -19.3110    13.4750    15.7180     7.8940    97.5690     2.5100     0.1070     0.0220
  121.5000   -18.3090    13.0880    15.3660     7.8790    97.9880     2.5030     0.1060     0.0230
  122.0000   -17.4230    12.7000    15.0130     7.8640    98.1610     2.4990     0.1050     0.0270
  122.5000   -17.3070    12.4790    14.6240     7.8500    97.6040     2.4990     0.1030     0.0320
  123.0000   -17.1730    12.4410    14.6580     7.8350    97.0730     2.5060     0.1000     0.0360
  123.5000   -17.0340    12.4020    14.7030     7.8210    95.6970     2.5130     0.0970     0.0350
  124.0000   -16.8920    12.2360    14.7540     7.8060    94.2480     2.5200     0.0960     0.0320
  124.5000   -16.9870    11.9380    14.7540     7.7910    93.4790     2.5130     0.0990     0.0280
  125.0000   -17.1290    11.6090    14.2990     7.8110    92.9510     2.5050     0.1020     0.0250
  125.5000   -17.2730    11.5910    13.9480     7.8340    92.0940     2.5040     0.1060     0.0220
  126.0000   -17.4180    11.5710    13.7050     7.8580    90.8760     2.5020     0.1110     0.0180
  126.5000   -17.5620    11.5520    13.7050     7.8810    89.6340     2.4960     0.1160     0.0150
  127.0000   -17.6960    11.5320    13.8320     7.9050    89.1370     2.4880     0.1160     0.0120
  127.5000   -17.7920    11.5120    13.8010     7.9280    90.5760     2.4820     0.1170     0.0090
  128.0000   -19.4980    11.4860    13.7580     7.9510    93.1120     2.4820     0.1180     0.0090
  128.5000   -20.6590    11.4540    13.7150     7.9750    95.1120     2.4810     0.1190     0.0130
  129.0000   -18.1150    11.4220    13.6710     7.9980    95.7290     2.4810     0.1150     0.0170
  129.5000   -18.1480    11.3900    13.6280     8.0100    96.0530     2.4840     0.1120     0.0220
  130.0000   -18.6760    11.3580    13.5850     8.0100    96.3240     2.4930     0.1080     0.0260
  130.5000   -19.2220    11.3260    13.5420     8.0100    94.2340     2.5000     0.1040     0.0270
  131.0000   -19.7700    11.2920    13.4990     8.0100    91.2540     2.5070     0.1010     0.0290
  131.5000   -20.2750    11.1330    13.4540     8.0100    90.7530     2.5070     0.1010     0.0290
  132.0000   -20.0170    10.9210    13.2990     8.0100    92.0630     2.5070     0.1020     0.0290
  132.5000   -19.7360    10.7090    13.0920     8.0190    94.7510     2.5070     0.1020     0.0290
  133.0000   -19.4540    10.4890    12.8850     8.0530    96.4750     2.5070     0.1030     0.0270
  133.5000   -19.2930    10.4600    12.6780     8.0870    97.0630     2.5070     0.1030     0.0240
  134.0000   -19.2940    10.4220    12.4710     8.1200    96.7850     2.4940     0.1120     0.0220
  134.5000   -19.2930    10.3830    12.3740     8.1500    94.8600     2.4800     0.1200     0.0230
  135.0000   -19.2930    10.3450    12.3250     8.1520    92.2820     2.4650     0.1290     0.0260
  135.5000   -19.2970    10.3070    12.2770     8.1540    90.8460     2.4700     0.1230     0.0420
  136.0000   -19.3800    10.2690    12.2280     8.1550    90.0340     2.4800     0.1170     0.0620
  136.5000   -19.4650    10.2300    12.1790     8.1570    90.6640     2.4910     0.1110     0.0800
  137.0000   -19.5480    10.1920    12.1300     8.1590    90.7310     2.5010     0.1050     0.0910
  137.5000   -19.6270    10.1540    12.0810     8.1610    90.7630     2.5130     0.1030     0.0820
  138.0000   -19.5840    10.1150    12.0320     8.1630    90.7940     2.5080     0.1060     0.0630
  138.5000   -19.4980    10.0770    11.9830     8.1640    90.8260     2.5000     0.1090     0.0450
  139.0000   -19.4780    10.0390    11.9340     8.1660    90.8580     2.4930     0.1120     0.0290
  139.5000   -20.3730    10.0010    11.8850     8.1680    90.8950     2.4910     0.1140     0.0210
  140.0000   -21.7380     9.9620    11.8370     8.1700    90.8130     2.4890     0.1160     0.0150
  140.5000   -21.7630     9.9250    11.7880     8.1710    90.6540     2.4910     0.1140     0.0110
  141.0000   -21.2570     9.9110    11.7390     8.1730    89.7740     2.4940     0.1120     0.0090
  141.5000   -21.0530     9.8880    11.6900     8.1750    88.9240     2.4970     0.1100     0.0070
  142.0000   -20.9570     9.8650    11.6410     8.1770    88.6340     2.4910     0.1170     0.0060
  142.5000   -20.6000     9.8420    11.5920     8.1780    91.0340     2.4820     0.1220     0.0080
  143.0000   -20.3880     9.8200    11.5430     8.1800    93.3590     2.4760     0.1220     0.0110
  143.5000   -20.1640     9.7970    11.4940     8.1820    95.6720     2.4760     0.1210     0.0130
  144.0000   -20.0490     9.7740    11.4460     8.1840    94.5940     2.4770     0.1210     0.0160
  144.5000   -19.9310     9.7510    11.3970     8.1860    93.4050     2.4790     0.1190     0.0190
  145.0000   -19.8150     9.6070    11.3480     8.1870    93.1080     2.4800     0.1180     0.0220
  145.5000   -19.6990     9.5040    11.2990     8.1890    93.1010     2.4820     0.1170     0.0250
