~VERSION INFORMATION
 VERS.                2.0:   CWLS LOG ASCII STANDARD - VERSION 2.0
 WRAP.                 NO:   ONE LINE PER DEPTH STEP
~WELL INFORMATION
#MNEM.UNIT      DATA TYPE    INFORMATION
#----------   ------------   ------------------------------
 STRT.F           30.0000:   START DEPTH
 STOP.F          770.5000:   STOP DEPTH
 STEP.F            0.5000:   STEP LENGTH
 NULL.          -999.2500:   NO VALUE
 COMP. FENIX & SCISSON INC:   COMPANY
 WELL. TEAPOT DOME 63 SX 34 #63-34:   WELL
 FLD .             TEAPOT:   FIELD
 LOC .      S34 T39N R78W:   LOCATION
 CNTY.            NATRONA:   COUNTY
 STAT.            WYOMING:   STATE
 CTRY. UNITED STATES OF AMERICA:   COUNTRY
 SRVC.           BIRDWELL:   SERVICE COMPANY
 DATE.        18-AUG-1978:   LOGDATE
 API .       490251070300:   API NUMBER
~CURVE INFORMATION
#MNEM.UNIT       API CODE    CURVE DESCRIPTION
#----------   ------------   ------------------------------
 DEPT.F                  :   
 SPR .MV     05 010 01 00:   SPONTANEOUS POTENTIAL
 SN  .OHMM   05 040 16 00:   SHORT NORMAL 16'
 ILD .OHMM   05 120 46 00:   INDUCTION LOG DEEP RESISTIVITY
 CALD.IN     45 280 60 00:   CALIPER
 GRD .GAPI   45 310 01 00:   GAMMA RAY FROM DENSITY LOG
 RHOB.G/C3   45 350 01 00:   BULK DENSITY
 DPHI.DEC    45 890 12 00:   DENSITY POROSITY SANDSTONE
 CORR.G/C3   45 356 01 00:   DENSITY CORRECTION
~PARAMETER INFORMATION
#MNEM.UNIT          VALUE    DESCRIPTION
#----------   ------------   ------------------------------
 PD  .                 GL:   PERMANENT DATUM
 EPD .F              5063:   ELEVATION PERMANENT DATUM
 LMF .                 KB:   LOG MEASURED FROM
 DAPD.F                 4:   FEET ABOVE PERMANENT DATUM
 DMF .                 KB:   DRILLING MEASURED FROM
 EKB .F              5067:   KELLING BUSHING
 EGL .F              5063:   GROUND LEVEL
 DATE.          8-18-1978:   RUN DATE
 RUN .                  1:   RUN NUMBER
 DD  .F               760:   DEPTH DRILLER
 DL  .F               770:   DEPTH LOGGER
 BLI .F               763:   BOTTOM LOG INTERVAL
 TLI .F                40:   TOP LOG INTERVAL
 CS  .IN            8.625:   CASING SIZE
 CBD .F                40:   CASING BOTTOM DRILLER
 CBL .F                40:   CASING BOTTOM LOGGER
 BS  .IN            7.875:   BIT SIZE
 BSD .F               760:   BIT SIZE AT DEPTH
 DFT .            MUD KCL:   DRILLING FLUID TYPE
 DFL .               10.6:   DRILLING FLUID LOSS
 MSS .          FLOW LINE:   MUD SAMPLE SOURCE
 RMS .OHMM             .2:   RESISTIVITY MUD SAMPLE
 MST .F                56:   MUD SAMPLE TEMPERATURE
 RMF .OHMM             .2:   RESISTIVITY MUD FILTRATE SAMPLE
 MFST.F                64:   MUD FILTRATE SAMPLE TEMPERATURE
 RMC .OHMM            .36:   RESISTIVITY MUD CAKE
 MCST.F                64:   MUD CAKE SAMPLE TEMPERATURE
 MFSS.               MEAS:   MUD FILTRATE SAMPLE SOURCE
 MCSS.               MEAS:   MUD CAKE SAMPLE SOURCE
 TCS .HRS               3:   TIME CURCULATED STOPPED
 MRT .F                72:   MAXIMUM RECORDED TEMPERATURE
 LUN .               3006:   LOGGING UNIT NUMBER
 LUL .               CASP:   LOGGING UNIT LOCATION
 ENGI.           REYNOLDS:   RECORDING ENGINEER
 WITN.              AMEND:   WITNESSED BY
 CLNT.            A2DTECH:   CLIENT CODE
 ORIG.           5" PRINT:   ORIGIN OF DATA
 UWI .       490251070300:   UNIQUE WELL ID
 DICO. A2D Technologies, Inc.:   DIGITIZING COMPANY
~OTHER INFORMATION
~A   DEPT      SPR         SN        ILD       CALD         GRD      RHOB       DPHI       CORR   
# ...
  718.5000   -71.0869    10.2278     8.1684     7.1975    74.1263     2.4881     0.1019     0.0485
  719.0000   -71.1483    10.2750     8.1828     7.1792    76.3151     2.4859     0.1039     0.0541
  719.5000   -71.2111    10.2803     8.1972     7.1606    76.9312     2.4856     0.1038     0.0633
  720.0000   -71.2738    10.2860     8.2117     7.1423    77.0911     2.4912     0.0963     0.0745
  720.5000   -71.3364    10.2918     8.2263     7.1237    76.9913     2.5017     0.0893     0.0855
  721.0000   -71.3990    10.2975     8.2378     7.1076    76.7356     2.5083     0.0823     0.0940
  721.5000   -71.4617    10.3033     8.2391     7.1327    76.4472     2.5249     0.0771     0.0894
  722.0000   -71.5243    10.3090     8.2474     7.1451    78.1879     2.5257     0.0854     0.0794
  722.5000   -71.5869    10.3148     8.2554     7.1579    80.0447     2.5137     0.0921     0.0699
  723.0000   -71.6496    10.3206     8.2635     7.1703    79.2694     2.5041     0.0958     0.0662
  723.5000   -71.7122    10.3264     8.2716     7.1826    77.2601     2.5004     0.0944     0.0728
  724.0000   -71.7748    10.3321     8.2796     7.1899    75.2772     2.5074     0.0894     0.0811
  724.5000   -71.8374    10.3379     8.2877     7.1857    73.3232     2.5184     0.0805     0.0895
  725.0000   -71.9000    10.3437     8.2958     7.1634    71.9408     2.5294     0.0716     0.0976
  725.5000   -71.9627    10.3495     8.3037     7.1412    74.1569     2.5387     0.0711     0.0963
  726.0000   -72.0253    10.3553     8.3124     7.1192    77.8005     2.5394     0.0662     0.0947
  726.5000   -72.0880    10.3611     8.2789     7.0970    81.4769     2.5471     0.0579     0.0931
  727.0000   -72.1504    10.3659     8.2350     7.0745    79.9789     2.5551     0.0591     0.0895
  727.5000   -72.2133    10.3658     8.1916     7.0700    75.7677     2.5582     0.0613     0.0762
  728.0000   -72.2490    10.3658     8.1483     7.0761    72.7995     2.5481     0.0659     0.0631
  728.5000   -72.2598    10.3658     8.1053     7.1150    72.3256     2.5374     0.0749     0.0517
  729.0000   -72.2701    10.3658     8.0625     7.1536    70.7714     2.5266     0.0838     0.0534
  729.5000   -72.2803    10.3655     8.0200     7.1923    69.0529     2.5157     0.0875     0.0593
  730.0000   -72.2905    10.3668     7.9776     7.1977    68.0821     2.5133     0.0854     0.0676
  730.5000   -72.3007    10.3011     7.9355     7.1758    68.8326     2.5154     0.0832     0.0802
  731.0000   -72.3110    10.2184     7.8936     7.1537    70.8269     2.5218     0.0784     0.0923
  731.5000   -72.3212    10.1365     7.8215     7.1309    75.3808     2.5291     0.0707     0.1046
  732.0000   -72.3314    10.0552     7.7000     7.1298    78.6078     2.5365     0.0709     0.1122
  732.5000   -72.3416     9.9746     7.5803     7.1300    80.5723     2.5397     0.0711     0.1178
  733.0000   -72.3519     9.8947     7.4625     7.1300    81.3172     2.5403     0.0689     0.1173
  733.5000   -72.3621     9.8154     7.3465     7.1300    82.0191     2.5440     0.0655     0.1126
  734.0000   -72.3723     9.7367     7.2324     7.1302    81.5412     2.5474     0.0708     0.1080
  734.5000   -72.3825     9.6587     7.1200     7.1204    80.9313     2.5324     0.0786     0.1031
  735.0000   -72.3927     9.5813     7.0093     7.1066    81.1708     2.5249     0.0798     0.1017
  735.5000   -72.4030     9.5041     6.9176     7.0927    81.7422     2.5328     0.0742     0.1082
  736.0000   -72.4132     9.4423     6.9176     7.0788    82.3111     2.5391     0.0764     0.1177
  736.5000   -72.4234     9.4043     6.9176     7.0649    82.8775     2.5331     0.0737     0.1272
  737.0000   -72.4336     9.3670     6.9176     7.0511    83.3145     2.5420     0.0673     0.1366
  737.5000   -72.4435     9.3297     6.9176     7.0372    83.2497     2.5531     0.0599     0.1449
  738.0000   -72.4714     9.2925     6.9176     7.0232    83.1639     2.5519     0.0661     0.1489
  738.5000   -72.5008     9.2555     6.9176     7.0105    84.7915     2.5463     0.0691     0.1528
  739.0000   -72.5303     9.2187     6.9176     7.0192    86.4276     2.5492     0.0641     0.1620
  739.5000   -72.5598     9.1820     6.9176     7.0284    86.3744     2.5556     0.0595     0.1718
  740.0000   -72.5893     9.1454     6.8621     7.0374    84.8191     2.5605     0.0652     0.1781
  740.5000   -72.6188     9.1090     6.7608     7.0466    83.7311     2.5468     0.0706     0.1794
  741.0000   -72.6482     9.0728     6.6609     7.0490    85.1394     2.5432     0.0706     0.1799
  741.5000   -72.6777     9.0367     6.5626     7.0475    85.2594     2.5431     0.0611     0.1738
  742.0000   -72.7072     9.0007     6.4657     7.0459    82.9664     2.5546     0.0479     0.1619
  742.5000   -72.7366     8.9649     6.3702     7.0443    80.7624     2.5730     0.0529     0.1425
  743.0000   -72.7661     8.9292     6.2761     7.0427    80.8336     2.5568     0.0657     0.1089
  743.5000   -72.7952     8.8937     6.1951     7.0411    81.7050     2.5281     0.0784     0.0729
  744.0000   -72.8251     8.8582     6.1789     7.0395    82.5622     2.4988     0.0912     0.0488
  744.5000   -72.8826     8.8230     6.1614     7.0379    83.4102     2.4895     0.1018     0.0472
  745.0000   -73.0316     8.7851     6.1440     7.0364    84.3205     2.4871     0.1000     0.0480
  745.5000   -73.1750     8.7291     6.1266     7.0348    84.3873     2.4971     0.0949     0.0542
  746.0000   -73.3180     8.6686     6.1093     7.0332    82.9341     2.5036     0.0932     0.0605
  746.5000   -73.4613     8.6086     6.0921     7.0316    83.5264     2.4992     0.0966     0.0609
  747.0000   -73.6110     8.5490     6.0748     7.0300    83.9939     2.5156     0.0802     0.0594
  747.5000   -73.6387     8.4898     6.0577     7.0284    83.1880     2.5263     0.0848     0.0542
  748.0000   -73.6283     8.4310     6.0405     7.0269    82.5168     2.5134     0.0933     0.0413
  748.5000   -73.6166     8.3904     6.0235     7.0253    83.1666     2.4992     0.1018     0.0283
  749.0000   -73.6051     8.3691     6.0064     7.0237    85.5897     2.4850     0.1104     0.0215
  749.5000   -73.5937     8.3457     5.9895     7.0221    87.9358     2.4708     0.1189     0.0205
  750.0000   -73.5823     8.3223     5.9725     7.0205    89.2607     2.4566     0.1274     0.0247
  750.5000   -73.5709     8.2990     5.9556     7.0189    89.4663     2.4508     0.1211     0.0340
  751.0000   -73.5595     8.2757     5.9388     7.0173    89.5066     2.4682     0.1087     0.0435
  751.5000   -73.5481     8.2526     5.9168     7.0157    89.1743     2.4860     0.0994     0.0396
  752.0000   -73.5367     8.2294     5.9320     7.0142    88.8089     2.4944     0.0995     0.0347
  752.5000   -73.5253     8.2062     5.9556     7.0126    88.2693     2.4915     0.1013     0.0299
  753.0000   -73.5139     8.1823     6.0113     7.0111    86.6895     2.4883     0.1030     0.0250
  753.5000   -73.5025     8.1633     6.1551     7.0143    85.0973     2.4855     0.1046     0.0202
  754.0000   -73.4911     8.3502     6.3023     7.0266    83.5461     2.4854     0.1042     0.0231
  754.5000   -73.4797     8.5307     6.4531     7.0387    83.5134     2.4899     0.1005     0.0265
  755.0000   -73.4683     8.7143     6.6075     7.0508    83.3557     2.4956     0.0967     0.0298
  755.5000   -73.4569     8.9015     6.7655     7.0628    79.8689     2.5013     0.0931     0.0332
  756.0000   -73.4454     9.0929     6.9176     7.0740    77.0775     2.5071     0.0897     0.0361
  756.5000   -73.4341     9.1982     6.9176     7.0841    78.4853     2.5128     0.0863     0.0365
  757.0000   -73.4227     9.1982     6.9176     7.0941    81.7849     2.5176     0.0834     0.0370
  757.5000   -73.4112     9.1982     6.9176     7.1040    85.0497     2.5182     0.0877     0.0374
  758.0000   -73.3998     9.1982     6.9176     7.1140    88.3058     2.5098     0.0948     0.0380
  758.5000   -73.3884     9.1982     6.9179     7.1239    89.6618     2.5011     0.0994     0.0410
