~VERSION INFORMATION
 VERS.                2.0:   CWLS LOG ASCII STANDARD - VERSION 2.0
 WRAP.                 NO:   ONE LINE PER DEPTH STEP
~WELL INFORMATION
#MNEM.UNIT      DATA TYPE    INFORMATION
#----------   ------------   ------------------------------
 STRT.F          630.0000:   START DEPTH
 STOP.F         1708.0000:   STOP DEPTH
 STEP.F            0.5000:   STEP LENGTH
 NULL.          -999.2500:   NO VALUE
 COMP. FENIX & SCISSON INC:   COMPANY
 WELL.      SHX 34 #58-34:   WELL
 FLD .             TEAPOT:   FIELD
 LOC .      S34 T39N R78W:   LOCATION
 CNTY.            NATRONA:   COUNTY
 STAT.            WYOMING:   STATE
 CTRY. UNITED STATES OF AMERICA:   COUNTRY
 SRVC.           BIRDWELL:   SERVICE COMPANY
 DATE.        28-MAR-1979:   LOGDATE
 API .       490251077400:   API NUMBER
~CURVE INFORMATION
#MNEM.UNIT       API CODE    CURVE DESCRIPTION
#----------   ------------   ------------------------------
 DEPT.F                  :   
 CORR.G/C3   45 356 01 00:   DENSITY CORRECTION
 DPHI.DEC    45 890 12 00:   DENSITY POROSITY SANDSTONE
 RHOB.G/C3   45 350 01 00:   BULK DENSITY
 CALD.IN     45 280 60 00:   CALIPER
 GRD .GAPI   45 310 01 00:   GAMMA RAY FROM DENSITY LOG
~PARAMETER INFORMATION
#MNEM.UNIT          VALUE    DESCRIPTION
#----------   ------------   ------------------------------
 PD  .                 GL:   PERMANENT DATUM
 EPD .F              5120:   ELEVATION PERMANENT DATUM
 LMF .                 KB:   LOG MEASURED FROM
 DAPD.F                10:   FEET ABOVE PERMANENT DATUM
 DMF .                 KB:   DRILLING MEASURED FROM
 EKB .F              5130:   KELLING BUSHING
 EGL .F              5120:   GROUND LEVEL
 DATE.            3-28-79:   RUN DATE
 RUN .                  2:   RUN NUMBER
 DD  .F              1720:   DEPTH DRILLER
 DL  .F              1708:   DEPTH LOGGER
 BLI .F              1708:   BOTTOM LOG INTERVAL
 TLI .F               649:   TOP LOG INTERVAL
 CS  .IN            9.625:   CASING SIZE
 CBD .F               639:   CASING BOTTOM DRILLER
 CBL .F               646:   CASING BOTTOM LOGGER
 BS  .IN             8.75:   BIT SIZE
 BSD .F              1720:   BIT SIZE AT DEPTH
 DFT .                OIL:   DRILLING FLUID TYPE
 TCS .HRS               3:   TIME CURCULATED STOPPED
 MRT .F               150:   MAXIMUM RECORDED TEMPERATURE
 LUN .               2959:   LOGGING UNIT NUMBER
 LUL .             CASPER:   LOGGING UNIT LOCATION
 ENGI.         B. ROLLINS:   RECORDING ENGINEER
 WITN.              AMEND:   WITNESSED BY
 CLNT.            A2DTECH:   CLIENT CODE
 ORIG.           5" PRINT:   ORIGIN OF DATA
 UWI .       490251077400:   UNIQUE WELL ID
 DICO. A2D Technologies, Inc.:   DIGITIZING COMPANY
~OTHER INFORMATION
~A   DEPT     CORR       DPHI       RHOB       CALD         GRD  
# ...
 1484.0000     0.0209     0.0209     2.5163     9.1734   123.2362
 1484.5000     0.0178     0.0231     2.5159     9.2112   125.1662
 1485.0000     0.0143     0.0231     2.5152     9.2499   122.0525
 1485.5000     0.0110     0.0217     2.5160     9.2874   117.0020
 1486.0000     0.0077     0.0203     2.5189     9.3261   118.6953
 1486.5000     0.0043     0.0191     2.5137     9.3647   123.5697
 1487.0000     0.0010     0.0245     2.5072     9.3787   128.0309
 1487.5000     0.0001     0.0287     2.5044     9.3388   129.4197
 1488.0000     0.0045     0.0265     2.5040     9.3073   129.0403
 1488.5000     0.0093     0.0239     2.5124     9.2723   127.2532
 1489.0000     0.0154     0.0183     2.5243     9.2500   124.1463
 1489.5000     0.0219     0.0120     2.5312     9.2187   121.0375
 1490.0000     0.0276     0.0120     2.5296     9.1820   117.5969
 1490.5000     0.0223     0.0170     2.5260     9.1879   116.9251
 1491.0000     0.0140     0.0207     2.5186     9.2051   119.0198
 1491.5000     0.0117     0.0286     2.5074     9.2226   120.8938
 1492.0000     0.0127     0.0356     2.4971     9.2388   119.7805
 1492.5000     0.0245     0.0392     2.4848     9.2578   117.9404
 1493.0000     0.0444     0.0415     2.4836     9.2334   119.9543
 1493.5000     0.0675     0.0447     2.4807     9.1501   122.3956
 1494.0000     0.0895     0.0495     2.4701     9.0724   121.1405
 1494.5000     0.1176     0.0534     2.4666     8.9934   121.5656
 1495.0000     0.1755     0.0414     2.4643     8.9244   119.9277
 1495.5000     0.1636     0.0191     2.5218     8.7172   119.2831
 1496.0000     0.1110     0.0598     2.4788     8.8164   124.5631
 1496.5000     0.0619     0.0572     2.4614     8.9949   122.7644
 1497.0000     0.0445     0.0462     2.4687     8.8971   118.1167
 1497.5000     0.0294     0.0479     2.4745     8.9326   120.7744
 1498.0000     0.0193     0.0534     2.4594     9.0237   119.5233
 1498.5000     0.0190     0.0503     2.4636     9.0866   116.0594
 1499.0000     0.0305     0.0375     2.4743     9.1586   115.9520
 1499.5000     0.0353     0.0395     2.4862     9.2279   117.5092
 1500.0000     0.0198     0.0447     2.4746     9.3054   124.2925
 1500.5000     0.0040     0.0498     2.4719     9.3930   130.7839
 1501.0000     0.0033     0.0558     2.4555     9.3878   124.5376
 1501.5000     0.0100     0.0422     2.4641     9.2287   117.3023
 1502.0000     0.0052     0.0485     2.4744     9.1884   118.4315
 1502.5000     0.0011     0.0566     2.4593     9.2355   121.3820
 1503.0000     0.0099     0.0414     2.4658     9.2802   122.0916
 1503.5000     0.0056     0.0446     2.4806     9.3014   115.7979
 1504.0000    -0.0071     0.0502     2.4754     9.2998   111.6108
 1504.5000    -0.0119     0.0475     2.4703     9.2997   115.8039
 1505.0000     0.0039     0.0351     2.4935     9.3001   119.9032
 1505.5000     0.0094     0.0372     2.4890     9.3000   123.3744
 1506.0000     0.0156     0.0390     2.4880     9.3001   122.1717
 1506.5000     0.0207     0.0343     2.5039     9.3001   118.9201
 1507.0000     0.0264     0.0352     2.5063     9.3000   115.9280
 1507.5000     0.0219     0.0369     2.5012     9.3000   115.1210
 1508.0000     0.0125     0.0387     2.4915     9.3000   116.9686
 1508.5000     0.0076     0.0371     2.4885     9.3000   119.3530
 1509.0000     0.0082     0.0343     2.4946     9.3000   121.7511
 1509.5000     0.0072     0.0321     2.4990     9.3000   124.1036
 1510.0000     0.0165     0.0287     2.5065     9.3000   126.2300
 1510.5000     0.0241     0.0279     2.5042     9.3000   127.8942
 1511.0000     0.0155     0.0321     2.5015     9.3000   129.2180
 1511.5000     0.0082     0.0359     2.4991     9.3000   127.6665
 1512.0000     0.0013     0.0398     2.4904     9.3000   126.4751
 1512.5000    -0.0077     0.0414     2.4809     9.2999   124.4636
 1513.0000    -0.0048     0.0390     2.4852     9.2999   129.5625
 1513.5000     0.0024     0.0333     2.4910     9.3000   126.9182
 1514.0000     0.0085     0.0275     2.5024     9.2997   127.9452
 1514.5000     0.0234     0.0217     2.5156     9.3001   131.1937
 1515.0000     0.0283     0.0159     2.5296     9.3005   128.8698
 1515.5000     0.0177     0.0143     2.5237     9.3179   124.3041
 1516.0000     0.0082     0.0217     2.5102     9.3381   124.2125
 1516.5000    -0.0005     0.0295     2.5041     9.3586   126.1739
 1517.0000    -0.0118     0.0286     2.5009     9.3792   123.4527
 1517.5000    -0.0048     0.0272     2.5029     9.3989   119.4399
 1518.0000     0.0078     0.0258     2.5237     9.4192   118.7557
 1518.5000     0.0079     0.0244     2.5231     9.4175   120.7427
 1519.0000     0.0079     0.0229     2.5161     9.4134   123.1235
 1519.5000     0.0078     0.0215     2.5156     9.4086   121.7799
 1520.0000     0.0123     0.0201     2.5165     9.4043   118.4200
 1520.5000     0.0284     0.0187     2.5222     9.3998   117.1505
 1521.0000     0.0323     0.0173     2.5246     9.3954   117.0578
 1521.5000     0.0331     0.0153     2.5171     9.3910   117.1190
 1522.0000     0.0339     0.0129     2.5074     9.3865   123.4805
 1522.5000     0.0348     0.0105     2.5065     9.3821   126.5596
 1523.0000     0.0356     0.0081     2.5048     9.3777   121.5797
 1523.5000     0.0365     0.0057     2.5063     9.3733   118.8624
 1524.0000     0.0373     0.0033     2.5189     9.3689   117.1609
 1524.5000     0.0382     0.0009     2.5512     9.3645   119.1742
 1525.0000     0.0390     0.0035     2.5524     9.3600   122.1447
 1525.5000     0.0397     0.0097     2.5347     9.3558   123.5853
 1526.0000     0.0365     0.0105     2.5299     9.3512   120.6637
 1526.5000     0.0334     0.0072     2.5414     9.3466   122.5645
 1527.0000     0.0301     0.0127     2.5410     9.3433   120.4891
 1527.5000     0.0268     0.0156     2.5248     9.3262   118.8729
 1528.0000     0.0237     0.0188     2.5203     9.2932   120.9702
 1528.5000     0.0206     0.0215     2.5158     9.2630   117.3942
 1529.0000     0.0167     0.0295     2.5114     9.2316   116.5611
 1529.5000     0.0191     0.0242     2.5220     9.1963   117.2288
 1530.0000     0.0253     0.0191     2.5170     9.2026   121.1006
 1530.5000     0.0308     0.0215     2.5198     9.2787   124.5289
 1531.0000     0.0355     0.0211     2.5223     9.3526   125.4874
 1531.5000     0.0296     0.0199     2.5166     9.3740   124.8629
 1532.0000     0.0179     0.0197     2.5105     9.3395   122.3900
 1532.5000     0.0108     0.0194     2.5057     9.3023   120.6749
 1533.0000     0.0190     0.0192     2.5231     9.3099   120.7830
 1533.5000     0.0331     0.0240     2.5161     9.3259   122.2524
 1534.0000     0.0535     0.0179     2.5371     9.3808   124.5643
 1534.5000     0.0909    -0.0142     2.5694     9.4649   126.6698
 1535.0000     0.1350    -0.0026     2.5811     9.5322   128.8067
 1535.5000     0.1085     0.0153     2.5366     9.4494   129.9811
 1536.0000     0.0437     0.0205     2.5052     9.3735   130.5491
 1536.5000     0.0420     0.0206     2.5199     9.2943   130.4049
 1537.0000     0.0426     0.0184     2.5356     9.2613   130.2351
 1537.5000     0.0423     0.0163     2.5311     9.3320   131.3840
 1538.0000     0.0161     0.0143     2.5307     9.2158   133.6163
 1538.5000     0.0167     0.0122     2.5370     9.1074   132.3170
 1539.0000     0.0158     0.0102     2.5381     9.1004   129.2331
 1539.5000     0.0222     0.0082     2.5354     9.0897   137.8359
 1540.0000     0.0286     0.0061     2.5391     9.0817   147.9224
 1540.5000     0.0294     0.0048     2.5418     9.0710   157.5276
 1541.0000     0.0203     0.0061     2.5367     9.0604   152.2019
 1541.5000     0.0119     0.0102     2.5345     9.0600   133.2911
 1542.0000     0.0037     0.0143     2.5310     9.0598   121.1503
 1542.5000    -0.0055     0.0184     2.5212     9.0599   125.8007
 1543.0000    -0.0047     0.0230     2.5157     9.0600   128.6389
 1543.5000     0.0079     0.0177     2.5178     9.0601   125.1075
 1544.0000     0.0253     0.0116     2.5314     9.0593   118.6494
 1544.5000     0.0390     0.0079     2.5429     9.0652   120.0324
