~VERSION INFORMATION
 VERS.                2.0:   CWLS LOG ASCII STANDARD - VERSION 2.0
 WRAP.                 NO:   ONE LINE PER DEPTH STEP
~WELL INFORMATION
#MNEM.UNIT      DATA TYPE    INFORMATION
#----------   ------------   ------------------------------
 STRT.F          750.0000:   START DEPTH
 STOP.F         1490.0000:   STOP DEPTH
 STEP.F            0.5000:   STEP LENGTH
 NULL.          -999.2500:   NO VALUE
 COMP.    FENIX & SCISSON:   COMPANY
 WELL.  53 STX 15 #53 -15:   WELL
 FLD .             TEAPOT:   FIELD
 LOC .      S15 T38N R78W:   LOCATION
 CNTY.            NATRONA:   COUNTY
 STAT.            WYOMING:   STATE
 CTRY. UNITED STATES OF AMERICA:   COUNTRY
 SRVC.              Welex:   SERVICE COMPANY
 DATE.        01-JUN-1980:   LOGDATE
 API .       490251082000:   API NUMBER
~CURVE INFORMATION
#MNEM.UNIT       API CODE    CURVE DESCRIPTION
#----------   ------------   ------------------------------
 DEPT.F                  :   
 CALD.IN     45 280 60 00:   CALIPER
 GRD .GAPI   45 310 01 00:   GAMMA RAY FROM DENSITY LOG
 CORR.G/C3   45 356 01 00:   DENSITY CORRECTION
 RHOB.G/C3   45 350 01 00:   BULK DENSITY
 DPHI.DEC    45 890 12 00:   DENSITY POROSITY SANDSTONE
~PARAMETER INFORMATION
#MNEM.UNIT          VALUE    DESCRIPTION
#----------   ------------   ------------------------------
 PD  .                 GL:   PERMANENT DATUM
 EPD .F              5257:   ELEVATION PERMANENT DATUM
 LMF .                 KB:   LOG MEASURED FROM
 DAPD.F                10:   FEET ABOVE PERMANENT DATUM
 DMF .                 KB:   DRILLING MEASURED FROM
 EKB .F              5267:   KELLING BUSHING
 EGL .F              5257:   GROUND LEVEL
 DATE.             6-1-80:   RUN DATE
 RUN .                  1:   RUN NUMBER
 DD  .F              1498:   DEPTH DRILLER
 DL  .F              1492:   DEPTH LOGGER
 BLI .F              1490:   BOTTOM LOG INTERVAL
 TLI .F               750:   TOP LOG INTERVAL
 CS  .IN            9.625:   CASING SIZE
 CBD .F               772:   CASING BOTTOM DRILLER
 BS  .IN             8.75:   BIT SIZE
 BSD .F              1498:   BIT SIZE AT DEPTH
 DFT .        AIR DRILLED:   DRILLING FLUID TYPE
 TCS .HRS               4:   TIME CURCULATED STOPPED
 MRT .F                88:   MAXIMUM RECORDED TEMPERATURE
 ENGI.               REIN:   RECORDING ENGINEER
 WITN.            RHOADES:   WITNESSED BY
 CLNT.            A2DTECH:   CLIENT CODE
 ORIG.           5" PRINT:   ORIGIN OF DATA
 UWI .       490251082000:   UNIQUE WELL ID
 DICO. A2D Technologies, Inc.:   DIGITIZING COMPANY
~OTHER INFORMATION
~A   DEPT     CALD         GRD      CORR       RHOB       DPHI   
# ...
 1055.0000     9.2077    80.1641     0.0664     2.4309     0.0626
 1055.5000     9.2966    79.8414     0.0570     2.4448     0.0746
 1056.0000     9.3131    79.5341     0.0701     2.4628     0.0575
 1056.5000     9.2107    79.2262     0.0843     2.4616     0.0502
 1057.0000     9.1260    79.5928     0.0959     2.4728     0.0528
 1057.5000     9.1992    80.0607     0.1042     2.4833     0.0403
 1058.0000     9.3114    80.5294     0.1130     2.4931     0.0411
 1058.5000     9.3709    80.9974     0.1217     2.5108     0.0226
 1059.0000     9.3669    81.4653     0.1307     2.5019     0.0205
 1059.5000     9.3600    81.9256     0.1208     2.4880     0.0290
 1060.0000     9.3540    82.1578     0.1077     2.4767     0.0379
 1060.5000     9.2955    81.8691     0.0965     2.4682     0.0454
 1061.0000     9.1995    81.6316     0.0842     2.4570     0.0511
 1061.5000     9.1035    81.8588     0.0660     2.4421     0.0607
 1062.0000     9.0217    82.2247     0.0530     2.4443     0.0642
 1062.5000     9.0279    82.5918     0.0621     2.4546     0.0578
 1063.0000     9.0724    82.9590     0.0715     2.4688     0.0527
 1063.5000     9.1171    83.1497     0.0752     2.4878     0.0406
 1064.0000     9.1623    83.1497     0.0802     2.5018     0.0286
 1064.5000     9.2059    83.1589     0.0915     2.5104     0.0181
 1065.0000     9.2342    82.7111     0.1008     2.4981     0.0251
 1065.5000     9.2542    82.1254     0.0904     2.4854     0.0323
 1066.0000     9.2760    81.5365     0.0816     2.4739     0.0378
 1066.5000     9.2976    80.9395     0.0698     2.4557     0.0509
 1067.0000     9.3101    80.7627     0.0578     2.4442     0.0633
 1067.5000     9.3104    81.3772     0.0558     2.4496     0.0606
 1068.0000     9.3061    81.9986     0.0630     2.4536     0.0572
 1068.5000     9.2358    82.5404     0.0650     2.4227     0.0661
 1069.0000     9.1663    82.3321     0.0548     2.4172     0.0803
 1069.5000     9.1944    82.2473     0.0602     2.4222     0.0829
 1070.0000     9.2290    82.3224     0.0756     2.4482     0.0770
 1070.5000     9.2709    81.7013     0.0878     2.4649     0.0554
 1071.0000     9.2830    81.3276     0.0966     2.4709     0.0470
 1071.5000     9.2991    81.8771     0.1051     2.4774     0.0426
 1072.0000     9.3158    82.7093     0.1069     2.4738     0.0395
 1072.5000     9.3261    83.1477     0.0935     2.4738     0.0395
 1073.0000     9.2518    83.2638     0.0858     2.4567     0.0507
 1073.5000     9.1784    83.4253     0.0691     2.4498     0.0596
 1074.0000     9.1034    83.5907     0.0707     2.4729     0.0518
 1074.5000     9.0760    83.7341     0.0800     2.4645     0.0431
 1075.0000     9.0412    83.2544     0.0861     2.4615     0.0501
 1075.5000     9.0458    82.7274     0.0834     2.4565     0.0540
 1076.0000     9.1371    82.8557     0.0804     2.4475     0.0564
 1076.5000     9.1919    83.3298     0.0757     2.4403     0.0638
 1077.0000     9.1999    83.8127     0.0907     2.4636     0.0669
 1077.5000     9.2086    84.0552     0.1071     2.4894     0.0449
 1078.0000     9.2171    84.0523     0.1061     2.4924     0.0331
 1078.5000     9.2256    83.9023     0.0880     2.4678     0.0298
 1079.0000     9.2256    83.4426     0.0803     2.4718     0.0483
 1079.5000     9.2153    82.9857     0.0736     2.4574     0.0419
 1080.0000     9.2050    82.5661     0.0667     2.4572     0.0568
 1080.5000     9.1947    82.8286     0.0687     2.4610     0.0529
 1081.0000     9.1886    83.0933     0.0698     2.4633     0.0548
 1081.5000     9.2090    83.6096     0.0661     2.4523     0.0479
 1082.0000     9.2299    84.1881     0.0630     2.4399     0.0613
 1082.5000     9.2295    84.7695     0.0643     2.4279     0.0705
 1083.0000     9.2293    85.3475     0.0659     2.4301     0.0722
 1083.5000     9.2294    85.9295     0.0680     2.4276     0.0733
 1084.0000     9.2304    86.1182     0.0725     2.4203     0.0746
 1084.5000     9.2868    85.8607     0.0770     2.4069     0.0853
 1085.0000     9.3708    85.6056     0.0798     2.4036     0.0892
 1085.5000     9.3612    85.7541     0.0825     2.4025     0.0887
 1086.0000     9.3528    86.1641     0.0913     2.3975     0.0903
 1086.5000     9.3441    86.2475     0.1030     2.3895     0.1016
 1087.0000     9.3357    86.1616     0.1079     2.3968     0.0972
 1087.5000     9.3309    86.1656     0.1177     2.3907     0.0931
 1088.0000     9.3384    86.1676     0.1392     2.3629     0.1073
 1088.5000     9.3459    86.1699     0.1604     2.3740     0.1190
 1089.0000     9.3656    86.1528     0.1909     2.3980     0.1014
 1089.5000     9.4044    85.7346     0.2183     2.4324     0.0839
 1090.0000     9.4428    85.3105     0.2467     2.4481     0.0664
 1090.5000     9.4815    84.8748     0.2894     2.4364     0.0620
 1091.0000     9.5216    84.3371     0.2481     2.4321     0.0690
 1091.5000     9.5667    84.8839     0.1815     2.4385     0.0713
 1092.0000     9.6353    84.7948     0.1565     2.4502     0.0576
 1092.5000     9.6859    84.5165     0.1230     2.4425     0.0625
 1093.0000     9.6326    84.2252     0.1109     2.4326     0.0685
 1093.5000     9.5796    84.0686     0.0979     2.4436     0.0657
 1094.0000     9.4761    84.5214     0.0995     2.4580     0.0565
 1094.5000     9.3116    84.9608     0.1099     2.4598     0.0534
 1095.0000     9.2910    84.4405     0.1028     2.4562     0.0524
 1095.5000     9.2746    83.6703     0.0951     2.4459     0.0598
 1096.0000     9.2573    82.8827     0.0864     2.4637     0.0653
 1096.5000     9.2355    82.9280     0.0766     2.4621     0.0481
 1097.0000     9.1919    83.0487     0.0668     2.4667     0.0537
 1097.5000     9.1501    83.1337     0.0571     2.4652     0.0470
 1098.0000     9.1601    83.8493     0.0487     2.4574     0.0513
 1098.5000     9.1792    84.7286     0.0411     2.4473     0.0596
 1099.0000     9.1983    85.6122     0.0383     2.4526     0.0629
 1099.5000     9.2173    86.5064     0.0348     2.4466     0.0572
 1100.0000     9.2363    86.7559     0.0368     2.4427     0.0624
 1100.5000     9.2495    86.5271     0.0388     2.4425     0.0633
 1101.0000     9.2008    86.1543     0.0298     2.4366     0.0669
 1101.5000     9.1462    85.5268     0.0221     2.4399     0.0685
 1102.0000     9.0931    84.8987     0.0228     2.4525     0.0661
 1102.5000     9.1832    84.3190     0.0264     2.4614     0.0489
 1103.0000     9.1713    84.8574     0.0342     2.4591     0.0568
 1103.5000     9.1109    85.2694     0.0443     2.4836     0.0460
 1104.0000     9.0507    85.6785     0.0545     2.4950     0.0362
 1104.5000     9.0638    85.8649     0.0646     2.4964     0.0278
 1105.0000     9.0860    85.7288     0.0734     2.4876     0.0327
 1105.5000     9.1072    85.5449     0.0732     2.4778     0.0377
 1106.0000     9.0796    85.3596     0.0726     2.4775     0.0435
 1106.5000     9.0486    85.1747     0.0754     2.4862     0.0391
 1107.0000     9.0277    84.9899     0.0814     2.4952     0.0338
 1107.5000     9.0453    84.8051     0.0786     2.5020     0.0285
 1108.0000     9.0761    84.6205     0.0752     2.5091     0.0236
 1108.5000     9.1124    84.4336     0.0800     2.5189     0.0148
 1109.0000     9.1286    84.3616     0.0716     2.5058     0.0148
 1109.5000     9.1451    84.5394     0.0560     2.4891     0.0287
 1110.0000     9.1620    84.7300     0.0516     2.4726     0.0396
 1110.5000     9.1788    84.9216     0.0498     2.4683     0.0498
 1111.0000     9.1956    84.8232     0.0545     2.4759     0.0398
 1111.5000     9.2125    84.4597     0.0446     2.4638     0.0467
 1112.0000     9.2294    84.0982     0.0283     2.4613     0.0528
 1112.5000     9.2464    83.7381     0.0208     2.4488     0.0508
 1113.0000     9.2424    83.4432     0.0182     2.4262     0.0710
 1113.5000     9.2245    83.4481     0.0313     2.4406     0.0790
 1114.0000     9.2065    83.4507     0.0463     2.4624     0.0568
 1114.5000     9.1896    83.5754     0.0546     2.4824     0.0438
 1115.0000     9.1920    84.2406     0.0629     2.4797     0.0382
 1115.5000     9.2076    84.8852     0.0551     2.4769     0.0415
