~VERSION INFORMATION
 VERS.                2.0:   CWLS LOG ASCII STANDARD - VERSION 2.0
 WRAP.                 NO:   ONE LINE PER DEPTH STEP
~WELL INFORMATION
#MNEM.UNIT      DATA TYPE    INFORMATION
#----------   ------------   ------------------------------
 STRT.F            3.0000:   START DEPTH
 STOP.F          523.0000:   STOP DEPTH
 STEP.F            0.1000:   STEP LENGTH
 NULL.          -999.2500:   NO VALUE
 COMP.     BROWN JOHN E&C:   COMPANY
 WELL.   NPR 3 #52-2-SX-3:   WELL
 FLD .             TEAPOT:   FIELD
 LOC .       S3 T38N R78W:   LOCATION
 CNTY.            NATRONA:   COUNTY
 STAT.            WYOMING:   STATE
 CTRY. UNITED STATES OF AMERICA:   COUNTRY
 SRVC.     Atlas Wireline:   SERVICE COMPANY
 DATE.        18-APR-1992:   LOGDATE
 API .       490252251500:   API NUMBER
~CURVE INFORMATION
#MNEM.UNIT       API CODE    CURVE DESCRIPTION
#----------   ------------   ------------------------------
 DEPT.F                  :   
 GRR .GAPI   07 310 01 00:   GAMMA RAY
 RILD.OHMM   07 120 46 00:   INDUCTION LOG DEEP RESISTIVITY
 RILM.OHMM   07 120 44 00:   INDUCTION LOG MEDIUM RESISTIVITY
~PARAMETER INFORMATION
#MNEM.UNIT          VALUE    DESCRIPTION
#----------   ------------   ------------------------------
 PD  .                 GL:   PERMANENT DATUM
 EPD .F              5128:   ELEVATION PERMANENT DATUM
 LMF .                 KB:   LOG MEASURED FROM
 DAPD.F                 5:   FEET ABOVE PERMANENT DATUM
 DMF .                 KB:   DRILLING MEASURED FROM
 EKB .F              5133:   KELLING BUSHING
 EDF .F              5132:   DRILLING FLOOR
 EGL .F              5128:   GROUND LEVEL
 DATE.        18-APR-1992:   RUN DATE
 RUN .                  1:   RUN NUMBER
 DD  .F               525:   DEPTH DRILLER
 DL  .F               526:   DEPTH LOGGER
 BLI .F               524:   BOTTOM LOG INTERVAL
 CS  .IN            8.625:   CASING SIZE
 CBD .F                48:   CASING BOTTOM DRILLER
 CBL .F                49:   CASING BOTTOM LOGGER
 BS  .IN            7.875:   BIT SIZE
 BSD .F               525:   BIT SIZE AT DEPTH
 DFT .                AIR:   DRILLING FLUID TYPE
 TCS .HRS               2:   TIME CURCULATED STOPPED
 MRT .F                87:   MAXIMUM RECORDED TEMPERATURE
 LUN .            HL 6274:   LOGGING UNIT NUMBER
 LUL .             CASPER:   LOGGING UNIT LOCATION
 ENGI.            LEBSOCK:   RECORDING ENGINEER
 WITN.             STRONG:   WITNESSED BY
 CLNT.            A2DTECH:   CLIENT CODE
 ORIG.       2", 5" PRINT:   ORIGIN OF DATA
 UWI .       490252251500:   UNIQUE WELL ID
 DICO. A2D Technologies, Inc.:   DIGITIZING COMPANY
~OTHER INFORMATION
~A    DEPT     GRR       RILD       RILM   
# ...
  439.8000   104.2424    13.4016    12.2861
  439.9000   105.3264    13.3354    12.2299
  440.0000   106.7275    13.3354    12.2285
  440.1000   107.8952    13.3354    12.1573
  440.2000   108.6388    13.3354    12.1406
  440.3000   109.3939    13.2987    12.1393
  440.4000   110.3701    13.2425    12.1142
  440.5000   111.1729    13.2425    12.0520
  440.6000   112.0503    13.2425    12.0506
  440.7000   112.9631    13.1800    12.0493
  440.8000   113.6364    13.1503    12.0010
  440.9000   113.6364    13.1211    11.9628
  441.0000   113.6364    13.0587    11.9614
  441.1000   113.6364    13.0587    11.9601
  441.2000   113.6364    13.0587    11.9585
  441.3000   113.6364    13.0587    11.9574
  441.4000   113.6364    13.0587    11.9561
  441.5000   113.5755    13.0366    11.9547
  441.6000   113.5135    12.9678    11.9434
  441.7000   113.4516    12.9678    11.8687
  441.8000   113.3896    12.9678    11.8675
  441.9000   113.3333    12.9678    11.8662
  442.0000   113.3333    12.9678    11.8648
  442.1000   113.3333    12.9678    11.8635
  442.2000   113.3333    12.9678    11.8622
  442.3000   113.3333    12.9678    11.8606
  442.4000   113.3333    12.9678    11.8595
  442.5000   113.3333    12.9678    11.8582
  442.6000   113.3333    12.9678    11.8569
  442.7000   113.3333    12.9678    11.8556
  442.8000   113.2008    12.9678    11.8542
  442.9000   113.0303    12.9678    11.8529
  443.0000   112.9858    12.9678    11.8516
  443.1000   112.4242    12.9678    11.8503
  443.2000   112.2093    12.9678    11.8489
  443.3000   111.9614    12.9678    11.8476
  443.4000   111.7136    12.9678    11.8461
  443.5000   111.4162    12.9678    11.8450
  443.6000   110.9091    12.9247    11.8436
  443.7000   110.6669    12.8775    11.8423
  443.8000   110.4190    12.8775    11.8410
  443.9000   110.1711    12.8775    11.8396
  444.0000   109.9232    12.8093    11.7724
  444.1000   109.6753    12.7878    11.7546
  444.2000   109.3939    12.7878    11.7533
  444.3000   109.1796    12.7680    11.7520
  444.4000   108.9317    12.6988    11.7506
  444.5000   108.7879    12.6988    11.7492
  444.6000   108.7390    12.6988    11.8074
  444.7000   108.4848    12.6988    11.8291
  444.8000   108.4848    12.6988    11.8278
  444.9000   108.2984    12.6988    11.8264
  445.0000   108.1818    12.6988    11.8251
  445.1000   108.1057    12.6988    11.8238
  445.2000   107.8788    12.7529    11.8225
  445.3000   107.8788    12.7878    11.8211
  445.4000   107.8788    12.8102    11.8198
  445.5000   108.0374    12.8775    11.8185
  445.6000   108.1818    12.8775    11.8171
  445.7000   108.2301    12.8775    11.8159
  445.8000   108.4848    12.8775    11.8145
  445.9000   108.7259    12.8775    11.8132
  446.0000   108.9737    12.8775    11.8119
  446.1000   109.2216    12.8775    11.8106
  446.2000   109.3939    12.8775    11.8090
  446.3000   109.3532    12.8775    11.8079
  446.4000   108.7879    12.8366    11.8066
  446.5000   108.5748    12.7878    11.8053
  446.6000   108.1690    12.7878    11.8040
  446.7000   107.6732    12.7878    11.8026
  446.8000   107.2250    12.7878    11.8013
  446.9000   106.9697    12.7878    11.8000
  447.0000   106.9697    12.7878    11.7987
  447.1000   107.1549    12.7878    11.7974
  447.2000   107.4028    12.7878    11.7961
  447.3000   107.7256    12.7878    11.7945
  447.4000   108.2215    12.7878    11.7934
  447.5000   108.7879    12.7878    11.7921
  447.6000   109.2130    12.7878    11.7908
  447.7000   109.7087    12.7878    11.7895
  447.8000   110.2045    12.7878    11.7881
  447.9000   110.6531    12.7878    11.7868
  448.0000   110.9091    12.7878    11.7855
  448.1000   110.9091    12.7878    11.7842
  448.2000   110.9091    12.7878    11.7829
  448.3000   110.9091    12.7878    11.7816
  448.4000   110.9091    12.7878    11.7801
  448.5000   110.8707    12.7878    11.7215
  448.6000   110.3030    12.7878    11.6956
  448.7000   109.0316    12.7878    11.6943
  448.8000   108.0146    12.7878    11.6930
  448.9000   107.4742    12.7878    11.6916
  449.0000   107.2263    12.7172    11.6904
  449.1000   106.9697    12.6988    11.6891
  449.2000   106.9697    12.6988    11.6878
  449.3000   106.9697    12.6988    11.6864
  449.4000   107.0986    12.6988    11.6851
  449.5000   107.3465    12.6988    11.6837
  449.6000   107.6129    12.6353    11.6825
  449.7000   108.1818    12.6103    11.6812
  449.8000   108.3931    12.6103    11.6799
  449.9000   108.7971    12.6103    11.6640
  450.0000   109.3933    12.6103    11.5960
  450.1000   110.1355    12.4669    11.9246
  450.2000   110.6958    12.4343    11.8413
  450.3000   110.9780    12.3948    11.7767
  450.4000   111.5127    12.3466    11.7585
  450.5000   111.7394    12.3461    11.7245
  450.6000   111.9863    12.3455    11.6577
  450.7000   112.2332    12.3451    11.5912
  450.8000   112.4194    12.3446    11.5139
  450.9000   112.4239    12.3441    11.5138
  451.0000   112.6708    12.3435    11.4741
  451.1000   112.7206    12.3430    11.4333
  451.2000   112.8614    12.3425    11.4232
  451.3000   113.0224    12.3420    11.3533
  451.4000   113.0218    12.3415    11.3532
  451.5000   113.0211    12.3410    11.3077
  451.6000   113.0206    12.3347    11.2738
  451.7000   113.0200    12.2539    11.2575
  451.8000   112.6862    12.1938    11.1950
  451.9000   111.9431    12.0804    11.1948
  452.0000   111.2000    11.9427    11.1437
  452.1000   110.4571    11.8189    11.1166
  452.2000   109.9059    11.7483    11.1164
  452.3000   109.5467    11.6838    11.1084
  452.4000   109.3794    11.6168    11.0387
  452.5000   109.3788    11.5838    11.0385
  452.6000   109.3781    11.5834    11.0384
  452.7000   109.5948    11.5829    11.0101
  452.8000   110.0033    11.5823    10.9474
  452.9000   110.3915    11.5819    10.8847
  453.0000   110.6889    11.5814    10.8846
  453.1000   111.1933    11.6066    10.8367
  453.2000   111.9201    11.6617    10.8085
  453.3000   112.6619    11.6611    10.7887
  453.4000   113.1410    11.6607    10.7329
  453.5000   113.3879    11.6602    10.7327
  453.6000   113.6348    11.6597    10.7326
  453.7000   113.9169    11.6416    10.6932
  453.8000   113.9164    11.5775    10.6576
  453.9000   113.7592    11.5770    10.6458
  454.0000   113.5111    11.5228    10.5831
  454.1000   113.3085    11.4955    10.5247
  454.2000   113.3079    11.4710    10.5091
  454.3000   113.5446    11.4052    10.4781
  454.4000   113.7915    11.3344    10.4356
  454.5000   114.0384    11.2748    10.4354
  454.6000   114.2852    11.2546    10.4353
  454.7000   114.5321    11.2241    10.3853
  454.8000   114.8193    11.1443    10.3623
  454.9000   115.2329    11.0172    10.3393
  455.0000   115.5758    10.8918    10.2803
  455.1000   115.9186    10.8167    10.2181
  455.2000   116.3725    10.7547    10.2180
  455.3000   116.6345    10.7142    10.1764
  455.4000   116.4016    10.7137    10.1465
  455.5000   116.3303    10.7132    10.1313
  455.6000   116.3297    10.6581    10.0735
  455.7000   116.3948    10.6378    10.0052
  455.8000   116.6315    10.6102    10.0051
  455.9000   116.6308    10.5493     9.9717
  456.0000   116.8323    10.4888     9.9149
  456.1000   116.9327    10.4287     9.8659
  456.2000   117.1139    10.3690     9.8657
  456.3000   117.6083    10.3095     9.8146
  456.4000   118.1430    10.2315     9.7587
  456.5000   118.8243    10.1148     9.7031
  456.6000   119.3943     9.9855     9.6605
  456.7000   119.7725     9.8367     9.6600
  456.8000   120.0194     9.7413     9.6050
  456.9000   120.2612     9.6386     9.5928
  457.0000   120.2606     9.5073     9.5624
  457.1000   120.2600     9.5069     9.5079
  457.2000   120.2594     9.5065     9.4537
  457.3000   120.2588     9.5061     9.3933
  457.4000   120.2582     9.4770     9.3932
  457.5000   120.2575     9.4227     9.3581
  457.6000   119.3682     9.3643     9.3048
  457.7000   117.2109     9.2424     9.2517
  457.8000   115.1548     9.1079     9.1978
  457.9000   113.9724     8.9530     9.0455
