~VERSION INFORMATION
 VERS.                2.0:   CWLS LOG ASCII STANDARD - VERSION 2.0
 WRAP.                 NO:   ONE LINE PER DEPTH STEP
~WELL INFORMATION
#MNEM.UNIT      DATA TYPE    INFORMATION
#----------   ------------   ------------------------------
 STRT.F          484.0000:   START DEPTH
 STOP.F         2291.5000:   STOP DEPTH
 STEP.F            0.5000:   STEP LENGTH
 NULL.          -999.2500:   NO VALUE
 COMP. FENIX & SCISSON INC:   COMPANY
 WELL.     45 SHX 3 #45-3:   WELL
 FLD .             TEAPOT:   FIELD
 LOC .       S3 T38N R78W:   LOCATION
 CNTY.            NATRONA:   COUNTY
 STAT.            WYOMING:   STATE
 CTRY. UNITED STATES OF AMERICA:   COUNTRY
 SRVC.              Welex:   SERVICE COMPANY
 DATE.        20-APR-1980:   LOGDATE
 API .       490251080400:   API NUMBER
~CURVE INFORMATION
#MNEM.UNIT       API CODE    CURVE DESCRIPTION
#----------   ------------   ------------------------------
 DEPT.F                  :   
 CALD.IN     45 280 60 00:   CALIPER
 GRD .GAPI   45 310 01 00:   GAMMA RAY FROM DENSITY LOG
 CORR.G/C3   45 356 01 00:   DENSITY CORRECTION
 RHOB.G/C3   45 350 01 00:   BULK DENSITY
 DPHI.DEC    45 890 12 00:   DENSITY POROSITY SANDSTONE
~PARAMETER INFORMATION
#MNEM.UNIT          VALUE    DESCRIPTION
#----------   ------------   ------------------------------
 PD  .                 GL:   PERMANENT DATUM
 EPD .F              5186:   ELEVATION PERMANENT DATUM
 LMF .                 KB:   LOG MEASURED FROM
 DAPD.F                10:   FEET ABOVE PERMANENT DATUM
 DMF .                 KB:   DRILLING MEASURED FROM
 EKB .F              5196:   KELLING BUSHING
 EGL .F              5186:   GROUND LEVEL
 DATE.            4-20-80:   RUN DATE
 RUN .                  1:   RUN NUMBER
 DD  .F              2341:   DEPTH DRILLER
 DL  .F              2293:   DEPTH LOGGER
 BLI .F              2291:   BOTTOM LOG INTERVAL
 TLI .F               500:   TOP LOG INTERVAL
 CS  .IN            9.625:   CASING SIZE
 BS  .IN             8.75:   BIT SIZE
 BSD .F              2341:   BIT SIZE AT DEPTH
 DFT .                OIL:   DRILLING FLUID TYPE
 TCS .HRS               2:   TIME CURCULATED STOPPED
 MRT .F               218:   MAXIMUM RECORDED TEMPERATURE
 ENGI.            TOTHILL:   RECORDING ENGINEER
 WITN.           DINSMORE:   WITNESSED BY
 CLNT.            A2DTECH:   CLIENT CODE
 ORIG.           5" PRINT:   ORIGIN OF DATA
 UWI .       490251080400:   UNIQUE WELL ID
 DICO. A2D Technologies, Inc.:   DIGITIZING COMPANY
~OTHER INFORMATION
~A   DEPT     CALD         GRD      CORR       RHOB       DPHI   
# ...
 1887.0000     8.6947    92.8006     0.0580     2.5023     0.0818
 1887.5000     8.7301    92.8089     0.0587     2.5064     0.0803
 1888.0000     8.7656    92.8072     0.0591     2.5052     0.0796
 1888.5000     8.7929    92.8069     0.0569     2.5036     0.0815
 1889.0000     8.7924    92.8078     0.0561     2.5042     0.0823
 1889.5000     8.7923    92.8137     0.0573     2.5050     0.0804
 1890.0000     8.7923    92.5672     0.0627     2.5036     0.0822
 1890.5000     8.7934    92.2873     0.0542     2.4994     0.0843
 1891.0000     8.7983    92.0059     0.0507     2.4952     0.0865
 1891.5000     8.8030    91.7262     0.0437     2.4934     0.0864
 1892.0000     8.8077    91.4516     0.0443     2.4923     0.0869
 1892.5000     8.8124    91.5659     0.0411     2.4936     0.0885
 1893.0000     8.8171    92.1458     0.0517     2.5040     0.0818
 1893.5000     8.8218    92.7220     0.0611     2.5142     0.0754
 1894.0000     8.8265    93.2941     0.0613     2.5191     0.0730
 1894.5000     8.8313    93.6103     0.0605     2.5209     0.0716
 1895.0000     8.8304    93.1188     0.0574     2.5187     0.0752
 1895.5000     8.8272    92.6471     0.0467     2.5052     0.0806
 1896.0000     8.8239    92.5051     0.0391     2.5036     0.0821
 1896.5000     8.8207    92.5848     0.0425     2.5042     0.0792
 1897.0000     8.8174    92.6979     0.0498     2.5112     0.0763
 1897.5000     8.8134    92.8254     0.0570     2.5187     0.0734
 1898.0000     8.7738    93.2167     0.0600     2.5221     0.0708
 1898.5000     8.6942    93.5982     0.0613     2.5257     0.0690
 1899.0000     8.6791    93.9773     0.0623     2.5281     0.0675
 1899.5000     8.7100    94.3559     0.0563     2.5157     0.0753
 1900.0000     8.7405    94.7351     0.0439     2.5032     0.0826
 1900.5000     8.7665    95.1293     0.0449     2.5041     0.0814
 1901.0000     8.7109    95.2206     0.0470     2.5076     0.0794
 1901.5000     8.6515    95.2220     0.0491     2.5106     0.0776
 1902.0000     8.5924    95.2190     0.0532     2.5180     0.0772
 1902.5000     8.6389    95.2300     0.0681     2.5339     0.0627
 1903.0000     8.6906    95.6508     0.0777     2.5421     0.0611
 1903.5000     8.5995    96.1004     0.0658     2.5212     0.0695
 1904.0000     8.5031    96.5569     0.0542     2.5087     0.0756
 1904.5000     8.4129    96.4961     0.0471     2.5089     0.0805
 1905.0000     8.4396    96.1198     0.0528     2.5111     0.0764
 1905.5000     8.4700    95.7383     0.0610     2.5133     0.0732
 1906.0000     8.4311    95.3502     0.0589     2.5094     0.0780
 1906.5000     8.3845    95.3234     0.0501     2.4974     0.0873
 1907.0000     8.3862    95.4723     0.0457     2.4867     0.0921
 1907.5000     8.4629    95.6254     0.0484     2.4908     0.0893
 1908.0000     8.5300    95.7787     0.0508     2.4952     0.0860
 1908.5000     8.5140    95.9313     0.0496     2.4936     0.0877
 1909.0000     8.4916    96.0908     0.0543     2.5055     0.0784
 1909.5000     8.5564    95.9269     0.0565     2.5075     0.0819
 1910.0000     8.5841    95.5463     0.0425     2.4936     0.0889
 1910.5000     8.5666    95.1643     0.0412     2.4920     0.0875
 1911.0000     8.5487    94.7827     0.0448     2.4996     0.0831
 1911.5000     8.5306    94.4025     0.0551     2.5140     0.0700
 1912.0000     8.5720    94.0063     0.0611     2.5245     0.0727
 1912.5000     8.6430    93.2616     0.0532     2.5159     0.0743
 1913.0000     8.6333    92.4949     0.0535     2.5217     0.0712
 1913.5000     8.5393    91.7280     0.0415     2.5107     0.0806
 1914.0000     8.4515    91.0154     0.0349     2.4972     0.0900
 1914.5000     8.4466    91.2292     0.0228     2.4849     0.0938
 1915.0000     8.4413    91.7778     0.0299     2.4922     0.0870
 1915.5000     8.4357    92.3193     0.0383     2.5041     0.0821
 1916.0000     8.4298    92.8619     0.0392     2.5011     0.0823
 1916.5000     8.4385    93.4041     0.0392     2.4966     0.0833
 1917.0000     8.4490    93.9398     0.0390     2.5003     0.0827
 1917.5000     8.4790    94.3807     0.0465     2.4986     0.0846
 1918.0000     8.5383    94.5677     0.0457     2.4940     0.0915
 1918.5000     8.5123    94.7593     0.0356     2.4775     0.0978
 1919.0000     8.4490    94.8559     0.0351     2.4748     0.0981
 1919.5000     8.4518    94.3900     0.0366     2.4790     0.0978
 1920.0000     8.5150    94.0139     0.0458     2.4873     0.0885
 1920.5000     8.5788    94.4009     0.0522     2.4912     0.0917
 1921.0000     8.5692    94.8030     0.0449     2.4789     0.0970
 1921.5000     8.5138    95.2019     0.0393     2.4740     0.1002
 1922.0000     8.4582    95.5951     0.0447     2.4811     0.0945
 1922.5000     8.4577    95.6298     0.0474     2.4874     0.0903
 1923.0000     8.4696    95.1661     0.0535     2.4916     0.0877
 1923.5000     8.4545    94.7098     0.0591     2.4955     0.0853
 1924.0000     8.4322    94.2546     0.0585     2.4924     0.0883
 1924.5000     8.4302    94.1811     0.0578     2.4878     0.0928
 1925.0000     8.4741    94.5324     0.0582     2.4859     0.0928
 1925.5000     8.5653    94.8800     0.0622     2.4883     0.0902
 1926.0000     8.6563    95.2296     0.0715     2.4918     0.0876
 1926.5000     8.7481    95.5790     0.0827     2.4958     0.0861
 1927.0000     8.7319    95.9275     0.0776     2.4875     0.0922
 1927.5000     8.6931    96.2774     0.0753     2.4763     0.0961
 1928.0000     8.6552    96.3479     0.0776     2.4710     0.0982
 1928.5000     8.6389    96.1306     0.0739     2.4654     0.1038
 1929.0000     8.6611    95.9139     0.0786     2.4625     0.1058
 1929.5000     8.6839    95.6931     0.0846     2.4621     0.1062
 1930.0000     8.6349    95.3602     0.0927     2.4654     0.1042
 1930.5000     8.5444    95.1087     0.1009     2.4705     0.1022
 1931.0000     8.4528    94.5353     0.1053     2.4694     0.1023
 1931.5000     8.3609    94.0234     0.1012     2.4671     0.1034
 1932.0000     8.3578    94.0696     0.0976     2.4688     0.1013
 1932.5000     8.3685    94.1999     0.1008     2.4732     0.0979
 1933.0000     8.3715    94.3275     0.1093     2.4913     0.0885
 1933.5000     8.4025    94.4548     0.1155     2.5096     0.0760
 1934.0000     8.4341    94.5875     0.1002     2.5052     0.0792
 1934.5000     8.5205    94.5171     0.0622     2.4986     0.0843
 1935.0000     8.6564    94.3265     0.0247     2.4847     0.0927
 1935.5000     8.7930    94.1414    -0.0102     2.4698     0.1023
 1936.0000     8.8452    94.2581    -0.0232     2.4636     0.1059
 1936.5000     8.8276    94.9697    -0.0095     2.4729     0.0993
 1937.0000     8.8175    95.6713    -0.0004     2.4822     0.0925
 1937.5000     8.8495    96.3743     0.0050     2.4911     0.0897
 1938.0000     8.8816    97.0767     0.0027     2.4846     0.0937
 1938.5000     8.8756    97.7792    -0.0087     2.4749     0.1002
 1939.0000     8.8483    98.4817    -0.0091     2.4708     0.1006
 1939.5000     8.8327    99.1847     0.0000     2.4744     0.0999
 1940.0000     8.8359    99.8869    -0.0087     2.4688     0.1035
 1940.5000     8.8390   100.5888    -0.0077     2.4668     0.1054
 1941.0000     8.8421   100.9633     0.0001     2.4738     0.0966
 1941.5000     8.8452   100.9951     0.0016     2.4746     0.1002
 1942.0000     8.8483    99.6535    -0.0068     2.4629     0.1043
 1942.5000     8.8512    98.1944    -0.0118     2.4606     0.1079
 1943.0000     8.8412    96.7360    -0.0127     2.4583     0.1072
 1943.5000     8.8041    95.2664    -0.0115     2.4608     0.1064
 1944.0000     8.7673    94.4027    -0.0133     2.4640     0.1070
 1944.5000     8.7306    93.7223    -0.0174     2.4550     0.1107
 1945.0000     8.6940    93.0605    -0.0183     2.4568     0.1087
 1945.5000     8.6652    92.3990    -0.0141     2.4629     0.1075
 1946.0000     8.6530    91.7364    -0.0097     2.4515     0.1111
 1946.5000     8.6950    91.0791    -0.0112     2.4547     0.1091
 1947.0000     8.7387    90.7589    -0.0179     2.4503     0.1141
 1947.5000     8.7601    91.1165    -0.0234     2.4469     0.1159
