~VERSION INFORMATION
 VERS.                2.0:   CWLS LOG ASCII STANDARD - VERSION 2.0
 WRAP.                 NO:   ONE LINE PER DEPTH STEP
~WELL INFORMATION
#MNEM.UNIT      DATA TYPE    INFORMATION
#----------   ------------   ------------------------------
 STRT.F            0.0000:   START DEPTH
 STOP.F         1008.0000:   STOP DEPTH
 STEP.F            0.5000:   STEP LENGTH
 NULL.          -999.2500:   NO VALUE
 COMP. LAWRENCE/ALLISON INC:   COMPANY
 WELL. NPR 3 #51-61-SX-14:   WELL
 FLD .             TEAPOT:   FIELD
 LOC .      S14 T38N R78W:   LOCATION
 CNTY.            NATRONA:   COUNTY
 STAT.            WYOMING:   STATE
 CTRY. UNITED STATES OF AMERICA:   COUNTRY
 SRVC.      Dresser Atlas:   SERVICE COMPANY
 DATE.        05-FEB-1986:   LOGDATE
 API .       490251106600:   API NUMBER
~CURVE INFORMATION
#MNEM.UNIT       API CODE    CURVE DESCRIPTION
#----------   ------------   ------------------------------
 DEPT.F                  :   
 GRR .GAPI   07 310 01 00:   GAMMA RAY FROM RES. LOG.
 RILD.OHMM   10 120 46 00:   INDUCTION LOG DEEP RESISTIVITY
 RILM.OHMM   07 120 44 00:   INDUCTION LOG MEDIUM RESISTIVITY
 CALD.IN     45 280 60 00:   CALIPER
 DEN .G/C3   45 350 01 00:   COMPENSATED BULK DENSTIY
 CORR.G/C3   45 356 01 00:   DENSITY CORRECTION
 PORD.DEC    45 890 10 00:   POROSITY DENSITY LIMESTONE
~PARAMETER INFORMATION
#MNEM.UNIT          VALUE    DESCRIPTION
#----------   ------------   ------------------------------
 PD  .                 GL:   PERMANENT DATUM
 EPD .F              5225:   ELEVATION PERMANENT DATUM
 LMF .                 GL:   LOG MEASURED FROM
 DMF .                 GL:   DRILLING MEASURED FROM
 EGL .F              5225:   GROUND LEVEL
 DATE.             2-5-86:   RUN DATE
 RUN .                  1:   RUN NUMBER
 DD  .F              1010:   DEPTH DRILLER
 DL  .F              1008:   DEPTH LOGGER
 BLI .F              1008:   BOTTOM LOG INTERVAL
 CS  .IN            8.625:   CASING SIZE
 CBD .F                86:   CASING BOTTOM DRILLER
 CBL .F                84:   CASING BOTTOM LOGGER
 BS  .IN             6.25:   BIT SIZE
 BSD .F              1010:   BIT SIZE AT DEPTH
 DFT .                AIR:   DRILLING FLUID TYPE
 LUN .            HL 6264:   LOGGING UNIT NUMBER
 LUL .           GILLETTE:   LOGGING UNIT LOCATION
 ENGI.           FAHLSING:   RECORDING ENGINEER
 WITN.              FIVAS:   WITNESSED BY
 CLNT.            A2DTECH:   CLIENT CODE
 ORIG.       2", 5" PRINT:   ORIGIN OF DATA
 UWI .       490251106600:   UNIQUE WELL ID
 DICO. A2D Technologies, Inc.:   DIGITIZING COMPANY
~OTHER INFORMATION
~A    DEPT      GRR      RILD       RILM       CALD        DEN       CORR       PORD   
# ...
  455.0000   125.7945     6.5546     6.2558     6.6184     2.4421     0.0743     0.1408
  455.5000   127.6466     6.6307     6.3392     6.6156     2.4468     0.0987     0.1380
  456.0000   124.4132     6.7077     6.4237     6.6128     2.4483     0.1145     0.1391
  456.5000   120.8388     6.7857     6.5094     6.6100     2.4428     0.0786     0.1412
  457.0000   119.7122     6.8645     6.5962     6.6121     2.4445     0.0718     0.1405
  457.5000   119.1376     6.9443     6.6841     6.6148     2.4486     0.0650     0.1380
  458.0000   116.1309     7.0250     6.7733     6.6175     2.4528     0.0580     0.1355
  458.5000   113.0348     7.1066     6.8636     6.6201     2.4569     0.0625     0.1330
  459.0000   112.7754     7.1891     6.9551     6.6228     2.4611     0.0708     0.1305
  459.5000   115.8890     7.2727     7.0478     6.6254     2.4653     0.0792     0.1281
  460.0000   119.7309     7.3361     7.1374     6.6281     2.4651     0.0876     0.1281
  460.5000   121.2732     7.3022     7.0576     6.6308     2.4632     0.0865     0.1293
  461.0000   118.0124     7.2752     6.9680     6.6334     2.4648     0.0842     0.1286
  461.5000   113.8804     7.2154     6.8791     6.6361     2.4683     0.0854     0.1267
  462.0000   114.5547     7.1461     6.7916     6.6388     2.4690     0.0881     0.1248
  462.5000   115.9676     7.0775     6.7052     6.6414     2.4690     0.0812     0.1251
  463.0000   115.1630     7.0096     6.6199     6.6441     2.4698     0.0746     0.1248
  463.5000   114.3152     6.9423     6.5356     6.6468     2.4710     0.0978     0.1240
  464.0000   115.8953     6.8757     6.4525     6.6499     2.4684     0.1245     0.1248
  464.5000   118.8784     6.8097     6.3703     6.6340     2.4670     0.0995     0.1268
  465.0000   122.0254     6.7444     6.2893     6.6132     2.4681     0.0914     0.1265
  465.5000   121.9830     6.6796     6.2092     6.5924     2.4694     0.0955     0.1256
  466.0000   121.3211     6.6156     6.1030     6.5919     2.4708     0.0963     0.1246
  466.5000   122.3420     6.5521     6.1193     6.5942     2.4737     0.0891     0.1227
  467.0000   121.0531     6.5090     6.1444     6.5964     2.4817     0.0974     0.1182
  467.5000   119.4710     6.5355     6.1695     6.5987     2.4899     0.1046     0.1124
  468.0000   117.8787     6.5556     6.1948     6.6009     2.4884     0.0935     0.1153
  468.5000   117.3040     6.5758     6.2202     6.6031     2.4741     0.0691     0.1253
  469.0000   116.8118     6.5961     6.2456     6.6054     2.4608     0.0506     0.1317
  469.5000   116.3089     6.6164     6.2712     6.6076     2.4554     0.0570     0.1348
  470.0000   115.8116     6.6368     6.2969     6.6098     2.4519     0.0680     0.1348
  470.5000   114.2630     6.6572     6.3227     6.6121     2.4562     0.0966     0.1340
  471.0000   113.3278     6.6778     6.3488     6.6143     2.4615     0.1166     0.1308
  471.5000   117.9909     6.6915     6.3725     6.6165     2.4666     0.1068     0.1275
  472.0000   122.5746     6.6913     6.4522     6.6188     2.4718     0.1044     0.1242
  472.5000   124.9185     6.6912     6.4620     6.6210     2.4771     0.1075     0.1216
  473.0000   115.9611     6.6912     6.4745     6.6232     2.4769     0.1044     0.1220
  473.5000   114.8939     6.6912     6.4870     6.6255     2.4750     0.0977     0.1223
  474.0000   117.5711     6.6912     6.4995     6.6277     2.4770     0.0909     0.1203
  474.5000   118.1764     6.6912     6.5121     6.6299     2.4839     0.0916     0.1162
  475.0000   118.3709     6.6912     6.5246     6.6295     2.4913     0.0923     0.1120
  475.5000   118.7011     6.6912     6.5372     6.6287     2.4971     0.0846     0.1108
  476.0000   119.2780     6.6913     6.5498     6.6280     2.4971     0.0806     0.1104
  476.5000   122.9992     6.6915     6.5625     6.6273     2.4931     0.0903     0.1112
  477.0000   127.2209     6.6914     6.5692     6.6266     2.4873     0.0964     0.1140
  477.5000   131.4594     6.6300     6.4177     6.6258     2.4811     0.0956     0.1175
  478.0000   134.9229     6.5623     6.3472     6.6251     2.4748     0.0949     0.1216
  478.5000   132.2542     6.4953     6.2775     6.6244     2.4685     0.0899     0.1257
  479.0000   127.9138     6.4290     6.2085     6.6237     2.4623     0.0827     0.1297
  479.5000   123.5719     6.3634     6.1403     6.6230     2.4568     0.0795     0.1332
  480.0000   121.9467     6.2985     6.0728     6.6222     2.4590     0.1026     0.1323
  480.5000   123.3537     6.2341     6.0060     6.6215     2.4657     0.1207     0.1271
  481.0000   125.0146     6.1702     5.9404     6.6208     2.4710     0.1216     0.1236
  481.5000   126.6740     6.1024     5.8825     6.6201     2.4683     0.0950     0.1254
  482.0000   128.1112     6.1034     5.8825     6.6193     2.4626     0.0685     0.1293
  482.5000   126.2589     6.1028     5.8825     6.6186     2.4583     0.0459     0.1321
  483.0000   119.7613     6.1029     5.8825     6.6179     2.4613     0.0466     0.1300
  483.5000   114.3316     6.1150     5.9380     6.6172     2.4643     0.0554     0.1279
  484.0000   113.6956     6.2277     6.0510     6.6165     2.4668     0.0766     0.1260
  484.5000   116.7587     6.3426     6.1523     6.6157     2.4637     0.0796     0.1285
  485.0000   120.0385     6.4594     6.2659     6.6150     2.4630     0.0754     0.1295
  485.5000   123.3187     6.5783     6.3802     6.6143     2.4648     0.0934     0.1293
  486.0000   125.9771     6.6996     6.4966     6.6136     2.4570     0.1258     0.1332
  486.5000   127.9088     6.8235     6.6152     6.6129     2.4470     0.1330     0.1396
  487.0000   124.6188     6.9417     6.7531     6.6121     2.4411     0.1327     0.1436
  487.5000   121.1822     6.8645     6.6605     6.6114     2.4510     0.1141     0.1384
  488.0000   119.1004     6.7899     6.5543     6.6107     2.4635     0.0956     0.1311
  488.5000   120.0716     6.7167     6.4498     6.6101     2.4710     0.0820     0.1240
  489.0000   120.9764     6.6444     6.3470     6.6133     2.4703     0.0756     0.1246
  489.5000   121.4641     6.5728     6.2458     6.6166     2.4613     0.0636     0.1312
  490.0000   120.6118     6.5021     6.1462     6.6199     2.4502     0.0536     0.1384
  490.5000   119.7761     6.4321     6.0483     6.6232     2.4429     0.0643     0.1412
  491.0000   119.2806     6.3629     5.9518     6.6264     2.4468     0.0718     0.1391
  491.5000   121.3321     6.2765     5.8825     6.6297     2.4527     0.0783     0.1349
  492.0000   123.9155     6.2931     5.9663     6.6330     2.4615     0.0848     0.1287
  492.5000   125.8211     6.3207     6.0330     6.6363     2.4692     0.0912     0.1245
  493.0000   123.9206     6.3978     6.1585     6.6395     2.4690     0.0970     0.1248
  493.5000   122.1326     6.5622     6.3025     6.6428     2.4690     0.0987     0.1251
  494.0000   121.6525     6.7309     6.4497     6.6461     2.4732     0.1010     0.1227
  494.5000   123.6867     6.9039     6.6005     6.6493     2.4830     0.1125     0.1168
  495.0000   122.2861     7.0813     6.7548     6.6526     2.4939     0.1243     0.1108
  495.5000   116.9271     7.2635     6.9126     6.6559     2.5074     0.1366     0.1049
  496.0000   113.9918     7.4495     7.0742     6.6592     2.5057     0.1226     0.1004
  496.5000   115.0052     7.6255     7.2395     6.6624     2.5002     0.1030     0.1069
  497.0000   116.7243     7.7060     7.4087     6.6657     2.4951     0.1013     0.1097
  497.5000   115.0655     7.7525     7.4724     6.6690     2.4978     0.1013     0.1077
  498.0000   113.2669     7.4411     7.2077     6.6722     2.5080     0.1038     0.1044
  498.5000   111.5112     7.2321     7.0293     6.6755     2.5078     0.1062     0.1019
  499.0000   111.0032     7.0290     6.8553     6.6788     2.5051     0.1087     0.1035
  499.5000   114.4632     6.8469     6.6856     6.6821     2.5041     0.1139     0.1052
  500.0000   118.0030     6.7170     6.5201     6.6853     2.5002     0.1191     0.1072
