~VERSION INFORMATION
 VERS.                2.0:   CWLS LOG ASCII STANDARD - VERSION 2.0
 WRAP.                 NO:   ONE LINE PER DEPTH STEP
~WELL INFORMATION
#MNEM.UNIT      DATA TYPE    INFORMATION
#----------   ------------   ------------------------------
 STRT.F            0.0000:   START DEPTH
 STOP.F          625.0000:   STOP DEPTH
 STEP.F            0.5000:   STEP LENGTH
 NULL.          -999.2500:   NO VALUE
 COMP.       F D SERV INC:   COMPANY
 WELL.    75-3 SX-3 #72-3:   WELL
 FLD .             TEAPOT:   FIELD
 LOC .       S3 T38N R78W:   LOCATION
 CNTY.            NATRONA:   COUNTY
 STAT.            WYOMING:   STATE
 CTRY. UNITED STATES OF AMERICA:   COUNTRY
 SRVC.     Atlas Wireline:   SERVICE COMPANY
 DATE.        05-MAY-1992:   LOGDATE
 API .       490252251800:   API NUMBER
~CURVE INFORMATION
#MNEM.UNIT       API CODE    CURVE DESCRIPTION
#----------   ------------   ------------------------------
 DEPT.F                  :   
 CALD.IN     45 280 60 00:   CALIPER FROM DENSITY
 CORR.G/C3   45 356 01 00:   DENSITY CORRECTION
 DEN .G/C3   45 350 01 00:   COMPENSATED BULK DENSTIY
 GRD .GAPI   45 310 01 00:   GAMMA RAY FROM DENSITY LOG
 RILD.OHMM   07 120 46 00:   INDUCTION LOG DEEP RESISTIVITY
 RILM.OHMM   07 120 44 00:   INDUCTION LOG MEDIUM RESISTIVITY
 PORD.DEC    45 890 12 00:   POROSITY DENSITY SANDSTONE
~PARAMETER INFORMATION
#MNEM.UNIT          VALUE    DESCRIPTION
#----------   ------------   ------------------------------
 PD  .                 GL:   PERMANENT DATUM
 EPD .F              5148:   ELEVATION PERMANENT DATUM
 LMF .                 KB:   LOG MEASURED FROM
 DAPD.F                 5:   FEET ABOVE PERMANENT DATUM
 DMF .                 KB:   DRILLING MEASURED FROM
 EKB .F              5153:   KELLING BUSHING
 EDF .F              5152:   DRILLING FLOOR
 EGL .F              5148:   GROUND LEVEL
 DATE.        05-MAY-1992:   RUN DATE
 RUN .                  1:   RUN NUMBER
 DD  .F               630:   DEPTH DRILLER
 DL  .F               633:   DEPTH LOGGER
 BLI .F               625:   BOTTOM LOG INTERVAL
 CS  .IN            8.625:   CASING SIZE
 CBD .F                44:   CASING BOTTOM DRILLER
 CBL .F                49:   CASING BOTTOM LOGGER
 BS  .IN            7.875:   BIT SIZE
 BSD .F               630:   BIT SIZE AT DEPTH
 DFT .        AIR DRILLED:   DRILLING FLUID TYPE
 MRT .F                88:   MAXIMUM RECORDED TEMPERATURE
 LUN .           HL- 6274:   LOGGING UNIT NUMBER
 LUL .             CASPER:   LOGGING UNIT LOCATION
 ENGI.       P. RASHUSSEN:   RECORDING ENGINEER
 WITN.          G. STRONG:   WITNESSED BY
 CLNT.            A2DTECH:   CLIENT CODE
 ORIG.           5" PRINT:   ORIGIN OF DATA
 UWI .       490252251800:   UNIQUE WELL ID
 DICO. A2D Technologies, Inc.:   DIGITIZING COMPANY
~OTHER INFORMATION
~A    DEPT    CALD       CORR        DEN         GRD      RILD       RILM       PORD   
# ...
  227.5000     8.2556    -0.0068     2.5286   176.7371     9.6225     9.4072     0.0767
  228.0000     8.2555    -0.0068     2.5225   180.3551     9.8237     9.6046     0.0791
  228.5000     8.2553    -0.0068     2.5195   179.4618    10.0987     9.8064     0.0809
  229.0000     8.2551    -0.0068     2.5135   181.2752    10.3105    10.0124     0.0825
  229.5000     8.2550    -0.0068     2.5104   185.2420    10.4527    10.2228     0.0849
  230.0000     8.2399    -0.0038     2.5074   194.3252    10.6705    10.4377     0.0879
  230.5000     8.2397    -0.0008     2.5074   199.4435    10.7431    10.5829     0.0894
  231.0000     8.2246     0.0026     2.5074   202.3643    10.9670    10.8053     0.0903
  231.5000     8.2094     0.0083     2.5073   201.7718    11.1182    10.9556     0.0906
  232.0000     8.2093     0.0083     2.5073   198.1717    11.2716    11.1122     0.0903
  232.5000     8.1941     0.0113     2.5058   187.9550    11.4285    11.4208     0.0891
  233.0000     8.1940     0.0083     2.5058   190.0692    11.5906    11.5943     0.0882
  233.5000     8.1938     0.0083     2.5058   193.6911    11.9205    11.9888     0.0881
  234.0000     8.1937     0.0053     2.5043   192.7459    12.1745    12.1556     0.0884
  234.5000     8.1786    -0.0008     2.5027   188.4235    12.4991    12.3252     0.0860
  235.0000     8.1934     0.0083     2.4997   182.6468    12.5842    12.4098     0.0872
  235.5000     8.2082     0.0173     2.4876   177.5746    12.6689    12.4949     0.0981
  236.0000     8.2231     0.0234     2.4680   173.5837    12.6646    12.4928     0.1093
  236.5000     8.2379     0.0234     2.4695   171.7881    12.6611    12.4042     0.1127
  237.0000     8.2378     0.0204     2.4755   169.6918    12.5695    12.4025     0.1078
  237.5000     8.2376     0.0143     2.4891   167.5955    12.4785    12.3146     0.1036
  238.0000     8.2375     0.0083     2.4936   167.3014    12.3019    12.0578     0.1023
  238.5000     8.2373    -0.0038     2.4981   167.6111    12.1278    11.9724     0.1017
  239.0000     8.2372    -0.0008     2.4890   166.7200    12.0400    11.8048     0.1020
  239.5000     8.2520     0.0083     2.4800   164.3229    11.9529    11.5584     0.1048
  240.0000     8.2369     0.0083     2.4709   159.2191    11.7838    11.3969     0.1093
  240.5000     8.2367     0.0083     2.4618   154.1152    11.6170    11.3953     0.1144
  241.0000     8.2366     0.0086     2.4603   152.6182    11.5329    11.3142     0.1202
  241.5000     8.2364     0.0173     2.4633   152.9301    11.5298    11.3127     0.1178
  242.0000     8.2363     0.0113     2.4694   152.6383    11.4462    11.2324     0.1144
  242.5000     8.2361     0.0053     2.4753   152.0435    11.4431    11.3099     0.1111
  243.0000     8.2360    -0.0038     2.4785   152.6561    11.4392    11.3080     0.1072
  243.5000     8.2358    -0.0128     2.4844   152.7208    11.4361    11.3860     0.1029
  244.0000     8.2357    -0.0189     2.4934   151.7718    11.5139    11.5440     0.0972
  244.5000     8.2355    -0.0128     2.5115   148.4724    11.7538    11.7866     0.0908
  245.0000     8.2354    -0.0038     2.5235   144.2708    11.9995    11.7850     0.0775
  245.5000     8.2352    -0.0128     2.5537   140.6707    12.1658    11.7014     0.0654
  246.0000     8.2501    -0.0068     2.5506   138.8752    11.7440    11.6998     0.0584
  246.5000     8.2499    -0.0038     2.5235   141.0376    11.4972    11.6169     0.0657
  247.0000     8.2498     0.0053     2.5114   144.1187    11.2564    11.3747     0.0863
  247.5000     8.2496     0.0143     2.4948   149.5087    11.3308    11.0588     0.0945
  248.0000     8.2495     0.0113     2.4903   150.6402    11.0927    10.7482     0.0990
  248.5000     8.2493     0.0083     2.4887   149.1476    10.8591    10.4567     0.0993
  249.0000     8.2641     0.0053     2.4887   150.6603    10.7057    10.2384     0.0989
  249.5000     8.2640    -0.0008     2.4872   155.1805    10.5543    10.0951     0.0989
  250.0000     8.2632     0.0053     2.4850   156.9917    10.4051    10.0139     0.0986
  250.5000     8.2546    -0.0038     2.4850   156.7009    10.1866     9.8913     0.0980
  251.0000     8.2460     0.0054     2.4851   156.4158     9.9727     9.6743     0.0977
  251.5000     8.2374     0.0111     2.4865   160.3374     9.7633     9.5376     0.0977
  252.0000     8.2333     0.0081     2.4850   163.0561     9.6928     9.4686     0.0980
  252.5000     8.2331    -0.0011     2.4841   165.7748     9.6903     9.4660     0.1013
  253.0000     8.2330    -0.0041     2.4795   168.4935     9.7563     9.5303     0.1047
  253.5000     8.2328    -0.0042     2.4748   173.3174     9.7531     9.5270     0.1080
  254.0000     8.2327     0.0018     2.4705   179.6657     9.7506     9.5244     0.1120
  254.5000     8.1875     0.0108     2.4674   184.1855     9.7481     9.5218     0.1140
  255.0000     8.1724     0.0167     2.4654   183.2480     9.7455     9.5191     0.1125
  255.5000     8.1722     0.0167     2.4660   182.6883     9.7430     9.5831     0.1095
  256.0000     8.1721     0.0166     2.4676   182.7569     9.6727     9.5805     0.1065
  256.5000     8.1570     0.0015     2.4684   186.6248     9.6701     9.5113     0.1080
  257.0000     8.1418    -0.0076     2.4661   190.5465     9.6003     9.5086     0.1110
  257.5000     8.1417    -0.0047     2.4598   191.4577     9.5978     9.5060     0.1147
  258.0000     8.1415     0.0043     2.4546   187.2621     9.5285     9.2418     0.1177
  258.5000     8.1264     0.0073     2.4543   186.0680     9.5241     9.1750     0.1174
  259.0000     8.1562    -0.0018     2.4539   185.7791     9.5236     9.1725     0.1177
  259.5000     8.1711    -0.0049     2.4523   182.4857     9.5180     9.1698     0.1205
  260.0000     8.1709    -0.0050     2.4486   174.9788     9.4523     9.1588     0.1250
  260.5000     8.1558    -0.0020     2.4439   171.0810     9.3840     9.1010     0.1274
  261.0000     8.1556     0.0039     2.4398   171.6944     9.3712     9.0347     0.1293
  261.5000     8.1705     0.0099     2.4353   176.2175     9.1840     8.7836     0.1312
  262.0000     8.1703     0.0129     2.4308   175.3272     9.0542     8.5395     0.1337
  262.5000     8.1702     0.0068     2.4338   170.5271     8.8641     8.2444     0.1333
  263.0000     8.1700     0.0067     2.4398   163.9224     8.4387     8.0153     0.1272
  263.5000     8.1698     0.0069     2.4459   157.9193     8.1468     7.7925     0.1239
  264.0000     8.1697     0.0130     2.4489   156.6918     7.8103     7.5760     0.1224
  264.5000     8.1695     0.0186     2.4474   158.2438     7.6999     7.4170     0.1215
  265.0000     8.1694     0.0125     2.4492   160.6618     7.6979     7.5718     0.1176
  265.5000     8.1692     0.0004     2.4531   161.2752     7.8589     7.6761     0.1134
  266.0000     8.1691    -0.0027     2.4614   158.5644     7.9125     7.8363     0.1107
  266.5000     8.1689    -0.0058     2.4649   157.3603     7.9659     7.8890     0.1095
  267.0000     8.1688    -0.0058     2.4688   155.8556     8.0754     7.9982     0.1095
  267.5000     8.1687    -0.0059     2.4708   154.2956     8.1305     8.0519     0.1086
  268.0000     8.1685    -0.0060     2.4734   153.2144     8.1848     8.0492     0.1071
  268.5000     8.1684     0.0000     2.4755   155.0338     8.1827     8.0469     0.1056
  269.0000     8.1682     0.0060     2.4786   154.7419     8.2957     8.1010     0.1035
  269.5000     8.1681     0.0090     2.4811   154.4531     8.3523     8.2127     0.1014
  270.0000     8.1679     0.0059     2.4834   155.9717     8.4081     8.3257     0.0993
  270.5000     8.1678    -0.0062     2.4865   158.0889     8.4649     8.4404     0.0975
  271.0000     8.1826    -0.0093     2.4904   157.1985     8.5221     8.5566     0.0963
  271.5000     8.1825    -0.0154     2.4933   156.3052     8.5795     8.6745     0.0951
  272.0000     8.2123    -0.0124     2.4958   158.4253     8.7590     8.7328     0.0939
  272.5000     8.1822    -0.0095     2.4970   161.7455     8.8182     8.7996     0.0939
