~VERSION INFORMATION
 VERS.                2.0:   CWLS LOG ASCII STANDARD - VERSION 2.0
 WRAP.                 NO:   ONE LINE PER DEPTH STEP
~WELL INFORMATION
#MNEM.UNIT      DATA TYPE    INFORMATION
#----------   ------------   ------------------------------
 STRT.F            0.0000:   START DEPTH
 STOP.F          555.0000:   STOP DEPTH
 STEP.F            0.5000:   STEP LENGTH
 NULL.          -999.2500:   NO VALUE
 COMP.       F D SERV INC:   COMPANY
 WELL. NAVAL PETROLEUM RESERVE 3 SX-3 #77-3:   WELL
 FLD .        N. P. R NO3:   FIELD
 LOC .       S3 T38N R78W:   LOCATION
 CNTY.            NATRONA:   COUNTY
 STAT.            WYOMING:   STATE
 CTRY. UNITED STATES OF AMERICA:   COUNTRY
 SRVC.     Atlas Wireline:   SERVICE COMPANY
 DATE.        26-OCT-1992:   LOGDATE
 API .       490252255200:   API NUMBER
~CURVE INFORMATION
#MNEM.UNIT       API CODE    CURVE DESCRIPTION
#----------   ------------   ------------------------------
 DEPT.F                  :   
 GRR .GAPI   07 310 01 00:   GAMMA RAY
 RILD.OHMM   07 120 46 00:   INDUCTION LOG DEEP RESISTIVITY
 RILM.OHMM   07 120 44 00:   INDUCTION LOG MEDIUM RESISTIVITY
~PARAMETER INFORMATION
#MNEM.UNIT          VALUE    DESCRIPTION
#----------   ------------   ------------------------------
 PD  .                 GL:   PERMANENT DATUM
 EPD .F              5161:   ELEVATION PERMANENT DATUM
 LMF .                 KB:   LOG MEASURED FROM
 DAPD.F                10:   FEET ABOVE PERMANENT DATUM
 DMF .                 KB:   DRILLING MEASURED FROM
 EKB .F              5171:   KELLING BUSHING
 EDF .F              5170:   DRILLING FLOOR
 EGL .F              5161:   GROUND LEVEL
 DATE.        26-OCT-1992:   RUN DATE
 RUN .                  1:   RUN NUMBER
 DD  .F               562:   DEPTH DRILLER
 DL  .F               563:   DEPTH LOGGER
 BLI .F               555:   BOTTOM LOG INTERVAL
 CS  .IN            8.625:   CASING SIZE
 CBD .F                85:   CASING BOTTOM DRILLER
 CBL .F                56:   CASING BOTTOM LOGGER
 BS  .IN            7.875:   BIT SIZE
 BSD .F               562:   BIT SIZE AT DEPTH
 DFT .           AIR FOAM:   DRILLING FLUID TYPE
 TCS .HRS               1:   TIME CURCULATED STOPPED
 MRT .F                67:   MAXIMUM RECORDED TEMPERATURE
 LUN .            HL-6274:   LOGGING UNIT NUMBER
 LUL .             CASPER:   LOGGING UNIT LOCATION
 ENGI.             RAUTIO:   RECORDING ENGINEER
 WITN.        GARY STRONG:   WITNESSED BY
 CLNT.            A2DTECH:   CLIENT CODE
 ORIG.           5" PRINT:   ORIGIN OF DATA
 UWI .       490252255200:   UNIQUE WELL ID
 DICO. A2D Technologies, Inc.:   DIGITIZING COMPANY
~OTHER INFORMATION
~A    DEPT      GRR      RILD       RILM   
# ...
   91.0000   121.8868     8.8688     9.0454
   91.5000   125.8216     8.8711     9.0478
   92.0000   131.8785     9.0606     9.0597
   92.5000   133.9961     9.2541     9.2448
   93.0000   131.5681     9.4575     9.3773
   93.5000   122.6023     9.5204     9.4455
   94.0000   116.4084     9.3246     9.1880
   94.5000   119.7380     9.0702     9.0631
   95.0000   125.7950     8.9459     9.0025
   95.5000   127.9125     8.8855     8.9360
   96.0000   129.1209     8.8877     8.8826
   96.5000   133.0567     8.8895     8.8232
   97.0000   133.9621     8.7681     8.7642
   97.5000   134.2614     8.8317     8.6451
   98.0000   133.6508     8.9576     8.8309
   98.5000   132.4350     9.1490     9.0202
   99.0000   133.6434     9.1508     9.1494
   99.5000   136.3670     9.0258     9.0882
  100.0000   139.6967     8.9026     9.0909
  100.5000   137.5718     8.9277     9.0258
  101.0000   133.3257     8.8648     9.0239
  101.5000   129.0795     8.7412     8.9589
  102.0000   130.1479     8.7406     8.8948
  102.5000   134.3849     8.7400     8.7697
  103.0000   136.8010     8.5583     8.7679
  103.5000   137.3961     8.6176     8.7661
  104.0000   136.3925     8.7382     8.8262
  104.5000   133.7276     8.7376     8.8861
  105.0000   134.9297     8.7370     8.8839
  105.5000   138.5598     8.7363     8.8820
  106.0000   138.8544     8.7357     8.8802
  106.5000   136.4117     8.6743     8.8166
  107.0000   134.2754     8.4939     8.8148
  107.5000   129.7112     8.5528     8.8748
  108.0000   126.0575     8.6123     8.8725
  108.5000   127.5933     8.4922     8.8090
  109.0000   130.3632     8.5511     8.7459
  109.5000   132.3923     8.6708     8.6834
  110.0000   133.5944     8.6702     8.6816
  110.5000   133.2791     8.6688     8.6798
  111.0000   132.0533     8.4892     8.6780
  111.5000   130.5239     8.3709     8.5560
  112.0000   129.6016     8.2542     8.4357
  112.5000   132.0177     8.1391     8.3753
  113.0000   134.7373     8.1386     8.3153
  113.5000   138.6910     8.1380     8.2554
  114.0000   141.4709     8.1375     8.2538
  114.5000   143.1995     8.1369     8.2521
  115.0000   141.6672     8.1363     8.3086
  115.5000   139.8344     8.1358     8.3064
  116.0000   137.6982     8.1352     8.3047
  116.5000   136.1689     8.1347     8.3030
  117.0000   134.9431     8.1371     8.3013
  117.5000   132.8068     8.2556     8.3578
  118.0000   131.8845     8.3634     8.5328
  118.5000   133.4102     8.6598     8.8339
  119.0000   135.5027     8.8425     8.8320
  119.5000   134.5774     8.6586     8.7075
  120.0000   133.9586     8.7187     8.8280
  120.5000   132.4293     8.9028     9.0760
  121.0000   131.8105     8.9020     9.2022
  121.5000   131.7986     8.9638     9.2647
  122.0000   133.6077     9.1529     9.2623
  122.5000   139.6657     9.1566     9.1960
  123.0000   140.5645     9.1517     9.1302
  123.5000   138.4077     9.0873     9.0649
  124.0000   135.2595     9.0126     9.0000
  124.5000   133.2450     8.8976     8.9304
  125.0000   135.9616     8.8351     8.7997
  125.5000   137.1667     8.7730     8.6252
  126.0000   136.5449     8.5905     8.5638
  126.5000   135.9290     8.4119     8.4385
  127.0000   138.6456     8.3528     8.2571
  127.5000   140.4547     8.1791     8.0372
  128.0000   139.5324     8.0651     7.8691
  128.5000   140.4714     7.8973     7.8128
  129.0000   145.6995     7.7873     7.7569
  129.5000   146.7807     7.7326     7.7013
  130.0000   142.8205     7.6782     7.6462
  130.5000   139.1668     7.6776     7.8064
  131.0000   138.8514     7.7308     7.9699
  131.5000   140.6605     7.8390     8.0802
  132.0000   140.3452     7.9489     8.0224
  132.5000   138.5124     8.0040     8.0207
  133.0000   134.2507     8.0033     8.0752
  133.5000   133.9383     8.1153     8.1301
  134.0000   141.2073     8.1718     8.3000
  134.5000   141.2261     8.2284     8.4153
  135.0000   138.7557     8.4020     8.5318
  135.5000   135.2838     8.4610     8.7105
  136.0000   130.5348     8.5786     8.7697
  136.5000   130.2195     8.6382     8.7674
  137.0000   130.5111     8.6981     8.8271
  137.5000   131.1092     8.6974     8.8252
  138.0000   131.7043     8.6968     8.8234
  138.5000   132.9035     8.6962     8.8216
  139.0000   131.9812     8.5750     8.7584
  139.5000   128.3275     8.5744     8.6953
  140.0000   126.4947     8.5738     8.5135
  140.5000   131.4901     8.5732     8.4525
  141.0000   134.9687     8.4537     8.3337
  141.5000   134.9539     8.3943     8.2740
  142.0000   134.9421     8.3354     8.2723
  142.5000   136.1442     8.3348     8.2706
  143.0000   139.1673     8.3341     8.2690
  143.5000   142.1903     8.3335     8.4421
  144.0000   142.1785     8.6292     8.5590
  144.5000   141.8631     8.6284     8.6172
  145.0000   140.9408     8.6278     8.7365
  145.5000   138.4096     8.7486     8.8574
  146.0000   131.8095     8.9959     8.9796
  146.5000   125.1228     9.0583     9.1039
  147.0000   127.0127     9.1210     9.3597
  147.5000   129.6515     9.7120     9.6226
  148.0000   128.1192     9.9169     9.9622
  148.5000   125.9829     9.9162    10.1709
  149.0000   122.3292     9.9971    10.2401
  149.5000   120.7999    10.3389    10.3096
  150.0000   124.1265    10.8136    10.4651
  150.5000   129.5775    11.0442    10.8260
  151.0000   127.7439    11.2797    11.0572
  151.5000   122.5728    11.5202    11.2149
  152.0000   121.3471    11.8484    11.5346
  152.5000   121.3353    12.1010    11.7810
  153.0000   119.6338    12.3591    12.0327
  153.5000   115.2390    12.5418    12.2044
  154.0000   112.0809    12.7133    12.2929
  154.5000   111.5737    12.7151    12.2954
  155.0000   112.7759    12.6282    12.2979
  155.5000   114.2815    12.5420    12.2142
  156.0000   117.9117    12.3696    12.1324
  156.5000   120.9418    12.2847    12.0499
  157.0000   121.5300    12.1162    11.8858
  157.5000   120.9084    12.0335    11.7236
  158.0000   119.6826    11.9514    11.5634
  158.5000   118.7604    11.7871    11.4061
  159.0000   119.6591    11.7070    11.2503
  159.5000   120.8613    11.6271    11.1738
  160.0000   122.6707    11.5473    11.0756
  160.5000   120.2114    11.4684    10.9468
  161.0000   118.3952    11.3108    10.9496
  161.5000   118.6869    11.2336    10.9518
  162.0000   119.2851    11.1572    10.9541
  162.5000   117.1460    11.1588    11.0331
  163.0000   117.7412    11.3174    11.0358
  163.5000   118.3369    11.4786    11.0380
  164.0000   116.5362    11.4801    11.1176
  164.5000   113.0592    11.4817    11.1199
  165.0000   110.7110    11.3235    10.9680
  165.5000   111.0056    11.0905    10.9702
  166.0000   110.6874    10.8619    10.8961
  166.5000   111.8896    10.7877    10.6726
  167.0000   116.1267    10.6394    10.3815
  167.5000   119.7569    10.4932    10.2392
  168.0000   120.0486    10.4215    10.0994
  168.5000   118.0850    10.2783    10.0312
  169.0000   113.9533    10.2799     9.8947
  169.5000   115.7625    10.1386     9.8274
  170.0000   117.8752     9.9993     9.8299
  170.5000   117.2564     9.9310     9.7635
  171.0000   118.5352     9.8632     9.7655
  171.5000   120.2649     9.8649     9.7676
  172.0000   121.1665     9.8662     9.7700
  172.5000   120.5449     9.8675     9.7720
  173.0000   120.2296     9.8689     9.7060
  173.5000   120.8278     9.7329     9.7080
  174.0000   118.6886     9.6665     9.5749
  174.5000   115.8566     9.6007     9.5773
  175.0000   112.5948     9.6021     9.5793
  175.5000   114.0981     9.6708     9.5813
  176.0000   114.0863     9.6724     9.5837
  176.5000   113.7740     9.6737     9.5856
  177.0000   116.4907     9.6750     9.5876
  177.5000   118.2999     9.6763     9.5895
  178.0000   119.5023     9.6776     9.5915
  178.5000   117.9262     9.6790     9.5934
  179.0000   117.0497     9.6128     9.4624
  179.5000   116.7335     9.4807     9.2013
  180.0000   115.1644     9.2164     8.8120
  180.5000   114.5865     8.9569     8.3511
  181.0000   118.2137     8.4816     8.0664
  181.5000   122.7543     8.1914     7.8460
