~VERSION INFORMATION
 VERS.                2.0:   CWLS LOG ASCII STANDARD - VERSION 2.0
 WRAP.                 NO:   ONE LINE PER DEPTH STEP
~WELL INFORMATION
#MNEM.UNIT      DATA TYPE    INFORMATION
#----------   ------------   ------------------------------
 STRT.F           30.0000:   START DEPTH
 STOP.F          562.0000:   STOP DEPTH
 STEP.F            0.5000:   STEP LENGTH
 NULL.          -999.2500:   NO VALUE
 COMP. LAWRENCE/ALLISON INC:   COMPANY
 WELL. NPR 3 #53-16-SX-10:   WELL
 FLD .             TEAPOT:   FIELD
 LOC .      S10 T38N R78W:   LOCATION
 CNTY.            NATRONA:   COUNTY
 STAT.            WYOMING:   STATE
 CTRY. UNITED STATES OF AMERICA:   COUNTRY
 SRVC.      Dresser Atlas:   SERVICE COMPANY
 DATE.        27-AUG-1984:   LOGDATE
 API .       490251098200:   API NUMBER
~CURVE INFORMATION
#MNEM.UNIT       API CODE    CURVE DESCRIPTION
#----------   ------------   ------------------------------
 DEPT.F                  :   
 RILD.OHMM   07 120 46 00:   INDUCTION LOG DEEP RESISTIVITY
 RILM.OHMM   07 120 44 00:   INDUCTION LOG MEDIUM RESISTIVITY
 RFOC.OHMM   07 220 04 00:   RESISTIVITY FOCUSED LOG
 SPR .MV     07 010 01 00:   SPONTANEOUS POTENTIAL
 AC  .US/F   60 520 00 00:   ACOUSTIC SONIC
 DEN .G/C3   45 350 01 00:   COMPENSATED BULK DENSTIY
 CORR.G/C3   45 356 01 00:   DENSITY CORRECTION
 CNC .DEC    42 890 01 00:   NEUTRON POROSITY LIMESTONE
 CALD.IN     45 280 60 00:   CALIPER
 GRD .GAPI   45 310 01 00:   GAMMA RAY FROM DENSITY LOG
 PORD.DEC    45 890 10 00:   POROSITY DENSITY LIMESTONE
~PARAMETER INFORMATION
#MNEM.UNIT          VALUE    DESCRIPTION
#----------   ------------   ------------------------------
 PD  .                 GL:   PERMANENT DATUM
 EPD .F              5199:   ELEVATION PERMANENT DATUM
 LMF .                 GL:   LOG MEASURED FROM
 DMF .                 GL:   DRILLING MEASURED FROM
 EGL .F              5199:   GROUND LEVEL
 DATE.            8-27-84:   RUN DATE
 RUN .                  1:   RUN NUMBER
 DD  .F               550:   DEPTH DRILLER
 DL  .F               549:   DEPTH LOGGER
 BLI .F               547:   BOTTOM LOG INTERVAL
 TLI .F                30:   TOP LOG INTERVAL
 CS  .IN            9.625:   CASING SIZE
 CBD .F                40:   CASING BOTTOM DRILLER
 CBL .F                44:   CASING BOTTOM LOGGER
 BS  .IN            7.875:   BIT SIZE
 BSD .F               550:   BIT SIZE AT DEPTH
 DFT .          KCL/WATER:   DRILLING FLUID TYPE
 MSS .           MUD TANK:   MUD SAMPLE SOURCE
 RMS .OHMM            .28:   RESISTIVITY MUD SAMPLE
 MST .F                78:   MUD SAMPLE TEMPERATURE
 TCS .HRS               4:   TIME CURCULATED STOPPED
 LUN .               4082:   LOGGING UNIT NUMBER
 LUL .          ROOSEVELT:   LOGGING UNIT LOCATION
 ENGI.            FRANCIS:   RECORDING ENGINEER
 WITN.              FIVAS:   WITNESSED BY
 CLNT.            A2DTECH:   CLIENT CODE
 ORIG.       2", 5" PRINT:   ORIGIN OF DATA
 UWI .       490251098200:   UNIQUE WELL ID
 DICO. A2D Technologies, Inc.:   DIGITIZING COMPANY
~OTHER INFORMATION
~A   DEPT     RILD       RILM       RFOC        SPR         AC        DEN       CORR          CNC     CALD         GRD      PORD   
# ...
  152.0000     5.8124     6.0024     8.0368   -10.8847   107.8468     2.4686     0.0475     0.2521     8.6861   113.0765     0.1267
  152.5000     5.5141     5.5351     7.2637   -14.3035   109.7793     2.4565     0.0317     0.2573     8.6861   112.1191     0.1365
  153.0000     5.4367     5.5345     6.4973   -17.7231   111.7117     2.4386     0.0325     0.2516     8.6861   111.2346     0.1469
  153.5000     5.4684     5.5894     5.8116   -21.0982   112.4950     2.4199     0.0347     0.2456     8.6861   108.0356     0.1578
  154.0000     5.5447     5.7896     5.6937   -24.3474   111.5155     2.4154     0.0214     0.2429     8.6861   103.5098     0.1594
  154.5000     5.6983     6.0173     6.9807   -27.5018   109.5503     2.4339     0.0074     0.2540     8.6861    98.8332     0.1393
  155.0000     5.9536     6.2540     8.2390   -30.4974   107.6753     2.4594     0.0230     0.2632     8.6861    98.8828     0.1257
  155.5000     6.2585     6.5872     8.2050   -33.1218   106.2997     2.4797     0.0501     0.2592     8.6861   106.3740     0.1209
  156.0000     6.5790     7.0113     8.1632   -35.6840   105.4549     2.4743     0.0429     0.2557     8.6861   111.9060     0.1250
  156.5000     6.9160     7.4628     8.4136   -38.5718   104.9800     2.4688     0.0331     0.2646     8.6861   109.8405     0.1262
  157.0000     7.2701     7.8035     8.7235   -41.3758   104.6252     2.4703     0.0339     0.2681     8.6861   106.1599     0.1241
  157.5000     7.5353     7.8827     8.8710   -43.0887   104.3007     2.4720     0.0347     0.2601     8.6861   104.9612     0.1245
  158.0000     7.6032     7.9629     8.7578   -44.6739   103.9763     2.4646     0.0333     0.2470     8.6861   107.8500     0.1301
  158.5000     7.6717     8.0434     8.6285   -45.5429   103.6774     2.4616     0.0295     0.2337     8.6861   110.7192     0.1296
  159.0000     7.7408     8.1250     8.7500   -46.3722   103.5159     2.4697     0.0258     0.2307     8.6861   109.0859     0.1255
  159.5000     7.8106     8.2074     8.9366   -47.2014   103.4770     2.4734     0.0215     0.2336     8.6861   107.2277     0.1217
  160.0000     7.8810     8.2907     9.1271   -48.0310   103.4767     2.4713     0.0143     0.2336     8.6861   106.5288     0.1242
  160.5000     7.9520     8.3750     9.2109   -48.8914   103.5775     2.4717     0.0191     0.2267     8.6861   106.7209     0.1245
  161.0000     8.0237     8.4597     9.2257   -49.2384   103.7992     2.4724     0.0272     0.2233     8.6829   106.9072     0.1235
  161.5000     8.0882     8.5202     9.2406   -49.4414   103.9780     2.4674     0.0353     0.2256     8.6796   107.1034     0.1249
  162.0000     8.1329     8.5775     9.2554   -49.6404   103.8894     2.4624     0.0367     0.2238     8.6762   107.6531     0.1285
  162.5000     8.1821     8.6351     9.2699   -49.8505   103.4352     2.4605     0.0322     0.2175     8.6729   109.8957     0.1305
  163.0000     8.2316     8.6932     9.2858   -49.8702   102.9810     2.4595     0.0277     0.2220     8.6695   113.0763     0.1314
  163.5000     8.2814     8.7516     9.3766   -49.8303   102.6325     2.4584     0.0327     0.2325     8.6662   116.2776     0.1322
  164.0000     8.3314     8.8104     9.5116   -49.7892   102.5015     2.4617     0.0567     0.2379     8.6628   116.8459     0.1315
  164.5000     8.3818     8.8708     9.6483   -49.7489   102.3747     2.4653     0.0600     0.2424     8.6594   114.1298     0.1294
  165.0000     8.4325     8.9409     9.7291   -49.7163   102.5371     2.4658     0.0171     0.2464     8.6561   110.9538     0.1281
  165.5000     8.4835     9.0130     9.6950   -49.2644   102.6543     2.4664    -0.0097     0.2418     8.6527   112.5232     0.1281
  166.0000     8.5348     9.0858     9.6704   -48.6890   102.2629     2.4711    -0.0001     0.2254     8.6494   115.2040     0.1273
  166.5000     8.5862     9.1591     9.6400   -48.1127   101.6907     2.4775     0.0122     0.2208     8.6460   116.0375     0.1235
  167.0000     8.6283     9.2049     9.7526   -47.5351   101.2691     2.4885     0.0203     0.2259     8.6481   113.5504     0.1179
  167.5000     8.6109     9.1101     9.9023   -47.1355   101.0324     2.5119     0.0232     0.2326     8.6506   110.1248     0.1091
  168.0000     8.5960     9.0414    10.0542   -46.8673   101.1241     2.5319     0.0259     0.2336     8.6530   110.5604     0.0967
  168.5000     8.5813     8.9735    10.1895   -46.6033   101.3285     2.5292     0.0410     0.2282     8.6554   112.8374     0.0884
  169.0000     8.5666     8.9061     9.9649   -46.3377   101.9864     2.5234     0.0643     0.2280     8.6578   113.6884     0.0906
  169.5000     8.5524     8.8393     9.7692   -46.0752   102.6753     2.5276     0.0697     0.2295     8.6602   113.5855     0.0926
  170.0000     8.4939     8.7729     9.5757   -46.1535   103.1830     2.5345     0.0516     0.2300     8.6626   111.0235     0.0886
  170.5000     8.4277     8.7071     9.4975   -46.2662   103.4908     2.5221     0.0302     0.2313     8.6650   108.5259     0.0864
  171.0000     8.3617     8.6417     9.4182   -46.3779   103.5282     2.5014     0.0209     0.2353     8.6654   107.2082     0.0942
  171.5000     8.2963     8.5768     9.3396   -46.4892   103.5656     2.4813     0.0312     0.2376     8.6645   105.9209     0.1080
  172.0000     8.2315     8.5125     9.2616   -46.6007   103.5112     2.4742     0.0433     0.2319     8.6635   104.6524     0.1193
  172.5000     8.1672     8.4486     9.1873   -46.7115   103.4159     2.4797     0.0415     0.2305     8.6626   103.6250     0.1224
  173.0000     8.1037     8.3598     9.1219   -46.8234   103.4539     2.4849     0.0501     0.2342     8.6616   106.8251     0.1201
  173.5000     8.0399     8.0890     9.0569   -46.7023   103.5771     2.4896     0.0633     0.2395     8.6607   114.3072     0.1158
  174.0000     7.8596     7.8261     8.9929   -46.3815   104.2556     2.4861     0.0770     0.2541     8.6597   120.0446     0.1132
  174.5000     7.6033     7.5720     8.9318   -46.0585   105.0341     2.4803     0.0798     0.2700     8.6587   118.6559     0.1164
  175.0000     7.3574     7.3262     8.8710   -45.7353   106.1323     2.4761     0.0638     0.2846     8.6578   111.9520     0.1194
  175.5000     6.9711     7.0890     8.2940   -45.4122   107.4424     2.4729     0.0450     0.2918     8.6568   107.1149     0.1214
  176.0000     6.4856     6.8567     7.7948   -45.0900   108.6782     2.4718     0.0399     0.2880     8.6558   106.1051     0.1229
  176.5000     6.0326     6.6453     7.4165   -44.7619   109.7430     2.4664     0.0388     0.2748     8.6549   107.5029     0.1245
  177.0000     5.4633     5.7792     7.0526   -44.7802   110.6805     2.4566     0.0383     0.2645     8.6539   108.7936     0.1278
  177.5000     4.7920     5.0634     6.7065   -44.9585   112.3275     2.4323     0.0377     0.2681     8.6530   107.1344     0.1341
  178.0000     4.2032     4.4323     6.3773   -45.1415   114.9846     2.4060     0.0372     0.2831     8.6520   104.9346     0.1461
  178.5000     3.6867     3.8804     5.7790   -45.3246   118.0246     2.3779     0.0366     0.3014     8.6510   104.1775     0.1638
  179.0000     3.2337     3.3972     5.0588   -45.5072   122.4790     2.3452     0.0361     0.3124     8.6501   103.5593     0.1815
  179.5000     2.8364     2.9742     4.4284   -45.6729   126.9334     2.2849     0.0356     0.3281     8.6491   103.1433     0.2066
  180.0000     2.5964     2.7191     3.8765   -45.5448   130.8030     2.2338     0.0365     0.3355     8.6482   101.0160     0.2359
  180.5000     2.6260     2.7758     3.3935   -45.3822   132.8357     2.2315     0.0436     0.3223     8.6472    98.8817     0.2661
  181.0000     2.6799     2.8801     3.3013   -45.2196   131.5641     2.2826     0.0436     0.3079     8.6462    96.7989     0.2661
  181.5000     2.7349     2.9883     3.9426   -45.0575   129.2507     2.3277     0.0308     0.2930     8.6453    98.4607     0.2390
  182.0000     2.7955     3.1900     4.4717   -44.9030   124.6041     2.3697     0.0302     0.2823     8.6443   102.4380     0.2121
