~VERSION INFORMATION
 VERS.                2.0:   CWLS LOG ASCII STANDARD - VERSION 2.0
 WRAP.                 NO:   ONE LINE PER DEPTH STEP
~WELL INFORMATION
#MNEM.UNIT      DATA TYPE    INFORMATION
#----------   ------------   ------------------------------
 STRT.F           12.0000:   START DEPTH
 STOP.F          549.0000:   STOP DEPTH
 STEP.F            0.5000:   STEP LENGTH
 NULL.          -999.2500:   NO VALUE
 COMP. LAWRENCE/ALLISON INC:   COMPANY
 WELL.  58-64-1 SX 3 #3-3:   WELL
 FLD .             TEAPOT:   FIELD
 LOC .       S3 T38N R78W:   LOCATION
 CNTY.            NATRONA:   COUNTY
 STAT.            WYOMING:   STATE
 CTRY. UNITED STATES OF AMERICA:   COUNTRY
 SRVC.      Dresser Atlas:   SERVICE COMPANY
 DATE.        05-DEC-1984:   LOGDATE
 API .       490251117800:   API NUMBER
~CURVE INFORMATION
#MNEM.UNIT       API CODE    CURVE DESCRIPTION
#----------   ------------   ------------------------------
 DEPT.F                  :   
 RFOC.OHMM   07 220 04 00:   RESISTIVITY FOCUSED LOG
 RILD.OHMM   07 120 46 00:   INDUCTION LOG DEEP RESISTIVITY
 RILM.OHMM   07 120 44 00:   INDUCTION LOG MEDIUM RESISTIVITY
 SPR .MV     07 010 01 00:   SPONTANEOUS POTENTIAL
 CALD.IN     45 280 60 00:   CALIPER FROM DENSITY LOG
 CNC .DEC    42 890 03 00:   NEUTRON POROSITY SANDSTONE
 CORR.G/C3   45 356 01 00:   DENSITY CORRECTION
 DEN .G/C3   45 350 01 00:   COMPENSATED BULK DENSTIY
 GRD .GAPI   45 310 01 00:   GAMMA RAY FROM DENSITY LOG
 PORD.DEC    45 890 12 00:   POROSITY DENSITY SANDSTONE
 DT  .US/F   60 520 00 00:   INTERVAL TRANSIT TIME
~PARAMETER INFORMATION
#MNEM.UNIT          VALUE    DESCRIPTION
#----------   ------------   ------------------------------
 PD  .                 GL:   PERMANENT DATUM
 EPD .F              5188:   ELEVATION PERMANENT DATUM
 LMF .                 KB:   LOG MEASURED FROM
 DMF .                 KB:   DRILLING MEASURED FROM
 EGL .F              5188:   GROUND LEVEL
 DATE.         5-DEC-1984:   RUN DATE
 RUN .                  1:   RUN NUMBER
 DD  .F               556:   DEPTH DRILLER
 DL  .F               551:   DEPTH LOGGER
 BLI .F               549:   BOTTOM LOG INTERVAL
 CS  .IN            8.625:   CASING SIZE
 CBD .F                20:   CASING BOTTOM DRILLER
 CBL .F                20:   CASING BOTTOM LOGGER
 BS  .IN            7.875:   BIT SIZE
 BSD .F               556:   BIT SIZE AT DEPTH
 DFT .          KCL WATER:   DRILLING FLUID TYPE
 MSS .           FLOWLINE:   MUD SAMPLE SOURCE
 RMS .OHMM            .36:   RESISTIVITY MUD SAMPLE
 MST .F                70:   MUD SAMPLE TEMPERATURE
 RMF .OHMM            .26:   RESISTIVITY MUD FILTRATE SAMPLE
 MFST.F                70:   MUD FILTRATE SAMPLE TEMPERATURE
 RMC .OHMM            .46:   RESISTIVITY MUD CAKE
 MCST.F                70:   MUD CAKE SAMPLE TEMPERATURE
 MFSS.               CALC:   MUD FILTRATE SAMPLE SOURCE
 MCSS.               CALC:   MUD CAKE SAMPLE SOURCE
 RMB .OHMM            .29:   RESISTIVITY MUD AT BHT
 BHT .F                85:   BOTTOM HOLE TEMPERATURE
 TCS .HRS               3:   TIME CURCULATED STOPPED
 MRT .F               100:   MAXIMUM RECORDED TEMPERATURE
 LUN .               6274:   LOGGING UNIT NUMBER
 LUL .               GLTE:   LOGGING UNIT LOCATION
 ENGI.             RAUTIO:   RECORDING ENGINEER
 WITN.       GROOMS/LUERS:   WITNESSED BY
 CLNT.            A2DTECH:   CLIENT CODE
 ORIG.         2.5" PRINT:   ORIGIN OF DATA
 UWI .       490251117800:   UNIQUE WELL ID
 DICO. A2D Technologies, Inc.:   DIGITIZING COMPANY
~OTHER INFORMATION
~A   DEPT     RFOC       RILD       RILM        SPR       CALD        CNC       CORR        DEN         GRD      PORD         DT   
# ...
  164.5000     8.8170     8.5743     8.1510   -67.3298     8.1469     0.2866     0.0647     2.4694   107.6393     0.1246   102.9931
  165.0000     8.8126     8.5708     8.1470   -67.3404     8.1465     0.2810     0.0553     2.4697   108.5816     0.1244   102.9940
  165.5000     8.8089     8.5672     8.1431   -67.6550     8.1460     0.2744     0.0462     2.4789   110.8612     0.1176   102.9947
  166.0000     8.8053     8.5637     8.1391   -67.6656     8.1456     0.2696     0.0400     2.4851   112.0973     0.1129   102.9311
  166.5000     8.8017     8.4418     8.1351   -67.3723     8.1452     0.2666     0.0343     2.4910   112.2047     0.1106   102.6945
  167.0000     8.7980     8.5566     8.1312   -67.3830     8.1447     0.2657     0.0283     2.4937   110.6322     0.1095   102.5103
  167.5000     8.7944     8.5530     8.1272   -67.6976     8.1443     0.2682     0.0283     2.4921   110.6231     0.1107   102.3943
  168.0000     8.6693     8.4314     8.1233   -67.7102     8.1438     0.2729     0.0282     2.4906   110.2655     0.1095   102.0934
  168.5000     8.6657     8.4279     8.1193   -67.7208     8.1434     0.2788     0.0282     2.4906   109.3874     0.1113   101.9433
  169.0000     8.6621     8.4244     8.1154   -67.7295     8.1429     0.2848     0.0326     2.4906   108.1627     0.1118   101.7933
  169.5000     8.6586     8.4209     8.1114   -67.7418     8.1424     0.2915     0.0358     2.4913   109.3696     0.1087   101.6432
  170.0000     8.6550     8.4174     8.1075   -67.7523     8.1420     0.3005     0.0420     2.4976   111.7923     0.1047   101.7949
  170.5000     8.6514     8.4139     8.1035   -67.7629     8.1415     0.2957     0.0463     2.5075   112.9992     0.1017   101.9877
  171.0000     8.6478     8.2942     8.0996   -67.7734     8.1411     0.2873     0.0463     2.5057   113.5982     0.1013   102.4419
  171.5000     8.6443     8.2908     8.0956   -67.4787     8.1406     0.2789     0.0403     2.5027   114.1976     0.1049   102.7021
  172.0000     8.6407     8.2874     8.0917   -67.4905     8.1402     0.2735     0.0402     2.4997   114.1883     0.1054   102.7029
  172.5000     8.6371     8.1695     8.0877   -68.1089     8.1397     0.2728     0.0463     2.4981   114.7873     0.1061   102.7036
  173.0000     8.5143     8.1661     8.0838   -68.7273     8.1695     0.2753     0.0523     2.4966   114.7781     0.1073   102.7044
  173.5000     8.2772     8.0499     8.0791   -68.7379     8.1992     0.2778     0.0493     2.4936   114.0334     0.1086   102.7051
  174.0000     8.0467     7.9354     7.9636   -68.7484     8.1987     0.2816     0.0402     2.4936   111.5339     0.1098   102.7059
  174.5000     7.8227     7.8225     7.8498   -68.4544     8.1983     0.2866     0.0279     2.4920   109.0345     0.1086   103.2054
  175.0000     7.6048     7.6047     7.6307   -68.1615     8.1979     0.2915     0.0154     2.4920   108.0558     0.1074   104.1151
  175.5000     7.2889     7.3930     7.2142   -67.8678     8.1974     0.2962     0.0270     2.4951   110.0507     0.1087   105.3266
  176.0000     7.0840     7.2878     6.8204   -68.4865     8.1970     0.3007     0.0539     2.4966   111.8946     0.1126   106.4857
  176.5000     6.8792     7.0849     6.6300   -69.7129     8.1965     0.3068     0.0493     2.4896   111.1945     0.1182   107.5452
  177.0000     6.6061     6.7924     6.5353   -70.6373     8.1961     0.2954     0.0305     2.4747   109.2340     0.1237   108.8100
  177.5000     6.5121     6.2458     6.2651   -71.5729     8.1956     0.2898     0.0128     2.4667   109.8227     0.1287   110.1722
  178.0000     6.4088     5.6624     5.6810   -72.1905     8.1952     0.2911     0.0261     2.4584   112.3040     0.1337   111.4962
  178.5000     6.2286     5.1287     4.8724   -72.5117     8.1947     0.2981     0.0340     2.4460   116.0010     0.1403   113.1048
  179.0000     5.9439     4.2034     4.1790   -72.8055     8.1943     0.3021     0.0370     2.4351   116.4924     0.1524   114.5847
  179.5000     5.5243     3.3075     2.9499   -73.1201     8.1938     0.3245     0.0323     2.4207   112.8345     0.1689   117.8329
  180.0000     4.8839     2.4883     2.4266   -73.1307     8.1934     0.3474     0.0127     2.3970   109.1781     0.1852   122.6331
  180.5000     3.7090     2.4872     2.4255   -72.8366     8.1929     0.3969    -0.0085     2.3473   106.7376     0.2128   127.4332
  181.0000     3.0657     2.4862     2.4243   -72.7943     8.1663     0.4218    -0.0124     2.2904   105.5129     0.2502   132.2334
  181.5000     2.8561     2.5200     2.4231   -72.5537     8.1170     0.4338     0.0127     2.2416   103.0724     0.2732   135.7398
  182.0000     2.9063     2.5587     2.4903   -72.1945     8.0707     0.4086     0.0248     2.2112   100.6319     0.2853   135.3856
  182.5000     3.0005     2.6357     2.5593   -71.8946     8.0526     0.3319     0.0252     2.1899   100.6079     0.2893   129.7898
  183.0000     3.1872     2.7928     2.7045   -71.2908     8.0093     0.3173     0.0157     2.2127   103.1023     0.2605   122.9239
  183.5000     3.5003     3.0791     3.0662   -70.6869     8.0088     0.3036     0.0157     2.2749   107.4224     0.2157   116.1894
  184.0000     4.0695     3.4133     4.0100   -70.0831     8.0084     0.2944     0.0340     2.3417   110.5411     0.1781   112.2112
  184.5000     4.9937     3.9063     5.5089   -69.7832     8.0080     0.2867     0.0617     2.3948   112.9493     0.1563   109.6961
  185.0000     6.3969     5.2007     6.0605   -69.2839     8.0075     0.2874     0.0502     2.4266   115.1681     0.1478   108.2629
  185.5000     7.0733     6.0735     6.3193   -68.9904     8.0071     0.2913     0.0136     2.4403   116.3750     0.1418   107.5497
  186.0000     7.1834     6.3323     6.4883   -68.6970     8.0368     0.2948    -0.0087     2.4511   116.3647     0.1332   107.7235
  186.5000     7.1245     6.5779     6.6584   -68.7097     8.0666     0.2985     0.0051     2.4632   116.5755     0.1284   108.2009
  187.0000     6.9306     6.6433     6.6550   -68.2837     8.0662     0.3026     0.0065     2.4661   117.5623     0.1260   108.6320
  187.5000     6.6408     6.6402     6.6517   -68.1231     8.0657     0.3049    -0.0026     2.4678   117.2746     0.1247   109.0610
  188.0000     6.6417     6.6093     6.5566   -68.1337     8.0653     0.2971     0.0133     2.4721   115.4043     0.1224   108.7079
  188.5000     7.2209     6.5429     6.5347   -68.1444     8.0951     0.2893     0.0305     2.4755   112.3343     0.1203   108.4050
  189.0000     7.5755     6.5402     6.3505   -68.4590     8.0946     0.2863     0.0445     2.4786   112.6609     0.1181   108.1302
  189.5000     7.6805     6.4472     6.1715   -68.6353     8.1027     0.2895     0.0554     2.4823   113.8678     0.1161   107.9791
  190.0000     7.6148     6.3232     5.9542   -68.9564     8.1239     0.2946     0.0601     2.4863   116.8984     0.1141   108.0392
  190.5000     7.6117     5.8848     5.3534   -69.0988     8.1234     0.3097     0.0366     2.4876   119.9290     0.1164   108.9509
  191.0000     7.2975     5.2135     4.9286   -69.7194     8.1230     0.3266     0.0275     2.4683   122.3517     0.1244   112.1031
  191.5000     6.6176     5.0105     4.8792   -70.0339     8.1225     0.3376     0.0275     2.4426   124.7744     0.1390   114.8801
  192.0000     4.9389     5.1089     4.9687   -70.3483     8.1221     0.3346     0.0275     2.4188   127.1971     0.1572   115.8551
  192.5000     4.6696     5.2520     5.1079   -70.6628     8.1216     0.3276     0.0214     2.4083   127.7961     0.1548   115.2627
  193.0000     4.7994     5.4339     5.3245   -70.9773     8.0909     0.3198     0.0214     2.4235   124.1398     0.1458   114.3544
  193.5000     5.0019     5.7069     5.5821   -70.9878     8.0904     0.3126     0.0305     2.4295   114.2878     0.1446   113.3326
  194.0000     5.2860     5.9489     5.9020   -70.3904     8.0900     0.3141     0.0427     2.4310   109.3739     0.1404   112.6144
  194.5000     5.5862     6.0310     6.0774   -70.0970     8.0593     0.3233     0.0520     2.4447   107.0912     0.1276   112.0490
