~VERSION INFORMATION
 VERS.                2.0:   CWLS LOG ASCII STANDARD - VERSION 2.0
 WRAP.                 NO:   ONE LINE PER DEPTH STEP
~WELL INFORMATION
#MNEM.UNIT      DATA TYPE    INFORMATION
#----------   ------------   ------------------------------
 STRT.F          372.0000:   START DEPTH
 STOP.F         1845.0000:   STOP DEPTH
 STEP.F            0.5000:   STEP LENGTH
 NULL.          -999.2500:   NO VALUE
 COMP.             T.H.E.:   COMPANY
 WELL. 63-1-STX-29 #63-29:   WELL
 FLD .             TEAPOT:   FIELD
 LOC .      S29 T39N R78W:   LOCATION
 CNTY.            NATRONA:   COUNTY
 STAT.            WYOMING:   STATE
 CTRY. UNITED STATES OF AMERICA:   COUNTRY
 SRVC.            Unknown:   SERVICE COMPANY
 DATE.        20-MAY-1996:   LOGDATE
 API .       490252279200:   API NUMBER
~CURVE INFORMATION
#MNEM.UNIT       API CODE    CURVE DESCRIPTION
#----------   ------------   ------------------------------
 DEPT.F                  :   
 ROP .MIN/FT 91 810 01 00:   RATE OF DRILLING PENETRATION
 TGAS.UNITS  91 830 01 00:   TOTAL GAS FROM HOTWIRE
~PARAMETER INFORMATION
#MNEM.UNIT          VALUE    DESCRIPTION
#----------   ------------   ------------------------------
 EKB .F              4983:   KELLING BUSHING
 EGL .F              4973:   GROUND LEVEL
 DATE.          5-20-1996:   RUN DATE
 RUN .                  1:   RUN NUMBER
 BLI .F              1845:   BOTTOM LOG INTERVAL
 TLI .F               372:   TOP LOG INTERVAL
 CS  .IN                7:   CASING SIZE
 CBD .F               354:   CASING BOTTOM DRILLER
 ENGI.   C. TOWER/R. HUSK:   RECORDING ENGINEER
 CLNT.            A2DTECH:   CLIENT CODE
 ORIG.           5" PRINT:   ORIGIN OF DATA
 UWI .       490252279200:   UNIQUE WELL ID
 DICO. A2D Technologies, Inc.:   DIGITIZING COMPANY
~OTHER INFORMATION
~A   DEPT        ROP     TGAS   
# ...
 1708.5000     0.7454    49.7384
 1709.0000     0.6585    49.7257
 1709.5000     0.6584    49.7131
 1710.0000     0.6583    49.7004
 1710.5000     0.6582    49.6878
 1711.0000     0.6581    49.6751
 1711.5000     0.6580    49.6625
 1712.0000     0.6683    49.6498
 1712.5000     0.6682    49.6372
 1713.0000     0.6711    49.6245
 1713.5000     0.6785    49.6119
 1714.0000     0.6784    49.5992
 1714.5000     0.8217    49.5866
 1715.0000     0.9088    49.5739
 1715.5000     0.8982    49.5612
 1716.0000     0.9086    49.5486
 1716.5000     1.1181    49.5359
 1717.0000     1.1075    49.5233
 1717.5000     1.0865    49.5106
 1718.0000     1.0759    49.4980
 1718.5000     1.0758    49.4853
 1719.0000     1.0757    49.4727
 1719.5000     1.0756    49.4600
 1720.0000     1.0929    49.4474
 1720.5000     1.3707    49.4347
 1721.0000     1.3688    49.4221
 1721.5000     1.3687    49.4094
 1722.0000     1.3686    49.3968
 1722.5000     0.6242    49.3841
 1723.0000     0.6241    49.3714
 1723.5000     0.6240    49.3588
 1724.0000     0.6239    49.3442
 1724.5000     0.6238    49.3320
 1725.0000     0.6237    49.3198
 1725.5000     0.6236    49.3077
 1726.0000     0.6235    49.2935
 1726.5000     0.6234  -999.2500
 1727.0000     0.6233  -999.2500
 1727.5000     0.6232  -999.2500
 1728.0000     0.6231  -999.2500
 1728.5000     0.8221  -999.2500
 1729.0000     0.8220  -999.2500
 1729.5000     0.8219  -999.2500
 1730.0000     0.8323  -999.2500
 1730.5000     0.6391  -999.2500
 1731.0000     0.6224  -999.2500
 1731.5000     0.6118  -999.2500
 1732.0000     0.6222    60.3179
 1732.5000     0.7192    60.3160
 1733.0000     0.9574    60.3140
 1733.5000     0.9573    60.3121
 1734.0000     0.9635    60.3101
 1734.5000     0.8883    60.3082
 1735.0000     0.8298    60.3062
 1735.5000     0.8206    60.3043
 1736.0000     0.8205    60.3023
 1736.5000     0.8204    60.3004
 1737.0000     1.0719    60.2984
 1737.5000     1.0718    60.2965
 1738.0000     1.0717    60.2945
 1738.5000     1.0716    60.2925
 1739.0000     1.0715    60.2906
 1739.5000     1.0714    60.2886
 1740.0000     1.0713    60.2867
 1740.5000     1.0712    60.2847
 1741.0000     0.8509    60.2828
 1741.5000     0.8508    60.2808
 1742.0000     0.8507    60.2789
 1742.5000     0.8611    60.2769
 1743.0000     0.8610    60.2750
 1743.5000     0.8609    60.2730
 1744.0000     0.8608    60.2711
 1744.5000     0.8607    60.2691
 1745.0000     0.9481    60.2672
 1745.5000     1.0312    60.2652
 1746.0000     1.0497    60.2632
 1746.5000     0.9022    60.2613
 1747.0000     0.8853    60.2593
 1747.5000     0.8849    60.2574
 1748.0000     0.9010    60.2554
 1748.5000     1.0380    60.2535
 1749.0000     1.0379    60.2515
 1749.5000     1.0530    60.2496
 1750.0000     1.0288    60.2476
 1750.5000     0.8804    60.2457
 1751.0000     0.8908    60.2437
 1751.5000     0.8961    60.2415
 1752.0000     0.9011    60.1731
 1752.5000     0.8832    60.0949
 1753.0000     0.5759    60.0055
 1753.5000     0.5653    59.9953
 1754.0000     0.5652    59.9851
 1754.5000     0.5651    60.3981
 1755.0000     0.5755    60.8060
 1755.5000     0.5753    61.2190
 1756.0000     0.5857    61.6304
 1756.5000     0.5752    62.2524
 1757.0000     0.5751    62.8728
 1757.5000     0.5749    63.2859
 1758.0000     0.5748    63.9046
 1758.5000     0.5717    64.1085
 1759.0000     0.5642    64.5164
 1759.5000     0.5640    64.5062
 1760.0000     0.5639    64.4960
 1760.5000     0.7878    64.4849
 1761.0000     0.7958    64.4738
 1761.5000     0.8047    64.2528
 1762.0000     0.8046    64.2426
 1762.5000     0.8150    64.2324
 1763.0000     0.8149    64.2258
 1763.5000     0.8253    64.2268
 1764.0000     0.8251    64.2277
 1764.5000     0.5560    64.2287
 1765.0000     0.5210    64.2296
 1765.5000     0.5209    64.2306
 1766.0000     0.5207    64.2315
 1766.5000     0.8183    64.2325
 1767.0000     0.8102    64.2334
 1767.5000     0.8035    64.2344
 1768.0000     0.8033    64.2353
 1768.5000     0.8032    64.2363
 1769.0000     0.8031    64.2372
 1769.5000     0.8030    64.2382
 1770.0000     0.8029    64.2391
 1770.5000     0.8028    64.2401
 1771.0000     0.7972    64.2410
 1771.5000     0.7891    64.2420
 1772.0000     0.7816    64.2429
 1772.5000     0.9701    64.2438
 1773.0000     0.9700    64.2448
 1773.5000     0.9699    64.2457
 1774.0000     0.9698    64.2467
 1774.5000     0.9802    64.2476
 1775.0000     0.9801    64.2486
 1775.5000     0.9695    64.2495
 1776.0000     1.0777    64.2505
 1776.5000     1.2523    64.2514
 1777.0000     1.2732    64.2524
 1777.5000     1.2731    64.2533
 1778.0000     1.2730    64.2543
 1778.5000     1.2590    64.2552
 1779.0000     0.9478    64.2562
 1779.5000     0.9477    64.2571
 1780.0000     0.9476    64.2580
 1780.5000     0.9580    64.2590
 1781.0000     0.9683    64.2599
 1781.5000     0.9577    64.2609
 1782.0000     0.9624    64.2618
 1782.5000     0.9680    64.2628
 1783.0000     0.9679    64.2637
 1783.5000     0.9678    64.2647
 1784.0000     0.8580    64.2656
 1784.5000     0.7684    64.2666
 1785.0000     0.7683    64.2675
 1785.5000     0.7682    64.2685
 1786.0000     0.7681    64.2694
 1786.5000     0.7680    64.2704
 1787.0000     0.7679    64.2713
 1787.5000     0.7678    64.2723
 1788.0000     0.7677    64.2732
 1788.5000     0.7781    64.2741
 1789.0000     0.7780    64.2751
 1789.5000     0.7779    64.2760
 1790.0000     0.7883    64.2770
 1790.5000     0.7882    64.2831
 1791.0000     0.7881    64.3057
 1791.5000     0.7879    64.3283
 1792.0000     0.6306    64.3509
 1792.5000     0.5927    64.3736
 1793.0000     0.5885    64.3962
 1793.5000     0.5884    64.4188
 1794.0000     0.5778    64.4414
 1794.5000     0.5777    64.4640
 1795.0000     0.5823    64.4866
 1795.5000     0.5880    64.5092
 1796.0000     0.5878    64.5318
 1796.5000     1.0594    64.5544
 1797.0000     1.0593    64.5770
 1797.5000     1.0592    64.5996
 1798.0000     1.0736    64.6222
 1798.5000     1.2896    64.6448
 1799.0000     1.3063    64.6674
 1799.5000     1.3143    64.6900
 1800.0000     1.2698    64.7098
 1800.5000     0.9643    64.7148
 1801.0000     0.9746    64.7199
 1801.5000     0.9644    64.7249
 1802.0000     0.9383    64.7299
 1802.5000     0.8386    64.7350
 1803.0000     0.8386    64.7400
 1803.5000     0.8386    64.7451
 1804.0000     0.8386    64.7501
 1804.5000     0.8386    64.7552
 1805.0000     0.8396    64.7602
 1805.5000     0.8595    64.7652
 1806.0000     0.8767    64.7703
 1806.5000     0.7627    64.7753
 1807.0000     0.5870    64.7804
 1807.5000     0.5975    64.7854
 1808.0000     0.5975    64.7905
 1808.5000     0.6129    64.7955
 1809.0000     0.6314    64.8005
 1809.5000     0.6709    64.8056
 1810.0000     0.6733    64.8106
 1810.5000     0.5346    64.8157
 1811.0000     0.5451    64.8207
 1811.5000     0.5451    64.8257
 1812.0000     0.5556    64.8308
 1812.5000     0.9685    64.8358
 1813.0000     0.9644    64.8409
 1813.5000     0.9629    64.8459
 1814.0000     0.9539    64.8510
 1814.5000     0.9539    64.8560
 1815.0000     0.7132    64.8610
 1815.5000     0.5556    64.8661
 1816.0000     0.5556    64.8711
 1816.5000     0.5451    64.8762
 1817.0000     0.5451    64.8812
 1817.5000     0.5451    64.8863
 1818.0000     0.5451    64.8913
 1818.5000     0.5346    64.8963
 1819.0000     0.5346    64.9014
 1819.5000     0.5346    64.9064
 1820.0000     0.5346    64.9115
 1820.5000     0.5346    64.9165
 1821.0000     0.5451    64.9215
 1821.5000     0.5451    64.9266
 1822.0000     0.7233    64.9316
 1822.5000     0.7233    64.9367
 1823.0000     0.7338    64.9417
 1823.5000     0.7338    64.9468
 1824.0000     0.7338    64.9518
 1824.5000     0.7338    64.9568
 1825.0000     0.7338    64.9619
 1825.5000     0.7395    64.9669
 1826.0000     0.7442    64.9720
 1826.5000     0.7228    64.9770
 1827.0000     0.5241    64.9820
 1827.5000     0.5071    64.9871
 1828.0000     0.5031    64.9921
 1828.5000     0.5015    64.9972
 1829.0000     0.4927    65.0022
 1829.5000     0.5031    65.0073
