~VERSION INFORMATION
 VERS.                2.0:   CWLS LOG ASCII STANDARD - VERSION 2.0
 WRAP.                 NO:   ONE LINE PER DEPTH STEP
~WELL INFORMATION
#MNEM.UNIT      DATA TYPE    INFORMATION
#----------   ------------   ------------------------------
 STRT.F            0.0000:   START DEPTH
 STOP.F          635.0000:   STOP DEPTH
 STEP.F            0.1000:   STEP LENGTH
 NULL.          -999.2500:   NO VALUE
 COMP.   FLUOR DANIEL INC:   COMPANY
 WELL. NAVAL PETROLEUM RESERVE 3 SX-3 #72-7-3:   WELL
 FLD .             TEAPOT:   FIELD
 LOC .       S3 T38N R78W:   LOCATION
 CNTY.            NATRONA:   COUNTY
 STAT.            WYOMING:   STATE
 CTRY. UNITED STATES OF AMERICA:   COUNTRY
 SRVC.      Western Atlas:   SERVICE COMPANY
 DATE.        11-JAN-1995:   LOGDATE
 API .       490252264900:   API NUMBER
~CURVE INFORMATION
#MNEM.UNIT       API CODE    CURVE DESCRIPTION
#----------   ------------   ------------------------------
 DEPT.F                  :   
 GRR .GAPI   07 310 01 00:   GAMMA RAY
 RILD.OHMM   07 120 46 00:   INDUCTION LOG DEEP RESISTIVITY
 RILM.OHMM   07 120 44 00:   RESITIVITY LONG MEDIUM
~PARAMETER INFORMATION
#MNEM.UNIT          VALUE    DESCRIPTION
#----------   ------------   ------------------------------
 PD  .                 GL:   PERMANENT DATUM
 EPD .F              5144:   ELEVATION PERMANENT DATUM
 LMF .                 KB:   LOG MEASURED FROM
 DAPD.F                10:   FEET ABOVE PERMANENT DATUM
 DMF .                 KB:   DRILLING MEASURED FROM
 EKB .F              5154:   KELLING BUSHING
 EDF .F              5153:   DRILLING FLOOR
 EGL .F              5144:   GROUND LEVEL
 DATE.        11-JAN-1995:   RUN DATE
 RUN .                  1:   RUN NUMBER
 DD  .F               641:   DEPTH DRILLER
 DL  .F               642:   DEPTH LOGGER
 BLI .F               635:   BOTTOM LOG INTERVAL
 CS  .IN            9.625:   CASING SIZE
 CBD .F                97:   CASING BOTTOM DRILLER
 CBL .F                97:   CASING BOTTOM LOGGER
 BS  .IN             8.75:   BIT SIZE
 BSD .F               641:   BIT SIZE AT DEPTH
 DFT .                AIR:   DRILLING FLUID TYPE
 MRT .F                89:   MAXIMUM RECORDED TEMPERATURE
 LUN .            HL 6530:   LOGGING UNIT NUMBER
 LUL .             CASPER:   LOGGING UNIT LOCATION
 ENGI.      PAT RASMUSSEN:   RECORDING ENGINEER
 WITN.        STEVE HARDY:   WITNESSED BY
 CLNT.            A2DTECH:   CLIENT CODE
 ORIG.           5" PRINT:   ORIGIN OF DATA
 UWI .       490252264900:   UNIQUE WELL ID
 DICO. A2D Technologies, Inc.:   DIGITIZING COMPANY
~OTHER INFORMATION
~A    DEPT      GRR      RILD       RILM   
# ...
  509.6000    65.4340    16.3891    16.7843
  509.7000    65.6761    16.2132    16.6084
  509.8000    65.6775    16.0945    16.5111
  509.9000    65.9053    16.0009    16.4012
  510.0000    65.9819    15.9078    16.2359
  510.1000    65.8473    15.7953    16.1108
  510.2000    65.4114    15.6181    16.0165
  510.3000    64.7323    15.6191    15.8915
  510.4000    64.4761    15.4622    15.7200
  510.5000    64.1754    15.3436    15.6265
  510.6000    63.9661    15.2544    15.5190
  510.7000    63.8755    15.1953    15.4456
  510.8000    63.8767    15.1822    15.3551
  510.9000    63.8779    15.0921    15.2652
  511.0000    63.8792    14.9888    15.1758
  511.1000    63.8804    14.9188    15.0964
  511.2000    64.1208    14.8320    15.0968
  511.3000    64.1849    14.7848    14.9325
  511.4000    64.3344    14.7618    14.8897
  511.5000    64.6949    14.6759    14.7889
  511.6000    65.2093    14.5838    14.6854
  511.7000    65.7120    14.5845    14.6660
  511.8000    66.0038    14.5215    14.5801
  511.9000    66.4503    14.4370    14.4843
  512.0000    66.7875    14.3862    14.4099
  512.1000    67.0454    14.3687    14.3256
  512.2000    67.2169    14.2851    14.2860
  512.3000    67.2181    14.1906    14.2569
  512.4000    67.2194    14.1913    14.1734
  512.5000    67.2208    14.1921    14.0903
  512.6000    67.0155    14.1504    13.9934
  512.7000    66.9208    14.0956    13.9259
  512.8000    66.9221    14.0964    13.8444
  512.9000    66.9233    14.0972    13.8017
  513.0000    66.9003    14.0008    13.7779
  513.1000    66.6237    14.0014    13.7071
  513.2000    66.6248    14.0022    13.7075
  513.3000    66.6260    13.9658    13.7079
  513.4000    66.3387    13.8846    13.6461
  513.5000    65.9255    13.8116    13.6618
  513.6000    65.7233    13.8125    13.7090
  513.7000    65.7168    13.8132    13.7094
  513.8000    65.4237    13.8140    13.7098
  513.9000    65.4248    13.7686    13.7102
  514.0000    65.2528    13.7201    13.7105
  514.1000    64.9974    13.7035    13.7109
  514.2000    64.8242    13.6269    13.7113
  514.3000    64.7887    13.6277    13.7414
  514.4000    64.5245    13.6284    13.8075
  514.5000    64.2779    13.6291    13.8079
  514.6000    64.2248    13.6299    13.8083
  514.7000    64.0693    13.6307    13.8773
  514.8000    63.9251    13.6314    13.9051
  514.9000    63.9263    13.6322    13.9055
  515.0000    63.9275    13.5389    13.9059
  515.1000    63.9288    13.4756    13.9063
  515.2000    63.9299    13.4468    13.9067
  515.3000    63.9311    13.4475    13.9070
  515.4000    63.7922    13.4266    13.9074
  515.5000    63.6314    13.3484    13.9078
  515.6000    63.5835    13.2647    13.9082
  515.7000    63.3317    13.2653    13.8873
  515.8000    63.3331    13.2661    13.8059
  515.9000    63.3341    13.2225    13.7178
  516.0000    63.3354    13.1759    13.7181
  516.1000    63.4603    13.1600    13.6594
  516.2000    63.6399    13.0863    13.6241
  516.3000    63.6411    13.0872    13.5938
  516.4000    63.6424    13.0878    13.5307
  516.5000    63.6435    13.0885    13.5310
  516.6000    63.6447    13.0893    13.5315
  516.7000    63.9513    13.0900    13.5318
  516.8000    64.2514    13.0907    13.5322
  516.9000    64.4375    13.0915    13.4924
  517.0000    65.1762    13.0923    13.4394
  517.1000    65.4636    13.0929    13.4520
  517.2000    65.9191    13.0936    13.5337
  517.3000    66.4335    13.1293    13.5341
  517.4000    66.6755    13.1862    13.5987
  517.5000    66.7674    13.1945    13.6796
  517.6000    66.9801    13.2794    13.7242
  517.7000    66.9813    13.2801    13.7246
  517.8000    67.2848    13.2808    13.7331
  517.9000    67.2858    13.3262    13.8209
  518.0000    67.2870    13.4057    13.8969
  518.1000    67.1686    13.4684    13.9178
  518.2000    66.9873    13.4723    13.9182
  518.3000    66.9885    13.5637    13.9186
  518.4000    66.9898    13.5643    13.9190
  518.5000    66.9909    13.6201    13.9233
  518.6000    66.9921    13.6602    14.0167
  518.7000    66.9934    13.6609    14.0170
  518.8000    67.0976    13.6617    14.0174
  518.9000    67.2979    13.6624    14.0178
  519.0000    67.3112    13.6633    14.0182
  519.1000    67.6026    13.7289    14.0327
  519.2000    67.8268    13.7597    14.1166
  519.3000    68.2622    13.7972    14.1170
  519.4000    68.6445    13.8570    14.1173
  519.5000    68.9023    13.8577    14.1177
  519.6000    69.1190    13.8586    14.0793
  519.7000    69.1203    13.8593    13.9969
  519.8000    69.1217    13.8600    13.9244
  519.9000    69.1227    13.9074    13.9248
  520.0000    69.1239    13.9580    13.9252
  520.1000    69.0094    13.9765    13.9256
  520.2000    68.8242    14.0566    13.9260
  520.3000    68.8254    14.0575    13.9263
  520.4000    68.8267    14.1298    13.9267
  520.5000    68.8278    14.1567    13.9271
  520.6000    68.8290    14.2002    13.9276
  520.7000    68.8302    14.2567    14.0011
  520.8000    68.8314    14.2575    14.0843
  520.9000    68.8326    14.2583    14.1232
  521.0000    68.8338    14.2593    14.1538
  521.1000    68.8352    14.2599    14.2378
  521.2000    69.0554    14.3136    14.3217
  521.3000    69.1396    14.3990    14.3221
  521.4000    69.1408    14.4613    14.4643
  521.5000    69.1420    14.4621    14.6365
  521.6000    69.1432    14.4630    14.8107
  521.7000    69.1444    14.4637    14.9868
  521.8000    69.1456    14.5282    15.1531
  521.9000    69.1468    14.5659    15.2471
  522.0000    69.1480    14.6005    15.4207
  522.1000    69.2608    14.6689    15.5323
  522.2000    69.5186    14.6731    15.6808
  522.3000    69.7970    14.7726    15.8673
  522.4000    70.3615    14.8487    16.0318
  522.5000    70.8258    14.9372    16.1272
  522.6000    70.9680    15.0263    16.2323
  522.7000    71.1098    15.0862    16.3195
  522.8000    71.3676    15.1151    16.4165
  522.9000    71.6253    15.2985    16.4604
  523.0000    71.8792    15.2995    16.4608
  523.1000    71.8806    15.4461    16.4613
  523.2000    71.8816    15.5721    16.4617
  523.3000    71.7132    15.6650    16.4623
  523.4000    71.3338    15.7841    16.4627
  523.5000    70.7431    15.9625    16.4631
  523.6000    69.9748    16.0652    16.4636
  523.7000    69.1686    16.1535    16.4640
  523.8000    68.6816    16.2499    16.4645
  523.9000    67.7727    16.3469    16.4650
  524.0000    67.0533    16.4443    16.4654
  524.1000    66.4337    16.5424    16.5435
  524.2000    65.7273    16.6409    16.6418
  524.3000    65.2317    16.7539    16.6968
  524.4000    64.9476    16.8401    16.6972
  524.5000    64.7210    16.9406    16.7070
  524.6000    64.4656    17.0416    16.8144
  524.7000    64.3468    17.1095    16.8148
  524.8000    64.3480    17.1105    16.8893
  524.9000    64.3492    17.1114    16.9328
  525.0000    64.3505    17.1125    16.9333
  525.1000    64.3519    17.1946    16.9337
  525.2000    64.5640    17.2333    16.9342
  525.3000    64.8218    17.2342    16.9347
  525.4000    65.3197    17.2074    17.0219
  525.5000    66.0907    17.1170    17.0535
  525.6000    66.8327    17.1181    17.1059
  525.7000    67.3801    17.0264    17.1731
  525.8000    68.1013    16.9273    17.1902
  525.9000    68.8725    16.8289    17.2936
  526.0000    69.7925    16.7309    17.4145
  526.1000    70.6130    16.6547    17.4149
  526.2000    71.0695    16.6518    17.4810
  526.3000    71.3396    16.5416    17.5371
  526.4000    71.9204    16.4586    17.5082
  526.5000    71.9215    16.4290    17.4168
  526.6000    71.3884    16.3808    17.4174
  526.7000    70.4873    16.2855    17.2271
  526.8000    69.6364    16.2055    17.1784
  526.9000    69.1244    16.2065    17.0614
  527.0000    68.6042    16.2076    16.9427
  527.1000    68.6057    16.2083    16.9201
  527.2000    68.3996    16.1495    16.8210
  527.3000    68.1442    16.0555    16.7107
  527.4000    68.0048    15.9621    16.7111
  527.5000    68.0060    15.8692    16.6423
  527.6000    68.0072    15.7696    16.5966
  527.7000    68.0086    15.7704    16.5624
