~VERSION INFORMATION
 VERS.                2.0:   CWLS LOG ASCII STANDARD - VERSION 2.0
 WRAP.                 NO:   ONE LINE PER DEPTH STEP
~WELL INFORMATION
#MNEM.UNIT      DATA TYPE    INFORMATION
#----------   ------------   ------------------------------
 STRT.F            4.0000:   START DEPTH
 STOP.F          614.0000:   STOP DEPTH
 STEP.F            0.1000:   STEP LENGTH
 NULL.          -999.2500:   NO VALUE
 COMP.   FLUOR DANIEL INC:   COMPANY
 WELL.     63-4 X 3 #63-3:   WELL
 FLD .          N.P.R. #3:   FIELD
 LOC .       S3 T38N R78W:   LOCATION
 CNTY.            NATRONA:   COUNTY
 STAT.            WYOMING:   STATE
 CTRY. UNITED STATES OF AMERICA:   COUNTRY
 SRVC.      Western Atlas:   SERVICE COMPANY
 DATE.        01-JUN-1995:   LOGDATE
 API .       490252271300:   API NUMBER
~CURVE INFORMATION
#MNEM.UNIT       API CODE    CURVE DESCRIPTION
#----------   ------------   ------------------------------
 DEPT.F                  :   
 GRR .GAPI   07 310 01 00:   GAMMA RAY
 RILD.OHMM   07 120 46 00:   INDUCTION LOG DEEP RESISTIVITY
 RILM.OHMM   07 120 44 00:   INDUCTION LOG MEDIUM RESISTIVITY
~PARAMETER INFORMATION
#MNEM.UNIT          VALUE    DESCRIPTION
#----------   ------------   ------------------------------
 PD  .                 GL:   PERMANENT DATUM
 EPD .F              5173:   ELEVATION PERMANENT DATUM
 LMF .                 KB:   LOG MEASURED FROM
 DAPD.F                10:   FEET ABOVE PERMANENT DATUM
 DMF .                 KB:   DRILLING MEASURED FROM
 EKB .F              5183:   KELLING BUSHING
 EDF .F              5182:   DRILLING FLOOR
 EGL .F              5173:   GROUND LEVEL
 DATE.        01-JUN-1995:   RUN DATE
 RUN .                  1:   RUN NUMBER
 DD  .F               626:   DEPTH DRILLER
 DL  .F               622:   DEPTH LOGGER
 BLI .F               614:   BOTTOM LOG INTERVAL
 TLI .F                95:   TOP LOG INTERVAL
 CS  .IN            9.625:   CASING SIZE
 CBD .F                95:   CASING BOTTOM DRILLER
 CBL .F                95:   CASING BOTTOM LOGGER
 BS  .IN             8.75:   BIT SIZE
 BSD .F               626:   BIT SIZE AT DEPTH
 DFT .                AIR:   DRILLING FLUID TYPE
 MRT .F               147:   MAXIMUM RECORDED TEMPERATURE
 LUN .            HL 6530:   LOGGING UNIT NUMBER
 LUL .             CASPER:   LOGGING UNIT LOCATION
 ENGI.        VERN RAUTIO:   RECORDING ENGINEER
 WITN.        STEVE HARDY:   WITNESSED BY
 CLNT.            A2DTECH:   CLIENT CODE
 ORIG.           5" PRINT:   ORIGIN OF DATA
 UWI .       490252271300:   UNIQUE WELL ID
 DICO. A2D Technologies, Inc.:   DIGITIZING COMPANY
~OTHER INFORMATION
~A    DEPT       GRR     RILD       RILM   
# ...
  495.4000    68.9656    14.7408    13.6434
  495.5000    68.9636    14.5388    13.5624
  495.6000    68.9619    14.4672    13.4819
  495.7000    68.9601    14.3811    13.3949
  495.8000    68.9583    14.2957    13.3224
  495.9000    69.0752    14.2107    13.2434
  496.0000    69.3334    14.1454    13.2134
  496.1000    69.6259    14.1395    13.2143
  496.2000    70.1595    14.0496    13.2152
  496.3000    70.7616    14.0505    13.2031
  496.4000    71.1798    14.0515    13.1259
  496.5000    71.6979    14.0524    13.1270
  496.6000    72.2159    14.0534    13.1277
  496.7000    72.5674    14.0544    13.1287
  496.8000    72.6478    14.0554    13.1296
  496.9000    73.1680    14.0563    13.1305
  497.0000    73.4680    14.0574    13.1314
  497.1000    73.6831    14.0583    13.1417
  497.2000    73.7668    14.0593    13.2244
  497.3000    73.7650    14.0107    13.2255
  497.4000    73.7631    13.9640    13.2262
  497.5000    73.6657    13.9649    13.2271
  497.6000    73.1384    13.9659    13.2697
  497.7000    72.2469    13.9669    13.3208
  497.8000    71.3521    13.8714    13.3217
  497.9000    70.3105    13.8722    13.3227
  498.0000    69.4079    13.8732    13.3237
  498.1000    68.7231    13.8741    13.3245
  498.2000    68.2560    13.8751    13.2636
  498.3000    68.0067    13.8761    13.2345
  498.4000    68.0046    13.8770    13.2354
  498.5000    68.0030    13.8780    13.2363
  498.6000    68.3771    13.8789    13.2372
  498.7000    68.7494    13.9466    13.2381
  498.8000    69.0075    13.9775    13.2392
  498.9000    69.2656    13.9785    13.3101
  499.0000    69.5428    13.9795    13.3328
  499.1000    70.1068    13.9970    13.3337
  499.2000    70.1051    14.0788    13.3692
  499.3000    70.4926    14.0799    13.4282
  499.4000    71.0107    14.0808    13.4397
  499.5000    71.5287    14.0817    13.5233
  499.6000    72.0467    14.0827    13.5244
  499.7000    72.5648    14.0837    13.5931
  499.8000    73.1153    14.0847    13.6200
  499.9000    73.3572    14.0856    13.6213
  500.0000    73.6153    14.0866    13.6219
  500.1000    73.7142    13.7020    13.7172
  500.2000    73.7124    13.7678    13.7820
  500.3000    73.5086    13.7992    13.8628
  500.4000    73.0087    13.8350    13.9440
  500.5000    72.8248    13.9169    14.0256
  500.6000    72.8060    13.9950    14.1077
  500.7000    72.5290    13.9961    14.2036
  500.8000    72.5317    14.0677    14.2735
  500.9000    72.5347    14.1510    14.3572
  501.0000    72.5378    14.1946    14.4413
  501.1000    72.5408    14.2446    14.5258
  501.2000    72.5438    14.4038    14.6052
  501.3000    72.5469    14.4963    14.6059
  501.4000    72.5504    14.4973    14.6806
  501.5000    72.5529    14.5599    14.7667
  501.6000    72.5559    14.6003    14.8112
  501.7000    72.5589    14.6013    14.8118
  501.8000    72.5619    14.6157    14.8124
  501.9000    72.5650    14.7051    14.8131
  502.0000    72.5683    14.7894    14.8136
  502.1000    72.5710    14.8095    14.8143
  502.2000    72.5740    14.8615    14.8149
  502.3000    72.5770    14.9147    14.8437
  502.4000    72.5801    14.9157    14.9190
  502.5000    72.6234    14.9168    14.9196
  502.6000    72.8883    14.9180    14.9202
  502.7000    72.8912    14.9189    14.9208
  502.8000    73.0965    14.9199    14.9215
  502.9000    73.5104    14.9209    14.9221
  503.0000    74.1330    14.9220    14.9227
  503.1000    74.9021    14.9230    14.9233
  503.2000    75.6560    14.9242    15.0085
  503.3000    76.2330    14.9251    15.0282
  503.4000    76.2356    14.9867    15.0802
  503.5000    76.2387    15.0311    15.1338
  503.6000    76.1112    15.0321    15.1344
  503.7000    76.0264    15.0332    15.1351
  503.8000    76.2473    15.0343    15.1358
  503.9000    75.9488    15.2004    15.1363
  504.0000    75.9517    15.2465    15.0827
  504.1000    75.9547    15.2972    15.0332
  504.2000    75.9577    15.3548    15.0135
  504.3000    75.9607    15.3559    14.9272
  504.4000    75.9637    15.3570    14.8285
  504.5000    75.9789    15.3580    14.8290
  504.6000    76.2723    15.2878    14.7736
  504.7000    76.2749    15.2539    14.6888
  504.8000    76.6260    15.2178    14.6044
  504.9000    77.1397    15.1303    14.5205
  505.0000    77.5730    15.0467    14.4273
  505.1000    77.8652    15.0480    14.2815
  505.2000    78.4050    14.9745    14.1174
  505.3000    78.6503    14.8314    13.9950
  505.4000    78.5173    14.7004    13.9146
  505.5000    78.2649    14.6159    13.8262
  505.6000    77.9102    14.5318    13.6537
  505.7000    77.4024    14.4401    13.5821
  505.8000    76.8947    14.2900    13.4480
  505.9000    76.3116    14.2429    13.3340
  506.0000    75.4440    14.2006    13.2574
  506.1000    74.7671    14.0916    13.1706
  506.2000    74.2593    13.9406    13.0113
  506.3000    73.9063    13.8568    12.9405
  506.4000    73.9094    13.7808    12.8104
  506.5000    73.9126    13.7016    12.6632
  506.6000    74.6332    13.5774    12.5709
  506.7000    75.0173    13.4509    12.5587
  506.8000    75.5673    13.3735    12.4852
  506.9000    76.1384    13.2960    12.3447
  507.0000    76.5015    13.1149    12.2586
  507.1000    77.2594    13.0533    12.2302
  507.2000    77.5594    12.9782    12.2024
  507.3000    77.9905    12.8709    12.1323
  507.4000    78.5044    12.7407    12.0626
  507.5000    78.7764    12.6674    11.9810
  507.6000    78.7795    12.5851    11.9246
  507.7000    78.7551    12.4590    11.8561
  507.8000    78.4836    12.4133    11.8177
  507.9000    77.7783    12.3435    11.8018
  508.0000    77.0151    12.2224    11.7340
  508.1000    76.2520    12.1521    11.6568
  508.2000    75.4889    12.0768    11.5997
  508.3000    74.7257    12.0128    11.5773
  508.4000    73.9649    11.8930    11.5778
  508.5000    73.3691    11.7930    11.5599
  508.6000    72.9494    11.7252    11.4989
  508.7000    72.7704    11.6577    11.4995
  508.8000    72.7734    11.5890    11.4409
  508.9000    72.7764    11.5241    11.4211
  509.0000    72.7795    11.4578    11.3884
  509.1000    72.7827    11.4316    11.3432
  509.2000    73.0183    11.4054    11.3362
  509.3000    73.2767    11.3541    11.2660
  509.4000    73.5351    11.3531    11.2664
  509.5000    73.7935    11.2772    11.2669
  509.6000    74.0519    11.2230    11.2674
  509.7000    74.3112    11.2007    11.2456
  509.8000    74.9190    11.1716    11.1905
  509.9000    75.1293    11.1247    11.1911
  510.0000    75.0655    11.1255    11.1298
  510.1000    74.6987    11.1264    11.1148
  510.2000    74.2586    11.0695    11.1153
  510.3000    73.9852    11.0509    11.0916
  510.4000    73.4263    11.0516    11.0394
  510.5000    72.9697    11.0318    11.0400
  510.6000    72.6449    10.9766    11.0404
  510.7000    72.3926    10.9775    10.9902
  510.8000    72.1402    10.9782    10.9652
  510.9000    71.8879    10.9790    10.9657
  511.0000    71.6315    10.9438    10.9593
  511.1000    71.6350    10.9046    10.9281
  511.2000    71.6375    10.9053    10.8915
  511.3000    71.6405    10.9061    10.8919
  511.4000    71.6435    10.8316    10.8923
  511.5000    71.7110    10.8322    10.8650
  511.6000    71.9694    10.8329    10.8181
  511.7000    72.2571    10.8337    10.8151
  511.8000    72.4862    10.8344    10.7445
  511.9000    72.9243    10.8352    10.7448
  512.0000    73.5709    10.8360    10.7453
  512.1000    74.4262    10.8367    10.7162
  512.2000    75.4117    10.8374    10.6721
  512.3000    76.2025    10.8382    10.6725
  512.4000    76.9502    10.8389    10.6730
  512.5000    77.5177    10.8397    10.6734
  512.6000    78.1862    10.8405    10.6738
  512.7000    78.5235    10.8412    10.6743
  512.8000    78.2100    10.8419    10.6747
  512.9000    77.6734    10.8427    10.6752
  513.0000    76.5261    10.8434    10.6756
  513.1000    75.4130    10.8442    10.6761
  513.2000    74.3154    10.8450    10.6765
  513.3000    73.4267    10.8457    10.7106
  513.4000    72.6638    10.8465    10.7515
  513.5000    71.9367    10.8472    10.7520
