~VERSION INFORMATION
 VERS.                2.0:   CWLS LOG ASCII STANDARD - VERSION 2.0
 WRAP.                 NO:   ONE LINE PER DEPTH STEP
~WELL INFORMATION
#MNEM.UNIT      DATA TYPE    INFORMATION
#----------   ------------   ------------------------------
 STRT.F           39.0000:   START DEPTH
 STOP.F          590.0000:   STOP DEPTH
 STEP.F            0.5000:   STEP LENGTH
 NULL.          -999.2500:   NO VALUE
 COMP. FENIX & SCISSON INC:   COMPANY
 WELL.    NPR-3 SX #41-34:   WELL
 FLD .             TEAPOT:   FIELD
 LOC .      S34 T39N R78W:   LOCATION
 CNTY.            NATRONA:   COUNTY
 STAT.            WYOMING:   STATE
 CTRY. UNITED STATES OF AMERICA:   COUNTRY
 SRVC.           BIRDWELL:   SERVICE COMPANY
 DATE.        28-AUG-1978:   LOGDATE
 API .       490251069800:   API NUMBER
~CURVE INFORMATION
#MNEM.UNIT       API CODE    CURVE DESCRIPTION
#----------   ------------   ------------------------------
 DEPT.F                  :   
 SPR .MV     05 010 01 00:   SPONTANEOUS POTENTIAL FROM RES.
 SN  .OHMM   05 040 16 00:   SHORT NORMAL 16"
 ILD .OHMM   05 120 46 00:   INDUCTION LOG DEEP
 CALD.IN     45 280 60 00:   CALIPER
 GRD .GAPI   45 310 01 00:   GAMMA RAY FROM DENSITY LOG
 RHOB.G/C3   45 350 01 00:   BULK DENSITY
 DPHI.DEC    45 890 12 00:   DENSITY POROSITY SANDSTONE
 CORR.G/C3   45 356 01 00:   DENSITY CORRECTION
~PARAMETER INFORMATION
#MNEM.UNIT          VALUE    DESCRIPTION
#----------   ------------   ------------------------------
 PD  .                 GL:   PERMANENT DATUM
 EPD .F              5064:   ELEVATION PERMANENT DATUM
 LMF .                 KB:   LOG MEASURED FROM
 DAPD.F                 4:   FEET ABOVE PERMANENT DATUM
 DMF .                 KB:   DRILLING MEASURED FROM
 EKB .F              5068:   KELLING BUSHING
 EGL .F              5064:   GROUND LEVEL
 DATE.          8-28-1978:   RUN DATE
 RUN .                  1:   RUN NUMBER
 DD  .F               600:   DEPTH DRILLER
 DL  .F               596:   DEPTH LOGGER
 BLI .F               590:   BOTTOM LOG INTERVAL
 TLI .F                50:   TOP LOG INTERVAL
 CS  .IN            8.625:   CASING SIZE
 CBD .F                40:   CASING BOTTOM DRILLER
 BS  .IN            7.875:   BIT SIZE
 BSD .F               600:   BIT SIZE AT DEPTH
 DFT .                KCL:   DRILLING FLUID TYPE
 DFD .                8.7:   DRILLING FLUID DENSITY
 DFV .                 35:   DRILLING FLUID VISCOSITY
 DFPH.                  9:   DRILLING FLUID PH
 DFL .                 10:   DRILLING FLUID LOSS
 MSS .          FLOW LINE:   MUD SAMPLE SOURCE
 RMS .OHMM             .4:   RESISTIVITY MUD SAMPLE
 MST .F                76:   MUD SAMPLE TEMPERATURE
 RMF .OHMM             .3:   RESISTIVITY MUD FILTRATE SAMPLE
 MFST.F                80:   MUD FILTRATE SAMPLE TEMPERATURE
 RMC .OHMM             .4:   RESISTIVITY MUD CAKE
 MCST.F                80:   MUD CAKE SAMPLE TEMPERATURE
 MFSS.               MEAS:   MUD FILTRATE SAMPLE SOURCE
 MCSS.               MEAS:   MUD CAKE SAMPLE SOURCE
 TCS .HRS               3:   TIME CURCULATED STOPPED
 LUN .               2958:   LOGGING UNIT NUMBER
 LUL .               CASP:   LOGGING UNIT LOCATION
 ENGI.             MILLER:   RECORDING ENGINEER
 WITN.              AMEND:   WITNESSED BY
 CLNT.            A2DTECH:   CLIENT CODE
 ORIG.           5" PRINT:   ORIGIN OF DATA
 UWI .       490251069800:   UNIQUE WELL ID
 DICO. A2D Technologies, Inc.:   DIGITIZING COMPANY
~OTHER INFORMATION
~A   DEPT      SPR         SN        ILD       CALD        GRD         RHOB       DPHI      CORR  
# ...
  444.0000   -23.6044    11.9322    13.0750     6.9905    71.4955     2.4303     0.1534     0.0359
  444.5000   -23.5851    11.9280    13.0985     6.9931    71.6111     2.4291     0.1533     0.0341
  445.0000   -23.5657    11.9238    13.1220     6.9956    71.7168     2.4300     0.1496     0.0314
  445.5000   -23.5463    11.9196    13.1455     6.9982    71.5584     2.4343     0.1488     0.0288
  446.0000   -23.5270    11.9154    13.1691     7.0007    71.3928     2.4372     0.1516     0.0261
  446.5000   -23.5076    11.9112    13.1927     7.0033    71.2255     2.4345     0.1533     0.0234
  447.0000   -23.4879    11.9070    13.2164     7.0059    71.0564     2.4319     0.1529     0.0216
  447.5000   -23.4685    11.9028    13.2401     7.0084    71.1722     2.4300     0.1499     0.0208
  448.0000   -23.4737    11.8986    13.2639     7.0110    72.0669     2.4335     0.1470     0.0201
  448.5000   -23.6024    11.8944    13.2877     7.0135    73.1953     2.4369     0.1441     0.0193
  449.0000   -23.7290    11.8902    13.3115     7.0161    73.2420     2.4404     0.1446     0.0185
  449.5000   -23.8556    11.8860    13.3353     7.0187    73.2376     2.4411     0.1466     0.0181
  450.0000   -23.9820    11.8818    13.3526     7.0213    72.9604     2.4403     0.1467     0.0188
  450.5000   -24.1084    11.8776    13.3523     7.0237    71.7650     2.4400     0.1443     0.0194
  451.0000   -24.2349    11.8734    13.3523     7.0116    70.5980     2.4430     0.1419     0.0201
  451.5000   -24.3613    11.8692    13.3523     6.9983    69.6200     2.4460     0.1396     0.0207
  452.0000   -24.4883    11.8650    13.3523     6.9851    63.8853     2.4490     0.1372     0.0214
  452.5000   -24.6188    11.8607    13.3523     6.9718    57.0470     2.4515     0.1409     0.0219
  453.0000   -24.6432    11.8564    13.3523     6.9586    52.2388     2.4493     0.1460     0.0191
  453.5000   -24.4341    11.8484    13.3523     6.9454    50.9288     2.4416     0.1543     0.0159
  454.0000   -24.4597    11.8936    13.3523     6.9322    49.7685     2.4186     0.1711     0.0128
  454.5000   -24.2425    12.0112    13.3518     6.9189    49.0787     2.3869     0.1935     0.0097
  455.0000   -24.2722    12.1300    13.3483     6.9057    49.1417     2.3551     0.2164     0.0109
  455.5000   -24.0809    12.2500    13.3408     6.9042    49.1982     2.3233     0.2397     0.0171
  456.0000   -23.8064    12.3711    13.5998     6.9018    49.2567     2.2915     0.2512     0.0232
  456.5000   -23.5209    12.4935    13.8519     6.8973    49.3200     2.2755     0.2587     0.0293
  457.0000   -23.2007    12.8130    14.2388     6.8928    49.3918     2.2635     0.2575     0.0337
  457.5000   -22.7647    13.1214    14.7715     6.8880    49.4488     2.2607     0.2560     0.0322
  458.0000   -22.2345    13.4372    15.4655     6.8825    50.1990     2.2640     0.2543     0.0309
  458.5000   -21.4332    14.0676    16.9054     6.9253    51.2229     2.2672     0.2484     0.0318
  459.0000   -20.0242    14.7712    18.7367     6.9673    52.2527     2.2762     0.2323     0.0367
  459.5000   -18.6931    15.5113    20.7645     7.0089    52.7977     2.3042     0.2160     0.0534
  460.0000   -17.3756    16.2881    23.0145     7.0503    52.5764     2.3281     0.2136     0.0651
  460.5000   -16.0614    17.1036    25.5046     7.0936    52.1781     2.3188     0.2229     0.0483
  461.0000   -15.0678    17.9599    28.2661     7.1001    51.5495     2.3030     0.2305     0.0277
  461.5000   -14.8703    18.8590    29.6835     7.0951    51.2537     2.2986     0.2363     0.0205
  462.0000   -14.8668    19.4566    29.9574     7.0897    51.9418     2.2980     0.2421     0.0149
  462.5000   -14.8700    19.4566    29.0543     7.0845    54.7278     2.2911     0.2479     0.0128
  463.0000   -14.8702    19.4566    27.5586     7.0866    56.3526     2.2792     0.2500     0.0147
  463.5000   -14.8704    19.4566    26.1399     7.0985    56.4742     2.2731     0.2479     0.0165
  464.0000   -14.8694    19.2225    24.7942     7.1101    56.4643     2.2760     0.2414     0.0190
  464.5000   -14.9433    18.9589    23.5178     7.1217    56.6960     2.2904     0.2318     0.0243
  465.0000   -15.0559    18.6988    22.5359     7.1190    56.9942     2.3068     0.2223     0.0294
  465.5000   -15.1699    18.4424    22.5359     7.1076    57.2710     2.3226     0.2127     0.0349
  466.0000   -15.2837    18.1894    22.5878     7.0963    57.2505     2.3322     0.2045     0.0302
  466.5000   -15.3974    17.9400    22.6706     7.0849    54.9499     2.3422     0.2026     0.0226
  467.0000   -15.5112    17.9132    22.7438     7.0735    54.7259     2.3483     0.2006     0.0150
  467.5000   -15.6249    17.9132    22.7438     7.0622    56.1434     2.3494     0.2017     0.0130
  468.0000   -15.7387    17.9132    22.3765     7.0508    57.5969     2.3507     0.2043     0.0134
  468.5000   -15.8524    17.7495    21.9650     7.0395    59.0514     2.3464     0.2060     0.0131
  469.0000   -15.9662    17.5689    21.5610     7.0281    60.5389     2.3418     0.2063     0.0120
  469.5000   -16.0799    17.2924    21.1645     7.0168    61.2995     2.3424     0.2066     0.0110
  470.0000   -16.1937    17.0206    20.7752     7.0054    61.4597     2.3428     0.2074     0.0100
  470.5000   -16.3073    16.7528    20.3930     6.9941    60.9754     2.3372     0.2138     0.0090
  471.0000   -16.4217    16.4894    20.0176     6.9827    59.1601     2.3310     0.2156     0.0081
  471.5000   -16.4669    16.2299    19.6499     6.9714    57.1261     2.3300     0.2146     0.0104
  472.0000   -16.4837    15.9746    19.4566     6.9639    56.5851     2.3338     0.2097     0.0129
  472.5000   -16.4999    15.7522    19.2787     6.9702    56.8949     2.3379     0.2068     0.0154
  473.0000   -16.5160    15.5983    19.2661     6.9805    57.2252     2.3384     0.2071     0.0179
  473.5000   -16.5322    15.5797    19.2295     6.9909    56.8903     2.3379     0.2082     0.0172
  474.0000   -16.5485    15.5612    19.1929     7.0016    56.3374     2.3374     0.2092     0.0164
  474.5000   -16.5647    15.5427    19.1565     7.0039    55.9107     2.3367     0.2106     0.0156
  475.0000   -16.5809    15.5242    19.1200     7.0032    56.3423     2.3343     0.2133     0.0148
  475.5000   -16.5971    15.5058    19.0837     7.0358    57.0976     2.3319     0.2152     0.0142
  476.0000   -16.6133    15.4874    19.0474     7.0752    59.2248     2.3308     0.2142     0.0236
  476.5000   -16.6295    15.4692    19.0112     7.1148    61.1122     2.3321     0.2132     0.0290
  477.0000   -16.6456    15.4348    18.9751     7.1559    60.7706     2.3384     0.2053     0.0266
  477.5000   -16.6601    15.3972    18.9279     7.1433    60.4491     2.3474     0.2029     0.0243
  478.0000   -16.7930    15.3597    19.0121     7.1166    60.3960     2.3487     0.2008     0.0219
  478.5000   -16.9696    15.3223    19.1825     7.0896    61.0550     2.3496     0.2021     0.0198
  479.0000   -17.1471    15.2850    19.3543     7.0627    60.8609     2.3492     0.2043     0.0180
  479.5000   -17.3244    15.2477    19.4720     7.0357    60.6267     2.3458     0.2060     0.0201
  480.0000   -17.5016    15.2106    19.5099     6.9388    60.4021     2.3424     0.2037     0.0220
  480.5000   -17.6789    15.1735    19.5477     6.7936    60.5323     2.3460     0.1985     0.0265
  481.0000   -17.8564    15.1365    19.5858     6.9604    61.2293     2.3558     0.1948     0.0314
  481.5000   -18.0358    15.0997    19.6238     7.0503    61.9195     2.3616     0.1948     0.0364
  482.0000   -18.0644    15.0629    19.6620     6.9170    62.6043     2.3605     0.1951     0.0414
  482.5000   -18.0643    15.0262    19.7002     6.7792    63.0997     2.3595     0.1952     0.0459
  483.0000   -18.0639    14.9896    19.7385     6.6441    63.2091     2.3584     0.1948     0.0459
  483.5000   -18.0639    14.9530    19.7768     6.8120    63.3225     2.3577     0.1888     0.0461
  484.0000   -18.0639    14.9166    19.8172     6.9637    63.4062     2.3690     0.1823     0.0533
