~VERSION INFORMATION
 VERS.                2.0:   CWLS LOG ASCII STANDARD - VERSION 2.0
 WRAP.                 NO:   ONE LINE PER DEPTH STEP
~WELL INFORMATION
#MNEM.UNIT      DATA TYPE    INFORMATION
#----------   ------------   ------------------------------
 STRT.F           32.0000:   START DEPTH
 STOP.F          738.0000:   STOP DEPTH
 STEP.F            0.5000:   STEP LENGTH
 NULL.          -999.2500:   NO VALUE
 COMP. FENIX & SCISSON INC:   COMPANY
 WELL.       NPR-3 #43-34:   WELL
 FLD .             TEAPOT:   FIELD
 LOC .      S34 T39N R78W:   LOCATION
 CNTY.            NATRONA:   COUNTY
 STAT.            WYOMING:   STATE
 CTRY. UNITED STATES OF AMERICA:   COUNTRY
 SRVC.            Unknown:   SERVICE COMPANY
 DATE.        26-AUG-1978:   LOGDATE
 API .       490251069900:   API NUMBER
~CURVE INFORMATION
#MNEM.UNIT       API CODE    CURVE DESCRIPTION
#----------   ------------   ------------------------------
 DEPT.F                  :   
 GRD .GAPI   45 310 01 00:   GAMMA RAY FROM DENSITY LOG
 CALD.IN     45 280 60 00:   CALIPER
 RHOB.G/C3   45 350 01 00:   BULK DENSITY
 DPHI.DEC    45 890 12 00:   DENSITY POROSITY SANDSTONE
 CORR.G/C3   45 356 01 00:   DENSITY CORRECTION
 SPR .MV     05 010 01 00:   SPONTANEOUS POTENTIAL FROM RES.
 SN  .OHMM   05 040 16 00:   SHORT NORMAL 16"
 ILD .OHMM   05 120 46 00:   INDUCTION LOG DEEP
~PARAMETER INFORMATION
#MNEM.UNIT          VALUE    DESCRIPTION
#----------   ------------   ------------------------------
 PD  .                 GL:   PERMANENT DATUM
 EPD .F              5110:   ELEVATION PERMANENT DATUM
 LMF .                 KB:   LOG MEASURED FROM
 DAPD.F                 4:   FEET ABOVE PERMANENT DATUM
 DMF .                 KB:   DRILLING MEASURED FROM
 EKB .F              5114:   KELLING BUSHING
 EGL .F              5110:   GROUND LEVEL
 DATE.            8-26-78:   RUN DATE
 RUN .                  1:   RUN NUMBER
 DD  .F               748:   DEPTH DRILLER
 DL  .F               738:   DEPTH LOGGER
 BLI .F               732:   BOTTOM LOG INTERVAL
 TLI .F                40:   TOP LOG INTERVAL
 CS  .IN            8.625:   CASING SIZE
 CBD .F                40:   CASING BOTTOM DRILLER
 CBL .F                40:   CASING BOTTOM LOGGER
 BS  .IN            7.875:   BIT SIZE
 BSD .F               748:   BIT SIZE AT DEPTH
 DFT .                KCL:   DRILLING FLUID TYPE
 DFD .                8.7:   DRILLING FLUID DENSITY
 DFV .                 33:   DRILLING FLUID VISCOSITY
 DFPH.                  9:   DRILLING FLUID PH
 DFL .                 10:   DRILLING FLUID LOSS
 MSS .          FLOW LINE:   MUD SAMPLE SOURCE
 RMS .OHMM            .36:   RESISTIVITY MUD SAMPLE
 MST .F                80:   MUD SAMPLE TEMPERATURE
 RMF .OHMM             .3:   RESISTIVITY MUD FILTRATE SAMPLE
 MFST.F                80:   MUD FILTRATE SAMPLE TEMPERATURE
 RMC .OHMM            .48:   RESISTIVITY MUD CAKE
 MCST.F                82:   MUD CAKE SAMPLE TEMPERATURE
 MFSS.               MEAS:   MUD FILTRATE SAMPLE SOURCE
 MCSS.               MEAS:   MUD CAKE SAMPLE SOURCE
 TCS .HRS               2:   TIME CURCULATED STOPPED
 LUN .               2958:   LOGGING UNIT NUMBER
 LUL .               CASP:   LOGGING UNIT LOCATION
 ENGI.             MILLER:   RECORDING ENGINEER
 WITN.              AMEND:   WITNESSED BY
 CLNT.            A2DTECH:   CLIENT CODE
 ORIG.           5" PRINT:   ORIGIN OF DATA
 UWI .       490251069900:   UNIQUE WELL ID
 DICO. A2D Technologies, Inc.:   DIGITIZING COMPANY
~OTHER INFORMATION
~A   DEPT       GRD      CALD       RHOB       DPHI       CORR        SPR         SN        ILD   
# ...
  680.0000    87.3408     6.9960     2.5615     0.0737     0.1495   -36.7409     9.7800     9.9913
  680.5000    87.9208     6.9960     2.5536     0.0804     0.1395   -36.7618     9.5869     9.8966
  681.0000    88.2077     6.9960     2.5425     0.0848     0.1278   -36.8675     9.3977     9.8154
  681.5000    87.2281     6.9960     2.5420     0.0960     0.1161   -36.9713     9.1201     9.5469
  682.0000    85.0959     6.9960     2.5324     0.1080     0.1044   -37.0748     8.8363     9.2574
  682.5000    88.1195     6.9960     2.4993     0.1305     0.0952   -37.1779     8.5597     8.9961
  683.0000    92.6868     6.9961     2.4755     0.1320     0.0952   -37.2803     8.2932     8.8639
  683.5000    98.3055     6.9961     2.4640     0.1336     0.0975   -37.3383     8.0875     9.0057
  684.0000   107.3139     6.9960     2.4639     0.1257     0.0945   -37.0878     8.1622     9.1355
  684.5000   107.2498     6.9142     2.4666     0.1145     0.0889   -37.0248     8.3370     9.1982
  685.0000   100.8983     6.7956     2.4829     0.1034     0.0854   -36.9461     8.4801     9.1982
  685.5000    92.8935     7.0312     2.4992     0.0911     0.0948   -36.8689     8.8585     9.3689
  686.0000    84.8485     6.7627     2.5180     0.0790     0.1081   -36.7921     9.4625     9.8417
  686.5000    84.4270     6.7128     2.5365     0.0735     0.1176   -36.7309    10.0838    10.2709
  687.0000    86.0509     6.5701     2.5528     0.0736     0.1171   -36.7120    10.2063    10.3658
  687.5000    87.6284     6.5986     2.5535     0.0752     0.1080   -36.6645    10.3658    10.7540
  688.0000    88.6148     6.0265     2.5384     0.0791     0.0982   -36.6187    10.6932    11.2598
  688.5000    87.1373     5.9918     2.5360     0.0828     0.0884   -36.5682    11.1158    11.3870
  689.0000    85.6599     7.5543     2.5370     0.0828     0.0854   -36.3751    11.4735    11.4249
  689.5000    85.0472     6.7621     2.5362     0.0836     0.0832   -35.6775    11.4656    11.4629
  690.0000    84.1617     7.2436     2.5325     0.0836     0.0808   -34.9891    11.4721    11.5533
  690.5000    89.6762     6.9694     2.5290     0.0856     0.0800   -34.9598    11.4620    11.7417
  691.0000    87.6069     6.9866     2.5280     0.0872     0.0907   -34.5508    11.6965    11.9333
  691.5000    84.9680     7.0018     2.5305     0.0750     0.1149   -34.3713    11.8792    12.1295
  692.0000    83.1081     7.0174     2.5474     0.0659     0.1356   -34.3849    12.0649    12.3509
  692.5000    85.0557     7.0330     2.5706     0.0743     0.1189   -34.4037    12.2534    12.4578
  693.0000    86.2068     7.0485     2.5490     0.0816     0.0869   -34.4229    12.3726    12.4412
  693.5000    88.5555     7.0647     2.5419     0.0808     0.0792   -34.4418    12.4275    12.4264
  694.0000    89.7309     7.0917     2.5434     0.0804     0.0793   -34.4607    12.4827    12.4115
  694.5000    91.3378     7.1013     2.5456     0.0865     0.0794   -34.4795    12.5385    12.3968
  695.0000    90.4201     7.1108     2.5391     0.0952     0.0794   -34.4984    12.5727    12.3820
  695.5000    89.0813     7.1206     2.5295     0.0990     0.0794   -34.5172    12.5633    12.3672
  696.0000    88.7405     7.1305     2.5199     0.1044     0.0794   -34.5347    12.5471    12.3527
  696.5000    87.8583     7.1363     2.5101     0.1028     0.0794   -34.5427    12.5309    12.3429
  697.0000    86.6812     7.1363     2.5080     0.0952     0.0826   -34.9696    12.5147    12.3196
  697.5000    86.3871     7.1363     2.5136     0.0880     0.0976   -35.4692    12.4986    12.2957
  698.0000    83.0233     7.1363     2.5264     0.0640     0.1172   -35.9721    12.4824    12.2720
  698.5000    82.4564     7.1363     2.5543     0.0668     0.1339   -36.4721    12.4662    12.2481
  699.0000    84.1970     7.1363     2.5755     0.0717     0.1258   -36.5566    12.4411    12.1922
  699.5000    84.2207     7.1363     2.5658     0.0744     0.1070   -36.6000    12.3747    12.0512
  700.0000    78.7857     7.1363     2.5571     0.0800     0.0872   -36.6425    12.3095    11.8982
  700.5000    77.7617     7.1296     2.5472     0.0936     0.0675   -36.6864    12.2448    11.8460
  701.0000    84.6617     7.1164     2.5372     0.0940     0.0477   -36.7303    12.1804    11.7721
  701.5000    88.5207     7.1039     2.5271     0.0987     0.0278   -36.7038    12.1164    11.6986
  702.0000    87.6149     7.1159     2.5239     0.1036     0.0234   -36.6070    12.0527    11.6256
  702.5000    86.8463     7.1647     2.5134     0.1032     0.0234   -36.5185    11.9892    11.5530
  703.0000    87.2179     7.1970     2.5101     0.0966     0.0279   -36.7854    11.9269    11.4809
  703.5000    89.0598     7.2012     2.5212     0.0948     0.0296   -37.1831    11.8982    11.4093
  704.0000    90.0649     7.2067     2.5291     0.0951     0.0313   -37.3975    11.8598    11.2948
  704.5000    89.2343     7.2121     2.5247     0.0948     0.0315   -37.5220    11.6267    11.1061
  705.0000    90.2320     7.2165     2.5207     0.0944     0.0318   -37.5207    11.3981    10.9206
  705.5000    91.3661     7.2188     2.5179     0.0940     0.0323   -37.7085    11.1740    10.7382
  706.0000    89.7946     7.2306     2.5180     0.0935     0.0329   -37.9205    10.9535    10.5581
  706.5000    90.7975     7.2420     2.5182     0.0924     0.0335   -38.1783    10.9063    10.5581
  707.0000    91.2175     7.2539     2.5231     0.0881     0.0358   -38.7536    10.7894    10.3956
  707.5000    91.2046     7.2565     2.5305     0.0839     0.0366   -39.3302    10.6738    10.2364
  708.0000    91.3445     7.2565     2.5378     0.0816     0.0376   -39.4491    10.5594    10.0795
  708.5000    94.2914     7.2565     2.5424     0.0868     0.0353   -39.2208    10.4463     9.9249
  709.0000    95.4769     7.2565     2.5361     0.0920     0.0324   -39.0986    10.3343     9.7725
  709.5000    95.9813     7.2566     2.5299     0.0920     0.0290   -39.3316    10.2235     9.6308
  710.0000    96.6028     7.2520     2.5249     0.0937     0.0256   -39.3558    10.1138     9.6308
  710.5000   101.9221     7.2456     2.5256     0.0954     0.0255   -39.3963    10.0053     9.6308
  711.0000   103.3990     7.2391     2.5267     0.0969     0.0255   -39.4355     9.9916     9.6308
  711.5000   104.3153     7.2327     2.5199     0.0972     0.0255   -39.4731    10.0297     9.6303
  712.0000   103.2854     7.2262     2.5150     0.0975     0.0255   -39.5094    10.0597     9.6325
  712.5000   100.9602     7.2198     2.5172     0.0959     0.0267   -39.1539    10.0898     9.6265
  713.0000    98.6458     7.2164     2.5208     0.0896     0.0319   -38.5745    10.1200     9.8437
  713.5000    98.1873     7.2164     2.5249     0.0876     0.0368   -38.1027    10.1503     9.9936
  714.0000    97.8351     7.2164     2.5292     0.0862     0.0418   -38.2502    10.1769     9.8618
  714.5000    95.5879     7.2166     2.5327     0.0850     0.0468   -38.1025    10.0524     9.7223
  715.0000    95.2401     7.2221     2.5358     0.0835     0.0517   -38.1655     9.9893     9.5847
  715.5000    97.4935     7.2279     2.5389     0.0809     0.0567   -38.2281     9.9276     9.4490
  716.0000    99.8160     7.2337     2.5420     0.0823     0.0594   -38.2874     9.7901     9.3153
  716.5000   101.3877     7.2363     2.5431     0.0858     0.0563   -38.3507     9.5936     9.2832
  717.0000   101.5937     7.2219     2.5383     0.0892     0.0523   -38.4200     9.4011     9.2024
  717.5000   101.9776     7.2062     2.5330     0.0927     0.0496   -38.4889     9.2600     9.1194
  718.0000   103.3081     7.2046     2.5276     0.0964     0.0501   -38.5582     9.1990     9.0371
  718.5000   102.3935     7.2396     2.5223     0.0943     0.0506   -38.6271     9.1383     8.9555
  719.0000    97.2688     7.2946     2.5170     0.0932     0.0511   -38.6994     9.0780     8.8747
  719.5000    94.6903     7.3493     2.5110     0.0948     0.0516   -38.5582     9.0181     8.7947
  720.0000    95.7401     7.3970     2.5128     0.0941     0.0520   -38.2884     8.9586     8.7153
