~VERSION INFORMATION
 VERS.                2.0:   CWLS LOG ASCII STANDARD - VERSION 2.0
 WRAP.                 NO:   ONE LINE PER DEPTH STEP
~WELL INFORMATION
#MNEM.UNIT      DATA TYPE    INFORMATION
#----------   ------------   ------------------------------
 STRT.F          630.0000:   START DEPTH
 STOP.F         1708.0000:   STOP DEPTH
 STEP.F            0.5000:   STEP LENGTH
 NULL.          -999.2500:   NO VALUE
 COMP. FENIX & SCISSON INC:   COMPANY
 WELL.      SHX 34 #58-34:   WELL
 FLD .             TEAPOT:   FIELD
 LOC .      S34 T39N R78W:   LOCATION
 CNTY.            NATRONA:   COUNTY
 STAT.            WYOMING:   STATE
 CTRY. UNITED STATES OF AMERICA:   COUNTRY
 SRVC.           BIRDWELL:   SERVICE COMPANY
 DATE.        28-MAR-1979:   LOGDATE
 API .       490251077400:   API NUMBER
~CURVE INFORMATION
#MNEM.UNIT       API CODE    CURVE DESCRIPTION
#----------   ------------   ------------------------------
 DEPT.F                  :   
 CORR.G/C3   45 356 01 00:   DENSITY CORRECTION
 DPHI.DEC    45 890 12 00:   DENSITY POROSITY SANDSTONE
 RHOB.G/C3   45 350 01 00:   BULK DENSITY
 CALD.IN     45 280 60 00:   CALIPER
 GRD .GAPI   45 310 01 00:   GAMMA RAY FROM DENSITY LOG
~PARAMETER INFORMATION
#MNEM.UNIT          VALUE    DESCRIPTION
#----------   ------------   ------------------------------
 PD  .                 GL:   PERMANENT DATUM
 EPD .F              5120:   ELEVATION PERMANENT DATUM
 LMF .                 KB:   LOG MEASURED FROM
 DAPD.F                10:   FEET ABOVE PERMANENT DATUM
 DMF .                 KB:   DRILLING MEASURED FROM
 EKB .F              5130:   KELLING BUSHING
 EGL .F              5120:   GROUND LEVEL
 DATE.            3-28-79:   RUN DATE
 RUN .                  2:   RUN NUMBER
 DD  .F              1720:   DEPTH DRILLER
 DL  .F              1708:   DEPTH LOGGER
 BLI .F              1708:   BOTTOM LOG INTERVAL
 TLI .F               649:   TOP LOG INTERVAL
 CS  .IN            9.625:   CASING SIZE
 CBD .F               639:   CASING BOTTOM DRILLER
 CBL .F               646:   CASING BOTTOM LOGGER
 BS  .IN             8.75:   BIT SIZE
 BSD .F              1720:   BIT SIZE AT DEPTH
 DFT .                OIL:   DRILLING FLUID TYPE
 TCS .HRS               3:   TIME CURCULATED STOPPED
 MRT .F               150:   MAXIMUM RECORDED TEMPERATURE
 LUN .               2959:   LOGGING UNIT NUMBER
 LUL .             CASPER:   LOGGING UNIT LOCATION
 ENGI.         B. ROLLINS:   RECORDING ENGINEER
 WITN.              AMEND:   WITNESSED BY
 CLNT.            A2DTECH:   CLIENT CODE
 ORIG.           5" PRINT:   ORIGIN OF DATA
 UWI .       490251077400:   UNIQUE WELL ID
 DICO. A2D Technologies, Inc.:   DIGITIZING COMPANY
~OTHER INFORMATION
~A   DEPT     CORR       DPHI       RHOB       CALD         GRD  
# ...
 1362.0000  -999.2500  -999.2500     2.4873     9.0136   113.3595
 1362.5000  -999.2500  -999.2500     2.5053     9.0120   114.9994
 1363.0000  -999.2500  -999.2500     2.5240     9.0091   113.4010
 1363.5000  -999.2500  -999.2500     2.5301     9.0068   110.2394
 1364.0000  -999.2500  -999.2500     2.5241     9.0044   112.4360
 1364.5000  -999.2500  -999.2500     2.5177     9.0019   115.4529
 1365.0000  -999.2500  -999.2500     2.5266     8.9995   113.1972
 1365.5000  -999.2500  -999.2500     2.5494     8.9972   110.9471
 1366.0000  -999.2500  -999.2500     2.5592     8.9948   111.8655
 1366.5000  -999.2500  -999.2500     2.5190     8.9924   113.3747
 1367.0000  -999.2500  -999.2500     2.4834     8.9900   114.7434
 1367.5000  -999.2500  -999.2500     2.4960     8.9875   117.7479
 1368.0000  -999.2500  -999.2500     2.5184     8.9853   121.4267
 1368.5000  -999.2500  -999.2500     2.5224     8.9829   120.2493
 1369.0000  -999.2500  -999.2500     2.5108     8.9799   117.2626
 1369.5000  -999.2500  -999.2500     2.4997     8.9862   116.2605
 1370.0000  -999.2500  -999.2500     2.4973     9.0032   120.1984
 1370.5000  -999.2500  -999.2500     2.4910     9.0190   122.5929
 1371.0000  -999.2500  -999.2500     2.4913     9.0226   120.8631
 1371.5000  -999.2500  -999.2500     2.4922     9.0350   117.6089
 1372.0000  -999.2500  -999.2500     2.4933     9.0467   114.5073
 1372.5000  -999.2500  -999.2500     2.4944     9.0585   111.3955
 1373.0000  -999.2500  -999.2500     2.4955     9.0709   109.9253
 1373.5000  -999.2500  -999.2500     2.4965     9.0831   115.4130
 1374.0000  -999.2500  -999.2500     2.4982     9.0930   121.4671
 1374.5000  -999.2500  -999.2500     2.5004     9.1236   123.7475
 1375.0000  -999.2500  -999.2500     2.5029     9.1719   125.8474
 1375.5000  -999.2500  -999.2500     2.5055     9.2163   126.5462
 1376.0000  -999.2500  -999.2500     2.5015     9.2579   122.7885
 1376.5000  -999.2500  -999.2500     2.4960     9.2597   125.1308
 1377.0000  -999.2500  -999.2500     2.4893     9.2606   123.9697
 1377.5000  -999.2500  -999.2500     2.4945     9.2601   126.5407
 1378.0000  -999.2500  -999.2500     2.4854     9.2603   128.4829
 1378.5000  -999.2500  -999.2500     2.4831     9.2601   124.3891
 1379.0000  -999.2500  -999.2500     2.4887     9.2607   121.5215
 1379.5000  -999.2500  -999.2500     2.4986     9.2600   122.0997
 1380.0000  -999.2500  -999.2500     2.4904     9.2595   126.7084
 1380.5000  -999.2500  -999.2500     2.4799     9.2640   129.5189
 1381.0000  -999.2500  -999.2500     2.4808     9.2173   120.7650
 1381.5000  -999.2500  -999.2500     2.4841     9.1360   114.9254
 1382.0000  -999.2500  -999.2500     2.4874     9.0556   111.9379
 1382.5000  -999.2500  -999.2500     2.4908     9.0161   109.1665
 1383.0000  -999.2500  -999.2500     2.4941     8.9966   110.3718
 1383.5000  -999.2500  -999.2500     2.4969     8.9801   116.5230
 1384.0000  -999.2500  -999.2500  -999.2500     8.9532   121.3486
 1384.5000  -999.2500  -999.2500  -999.2500     8.9292   120.9746
 1385.0000  -999.2500  -999.2500  -999.2500     8.7638   121.8768
 1385.5000  -999.2500  -999.2500  -999.2500     8.6184   122.8714
 1386.0000  -999.2500  -999.2500  -999.2500     8.5373   122.6111
 1386.5000  -999.2500  -999.2500  -999.2500     8.6501   122.3008
 1387.0000  -999.2500  -999.2500  -999.2500     8.7448   123.2967
 1387.5000  -999.2500  -999.2500  -999.2500     8.8519   124.7283
 1388.0000  -999.2500  -999.2500  -999.2500     8.8639   125.8594
 1388.5000  -999.2500  -999.2500  -999.2500     8.8774   128.3502
 1389.0000  -999.2500  -999.2500  -999.2500     8.8864   124.3327
 1389.5000  -999.2500  -999.2500  -999.2500     8.8979   120.4362
 1390.0000  -999.2500  -999.2500  -999.2500     8.9085   115.6756
 1390.5000  -999.2500  -999.2500  -999.2500     8.9193   117.4755
 1391.0000  -999.2500  -999.2500  -999.2500     8.9303   120.4409
 1391.5000  -999.2500  -999.2500  -999.2500     8.9375   123.6809
 1392.0000  -999.2500  -999.2500  -999.2500     8.9601   125.6933
 1392.5000  -999.2500  -999.2500  -999.2500     8.9969   125.4485
 1393.0000  -999.2500  -999.2500  -999.2500     9.0309   124.1654
 1393.5000  -999.2500  -999.2500  -999.2500     9.0647   122.1927
 1394.0000  -999.2500  -999.2500  -999.2500     9.0985   121.7782
 1394.5000  -999.2500  -999.2500  -999.2500     9.1326   123.2039
 1395.0000  -999.2500  -999.2500  -999.2500     9.1386   124.6000
 1395.5000  -999.2500  -999.2500  -999.2500     9.1332   124.2761
 1396.0000  -999.2500  -999.2500  -999.2500     9.1278   122.8747
 1396.5000  -999.2500  -999.2500  -999.2500     9.1229   121.2870
 1397.0000  -999.2500  -999.2500     2.4997     9.1177   119.4973
 1397.5000  -999.2500  -999.2500     2.5017     9.1125   112.9602
 1398.0000  -999.2500  -999.2500     2.4938     9.1075   108.6060
 1398.5000  -999.2500  -999.2500     2.4786     9.1021   105.5255
 1399.0000  -999.2500  -999.2500     2.4662     9.0995   105.0874
 1399.5000  -999.2500  -999.2500     2.4713     9.0948   106.3185
 1400.0000  -999.2500  -999.2500     2.4714     9.0905   109.2844
 1400.5000  -999.2500  -999.2500     2.4624     9.0860   113.6166
 1401.0000  -999.2500  -999.2500     2.4571     9.0815   115.2876
 1401.5000  -999.2500  -999.2500     2.4662     9.0771   112.1658
 1402.0000  -999.2500  -999.2500     2.4706     9.0730   114.6515
 1402.5000  -999.2500  -999.2500     2.4949     9.0677   119.7452
 1403.0000  -999.2500  -999.2500     2.4993     9.0644   124.3492
 1403.5000  -999.2500  -999.2500     2.5010     9.0627   120.3439
 1404.0000  -999.2500  -999.2500     2.5011     9.1045   119.6160
 1404.5000  -999.2500  -999.2500     2.5078     9.1439   121.8090
 1405.0000  -999.2500  -999.2500     2.5172     9.1851   124.9242
 1405.5000  -999.2500  -999.2500     2.5094     9.2190   123.8541
 1406.0000  -999.2500  -999.2500     2.4973     9.2266   119.5066
 1406.5000  -999.2500  -999.2500     2.4849     9.2374   115.4703
 1407.0000  -999.2500  -999.2500     2.4822     9.2468   114.0291
 1407.5000  -999.2500  -999.2500     2.4951     9.2566   116.9521
 1408.0000  -999.2500     0.0372     2.5022     9.2665   117.5155
 1408.5000  -999.2500     0.0349     2.5072     9.2762   115.1627
 1409.0000  -999.2500     0.0327     2.5069     9.2860   113.2199
 1409.5000  -999.2500     0.0305     2.5069     9.2959   115.6156
 1410.0000  -999.2500     0.0287     2.5062     9.3058   120.3995
 1410.5000  -999.2500     0.0371     2.4951     9.3153   124.1882
 1411.0000  -999.2500     0.0406     2.4857     9.3259   124.7578
 1411.5000  -999.2500     0.0382     2.4774     9.3350   122.7429
 1412.0000  -999.2500     0.0356     2.4780     9.3377   119.3340
 1412.5000  -999.2500     0.0329     2.4909     9.2921   116.1530
 1413.0000     0.0047     0.0303     2.5040     9.2501   113.3526
 1413.5000     0.0066     0.0296     2.5017     9.2060   111.1516
 1414.0000     0.0091     0.0299     2.4993     9.1630   109.4536
 1414.5000     0.0110     0.0302     2.5008     9.1180   112.8028
 1415.0000     0.0131     0.0304     2.4942     9.0983   117.3165
 1415.5000     0.0150     0.0308     2.4913     9.0950   122.5287
 1416.0000     0.0188     0.0310     2.4959     9.0880   121.1889
 1416.5000     0.0292     0.0313     2.4951     9.0810   118.2952
 1417.0000     0.0394     0.0316     2.4828     9.0743   119.3871
 1417.5000     0.0497     0.0319     2.4660     9.0678   121.7674
 1418.0000     0.0604     0.0322     2.4486     9.0605   123.6668
 1418.5000     0.0705     0.0325     2.4444     9.0594   122.2142
 1419.0000     0.0806     0.0328     2.4513     9.0602   119.9506
 1419.5000     0.0926     0.0331     2.5083     9.0624   121.1613
 1420.0000     0.0756     0.0335     2.4973     9.1022   118.4062
 1420.5000     0.0585     0.0321     2.4875     9.1397   123.5230
 1421.0000     0.0616     0.0304     2.5001     9.1801   123.9419
 1421.5000     0.0633     0.0287     2.5086     9.2176   124.3572
 1422.0000     0.0646     0.0270     2.5028     9.2576   119.7681
 1422.5000     0.0665     0.0253     2.4929     9.2597   120.8390
