~VERSION INFORMATION
 VERS.                2.0:   CWLS LOG ASCII STANDARD - VERSION 2.0
 WRAP.                 NO:   ONE LINE PER DEPTH STEP
~WELL INFORMATION
#MNEM.UNIT      DATA TYPE    INFORMATION
#----------   ------------   ------------------------------
 STRT.F           12.0000:   START DEPTH
 STOP.F          563.5000:   STOP DEPTH
 STEP.F            0.5000:   STEP LENGTH
 NULL.          -999.2500:   NO VALUE
 COMP.       F D SERV INC:   COMPANY
 WELL. N P R 3 SX-3 #52-3:   WELL
 FLD .             TEAPOT:   FIELD
 LOC .       S3 T38N R78W:   LOCATION
 CNTY.            NATRONA:   COUNTY
 STAT.            WYOMING:   STATE
 CTRY. UNITED STATES OF AMERICA:   COUNTRY
 SRVC.     Atlas Wireline:   SERVICE COMPANY
 DATE.        27-APR-1992:   LOGDATE
 API .       490252252000:   API NUMBER
~CURVE INFORMATION
#MNEM.UNIT       API CODE    CURVE DESCRIPTION
#----------   ------------   ------------------------------
 DEPT.F                  :   
 PORZ.DEC    45 890 12 00:   DENSITY POROSITY
 CNC .DEC    42 890 03 00:   NEUTRON POROSITY SANDSTONE
 CALD.IN     45 280 60 00:   CALIPER FROM DENSITY
 GRD .GAPI   45 310 01 00:   GAMMA RAY FROM DENSITY LOG
 ZCOR.G/C3   45 356 01 00:   DENSITY CORRECTION
 ZDEN.G/C3   45 350 01 00:   BULK DENSITY
 RILD.OHMM   07 120 46 00:   INDUCTION LOG DEEP RESISTIVITY
 RILM.OHMM   07 120 44 00:   INDUCTION LOG MEDIUM RESISTIVITY
 RFOC.OHMM   07 220 04 00:   RESISTIVITY FOCUSED LOG
~PARAMETER INFORMATION
#MNEM.UNIT          VALUE    DESCRIPTION
#----------   ------------   ------------------------------
 PD  .                 GL:   PERMANENT DATUM
 EPD .F              5145:   ELEVATION PERMANENT DATUM
 LMF .                 KB:   LOG MEASURED FROM
 DAPD.F                 5:   FEET ABOVE PERMANENT DATUM
 DMF .                 KB:   DRILLING MEASURED FROM
 EKB .F              5150:   KELLING BUSHING
 EDF .F              5149:   DRILLING FLOOR
 EGL .F              5145:   GROUND LEVEL
 DATE.        27-APR-1992:   RUN DATE
 RUN .                  1:   RUN NUMBER
 DD  .F               565:   DEPTH DRILLER
 DL  .F               565:   DEPTH LOGGER
 BLI .F               563:   BOTTOM LOG INTERVAL
 CS  .IN            8.625:   CASING SIZE
 CBD .F                48:   CASING BOTTOM DRILLER
 CBL .F                51:   CASING BOTTOM LOGGER
 BS  .IN            7.875:   BIT SIZE
 BSD .F               565:   BIT SIZE AT DEPTH
 DFT .              WATER:   DRILLING FLUID TYPE
 TCS .HRS            0200:   TIME CURCULATED STOPPED
 MRT .F                88:   MAXIMUM RECORDED TEMPERATURE
 LUN .           HL- 6274:   LOGGING UNIT NUMBER
 LUL .             CASPER:   LOGGING UNIT LOCATION
 ENGI.             RAUTIO:   RECORDING ENGINEER
 WITN.        GARY STRONG:   WITNESSED BY
 CLNT.            A2DTECH:   CLIENT CODE
 ORIG.           5" PRINT:   ORIGIN OF DATA
 UWI .       490252252000:   UNIQUE WELL ID
 DICO. A2D Technologies, Inc.:   DIGITIZING COMPANY
~OTHER INFORMATION
~A   DEPT     PORZ        CNC       CALD        GRD       ZCOR       ZDEN       RILD       RILM       RFOC   
# ...
  450.0000     0.1095     0.2593     8.0840    84.7298     0.0234     2.4409    20.1392    19.1836    20.1318
  450.5000     0.1093     0.2563     8.0838    84.1461     0.0205     2.4673    20.0297    18.4776    21.3860
  451.0000     0.1117     0.2593     8.0836    84.4634     0.0055     2.4685    19.9201    17.8912    22.7239
  451.5000     0.1318     0.2680     8.0985    86.5736     0.0116     2.4391    19.8106    18.0136    20.7553
  452.0000     0.1465     0.2894     8.0983    90.4802     0.0207     2.4151    19.6969    18.2631    18.8272
  452.5000     0.1534     0.3151     8.0982    90.7939     0.0238     2.3971    19.2782    18.5155    15.9330
  453.0000     0.1574     0.3157     8.1130    91.4132     0.0271     2.3903    18.8801    18.6427    16.0387
  453.5000     0.1598     0.3163     8.1279    92.9221     0.0331     2.3841    18.4852    18.6396    16.6042
  454.0000     0.1740     0.3184     8.1277    92.9364     0.0347     2.3701    18.0986    18.6371    18.0338
  454.5000     0.1742     0.3188     8.1276    91.1544     0.0332     2.3604    17.7201    18.5057    18.5369
  455.0000     0.1706     0.3172     8.1274    86.6777     0.0364     2.3649    17.2175    18.2474    17.4072
  455.5000     0.1583     0.3120     8.1273    86.9915     0.0396     2.3808    16.5205    17.5002    16.8079
  456.0000     0.1417     0.3033     8.1121    87.9281     0.0426     2.3944    16.1750    16.6674    17.1559
  456.5000     0.1323     0.2956     8.0970    89.1196     0.0427     2.4125    15.8367    15.9850    17.2697
  457.0000     0.1273     0.2756     8.0818    88.5316     0.0322     2.4344    15.2919    15.2243    17.0245
  457.5000     0.1270     0.2744     8.0667    86.4537     0.0278     2.4389    14.8684    14.2994    15.9883
  458.0000     0.1276     0.2801     8.0666    84.3723     0.0278     2.4397    14.4558    13.9057    13.9115
  458.5000     0.1288     0.2831     8.0664    82.8896     0.0280     2.4390    13.9585    13.7120    13.5261
  459.0000     0.1309     0.2810     8.0662    84.4372     0.0295     2.4391    13.6666    13.5211    13.5077
  459.5000     0.1330     0.2780     8.0661    87.4129     0.0311     2.4368    13.3808    13.2405    13.3297
  460.0000     0.1321     0.2804     8.0660    87.4273     0.0327     2.4324    13.0999    13.0560    13.3253
  460.5000     0.1285     0.2885     8.0658    87.4417     0.0343     2.4317    12.9151    12.9636    13.3208
  461.0000     0.1249     0.2949     8.0657    87.7554     0.0390     2.4362    12.9109    12.8721    13.2243
  461.5000     0.1219     0.2946     8.0655    88.9674     0.0466     2.4438    12.8174    12.7813    13.1284
  462.0000     0.1219     0.2858     8.0653    89.8802     0.0557     2.4476    12.8132    12.7796    13.0323
  462.5000     0.1228     0.2765     8.0652    88.7003     0.0573     2.4484    12.8079    12.6895    12.9379
  463.0000     0.1228     0.2741     8.0651    85.7206     0.0333     2.4485    12.8037    12.6874    12.8442
  463.5000     0.1228     0.2729     8.0649    83.3398     0.0073     2.4478    12.8896    12.7746    12.8399
  464.0000     0.1225     0.2686     8.0648    82.7518     0.0063     2.4478    12.9740    12.9511    12.8356
  464.5000     0.1219     0.2668     8.0646    84.5661     0.0185     2.4486    13.0600    13.1305    12.7416
  465.0000     0.1198     0.2680     8.0645    88.5629     0.0231     2.4502    13.1466    13.2203    12.6493
  465.5000     0.1177     0.2705     8.0643    90.8858     0.0277     2.4525    13.2326    13.2181    12.8218
  466.0000     0.1183     0.2759     8.0642    90.3014     0.0323     2.4540    13.2282    13.3089    12.9970
  466.5000     0.1207     0.2813     8.0640    89.1182     0.0354     2.4518    13.2239    13.2146    13.0830
  467.0000     0.1237     0.2876     8.0638    87.3361     0.0325     2.4473    13.2193    13.1214    12.9871
  467.5000     0.1240     0.2837     8.0637    86.1527     0.0250     2.4459    13.1227    13.0288    12.8930
  468.0000     0.1204     0.2801     8.0636    86.5389     0.0236     2.4489    13.1184    13.0267    12.7996
  468.5000     0.1177     0.2771     8.0634    87.6822     0.0267     2.4535    13.0235    12.9348    12.7068
  469.0000     0.1174     0.2783     8.0633    88.2953     0.0283     2.4565    12.9292    12.8436    12.6148
  469.5000     0.1189     0.2786     8.0631    89.2079     0.0314     2.4543    12.8345    12.7530    12.6096
  470.0000     0.1219     0.2804     8.0480    91.3181     0.0270     2.4491    12.8303    12.6630    12.6054
  470.5000     0.1225     0.2852     8.0328    91.6407     0.0196     2.4476    12.7374    12.6613    12.6012
  471.0000     0.1216     0.2858     8.0327    91.0474     0.0166     2.4484    12.6452    12.5716    12.5970
  471.5000     0.1201     0.2858     8.0475    91.0653     0.0167     2.4530    12.4669    12.4829    12.5929
  472.0000     0.1132     0.2849     8.0474    91.3755     0.0198     2.4613    12.3757    12.3949    12.5877
  472.5000     0.1069     0.2846     8.0472    88.6989     0.0229     2.4712    12.2861    12.3932    12.4965
  473.0000     0.1063     0.2873     8.0471    86.3180     0.0275     2.4750    12.1972    12.3058    12.4059
  473.5000     0.1084     0.2928     8.0469    86.6318     0.0291     2.4690    12.1931    12.2186    12.4018
  474.0000     0.1084     0.2961     8.0468    89.0899     0.0322     2.4683    12.1890    12.1324    12.2268
  474.5000     0.1072     0.2951     8.0466    89.6581     0.0324     2.4706    12.1841    11.9635    11.9708
  475.0000     0.1057     0.2919     8.0315    89.3695     0.0324     2.4738    12.1801    11.9619    11.8010
  475.5000     0.1042     0.2897     8.0313    88.4892     0.0340     2.4767    12.1761    11.9603    11.4741
  476.0000     0.1039     0.2900     8.0312    87.3060     0.0326     2.4768    12.1721    12.1260    11.3909
  476.5000     0.1048     0.2913     8.0310    88.5271     0.0297     2.4753    12.1680    12.1240    11.8714
  477.0000     0.1057     0.2955     8.0309    92.7275     0.0298     2.4738    12.2477    12.1224    12.1171
  477.5000     0.1045     0.2997     8.0307    93.9395     0.0329     2.4761    12.2437    12.1208    12.1121
  478.0000     0.1024     0.3018     8.0306    93.0556     0.0345     2.4787    12.2396    12.1192    12.1935
  478.5000     0.1003     0.3040     8.0454    92.4712     0.0361     2.4838    12.2356    12.1172    12.1884
  479.0000     0.0997     0.3075     8.0453    92.7849     0.0407     2.4861    12.1460    12.1156    12.1844
  479.5000     0.1006     0.3084     8.0451    95.2036     0.0499     2.4853    12.1420    12.1140    12.1802
  480.0000     0.1015     0.3075     8.0450    94.3142     0.0530     2.4839    12.0541    12.1123    12.1753
  480.5000     0.1006     0.3051     8.0448    91.9334     0.0545     2.4839    12.0502    12.0269    12.1713
  481.0000     0.1006     0.3005     8.0447    92.5466     0.0531     2.4832    12.0462    12.0253    12.0831
  481.5000     0.1024     0.2961     8.0445    96.1537     0.0396     2.4818    11.9580    11.9401    11.9955
  482.0000     0.1021     0.2903     8.0444    99.1621     0.0184     2.4810    11.8715    12.0221    11.9086
  482.5000     0.0991     0.2881     8.0442    98.8622     0.0172     2.4841    11.8675    12.0201    11.9037
  483.0000     0.0958     0.2804     8.0441    94.4040     0.0218     2.4917    11.7816    11.9353    11.8998
  483.5000     0.0955     0.2771     8.0439    91.1249     0.0294     2.4963    11.6963    11.9338    11.8135
  484.0000     0.0981     0.2801     8.0438    89.6387     0.0310     2.4938    11.6915    11.9318    11.8919
  484.5000     0.1061     0.2897     8.0586    91.1537     0.0234     2.4783    11.6877    11.8476    11.8057
  485.0000     0.1088     0.2943     8.0585    92.3656     0.0162     2.4693    11.6838    11.7641    11.5577
  485.5000     0.1079     0.2922     8.0583    93.2784     0.0193     2.4686    11.6800    11.6002    11.3158
  486.0000     0.1061     0.2870     8.0581    94.1943     0.0254     2.4709    11.5856    11.4376    10.8506
