~VERSION INFORMATION
 VERS.                2.0:   CWLS LOG ASCII STANDARD - VERSION 2.0
 WRAP.                 NO:   ONE LINE PER DEPTH STEP
~WELL INFORMATION
#MNEM.UNIT      DATA TYPE    INFORMATION
#----------   ------------   ------------------------------
 STRT.F           10.0000:   START DEPTH
 STOP.F          472.5000:   STOP DEPTH
 STEP.F            0.5000:   STEP LENGTH
 NULL.          -999.2500:   NO VALUE
 COMP. FENIX & SCISSON INC:   COMPANY
 WELL. NAVAL PETROLEUM RESERVE 3 SX-1 #67-10:   WELL
 FLD .             TEAPOT:   FIELD
 LOC .      S10 T38N R78W:   LOCATION
 CNTY.            NATRONA:   COUNTY
 STAT.            WYOMING:   STATE
 CTRY. UNITED STATES OF AMERICA:   COUNTRY
 SRVC.           BIRDWELL:   SERVICE COMPANY
 DATE.        05-DEC-1978:   LOGDATE
 API .       490251075000:   API NUMBER
~CURVE INFORMATION
#MNEM.UNIT       API CODE    CURVE DESCRIPTION
#----------   ------------   ------------------------------
 DEPT.F                  :   
 SPR .MV     05 010 01 00:   SPONTANEOUS POTENTIAL FROM RES.
 SN  .OHMM   05 040 16 00:   SHORT NORMAL 16"
 IL  .OHMM   05 120 00 00:   INDUCTION LOG
 CALD.IN     45 280 60 00:   CALIPER
 GRD .GAPI   45 310 01 00:   GAMMA RAY FROM DENSITY LOG
 RHOB.G/C3   45 350 01 00:   BULK DENSITY
 DPHI.DEC    45 890 12 00:   DENSITY POROSITY SANDSTONE
 CORR.G/C3   45 356 01 00:   DENSITY CORRECTION
~PARAMETER INFORMATION
#MNEM.UNIT          VALUE    DESCRIPTION
#----------   ------------   ------------------------------
 PD  .                 GL:   PERMANENT DATUM
 EPD .F              5189:   ELEVATION PERMANENT DATUM
 LMF .                 KB:   LOG MEASURED FROM
 DAPD.F                 4:   FEET ABOVE PERMANENT DATUM
 DMF .                 KB:   DRILLING MEASURED FROM
 EKB .F              5193:   KELLING BUSHING
 EGL .F              5189:   GROUND LEVEL
 DATE.            12-5-78:   RUN DATE
 RUN .                  1:   RUN NUMBER
 DD  .F               475:   DEPTH DRILLER
 DL  .F               471:   DEPTH LOGGER
 BLI .F               465:   BOTTOM LOG INTERVAL
 TLI .F                40:   TOP LOG INTERVAL
 CS  .IN            8.625:   CASING SIZE
 CBD .F                40:   CASING BOTTOM DRILLER
 CBL .F                40:   CASING BOTTOM LOGGER
 BS  .IN            7.875:   BIT SIZE
 BSD .F               475:   BIT SIZE AT DEPTH
 DFT .                KCL:   DRILLING FLUID TYPE
 DFD .                8.8:   DRILLING FLUID DENSITY
 DFV .                 42:   DRILLING FLUID VISCOSITY
 DFPH.               12.2:   DRILLING FLUID PH
 DFL .               11.6:   DRILLING FLUID LOSS
 MSS .          FLOW LINE:   MUD SAMPLE SOURCE
 RMS .OHMM            .31:   RESISTIVITY MUD SAMPLE
 MST .F                60:   MUD SAMPLE TEMPERATURE
 RMF .OHMM            .29:   RESISTIVITY MUD FILTRATE SAMPLE
 MFST.F                61:   MUD FILTRATE SAMPLE TEMPERATURE
 RMC .OHMM            .42:   RESISTIVITY MUD CAKE
 MCST.F                63:   MUD CAKE SAMPLE TEMPERATURE
 MFSS.           MEASURED:   MUD FILTRATE SAMPLE SOURCE
 MCSS.           MEASURED:   MUD CAKE SAMPLE SOURCE
 RMB .OHMM            .33:   RESISTIVITY MUD AT BHT
 BHT .F                57:   BOTTOM HOLE TEMPERATURE
 TCS .HRS               3:   TIME CURCULATED STOPPED
 MRT .F                57:   MAXIMUM RECORDED TEMPERATURE
 LUN .               2958:   LOGGING UNIT NUMBER
 LUL .                CPR:   LOGGING UNIT LOCATION
 ENGI.            ROLLINS:   RECORDING ENGINEER
 WITN.              AMEND:   WITNESSED BY
 CLNT.            A2DTECH:   CLIENT CODE
 ORIG.       2", 5" PRINT:   ORIGIN OF DATA
 UWI .       490251075000:   UNIQUE WELL ID
 DICO. A2D Technologies, Inc.:   DIGITIZING COMPANY
~OTHER INFORMATION
~A   DEPT      SPR         SN         IL       CALD         GRD      RHOB       DPHI       CORR   
# ...
  212.5000   -54.5630     5.9630     5.0030     8.5620   116.4990     2.4010     0.1700     0.1070
  213.0000   -54.5860     6.1320     5.1280     8.5980   113.0470     2.4190     0.1560     0.1200
  213.5000   -54.6090     6.2930     5.4120     8.6600   108.6570     2.4340     0.1500     0.1320
  214.0000   -54.6320     6.4550     5.7280     8.7210   106.3960     2.4480     0.1430     0.1450
  214.5000   -54.6550     6.7110     6.0440     8.7060   108.3460     2.4620     0.1370     0.1590
  215.0000   -54.6780     6.9860     6.3600     8.6560   110.0060     2.4750     0.1280     0.1770
  215.5000   -54.7020     7.2600     6.6420     8.5790   108.8180     2.4880     0.1150     0.1940
  216.0000   -54.7250     7.5340     6.8150     8.4930   107.5480     2.5100     0.1020     0.2110
  216.5000   -54.7480     7.8090     6.9770     8.5380   108.6370     2.5340     0.0910     0.2280
  217.0000   -54.7710     8.2390     7.1240     8.7050   110.2490     2.5320     0.0930     0.1860
  217.5000   -54.7940     8.2300     7.2710     8.7050   111.7310     2.5280     0.1010     0.1470
  218.0000   -54.8170     8.2080     7.4430     8.6980   112.4690     2.5170     0.1080     0.1080
  218.5000   -54.8400     8.1870     7.4280     8.6920   111.2230     2.5020     0.1210     0.0690
  219.0000   -54.8630     8.1650     7.4100     8.6850   109.8340     2.4740     0.1400     0.0420
  219.5000   -54.8870     8.1440     7.3920     8.6780   108.9380     2.4460     0.1540     0.0270
  220.0000   -54.9100     8.1220     7.3740     8.6720   111.6800     2.4360     0.1540     0.0340
  220.5000   -54.9330     8.1010     7.2960     8.6650   114.3570     2.4340     0.1530     0.0410
  221.0000   -54.9560     8.0390     7.2180     8.6580   114.0640     2.4370     0.1520     0.0470
  221.5000   -54.9790     7.9210     7.1410     8.6500   113.8260     2.4390     0.1510     0.0470
  222.0000   -55.0020     7.8040     7.0640     8.6970   113.6110     2.4360     0.1510     0.0470
  222.5000   -55.0250     7.6860     6.9870     8.7570   113.8360     2.4330     0.1530     0.0480
  223.0000   -55.0480     7.5690     6.9090     8.8170   116.2950     2.4280     0.1610     0.0480
  223.5000   -55.0720     7.4510     6.8320     8.8280   119.3620     2.4120     0.1670     0.0510
  224.0000   -55.0950     7.3330     6.6090     8.8270   119.2830     2.4040     0.1740     0.0590
  224.5000   -55.1180     7.1980     6.1710     8.8260   118.1480     2.4090     0.1670     0.0680
  225.0000   -55.1410     6.9940     5.8540     8.8250   116.3980     2.4240     0.1590     0.0760
  225.5000   -55.1640     6.6670     5.7470     8.8240   114.5520     2.4330     0.1500     0.0800
  226.0000   -55.1870     6.3690     5.4370     8.8220   118.9210     2.4380     0.1510     0.0740
  226.5000   -55.2100     6.1870     5.4810     8.8210   123.8610     2.4390     0.1510     0.0610
  227.0000   -55.2100     6.2250     5.5950     8.8200   126.0510     2.4370     0.1520     0.0430
  227.5000   -55.2110     6.2890     5.7080     8.8180   124.0720     2.4360     0.1540     0.0370
  228.0000   -55.2110     6.4980     5.8280     8.8170   118.1040     2.4340     0.1550     0.0390
  228.5000   -55.1990     6.7460     5.9770     8.8160   113.7980     2.4400     0.1450     0.0490
  229.0000   -54.8520     7.1250     6.1250     8.8140   113.3540     2.4530     0.1360     0.0670
  229.5000   -54.4890     7.5970     6.4180     8.8130   115.6140     2.4640     0.1290     0.0780
  230.0000   -54.1250     7.9200     6.8130     8.8120   119.0820     2.4700     0.1320     0.0780
  230.5000   -53.7590     8.1740     7.2070     8.8100   121.5860     2.4670     0.1360     0.0780
  231.0000   -53.5910     8.2320     7.4240     8.7720   120.7230     2.4680     0.1360     0.0780
  231.5000   -53.5610     8.2900     7.5120     8.7300   120.6260     2.4690     0.1330     0.0780
  232.0000   -53.5310     8.3490     7.5270     8.6890   120.8050     2.4680     0.1310     0.0780
  232.5000   -53.5010     8.4070     7.5430     8.6510   119.8770     2.4660     0.1330     0.0780
  233.0000   -53.4710     8.4650     7.5590     8.6850   117.7550     2.4640     0.1350     0.0780
  233.5000   -53.4410     8.5490     7.5740     8.7350   116.5850     2.4620     0.1370     0.0780
  234.0000   -53.4110     8.5470     7.5900     8.7970   115.5460     2.4610     0.1380     0.0800
  234.5000   -53.3810     8.5400     7.6060     8.8240   114.1720     2.4610     0.1390     0.0820
  235.0000   -53.3510     8.5330     7.6220     8.8130   113.9990     2.4680     0.1350     0.0900
  235.5000   -53.3210     8.5270     7.6370     8.8020   113.9980     2.4810     0.1260     0.1020
  236.0000   -53.2920     8.5200     7.6530     8.7910   114.7260     2.4930     0.1130     0.1140
  236.5000   -53.2620     8.5130     7.6690     8.8040   115.4550     2.5060     0.1020     0.1240
  237.0000   -53.2340     8.5070     7.6840     8.8190   115.0310     2.5190     0.0950     0.1270
  237.5000   -53.2410     8.5000     7.7000     8.8340   114.5210     2.5310     0.0890     0.1220
  238.0000   -53.4760     8.4940     7.7230     8.8490   114.4190     2.5220     0.1010     0.0990
  238.5000   -53.7120     8.4870     7.7150     8.8310   115.5520     2.5000     0.1180     0.0770
  239.0000   -53.9480     8.4800     7.7000     8.8110   116.9080     2.4790     0.1280     0.0550
  239.5000   -54.1830     8.4730     7.6850     8.7900   118.2200     2.4760     0.1270     0.0500
  240.0000   -54.4180     8.4480     7.6710     8.7790   117.5390     2.4750     0.1290     0.0460
  240.5000   -54.6520     8.4080     7.6560     8.7680   116.6580     2.4680     0.1350     0.0310
  241.0000   -54.8170     8.3670     7.6320     8.7570   114.9580     2.4620     0.1380     0.0170
  241.5000   -54.8290     8.3260     7.6040     8.7460   111.0340     2.4570     0.1380     0.0120
  242.0000   -54.8430     8.3050     7.5760     8.7340   109.3290     2.4560     0.1390     0.0110
  242.5000   -54.8580     8.2920     7.5480     8.7590   114.8730     2.4530     0.1430     0.0120
  243.0000   -54.8720     8.2780     7.5200     8.8070   114.5640     2.4450     0.1490     0.0130
  243.5000   -54.8870     8.2650     7.4570     8.8540   114.2070     2.4310     0.1560     0.0140
  244.0000   -54.9010     8.2510     7.3740     8.9020   114.3940     2.4240     0.1620     0.0170
  244.5000   -54.9160     8.2030     6.9130     8.9080   116.8430     2.4200     0.1640     0.0190
  245.0000   -54.9300     7.9070     6.5400     8.9050   117.7720     2.4210     0.1600     0.0190
  245.5000   -54.9450     7.6120     6.5720     8.9030   117.9830     2.4310     0.1530     0.0170
  246.0000   -54.9600     7.3160     6.6620     8.9000   119.9130     2.4430     0.1460     0.0150
  246.5000   -54.9750     7.1520     6.5910     8.8980   121.9120     2.4490     0.1420     0.0150
  247.0000   -54.9900     7.1110     6.4520     8.8950   122.7740     2.4460     0.1470     0.0160
  247.5000   -55.0030     7.0700     6.3140     8.8930   123.2510     2.4410     0.1510     0.0160
  248.0000   -55.2230     7.0300     6.1750     8.8900   123.4470     2.4270     0.1610     0.0180
  248.5000   -55.6390     6.9890     6.0370     8.8970   123.3430     2.4130     0.1730     0.0200
  249.0000   -56.0100     6.9480     5.8990     8.9040   122.8020     2.4100     0.1710     0.0200
  249.5000   -56.0530     6.9070     5.7470     8.9110   122.0690     2.4230     0.1600     0.0190
  250.0000   -56.0890     6.8670     5.8000     8.9190   122.3050     2.4470     0.1400     0.0180
  250.5000   -56.1260     6.8260     5.8590     8.9260   123.5310     2.4650     0.1360     0.0170
  251.0000   -56.1620     6.7850     5.9180     8.9340   124.7820     2.4660     0.1320     0.0160
  251.5000   -56.1990     6.7240     5.9760     8.9420   124.7850     2.4640     0.1340     0.0150
  252.0000   -56.2350     6.9160     6.0670     8.9500   122.8580     2.4610     0.1380     0.0140
  252.5000   -56.2720     7.3050     6.2340     8.9580   121.3480     2.4550     0.1400     0.0140
