~VERSION INFORMATION
 VERS.                2.0:   CWLS LOG ASCII STANDARD - VERSION 2.0
 WRAP.                 NO:   ONE LINE PER DEPTH STEP
~WELL INFORMATION
#MNEM.UNIT      DATA TYPE    INFORMATION
#----------   ------------   ------------------------------
 STRT.F         1050.0000:   START DEPTH
 STOP.F         2592.5000:   STOP DEPTH
 STEP.F            0.5000:   STEP LENGTH
 NULL.          -999.2500:   NO VALUE
 COMP. LAWRENCE/ALLISON INC:   COMPANY
 WELL. NAVAL PETROLEUM RESERVE 3 X15 #34-15:   WELL
 FLD .            WILDCAT:   FIELD
 LOC .      S15 T38N R78W:   LOCATION
 CNTY.            NATRONA:   COUNTY
 STAT.            WYOMING:   STATE
 CTRY. UNITED STATES OF AMERICA:   COUNTRY
 SRVC.            Unknown:   SERVICE COMPANY
 DATE.        07-AUG-1988:   LOGDATE
 API .       490251125500:   API NUMBER
~CURVE INFORMATION
#MNEM.UNIT       API CODE    CURVE DESCRIPTION
#----------   ------------   ------------------------------
 DEPT.F                  :   
 ROP .MIN/FT 91 810 01 00:   RATE OF DRILLING PENETRATION
 TGAS.UNITS  91 830 01 00:   TOTAL GAS FROM HOTWIRE
~PARAMETER INFORMATION
#MNEM.UNIT          VALUE    DESCRIPTION
#----------   ------------   ------------------------------
 EKB .F              5286:   KELLING BUSHING
 EGL .F              5276:   GROUND LEVEL
 DATE.           9-7-1988:   RUN DATE
 RUN .                  1:   RUN NUMBER
 DD  .F              2592:   DEPTH DRILLER
 CBD .F              1044:   CASING BOTTOM DRILLER
 ENGI.               HUSK:   RECORDING ENGINEER
 CLNT.            A2DTECH:   CLIENT CODE
 ORIG.           5" PRINT:   ORIGIN OF DATA
 UWI .       490251125500:   UNIQUE WELL ID
 DICO. A2D Technologies, Inc.:   DIGITIZING COMPANY
~OTHER INFORMATION
~A  DEPT         ROP     TGAS   
# ...
 1414.5000     0.6634    11.4927
 1415.0000     0.6684    11.3170
 1415.5000     0.6733    11.3830
 1416.0000     0.6572    11.4496
 1416.5000     0.6348    11.5149
 1417.0000     0.6123    11.5802
 1417.5000     0.5899    11.6454
 1418.0000     0.5674    11.7106
 1418.5000     0.5449    11.7758
 1419.0000     0.5226    11.8410
 1419.5000     0.5007    11.9062
 1420.0000     0.4791    11.9714
 1420.5000     0.4602    12.0366
 1421.0000     0.4589    12.1018
 1421.5000     0.4592    12.1670
 1422.0000     0.4792    12.2322
 1422.5000     0.5012    12.2974
 1423.0000     0.5232    12.3626
 1423.5000     0.5452    12.4278
 1424.0000     0.5672    12.4930
 1424.5000     0.5892    12.5582
 1425.0000     0.6111    12.6235
 1425.5000     0.6332    12.6899
 1426.0000     0.6561    12.7611
 1426.5000     0.6427    12.7978
 1427.0000     0.6200    11.7430
 1427.5000     0.5969    10.6159
 1428.0000     0.5740     9.4964
 1428.5000     0.5596     8.8079
 1429.0000     0.5597     8.8662
 1429.5000     0.5597     8.9132
 1430.0000     0.5599     8.9613
 1430.5000     0.5730     9.0098
 1431.0000     0.6068     9.0579
 1431.5000     0.6406     9.1061
 1432.0000     0.6711     9.1542
 1432.5000     0.6355     9.2023
 1433.0000     0.5980     9.2504
 1433.5000     0.5603     9.2986
 1434.0000     0.5502     9.3467
 1434.5000     0.5546     9.3948
 1435.0000     0.5591     9.4429
 1435.5000     0.5521     9.4911
 1436.0000     0.5433     9.5392
 1436.5000     0.5336     9.5873
 1437.0000     0.5033     9.6355
 1437.5000     0.4733     9.6839
 1438.0000     0.4484     9.7311
 1438.5000     0.4861     9.7783
 1439.0000     0.5238     9.6808
 1439.5000     0.5622     9.4292
 1440.0000     0.5737     9.3030
 1440.5000     0.5764     9.3022
 1441.0000     0.5786     9.3014
 1441.5000     0.5808     9.3016
 1442.0000     0.5833     9.3017
 1442.5000     0.5909     9.3017
 1443.0000     0.6170     9.3017
 1443.5000     0.6428     9.3017
 1444.0000     0.6691     9.3017
 1444.5000     0.6567     9.3017
 1445.0000     0.6370     9.3017
 1445.5000     0.6171     9.3017
 1446.0000     0.5974     9.3017
 1446.5000     0.5893     9.3017
 1447.0000     0.6021     9.3017
 1447.5000     0.6146     9.3017
 1448.0000     0.6266     9.3017
 1448.5000     0.6252     9.3017
 1449.0000     0.5892     9.3017
 1449.5000     0.5783     9.3017
 1450.0000     0.5896     9.3017
 1450.5000     0.6008     9.3017
 1451.0000     0.6124     9.3017
 1451.5000     0.6213     9.3017
 1452.0000     0.5885     9.3017
 1452.5000     0.5560     9.3017
 1453.0000     0.5237     9.3017
 1453.5000     0.4914     9.3017
 1454.0000     0.4595     9.3017
 1454.5000     0.4332     9.3017
 1455.0000     0.4339     9.3017
 1455.5000     0.4339     9.3017
 1456.0000     0.4252     9.3017
 1456.5000     0.4015     9.3017
 1457.0000     0.3783     9.3017
 1457.5000     0.3577     9.3017
 1458.0000     0.3590     9.3017
 1458.5000     0.3975     9.3017
 1459.0000     0.4481     9.3017
 1459.5000     0.5027     9.3017
 1460.0000     0.6186     9.3017
 1460.5000     0.7304     9.3017
 1461.0000     0.8420     9.3017
 1461.5000     0.9574     9.3017
 1462.0000     0.9877     9.3017
 1462.5000     0.9509     9.3017
 1463.0000     0.8985     9.3017
 1463.5000     0.8458     9.3017
 1464.0000     0.7991     9.3017
 1464.5000     0.8023     9.3017
 1465.0000     0.8067     9.3017
 1465.5000     0.8118     9.3017
 1466.0000     0.7819     9.3017
 1466.5000     0.7401     9.3017
 1467.0000     0.6981     9.3017
 1467.5000     0.6561     9.3017
 1468.0000     0.6144     9.3017
 1468.5000     0.5843     9.3017
 1469.0000     0.5709     9.3017
 1469.5000     0.5341     9.3017
 1470.0000     0.4990     9.3025
 1470.5000     0.4640     9.2680
 1471.0000     0.4291     9.2204
 1471.5000     0.3930     9.1724
 1472.0000     0.3824     9.1245
 1472.5000     0.3792     9.0766
 1473.0000     0.3765     9.0287
 1473.5000     0.3738     8.9809
 1474.0000     0.3695     8.9330
 1474.5000     0.3364     8.8851
 1475.0000     0.3205     8.8372
 1475.5000     0.3207     8.7893
 1476.0000     0.3196     8.7414
 1476.5000     0.3417     8.6935
 1477.0000     0.3746     8.6456
 1477.5000     0.4016     8.5978
 1478.0000     0.4275     8.5499
 1478.5000     0.4532     8.5020
 1479.0000     0.4789     8.4541
 1479.5000     0.4971     8.4063
 1480.0000     0.4737     8.3584
 1480.5000     0.4478     8.3078
 1481.0000     0.4220     8.3442
 1481.5000     0.3962     8.4113
 1482.0000     0.3865     8.4794
 1482.5000     0.3917     8.5475
 1483.0000     0.3969     8.6155
 1483.5000     0.4021     8.6835
 1484.0000     0.4076     8.7511
 1484.5000     0.4026     8.8000
 1485.0000     0.3911     8.7989
 1485.5000     0.3701     8.7989
 1486.0000     0.2860     8.7989
 1486.5000  -999.2500     8.7989
 1487.0000  -999.2500     8.7989
 1487.5000  -999.2500     8.7989
 1488.0000  -999.2500     8.7989
 1488.5000  -999.2500     8.7989
 1489.0000  -999.2500     8.7989
 1489.5000  -999.2500     8.7989
 1490.0000  -999.2500     8.7989
 1490.5000  -999.2500     8.7989
 1491.0000  -999.2500     8.7989
 1491.5000  -999.2500     8.7989
 1492.0000  -999.2500     8.7989
 1492.5000  -999.2500     8.7989
 1493.0000  -999.2500     8.7989
 1493.5000  -999.2500     8.7989
 1494.0000  -999.2500     8.7989
 1494.5000  -999.2500     8.7989
 1495.0000  -999.2500     8.7989
 1495.5000  -999.2500     8.7989
 1496.0000  -999.2500     8.7989
 1496.5000  -999.2500     8.7989
 1497.0000  -999.2500     8.7989
 1497.5000  -999.2500     8.7989
 1498.0000  -999.2500     8.7989
 1498.5000  -999.2500     8.7989
 1499.0000  -999.2500     8.7989
 1499.5000  -999.2500     8.7989
 1500.0000  -999.2500     8.7989
 1500.5000  -999.2500     8.7989
 1501.0000  -999.2500     8.7989
 1501.5000  -999.2500     8.7989
 1502.0000  -999.2500     8.7989
 1502.5000  -999.2500     8.7989
 1503.0000  -999.2500     8.8011
 1503.5000  -999.2500     8.7058
 1504.0000  -999.2500     8.5741
 1504.5000  -999.2500     8.4402
 1505.0000  -999.2500     8.3021
 1505.5000  -999.2500     8.3115
 1506.0000  -999.2500     8.3312
 1506.5000  -999.2500     8.3501
 1507.0000  -999.2500     8.3687
 1507.5000  -999.2500     8.3873
 1508.0000  -999.2500     8.4060
 1508.5000  -999.2500     8.4246
 1509.0000  -999.2500     8.4432
 1509.5000  -999.2500     8.4618
 1510.0000  -999.2500     8.4804
 1510.5000  -999.2500     8.4991
 1511.0000  -999.2500     8.5177
 1511.5000  -999.2500     8.5363
 1512.0000  -999.2500     8.5549
 1512.5000  -999.2500     8.5736
 1513.0000  -999.2500     8.5922
 1513.5000  -999.2500     8.6108
 1514.0000  -999.2500     8.6294
 1514.5000  -999.2500     8.6480
 1515.0000  -999.2500     8.6667
 1515.5000  -999.2500     8.6853
 1516.0000  -999.2500     8.7039
 1516.5000     0.4249     8.7225
 1517.0000     0.4225     8.7413
 1517.5000     0.4214     8.7602
 1518.0000     0.4360     8.7812
 1518.5000     0.4653     8.7942
 1519.0000     0.4959     8.2618
 1519.5000     0.4813     7.6633
 1520.0000     0.4587     7.0637
 1520.5000     0.4362     6.4458
 1521.0000     0.4137     6.2883
 1521.5000     0.3903     6.2830
 1522.0000     0.3827     6.2842
 1522.5000     0.3801     6.2849
 1523.0000     0.3777     6.2849
 1523.5000     0.3753     6.2849
 1524.0000     0.3729     6.2849
 1524.5000     0.3709     6.2849
 1525.0000     0.3712     6.2849
 1525.5000     0.3789     6.2849
 1526.0000     0.4120     6.2849
 1526.5000     0.4386     6.2849
 1527.0000     0.4653     6.2849
 1527.5000     0.4919     6.2849
 1528.0000     0.5095     6.2849
 1528.5000     0.4889     6.2849
 1529.0000     0.4669     6.2849
 1529.5000     0.4448     6.2849
 1530.0000     0.4229     6.2849
 1530.5000     0.4008     6.2849
 1531.0000     0.3785     6.2849
 1531.5000     0.3608     6.2849
 1532.0000     0.3872     6.2849
 1532.5000     0.4126     6.2856
 1533.0000     0.4376     6.2549
 1533.5000     0.4330     6.2126
 1534.0000     0.4018     6.1699
 1534.5000     0.3709     6.1273
 1535.0000     0.3451     6.0847
 1535.5000     0.3458     6.0420
