~VERSION INFORMATION
 VERS.                2.0:   CWLS LOG ASCII STANDARD - VERSION 2.0
 WRAP.                 NO:   ONE LINE PER DEPTH STEP
~WELL INFORMATION
#MNEM.UNIT      DATA TYPE    INFORMATION
#----------   ------------   ------------------------------
 STRT.F            0.0000:   START DEPTH
 STOP.F          774.0000:   STOP DEPTH
 STEP.F            0.5000:   STEP LENGTH
 NULL.          -999.2500:   NO VALUE
 COMP. LAWRENCE/ALLISON INC:   COMPANY
 WELL. SX 11 WP #37-53-11:   WELL
 FLD .             TEAPOT:   FIELD
 LOC .      S11 T38N R78W:   LOCATION
 CNTY.            NATRONA:   COUNTY
 STAT.            WYOMING:   STATE
 CTRY. UNITED STATES OF AMERICA:   COUNTRY
 SRVC.            Unknown:   SERVICE COMPANY
 DATE.        19-SEP-1984:   LOGDATE
 API .       490251098900:   API NUMBER
~CURVE INFORMATION
#MNEM.UNIT       API CODE    CURVE DESCRIPTION
#----------   ------------   ------------------------------
 DEPT.F                  :   
 GRR .GAPI   07 310 01 00:   GAMMA RAY FROM RES. LOG.
 SPR .MV     07 010 01 00:   SPONTANEOUS POTENTIAL
 RFOC.OHMM   07 220 04 00:   RESISTIVITY FOCUSED LOG
 ILD .OHMM   07 120 46 00:   INDUCTION LOG DEEP RESISTIVITY
 RILM.OHMM   07 120 44 00:   INDUCTION LOG MEDIUM RESISTIVITY
 CALD.IN     45 280 60 00:   CALIPER
 DEN .G/C3   45 350 01 00:   COMPENSATED BULK DENSTIY
 CORR.G/C3   45 356 01 00:   DENSITY CORRECTION
 PORD.DEC    45 890 12 00:   POROSITY DENSITY SANDSTONE
 AC  .US/F   60 520 00 00:   ACOUSTIC SONIC
 CNC .DEC    42 890 03 00:   NEUTRON POROSITY SANDSTONE
~PARAMETER INFORMATION
#MNEM.UNIT          VALUE    DESCRIPTION
#----------   ------------   ------------------------------
 PD  .                 GL:   PERMANENT DATUM
 EPD .F              5153:   ELEVATION PERMANENT DATUM
 LMF .                 GL:   LOG MEASURED FROM
 DMF .                 GL:   DRILLING MEASURED FROM
 EGL .F              5153:   GROUND LEVEL
 DATE.       19-SEPT-1984:   RUN DATE
 RUN .                  1:   RUN NUMBER
 DD  .F               785:   DEPTH DRILLER
 DL  .F               774:   DEPTH LOGGER
 BLI .F               772:   BOTTOM LOG INTERVAL
 CS  .IN            8.625:   CASING SIZE
 CBD .F                42:   CASING BOTTOM DRILLER
 CBL .F                41:   CASING BOTTOM LOGGER
 BS  .IN            7.875:   BIT SIZE
 BSD .F               785:   BIT SIZE AT DEPTH
 DFT .          KCL WATER:   DRILLING FLUID TYPE
 MSS .           FLOWLINE:   MUD SAMPLE SOURCE
 RMS .OHMM            .27:   RESISTIVITY MUD SAMPLE
 MST .F                82:   MUD SAMPLE TEMPERATURE
 TCS .HRS               2:   TIME CURCULATED STOPPED
 MRT .F               100:   MAXIMUM RECORDED TEMPERATURE
 LUN .               6274:   LOGGING UNIT NUMBER
 LUL .               GLTE:   LOGGING UNIT LOCATION
 ENGI.         HINDS/MACK:   RECORDING ENGINEER
 WITN.             STRONG:   WITNESSED BY
 CLNT.            A2DTECH:   CLIENT CODE
 ORIG.   1", 2", 5" PRINT:   ORIGIN OF DATA
 UWI .       490251098900:   UNIQUE WELL ID
 DICO. A2D Technologies, Inc.:   DIGITIZING COMPANY
~OTHER INFORMATION
~A    DEPT      GRR       SPR       RFOC        ILD       RILM       CALD        DEN       CORR       PORD         AC        CNC   
# ...
  549.0000    75.8550   -18.2421    14.4096    13.8649    15.6159     8.0660     2.3578     0.0020     0.1884    95.3322     0.2461
  549.5000    77.5645   -18.4594    14.2301    13.9896    15.1922     8.0638     2.3700     0.0018     0.1817    95.0523     0.2510
  550.0000    80.6682   -18.6775    14.1676    13.8489    14.7338     8.0616     2.3822     0.0083     0.1750    94.7723     0.2537
  550.5000    82.0147   -18.8963    14.1053    13.7214    14.2861     8.0594     2.3949     0.0153     0.1690    94.5194     0.2537
  551.0000    81.8076   -19.1143    14.0434    13.5952    13.8524     8.0573     2.3959     0.0224     0.1697    94.4884     0.2534
  551.5000    83.2781   -19.2994    13.9896    13.4861    13.4321     8.0633     2.3912     0.0295     0.1718    94.4560     0.2529
  552.0000    84.9442   -19.1783    14.0459    13.5843    13.0007     8.0702     2.3854     0.0279     0.1757    94.4235     0.2436
  552.5000    85.5576   -19.0601    14.0961    13.6717    12.9797     8.0771     2.3795     0.0256     0.1794    94.5513     0.2351
  553.0000    85.1118   -18.9430    14.1463    13.7600    12.9614     8.0839     2.3802     0.0234     0.1770    94.6883     0.2266
  553.5000    84.3509   -18.8261    14.1968    13.8488    12.9418     8.0907     2.3853     0.0212     0.1742    94.9383     0.2219
  554.0000    83.3440   -18.7091    14.2481    13.9381    12.9219     8.0956     2.3883     0.0172     0.1743    95.4215     0.2261
  554.5000    82.2335   -18.5922    14.2025    14.0280    12.9019     8.0885     2.3817     0.0100     0.1779    95.9533     0.2323
  555.0000    81.7994   -18.4753    14.1550    14.1184    12.8821     8.0815     2.3774     0.0028     0.1797    96.0537     0.2335
  555.5000    81.3826   -18.3580    14.1184    14.3705    12.8622     8.0746     2.3799     0.0027     0.1775    96.1533     0.2379
  556.0000    82.0949   -18.2394    14.2510    14.6270    12.8424     8.0676     2.3861     0.0173     0.1735    96.3528     0.2464
  556.5000    84.2377   -18.1271    14.3835    14.8882    12.8226     8.0607     2.3936     0.0316     0.1695    96.6122     0.2509
  557.0000    86.3487   -18.3063    14.5173    15.1540    12.8028     8.0538     2.3964     0.0395     0.1678    96.6103     0.2434
  557.5000    88.1944   -18.5064    14.6523    15.4245    12.7833     8.0469     2.3968     0.0387     0.1685    96.5026     0.2438
  558.0000    86.8652   -18.7057    14.7804    15.6999    12.7639     8.0399     2.3972     0.0381     0.1690    96.1829     0.2548
  558.5000    81.1142   -18.9046    14.8197    15.9048    12.6549     8.0374     2.3992     0.0314     0.1653    95.7810     0.2501
  559.0000    76.3215   -19.1034    14.8656    15.7481    12.3126     8.0374     2.4032     0.0220     0.1638    95.5177     0.2445
  559.5000    74.5819   -19.3022    14.9165    15.6030    11.9385     8.0374     2.4049     0.0124     0.1635    95.6699     0.2394
  560.0000    75.2005   -19.5010    14.6725    15.4734    11.5758     8.0374     2.4042     0.0027     0.1631    95.8159     0.2398
  560.5000    78.4089   -19.6998    14.4033    14.7743    11.1251     8.0374     2.4035    -0.0005     0.1643    95.9402     0.2446
  561.0000    78.4181   -19.8986    14.1391    14.1656    11.3475     8.0374     2.4003     0.0008     0.1660    96.0239     0.2492
  561.5000    77.4293   -20.0974    13.8620    13.5819    11.6670     8.0374     2.3932     0.0098     0.1717    96.1133     0.2564
  562.0000    77.9181   -20.2964    13.8935    13.0220    12.1316     8.0374     2.3841     0.0187     0.1780    96.0780     0.2614
  562.5000    80.5110   -20.4956    13.9274    12.4845    12.6715     8.0374     2.3788     0.0280     0.1796    96.0391     0.2592
  563.0000    81.2752   -20.6909    13.9613    11.9732    13.2335     8.0374     2.3765     0.0243     0.1812    95.9818     0.2569
  563.5000    80.6235   -20.8087    13.9896    11.6891    13.8204     8.0374     2.3699     0.0171     0.1855    95.8901     0.2577
  564.0000    81.3558   -20.9230    13.7874    11.5405    14.4332     8.0374     2.3644     0.0097     0.1869    95.7520     0.2581
  564.5000    84.1072   -21.0378    13.6167    11.5959    15.0732     8.0374     2.3676     0.0025     0.1853    95.3976     0.2520
  565.0000    82.6469   -21.1523    13.4481    11.6953    15.4734     8.0374     2.3715    -0.0020     0.1835    95.0430     0.2458
  565.5000    80.2178   -21.2710    13.2816    11.8649    15.3738     8.0374     2.3734    -0.0021     0.1816    94.6851     0.2397
  566.0000    80.8738   -21.1195    13.1203    12.1426    15.0400     8.0374     2.3746    -0.0056     0.1810    94.6245     0.2354
  566.5000    83.4057   -20.8562    13.1846    12.4270    14.3598     8.0374     2.3713    -0.0135     0.1841    94.9595     0.2449
  567.0000    85.2533   -20.5934    13.2478    12.7182    13.7104     8.0374     2.3656    -0.0071     0.1877    95.5001     0.2562
  567.5000    84.5387   -20.1738    13.3114    13.0011    13.0903     8.0374     2.3588    -0.0003     0.1927    96.0139     0.2605
  568.0000    84.2412   -19.6828    13.3753    13.0989    12.4983     8.0374     2.3520     0.0061     0.1977    96.1905     0.2548
  568.5000    84.4169   -19.3053    13.4395    13.1929    12.2911     8.0374     2.3457     0.0005     0.1992    96.1532     0.2503
  569.0000    84.1225   -19.5957    13.4861    13.2429    12.2701     8.0374     2.3430    -0.0049     0.2001    96.0618     0.2496
  569.5000    82.0567   -19.9580    13.4419    13.1105    12.2490     8.0374     2.3405    -0.0101     0.2031    95.9791     0.2489
  570.0000    80.0220   -20.3149    13.4073    12.9897    12.2281     8.0374     2.3387    -0.0119     0.2026    95.9145     0.2433
  570.5000    81.5021   -20.6750    13.3729    12.8588    12.2071     8.0374     2.3434    -0.0030     0.1976    95.5467     0.2390
  571.0000    83.2160   -21.0350    13.2995    12.6558    12.1423     8.0374     2.3542     0.0055     0.1908    95.2123     0.2485
  571.5000    83.5892   -21.3949    13.2102    12.4542    11.9825     8.0374     2.3661     0.0140     0.1828    94.8790     0.2600
  572.0000    83.6848   -21.7548    13.1217    12.2560    11.8251     8.0374     2.3780     0.0177     0.1780    94.3970     0.2600
  572.5000    83.4044   -22.1147    13.0338    12.0604    11.6695     8.0374     2.3811     0.0078     0.1777    93.7972     0.2549
  573.0000    83.8707   -22.4746    12.9466    11.8622    11.5163     8.0374     2.3772    -0.0030     0.1794    93.4979     0.2562
  573.5000    84.4514   -22.8346    12.8599    11.8402    11.3651     8.0374     2.3763    -0.0100     0.1794    93.4421     0.2579
  574.0000    84.8352   -23.1950    12.7738    11.8114    11.3309     8.0374     2.3776    -0.0078     0.1792    93.6761     0.2585
  574.5000    82.6209   -23.5569    12.6883    11.7826    11.3307     8.0374     2.3772    -0.0079     0.1805    93.9948     0.2540
  575.0000    80.3716   -23.7839    12.6033    11.7540    11.3309     8.0374     2.3738    -0.0055     0.1818    94.1273     0.2492
  575.5000    78.6185   -23.9545    12.5189    11.7254    11.3310     8.0381     2.3737    -0.0015     0.1785    94.0300     0.2410
  576.0000    78.9300   -24.1257    12.4350    11.6969    11.3300     8.0404     2.3800    -0.0009     0.1749    93.7276     0.2406
  576.5000    80.4581   -24.2970    12.3515    11.6684    11.3322     8.0427     2.3869    -0.0054     0.1713    92.7336     0.2504
  577.0000    81.3651   -24.4684    12.3052    11.6465    11.2030     8.0450     2.3938    -0.0069     0.1678    92.3644     0.2561
  577.5000    81.3880   -24.6398    12.3051    11.6467    11.0996     8.0473     2.4002    -0.0013     0.1657    92.1529     0.2541
  578.0000    81.4005   -24.8112    12.3051    11.6458    10.9974     8.0496     2.4006     0.0040     0.1653    92.0390     0.2460
  578.5000    80.7128   -24.9826    12.3051    11.6496    10.9230     8.0520     2.4008     0.0077     0.1650    92.3018     0.2403
  579.0000    78.6965   -25.1539    12.3051    11.5449    10.9230     8.0543     2.4010     0.0061     0.1652    92.5348     0.2390
