~VERSION INFORMATION
 VERS.                2.0:   CWLS LOG ASCII STANDARD - VERSION 2.0
 WRAP.                 NO:   ONE LINE PER DEPTH STEP
~WELL INFORMATION
#MNEM.UNIT      DATA TYPE    INFORMATION
#----------   ------------   ------------------------------
 STRT.F           28.0000:   START DEPTH
 STOP.F          856.0000:   STOP DEPTH
 STEP.F            0.5000:   STEP LENGTH
 NULL.          -999.2500:   NO VALUE
 COMP. FENIX & SCISSON INC:   COMPANY
 WELL. NPR 3  76 SX #76-27:   WELL
 FLD .             TEAPOT:   FIELD
 LOC .      S27 T39N R78W:   LOCATION
 CNTY.            NATRONA:   COUNTY
 STAT.            WYOMING:   STATE
 CTRY. UNITED STATES OF AMERICA:   COUNTRY
 SRVC.            Unknown:   SERVICE COMPANY
 DATE.        06-SEP-1978:   LOGDATE
 API .       490251069600:   API NUMBER
~CURVE INFORMATION
#MNEM.UNIT       API CODE    CURVE DESCRIPTION
#----------   ------------   ------------------------------
 DEPT.F                  :   
 SPR .MV     05 010 01 00:   SPONTANEOUS POTENTIAL FROM RES.
 SN  .OHMM   05 040 16 00:   SHORT NORMAL 16"
 ILD .OHMM   05 120 46 00:   INDUCTION LOG DEEP
 NPHI.DEC    42 890 03 00:   NEUTRON POROSITY SANDSTONE
 GRD .GAPI   45 310 01 00:   GAMMA RAY FROM DENSITY LOG
 CALD.IN     45 280 60 00:   CALIPER
 RHOB.G/C3   45 350 01 00:   BULK DENSITY
 DPHI.DEC    45 890 12 00:   DENSITY POROSITY SANDSTONE
 CORR.G/C3   45 356 01 00:   DENSITY CORRECTION
~PARAMETER INFORMATION
#MNEM.UNIT          VALUE    DESCRIPTION
#----------   ------------   ------------------------------
 PD  .                 GL:   PERMANENT DATUM
 EPD .F              5062:   ELEVATION PERMANENT DATUM
 LMF .                 KB:   LOG MEASURED FROM
 DAPD.F                 4:   FEET ABOVE PERMANENT DATUM
 DMF .                 KB:   DRILLING MEASURED FROM
 EKB .F              5066:   KELLING BUSHING
 EGL .F              5062:   GROUND LEVEL
 DATE.             9-6-78:   RUN DATE
 RUN .                  1:   RUN NUMBER
 DD  .F               865:   DEPTH DRILLER
 DL  .F               857:   DEPTH LOGGER
 BLI .F               851:   BOTTOM LOG INTERVAL
 TLI .F                40:   TOP LOG INTERVAL
 CS  .IN            8.625:   CASING SIZE
 CBD .F                43:   CASING BOTTOM DRILLER
 CBL .F                43:   CASING BOTTOM LOGGER
 BS  .IN            7.875:   BIT SIZE
 BSD .F               865:   BIT SIZE AT DEPTH
 DFT .                KCL:   DRILLING FLUID TYPE
 DFD .                8.4:   DRILLING FLUID DENSITY
 DFV .                 40:   DRILLING FLUID VISCOSITY
 DFPH.                  9:   DRILLING FLUID PH
 DFL .                  6:   DRILLING FLUID LOSS
 MSS .           FLOWLINE:   MUD SAMPLE SOURCE
 RMS .OHMM            .14:   RESISTIVITY MUD SAMPLE
 MST .F                84:   MUD SAMPLE TEMPERATURE
 RMF .OHMM             .1:   RESISTIVITY MUD FILTRATE SAMPLE
 MFST.F                94:   MUD FILTRATE SAMPLE TEMPERATURE
 RMC .OHMM            .18:   RESISTIVITY MUD CAKE
 MCST.F                92:   MUD CAKE SAMPLE TEMPERATURE
 MFSS.               MEAS:   MUD FILTRATE SAMPLE SOURCE
 MCSS.               MEAS:   MUD CAKE SAMPLE SOURCE
 RMB .OHMM           .145:   RESISTIVITY MUD AT BHT
 BHT .F                82:   BOTTOM HOLE TEMPERATURE
 TCS .HRS               3:   TIME CURCULATED STOPPED
 MRT .F                82:   MAXIMUM RECORDED TEMPERATURE
 LUN .               2958:   LOGGING UNIT NUMBER
 LUL .               CASP:   LOGGING UNIT LOCATION
 ENGI.           REYNOLDS:   RECORDING ENGINEER
 WITN.           MCGINLEY:   WITNESSED BY
 CLNT.            A2DTECH:   CLIENT CODE
 ORIG.           5" PRINT:   ORIGIN OF DATA
 UWI .       490251069600:   UNIQUE WELL ID
 DICO. A2D Technologies, Inc.:   DIGITIZING COMPANY
~OTHER INFORMATION
~A   DEPT      SPR         SN        ILD       NPHI         GRD      CALD       RHOB       DPHI       CORR   
# ...
  393.0000   -86.9572     8.0910     8.6571  -999.2500    86.7101     7.1008     2.4632     0.1289     0.0442
  393.5000   -86.9019     8.1354     8.7189  -999.2500    89.5028     7.0501     2.4659     0.1312     0.0291
  394.0000   -86.8526     8.1920     8.7811  -999.2500    88.4064     6.9906     2.4709     0.1477     0.0142
  394.5000   -86.8310     8.2491     8.8438  -999.2500    84.7100     7.4990     2.4668     0.1641     0.0044
  395.0000   -86.8090     8.3065     8.8806  -999.2500    81.8145     7.3933     2.4438     0.1795     0.0260
  395.5000   -86.7868     8.3643     8.8082  -999.2500    81.8628     7.2336     2.4198     0.1795     0.0544
  396.0000   -86.7647     8.4225     8.7576  -999.2500    84.8365     7.1132     2.3965     0.1613     0.0827
  396.5000   -86.7426     8.4811     8.7193  -999.2500    83.1678     7.1902     2.3818     0.1489     0.0962
  397.0000   -86.7204     8.5606     8.7766  -999.2500    81.1935     7.2728     2.4479     0.1365     0.0992
  397.5000   -86.6978     8.5566     8.8230  -999.2500    82.7470     7.3123     2.4611     0.1241     0.1006
  398.0000   -86.6743     8.5505     8.8698  -999.2500    85.0166     7.3055     2.4702     0.1205     0.0797
  398.5000   -86.6717     8.5444     8.9168  -999.2500    87.3323     7.2988     2.4793     0.1279     0.0580
  399.0000   -86.9255     8.5383     8.9641  -999.2500    88.6914     7.2934     2.4869     0.1320     0.0454
  399.5000   -87.1765     8.5322     9.0115  -999.2500    87.7908     7.3603     2.4749     0.1157     0.0407
  400.0000   -87.4258     8.5261     9.0449  -999.2500    84.9964     7.4242     2.4678     0.1193     0.0407
  400.5000   -87.6712     8.5200     9.0133  -999.2500    84.6095     7.4879     2.4837     0.1182     0.0371
  401.0000   -87.8487     8.5139     8.9889  -999.2500    84.5238     7.5382     2.4937     0.1153     0.0277
  401.5000   -87.8456     8.5078     8.9646  -999.2500    85.2828     7.5524     2.4923     0.1161     0.0178
  402.0000   -87.8448     8.5017     8.9403  -999.2500    86.1134     7.5675     2.4907     0.1185     0.0108
  402.5000   -88.1538     8.4957     8.9161  -999.2500    86.4665     7.5822     2.4890     0.1156     0.0144
  403.0000   -88.7324     8.4896     8.8920  -999.2500    85.6994     7.5949     2.4873     0.1103     0.0162
  403.5000   -89.2431     8.4835     8.8679  -999.2500    84.9416     7.6021     2.4878     0.1050     0.0179
  404.0000   -89.2237     8.4775     8.8439  -999.2500    83.9997     7.6095     2.4969     0.0997     0.0211
  404.5000   -89.2077     8.4714     8.8200  -999.2500    84.8396     7.6169     2.5060     0.0942     0.0184
  405.0000   -89.1936     8.4654     8.7962  -999.2500    86.9321     7.6242     2.5150     0.1043     0.0136
  405.5000   -89.1796     8.4593     8.7724  -999.2500    88.7199     7.6316     2.5246     0.1113     0.0091
  406.0000   -89.1656     8.4533     8.7486  -999.2500    88.8350     7.6390     2.5246     0.1118     0.0089
  406.5000   -89.1516     8.4472     8.7249  -999.2500    89.0017     7.6464     2.5080     0.1121     0.0088
  407.0000   -89.1376     8.4412     8.7013  -999.2500    89.3621     7.6537     2.4975     0.1134     0.0111
  407.5000   -89.1236     8.4352     8.6778  -999.2500    90.1669     7.6611     2.4965     0.1156     0.0109
  408.0000   -89.1096     8.4291     8.6542  -999.2500    90.9631     7.6684     2.4950     0.1157     0.0118
  408.5000   -89.0956     8.4231     8.6396  -999.2500    91.7544     7.6864     2.4935     0.1137     0.0131
  409.0000   -89.0816     8.4171     8.6395  -999.2500    92.2643     7.7112     2.4925     0.1149     0.0145
  409.5000   -89.0676     8.4113     8.6393  -999.2500    90.6920     7.7361     2.4934     0.1169     0.0159
  410.0000   -89.0536     8.4050     8.6401  -999.2500    88.4873     7.7610     2.4944     0.1149     0.0169
  410.5000   -89.0397     8.3658     8.5070  -999.2500    88.5879     7.7862     2.4938     0.1129     0.0167
  411.0000   -89.0315     8.3260     8.4118  -999.2500    89.5335     7.7901     2.4928     0.1145     0.0165
  411.5000   -89.0316     8.2865     8.3178  -999.2500    88.7638     7.7903     2.4919     0.1128     0.0162
  412.0000   -89.0312     8.2471     8.2249  -999.2500    88.0577     7.7803     2.4915     0.1102     0.0160
  412.5000   -89.0287     8.2079     8.1330  -999.2500    89.4221     7.7652     2.4944     0.1102     0.0158
  413.0000   -89.1372     8.1745     8.0422  -999.2500    89.5530     7.7452     2.4972     0.1104     0.0156
  413.5000   -89.2613     8.1631     7.9524  -999.2500    89.6138     7.7102     2.4996     0.1110     0.0154
  414.0000   -89.3873     8.1517     7.8652  -999.2500    91.4864     7.7053     2.4995     0.1124     0.0151
  414.5000   -89.4264     8.1403     7.7851  -999.2500    92.9411     7.6983     2.4993     0.1147     0.0149
  415.0000   -89.4270     8.1289     7.7058  -999.2500    90.8574     7.6906     2.4958     0.1169     0.0150
  415.5000   -89.4269     8.1177     7.6274  -999.2500    92.5072     7.6830     2.4925     0.1192     0.0133
  416.0000   -89.4269     8.1059     7.4785  -999.2500    95.9975     7.6753     2.4893     0.1214     0.0114
  416.5000   -89.4269     8.0320     7.2887  -999.2500    96.6351     7.6717     2.4861     0.1215     0.0096
  417.0000   -89.4269     7.9200     7.1046  -999.2500    94.3575     7.6638     2.4833     0.1195     0.0046
  417.5000   -89.4269     7.8102     6.9251  -999.2500    92.7932     7.6552     2.4818     0.1181     0.0005
  418.0000   -89.4269     7.7020     6.7502  -999.2500    92.2374     7.6466     2.4842     0.1227    -0.0009
  418.5000   -89.4269     7.5953     6.5797  -999.2500    92.5662     7.6380     2.4873     0.1251    -0.0023
  419.0000   -89.4269     7.4897     6.4135  -999.2500    91.9261     7.6294     2.4880     0.1249    -0.0018
  419.5000   -89.4269     7.3923     6.3246  -999.2500    88.9352     7.6208     2.4829     0.1216     0.0034
  420.0000   -89.4269     7.3550     6.3246  -999.2500    88.2706     7.6123     2.4785     0.1181     0.0071
  420.5000   -89.4277     7.3239     6.3246  -999.2500    87.6246     7.6037     2.4821     0.1181     0.0091
  421.0000   -89.4334     7.3238     6.4374  -999.2500    85.5959     7.5951     2.4859     0.1204     0.0111
  421.5000   -89.4391     7.4077     6.5454  -999.2500    85.0303     7.5865     2.4898     0.1226     0.0071
  422.0000   -89.4448     7.4739     6.6551  -999.2500    85.9273     7.5780     2.4870     0.1209     0.0034
  422.5000   -89.4506     7.5409     6.7667  -999.2500    85.2969     7.5725     2.4825     0.1217     0.0005
  423.0000   -89.4563     7.6084     6.8802  -999.2500    84.7914     7.5726     2.4810     0.1250    -0.0025
  423.5000   -89.4620     7.6766     6.9956  -999.2500    84.9014     7.5728     2.4832     0.1246    -0.0051
  424.0000   -89.4677     7.7389     7.1129  -999.2500    84.3445     7.5605     2.4815     0.1233    -0.0050
  424.5000   -89.4734     7.7482     7.1256  -999.2500    83.7570     7.5453     2.4780     0.1237    -0.0050
  425.0000   -89.4791     7.7582     7.0606  -999.2500    83.6447     7.5299     2.4770     0.1244    -0.0049
  425.5000   -89.4848     7.7684     7.0606  -999.2500    84.3180     7.5146     2.4777     0.1250    -0.0035
  426.0000   -89.4905     7.7786     7.0606  -999.2500    85.3726     7.4993     2.4783     0.1257    -0.0015
  426.5000   -89.4963     7.7889     7.0606  -999.2500    84.4389     7.4841     2.4782     0.1261     0.0002
  427.0000   -89.5020     7.7992     7.0606  -999.2500    85.3429     7.4692     2.4772     0.1217     0.0020
  427.5000   -89.5077     7.8096     7.0606  -999.2500    85.1671     7.4512     2.4775     0.1164     0.0030
  428.0000   -89.5134     7.8288     7.0605  -999.2500    82.9151     7.3697     2.4822     0.1132     0.0030
  428.5000   -89.5191     7.8545     7.0606  -999.2500    82.2968     7.2870     2.4868     0.1124     0.0030
  429.0000   -89.5248     7.8804     7.0606  -999.2500    82.4874     7.2048     2.4914     0.1130     0.0030
