~VERSION INFORMATION
 VERS.                2.0:   CWLS LOG ASCII STANDARD - VERSION 2.0
 WRAP.                 NO:   ONE LINE PER DEPTH STEP
~WELL INFORMATION
#MNEM.UNIT      DATA TYPE    INFORMATION
#----------   ------------   ------------------------------
 STRT.F            0.0000:   START DEPTH
 STOP.F          635.0000:   STOP DEPTH
 STEP.F            0.1000:   STEP LENGTH
 NULL.          -999.2500:   NO VALUE
 COMP.   FLUOR DANIEL INC:   COMPANY
 WELL. NAVAL PETROLEUM RESERVE 3 SX-3 #72-7-3:   WELL
 FLD .             TEAPOT:   FIELD
 LOC .       S3 T38N R78W:   LOCATION
 CNTY.            NATRONA:   COUNTY
 STAT.            WYOMING:   STATE
 CTRY. UNITED STATES OF AMERICA:   COUNTRY
 SRVC.      Western Atlas:   SERVICE COMPANY
 DATE.        11-JAN-1995:   LOGDATE
 API .       490252264900:   API NUMBER
~CURVE INFORMATION
#MNEM.UNIT       API CODE    CURVE DESCRIPTION
#----------   ------------   ------------------------------
 DEPT.F                  :   
 GRR .GAPI   07 310 01 00:   GAMMA RAY
 RILD.OHMM   07 120 46 00:   INDUCTION LOG DEEP RESISTIVITY
 RILM.OHMM   07 120 44 00:   RESITIVITY LONG MEDIUM
~PARAMETER INFORMATION
#MNEM.UNIT          VALUE    DESCRIPTION
#----------   ------------   ------------------------------
 PD  .                 GL:   PERMANENT DATUM
 EPD .F              5144:   ELEVATION PERMANENT DATUM
 LMF .                 KB:   LOG MEASURED FROM
 DAPD.F                10:   FEET ABOVE PERMANENT DATUM
 DMF .                 KB:   DRILLING MEASURED FROM
 EKB .F              5154:   KELLING BUSHING
 EDF .F              5153:   DRILLING FLOOR
 EGL .F              5144:   GROUND LEVEL
 DATE.        11-JAN-1995:   RUN DATE
 RUN .                  1:   RUN NUMBER
 DD  .F               641:   DEPTH DRILLER
 DL  .F               642:   DEPTH LOGGER
 BLI .F               635:   BOTTOM LOG INTERVAL
 CS  .IN            9.625:   CASING SIZE
 CBD .F                97:   CASING BOTTOM DRILLER
 CBL .F                97:   CASING BOTTOM LOGGER
 BS  .IN             8.75:   BIT SIZE
 BSD .F               641:   BIT SIZE AT DEPTH
 DFT .                AIR:   DRILLING FLUID TYPE
 MRT .F                89:   MAXIMUM RECORDED TEMPERATURE
 LUN .            HL 6530:   LOGGING UNIT NUMBER
 LUL .             CASPER:   LOGGING UNIT LOCATION
 ENGI.      PAT RASMUSSEN:   RECORDING ENGINEER
 WITN.        STEVE HARDY:   WITNESSED BY
 CLNT.            A2DTECH:   CLIENT CODE
 ORIG.           5" PRINT:   ORIGIN OF DATA
 UWI .       490252264900:   UNIQUE WELL ID
 DICO. A2D Technologies, Inc.:   DIGITIZING COMPANY
~OTHER INFORMATION
~A    DEPT      GRR      RILD       RILM   
# ...
  400.4000   107.8620     8.2105     8.2335
  400.5000   107.8641     8.2109     8.1985
  400.6000   107.8659     8.2114     8.1775
  400.7000   107.6645     8.2119     8.1588
  400.8000   107.4071     8.2124     8.1219
  400.9000   107.2671     8.2128     8.1223
  401.0000   107.2689     8.1818     8.1228
  401.1000   107.2391     8.1339     8.0799
  401.2000   106.9705     8.1011     8.0324
  401.3000   106.9722     8.0948     8.0122
  401.4000   106.7690     8.0460     7.9935
  401.5000   106.6737     7.9910     7.9465
  401.6000   106.6755     7.9913     7.8998
  401.7000   106.6773     7.9619     7.8490
  401.8000   106.6792     7.9153     7.8072
  401.9000   106.6810     7.8826     7.7614
  402.0000   106.6828     7.8831     7.7421
  402.1000   106.6846     7.8835     7.7426
  402.2000   106.5224     7.8840     7.7430
  402.3000   106.2650     7.8844     7.7434
  402.4000   106.0858     7.8848     7.7439
  402.5000   106.0171     7.8853     7.7443
  402.6000   105.4852     7.8857     7.7793
  402.7000   105.4874     7.8861     7.7991
  402.8000   105.2802     7.8866     7.7995
  402.9000   105.1885     7.9311     7.8116
  403.0000   105.0675     7.9423     7.8587
  403.1000   104.8900     7.9712     7.9098
  403.2000   104.8548     7.9984     7.9102
  403.3000   104.5916     8.0114     7.9822
  403.4000   104.2916     8.0595     8.0782
  403.5000   104.2931     8.1114     8.1753
  403.6000   104.2949     8.1565     8.2736
  403.7000   104.2967     8.2055     8.3731
  403.8000   104.2985     8.2260     8.4811
  403.9000   104.3003     8.2469     8.5285
  404.0000   104.3021     8.2964     8.5799
  404.1000   104.3043     8.3422     8.6316
  404.2000   104.3057     8.3427     8.6836
  404.3000   104.3075     8.4339     8.7498
  404.4000   104.1829     8.4600     8.8497
  404.5000   104.0091     8.4893     8.9065
  404.6000   104.0109     8.5403     8.9566
  404.7000   104.0127     8.5795     8.9694
  404.8000   104.3169     8.5800     8.9699
  404.9000   104.3184     8.5805     8.9704
  405.0000   104.4914     8.5810     8.9709
  405.1000   104.7525     8.5446     8.9714
  405.2000   105.0135     8.5226     8.9720
  405.3000   105.2745     8.5035     8.9724
  405.4000   105.5359     8.4428     8.9316
  405.5000   106.1423     8.3412     8.8472
  405.6000   106.3597     8.1774     8.7201
  405.7000   106.6207     8.0509     8.5802
  405.8000   106.8817     7.9095     8.4791
  405.9000   107.0556     7.7706     8.3740
  406.0000   107.0574     7.6507     8.1881
  406.1000   107.0606     7.5429     7.8866
  406.2000   107.3634     7.3693     7.5116
  406.3000   107.3650     7.2714     7.1018
  406.4000   107.5416     7.1243     6.6379
  406.5000   107.8027     6.9296     6.1095
  406.6000   107.9746     6.7276     5.9224
  406.7000   107.9764     6.5587     5.7574
  406.8000   107.9814     6.4292     5.5632
  406.9000   108.2824     6.2428     5.4278
  407.0000   108.5035     6.1170     5.3465
  407.1000   108.7645     6.0256     5.2744
  407.2000   109.0256     5.9198     5.1813
  407.3000   109.3775     5.8158     5.0863
  407.4000   109.8977     5.7367     5.0576
  407.5000   110.4180     5.7031     5.0279
  407.6000   111.0142     5.6697     4.9797
  407.7000   111.9011     5.6311     4.9483
  407.8000   112.7612     5.6035     4.9485
  407.9000   113.8118     5.5928     4.9528
  408.0000   115.1097     5.5766     4.9835
  408.1000   116.4574     5.5548     5.0185
  408.2000   117.9940     5.5498     5.0428
  408.3000   118.8818     5.5170     5.0732
  408.4000   119.5529     5.5174     5.1182
  408.5000   119.9718     5.4908     5.1798
  408.6000   120.2329     5.5011     5.2465
  408.7000   120.4939     5.5182     5.3435
  408.8000   120.7549     5.5185     5.4562
  408.9000   121.0073     5.5189     5.5362
  409.0000   121.0093     5.5192     5.6363
  409.1000   120.7859     5.5195     5.7381
  409.2000   120.5285     5.5198     5.8307
  409.3000   120.1319     5.5201     5.9061
  409.4000   119.6153     5.5358     6.0145
  409.5000   119.0986     5.5591     6.1841
  409.6000   118.5085     5.5594     6.3063
  409.7000   115.8860     5.5597     6.4335
  409.8000   115.4341     5.5918     6.5497
  409.9000   114.5497     5.6254     6.6809
  410.0000   111.9640     5.6591     6.8420
  410.1000   108.2736     5.6778     7.0086
  410.2000   105.1815     5.6974     7.1564
  410.3000   103.1587     5.7616     7.2632
  410.4000   102.0014     5.7980     7.4239
  410.5000   101.3172     5.8310     7.5580
  410.6000   100.5413     5.9206     7.6489
  410.7000    99.6228     6.0272     7.7485
  410.8000    98.8874     6.1519     7.8887
  410.9000    98.6300     6.2792     7.9994
  411.0000    98.3726     6.3662     8.1198
  411.1000    98.0866     6.5709     8.2336
  411.2000    97.8578     6.7560     8.3577
  411.3000    97.7879     6.9918     8.5087
  411.4000    97.9344     7.3511     8.6534
  411.5000    98.1954     7.8414     8.7574
  411.6000    98.4564     8.3253     8.8799
  411.7000    98.7334     8.5849     8.9695
  411.8000    99.3077     8.9791     9.0410
  411.9000    99.7738     9.3812     9.0955
  412.0000   100.4833     9.6196     9.1503
  412.1000   101.1164     9.7590     9.2054
  412.2000   101.2226     9.8517     9.2608
  412.3000   100.6453     9.9108     9.3252
  412.4000    99.8694     9.9660     9.3728
  412.5000    99.0183     9.9667     9.3911
  412.6000    98.7859     9.9672     9.4205
  412.7000    98.5285     9.9677     9.4575
  412.8000    98.1228     9.9683     9.4580
  412.9000    97.7116     9.9688     9.4596
  413.0000    97.4542     9.9694     9.5250
  413.1000    97.2162     9.9699     9.5254
  413.2000    97.2183     9.9705     9.5260
  413.3000    97.2199     9.9710     9.5265
  413.4000    97.2217     9.9292     9.5270
  413.5000    97.3736     9.9033     9.5276
  413.6000    97.6347     9.8815     9.5281
  413.7000    97.8314     9.8237     9.5287
  413.8000    97.8759     9.7661     9.5780
  413.9000    98.4394     9.7017     9.6358
  414.0000    98.9164     9.7022     9.6633
  414.1000    99.4366     9.6624     9.6639
  414.2000    99.9569     9.6362     9.6758
  414.3000    99.8234     9.6368     9.7322
  414.4000    98.9204     9.6373     9.7328
  414.5000    98.3806     9.6410     9.7836
  414.6000    97.5458     9.7730     9.8426
  414.7000    97.0684     9.7734     9.9019
  414.8000    96.5519     9.8544     9.9615
  414.9000    96.1889     9.9109    10.0215
  415.0000    95.8208     9.9530    10.0866
  415.1000    95.4399    10.0722    10.2921
  415.2000    95.4417    10.1927    10.4547
  415.3000    95.4436    10.3341    10.6891
  415.4000    95.2040    10.4387    10.9832
  415.5000    95.1450    10.5638    11.3676
  415.6000    95.1468    10.7227    11.8354
  415.7000    95.0360    10.9156    12.2582
  415.8000    94.8483    11.1007    12.5899
  415.9000    94.8502    11.2339    12.7233
  416.0000    94.8521    11.3915    12.9873
  416.1000    94.8538    11.5616    13.3010
  416.2000    94.6554    11.7698    13.5590
  416.3000    94.2407    12.0526    13.7401
  416.4000    93.6096    12.3674    13.9971
  416.5000    91.7611    12.6013    14.4687
  416.6000    86.9824    12.9091    14.7794
  416.7000    80.9675    13.0901    15.1365
  416.8000    79.4995    13.2821    15.5020
  416.9000    77.5423    13.5213    15.8762
  417.0000    74.3569    13.8041    16.3041
  417.1000    70.9352    14.1097    16.8774
  417.2000    68.3054    14.3634    17.2147
  417.3000    66.1422    14.6299    17.4933
  417.4000    63.1554    14.9712    17.6550
  417.5000    58.4691    15.3317    17.7614
  417.6000    54.9726    15.6415    17.8684
  417.7000    52.6685    15.8791    17.9760
  417.8000    50.9740    16.0693    18.0842
  417.9000    49.1204    16.2617    18.2039
  418.0000    46.7876    16.4656    18.2048
  418.1000    46.2496    16.7485    18.2858
  418.2000    46.0028    16.9707    18.3336
  418.3000    45.9511    17.1741    18.3346
  418.4000    46.2784    17.3799    18.3356
  418.5000    46.7986    17.5589    18.3366
