~VERSION INFORMATION
 VERS.                2.0:   CWLS LOG ASCII STANDARD - VERSION 2.0
 WRAP.                 NO:   ONE LINE PER DEPTH STEP
~WELL INFORMATION
#MNEM.UNIT      DATA TYPE    INFORMATION
#----------   ------------   ------------------------------
 STRT.F            0.0000:   START DEPTH
 STOP.F          890.0000:   STOP DEPTH
 STEP.F            0.1000:   STEP LENGTH
 NULL.          -999.2500:   NO VALUE
 COMP.   FLUOR DANIEL INC:   COMPANY
 WELL.   35-1 X 14 #35-14:   WELL
 FLD .             TEAPOT:   FIELD
 LOC .      S14 T38N R78W:   LOCATION
 CNTY.            NATRONA:   COUNTY
 STAT.            WYOMING:   STATE
 CTRY. UNITED STATES OF AMERICA:   COUNTRY
 SRVC.      Western Atlas:   SERVICE COMPANY
 DATE.        23-JUL-1995:   LOGDATE
 API .       490252273300:   API NUMBER
~CURVE INFORMATION
#MNEM.UNIT       API CODE    CURVE DESCRIPTION
#----------   ------------   ------------------------------
 DEPT.F                  :   
 RILM.OHMM   07 120 44 00:   RESITIVITY LONG MEDIUM
 RILD.OHMM   07 120 46 00:   INDUCTION LOG DEEP RESISTIVITY
 GRR .GAPI   07 310 01 00:   GAMMA RAY
~PARAMETER INFORMATION
#MNEM.UNIT          VALUE    DESCRIPTION
#----------   ------------   ------------------------------
 PD  .                 GL:   PERMANENT DATUM
 EPD .F              5238:   ELEVATION PERMANENT DATUM
 LMF .                 KB:   LOG MEASURED FROM
 DAPD.F                10:   FEET ABOVE PERMANENT DATUM
 DMF .                 KB:   DRILLING MEASURED FROM
 EKB .F              5248:   KELLING BUSHING
 EDF .F              5247:   DRILLING FLOOR
 EGL .F              5238:   GROUND LEVEL
 DATE.        23-JUL-1995:   RUN DATE
 RUN .                  1:   RUN NUMBER
 DD  .F               898:   DEPTH DRILLER
 DL  .F               898:   DEPTH LOGGER
 BLI .F               890:   BOTTOM LOG INTERVAL
 CS  .IN            9.625:   CASING SIZE
 CBD .F                78:   CASING BOTTOM DRILLER
 CBL .F                80:   CASING BOTTOM LOGGER
 BS  .IN             8.75:   BIT SIZE
 BSD .F               898:   BIT SIZE AT DEPTH
 DFT .                AIR:   DRILLING FLUID TYPE
 MRT .F                94:   MAXIMUM RECORDED TEMPERATURE
 LUN .            HL 6530:   LOGGING UNIT NUMBER
 LUL .             CASPER:   LOGGING UNIT LOCATION
 ENGI.       VERRN RAUTIO:   RECORDING ENGINEER
 WITN.        GARY STRONG:   WITNESSED BY
 CLNT.            A2DTECH:   CLIENT CODE
 ORIG.           5" PRINT:   ORIGIN OF DATA
 UWI .       490252273300:   UNIQUE WELL ID
 DICO. A2D Technologies, Inc.:   DIGITIZING COMPANY
~OTHER INFORMATION
~A    DEPT    RILM       RILD         GRR  
# ...
  236.6000    15.4030    15.4022   101.2544
  236.7000    15.4747    15.4035   102.2774
  236.8000    15.5122    15.4136   103.7682
  236.9000    15.5508    15.5135   104.4018
  237.0000    15.6221    15.5147   105.0030
  237.1000    15.6271    15.5829   105.3976
  237.2000    15.7329    15.6254   105.5855
  237.3000    15.7337    15.6604   105.5867
  237.4000    15.7973    15.7540   105.5880
  237.5000    15.8452    15.8480   105.3625
  237.6000    15.8750    15.8496   105.2882
  237.7000    15.9693    15.9269   105.0272
  237.8000    16.0698    16.0221   104.6030
  237.9000    16.0706    16.1178   104.2785
  238.0000    16.1433    16.2140   103.4804
  238.1000    16.2392    16.3108   103.4816
  238.2000    16.2983    16.4178   103.2882
  238.3000    16.3190    16.4190   103.0350
  238.4000    16.4159    16.4900   102.8810
  238.5000    16.5294    16.5362   102.8822
  238.6000    16.5301    16.5720   102.8834
  238.7000    16.5948    16.6709   102.8848
  238.8000    16.6935    16.7717   102.8858
  238.9000    16.7644    16.7734   103.0496
  239.0000    16.7754    16.8540   103.1903
  239.1000    16.8833    16.9547   103.2586
  239.2000    16.9755    17.0120   103.4949
  239.3000    17.0028    17.0390   103.4962
  239.4000    17.0038    17.1408   103.9493
  239.5000    17.0415    17.2545   104.4592
  239.6000    17.1428    17.2557   104.7082
  239.7000    17.2447    17.2572   104.8750
  239.8000    17.2458    17.3119   105.3849
  239.9000    17.3295    17.3804   105.9203
  240.0000    17.3679    17.3980   106.1631
  240.1000    17.4147    17.5045   106.4187
  240.2000    17.4910    17.5059   106.5281
  240.3000    17.4920    17.5073   106.5293
  240.4000    17.4930    17.5716   106.4289
  240.5000    17.5862    17.6323   105.9245
  240.6000    17.6169    17.6338   105.6268
  240.7000    17.6179    17.6352   104.9988
  240.8000    17.6189    17.6369   103.9130
  240.9000    17.6198    17.6382   102.5281
  241.0000    17.6208    17.6397   101.0696
  241.1000    17.6218    17.6411    99.8177
  241.2000    17.6228    17.6426    98.6853
  241.3000    17.6238    17.6441    98.6864
  241.4000    17.6247    17.6456    98.8653
  241.5000    17.6257    17.6470    98.9909
  241.6000    17.6267    17.6485    98.9921
  241.7000    17.6278    17.5884    98.9933
  241.8000    17.6287    17.5292    98.9946
  241.9000    17.6171    17.5307    98.9958
  242.0000    17.5999    17.5322    99.1903
  242.1000    17.5826    17.5338    99.3003
  242.2000    17.5654    17.5351    99.3015
  242.3000    17.5482    17.5365    99.3529
  242.4000    17.5310    17.5380    99.6085
  242.5000    17.5134    17.5071    99.9096
  242.6000    17.5143    17.4193    99.9106
  242.7000    17.5153    17.4210   100.0731
  242.8000    17.4535    17.4224   100.3287
  242.9000    17.3959    17.4239   100.5184
  243.0000    17.3969    17.3658   100.5378
  243.1000    17.3917    17.3061   100.8231
  243.2000    17.2784    17.3076   101.0489
  243.3000    17.2793    17.3055   101.1275
  243.4000    17.2802    17.1909   101.2580
  243.5000    17.2297    17.1921   101.5136
  243.6000    17.1624    17.1935   101.7353
  243.7000    17.1492    17.1461   101.7366
  243.8000    17.0455    17.0774   101.9782
  243.9000    17.0464    17.0788   102.0411
  244.0000    16.9702    17.0803   102.0423
  244.1000    16.9302    16.9880   101.9462
  244.2000    16.8909    16.9648   101.6931
  244.3000    16.8148    16.9095   101.4399
  244.4000    16.8157    16.8502   101.1410
  244.5000    16.8168    16.8314   100.3082
  244.6000    16.7336    16.7342    99.1312
  244.7000    16.7020    16.6221    97.8605
  244.8000    16.6554    16.6233    96.5896
  244.9000    16.5882    16.5608    95.3716
  245.0000    16.5776    16.5110    94.8038
  245.1000    16.4751    16.5123    94.5807
  245.2000    16.4760    16.5033    94.5039
  245.3000    16.4046    16.4009    94.5051
  245.4000    16.3637    16.4021    94.5873
  245.5000    16.3279    16.4035    94.9426
  245.6000    16.2520    16.3513    96.0194
  245.7000    16.2530    16.2927    96.9801
  245.8000    16.1415    16.2757    98.1910
  245.9000    16.1423    16.1826    99.4641
  246.0000    16.0820    16.1842   100.5438
  246.1000    16.0322    16.1853   101.2103
  246.2000    16.0069    16.1257   101.4659
  246.3000    15.9229    16.0759   101.7682
  246.4000    15.9239    16.0773   101.7692
  246.5000    15.8398    16.0697   101.6103
  246.6000    15.7479    15.9688   101.3571
  246.7000    15.7066    15.9700   101.1686
  246.8000    15.6744    15.9713   101.1529
  246.9000    15.5835    15.9726   100.8690
  247.0000    15.4923    15.9740   100.8701
  247.1000    15.4934    15.9585   100.8713
  247.2000    15.4208    15.8661   100.8725
  247.3000    15.3314    15.8676   100.8737
  247.4000    15.2818    15.7931   100.9075
  247.5000    15.2598    15.7602   101.1783
  247.6000    15.1776    15.7202   101.6580
  247.7000    15.1786    15.6294   102.1680
  247.8000    15.1004    15.5465   102.8218
  247.9000    15.0129    15.5481   103.4900
  248.0000    14.9258    15.5492   103.9517
  248.1000    14.8686    15.4854   104.2066
  248.2000    14.8561    15.4442   104.2081
  248.3000    14.7672    15.4138   104.2091
  248.4000    14.6843    15.3248   104.2103
  248.5000    14.6666    15.2349   104.2115
  248.6000    14.6158    15.1310   104.1486
  248.7000    14.5310    15.1320   103.8955
  248.8000    14.4665    15.0241   103.6110
  248.9000    14.4631    14.8877   103.3891
  249.0000    14.3680    14.7800   103.1360
  249.1000    14.2399    14.6085   103.0103
  249.2000    14.0919    14.4200   103.0115
  249.3000    13.9439    14.3462   103.0447
  249.4000    13.7841    14.2049   103.3161
  249.5000    13.7106    14.0403   103.5559
  249.6000    13.5145    13.8503   104.3843
  249.7000    13.3220    13.6215   104.9734
  249.8000    13.1391    13.4590   105.3245
  249.9000    12.9102    13.2321   105.8344
  250.0000    12.6851    13.0024   106.3444
  250.1000    12.5108    12.8216   106.6480
  250.2000    12.3114    12.6419   107.0623
  250.3000    12.0670    12.4220   107.5722
  250.4000    11.8227    12.2038   107.9710
  250.5000    11.5783    11.9570   108.1631
  250.6000    11.3378    11.7101   108.1486
  250.7000    11.1201    11.4633   107.8636
  250.8000    10.8897    11.2223   107.6423
  250.9000    10.6796    11.0137   107.3891
  251.0000    10.4884    10.7771   107.1359
  251.1000    10.2971    10.5280   106.9619
  251.2000    10.0907    10.2511   106.9946
  251.3000     9.8540    10.0197   107.2665
  251.4000     9.6209     9.8991   107.2677
  251.5000     9.3583     9.7785   107.2689
  251.6000     9.2227     9.6576   107.5553
  251.7000     9.0957     9.3938   108.1601
  251.8000     8.9890     9.2129   109.0770
  251.9000     8.8836     8.9978   110.6650
  252.0000     8.7713     8.8124   112.4373
  252.1000     8.6149     8.6576   112.6697
  252.2000     8.4382     8.5055   112.9325
  252.3000     8.3165     8.3517   113.0488
  252.4000     8.1702     8.1802   112.9466
  252.5000     8.0036     8.0870   112.4999
  252.6000     7.8452     7.9704   111.4400
  252.7000     7.7463     7.8539   110.0380
  252.8000     7.6077     7.7373   109.3213
  252.9000     7.5036     7.6291   108.3450
  253.0000     7.3959     7.5822   107.6184
  253.1000     7.2937     7.4983   107.2145
  253.2000     7.2082     7.4106   107.0292
  253.3000     7.1369     7.3238   107.0317
  253.4000     7.0891     7.2380   107.0343
  253.5000     7.0043     7.1642   107.2860
  253.6000     6.9567     7.1186   107.7563
  253.7000     6.8904     7.0286   108.2794
  253.8000     6.8357     6.9909   109.1741
  253.9000     6.7766     6.9195   110.5603
  254.0000     6.7095     6.8618   112.2460
  254.1000     6.6703     6.8218   114.6047
  254.2000     6.6306     6.7820   117.9309
  254.3000     6.5855     6.7424   119.4522
  254.4000     6.5544     6.6989   121.4521
  254.5000     6.5163     6.6289   123.1369
  254.6000     6.4966     6.6076   124.3494
  254.7000     6.4855     6.5865   125.3932
