~VERSION INFORMATION
 VERS.                2.0:   CWLS LOG ASCII STANDARD - VERSION 2.0
 WRAP.                 NO:   ONE LINE PER DEPTH STEP
~WELL INFORMATION
#MNEM.UNIT      DATA TYPE    INFORMATION
#----------   ------------   ------------------------------
 STRT.F            3.0000:   START DEPTH
 STOP.F         3449.0000:   STOP DEPTH
 STEP.F            0.5000:   STEP LENGTH
 NULL.          -999.2500:   NO VALUE
 COMP. LAWRENCE/ALLISON INC:   COMPANY
 WELL.       NPR 3 #24-10:   WELL
 FLD .             TEAPOT:   FIELD
 LOC .      S10 T38N R78W:   LOCATION
 CNTY.            NATRONA:   COUNTY
 STAT.            WYOMING:   STATE
 CTRY. UNITED STATES OF AMERICA:   COUNTRY
 SRVC.      Dresser Atlas:   SERVICE COMPANY
 DATE.        28-JUL-1985:   LOGDATE
 API .       490251104400:   API NUMBER
~CURVE INFORMATION
#MNEM.UNIT       API CODE    CURVE DESCRIPTION
#----------   ------------   ------------------------------
 DEPT.F                  :   
 PORD.DEC    45 890 12 00:   POROSITY DENSITY SANDSTONE
 CNC .DEC    42 890 03 00:   NEUTRON POROSITY SANDSTONE
 CORR.G/C3   45 356 01 00:   DENSITY CORRECTION
 DEN .G/C3   45 350 01 00:   COMPENSATED BULK DENSTIY
 AC  .US/F   60 520 00 00:   ACCOUSTIC
 CALR.IN     07 280 01 00:   CALIPER FROM RESISTIVITY
 GRR .GAPI   07 310 01 00:   GAMMA RAY
 RFOC.OHMM   07 220 04 00:   RESISTIVITY FOCUSED LOG
 RILD.OHMM   07 120 46 00:   INDUCTION LOG DEEP RESISTIVITY
 RILM.OHMM   07 120 44 00:   INDUCTION LOG MEDIUM RESISTIVITY
 SPR .MV     07 010 01 00:   SPONTANEOUS POTENTIAL
~PARAMETER INFORMATION
#MNEM.UNIT          VALUE    DESCRIPTION
#----------   ------------   ------------------------------
 PD  .                 GL:   PERMANENT DATUM
 EPD .F              5242:   ELEVATION PERMANENT DATUM
 LMF .                 KB:   LOG MEASURED FROM
 DAPD.F                13:   FEET ABOVE PERMANENT DATUM
 DMF .                 KB:   DRILLING MEASURED FROM
 EKB .F              5255:   KELLING BUSHING
 EGL .F              5242:   GROUND LEVEL
 DATE.        28-JUL-1985:   RUN DATE
 RUN .                  1:   RUN NUMBER
 DD  .F              3451:   DEPTH DRILLER
 DL  .F              3451:   DEPTH LOGGER
 BLI .F              3449:   BOTTOM LOG INTERVAL
 CS  .IN            8.625:   CASING SIZE
 CBD .F               688:   CASING BOTTOM DRILLER
 CBL .F               686:   CASING BOTTOM LOGGER
 BS  .IN            7.875:   BIT SIZE
 BSD .F              3451:   BIT SIZE AT DEPTH
 DFT .            KCL GEL:   DRILLING FLUID TYPE
 DFD .                8.9:   DRILLING FLUID DENSITY
 DFV .                 40:   DRILLING FLUID VISCOSITY
 DFPH.                8.0:   DRILLING FLUID PH
 DFL .                 10:   DRILLING FLUID LOSS
 MSS .           FLOWLINE:   MUD SAMPLE SOURCE
 RMS .OHMM           0.87:   RESISTIVITY MUD SAMPLE
 MST .F                92:   MUD SAMPLE TEMPERATURE
 RMF .OHMM             65:   RESISTIVITY MUD FILTRATE SAMPLE
 MFST.F                92:   MUD FILTRATE SAMPLE TEMPERATURE
 RMC .OHMM           1.09:   RESISTIVITY MUD CAKE
 MCST.F                92:   MUD CAKE SAMPLE TEMPERATURE
 MFSS.               CALC:   MUD FILTRATE SAMPLE SOURCE
 MCSS.               CALC:   MUD CAKE SAMPLE SOURCE
 RMB .OHMM            .66:   RESISTIVITY MUD AT BHT
 BHT .F               121:   BOTTOM HOLE TEMPERATURE
 TCS .HRS               4:   TIME CURCULATED STOPPED
 MRT .F               121:   MAXIMUM RECORDED TEMPERATURE
 LUN .               6264:   LOGGING UNIT NUMBER
 LUL .               GLTE:   LOGGING UNIT LOCATION
 ENGI.           FAHLSING:   RECORDING ENGINEER
 WITN.             STRONG:   WITNESSED BY
 CLNT.            A2DTECH:   CLIENT CODE
 ORIG.        2" 5" PRINT:   ORIGIN OF DATA
 UWI .       490251104400:   UNIQUE WELL ID
 DICO. A2D Technologies, Inc.:   DIGITIZING COMPANY
 R1  . POROSITY WITH SANDSTONE:   REMARKS 1
~OTHER INFORMATION
~A    DEPT    PORD        CNC       CORR        DEN         AC       CALR         GRR      RFOC       RILD       RILM        SPR   
# ...
 3236.0000     0.0854     0.2578     0.0985     2.5069    87.0911     8.1762   117.3579     3.6345     2.6867     2.9724   -32.8313
 3236.5000     0.0860     0.2566     0.0900     2.5054    87.2544     8.1760   117.8126     3.4852     2.6495     2.9105   -33.1325
 3237.0000     0.0873     0.2632     0.0839     2.5002    87.6232     8.1759   118.0411     3.3654     2.6128     2.8698   -33.2831
 3237.5000     0.0906     0.2708     0.0779     2.4889    87.9998     8.1757   116.6858     3.3413     2.5946     2.8297   -33.2831
 3238.0000     0.0987     0.2729     0.0719     2.4769    88.5865     8.1605   115.7825     3.3404     2.5586     2.7901   -33.1325
 3238.5000     0.1081     0.2708     0.0599     2.4671    89.0357     8.1603   115.1066     3.2707     2.5407     2.7510   -32.9819
 3239.0000     0.1126     0.2696     0.0539     2.4641    89.5602     8.1451   114.8820     3.2024     2.5406     2.7315   -32.8313
 3239.5000     0.1105     0.2678     0.0599     2.4671    89.4827     8.1449   115.1111     3.2238     2.5404     2.7309   -33.2831
 3240.0000     0.1074     0.2609     0.0720     2.4709    89.3299     8.1297   118.0545     3.2907     2.5226     2.7114   -33.5843
 3240.5000     0.1079     0.2585     0.0750     2.4725    89.1772     8.1295   120.7717     3.3127     2.5225     2.7109   -33.7349
 3241.0000     0.1113     0.2679     0.0359     2.4672    89.3255     8.1294   122.5838     3.3118     2.5223     2.7103   -33.7349
 3241.5000     0.1142     0.2811     0.0058     2.4620    89.7747     8.1292   121.9073     3.2653     2.4874     2.7098   -33.7349
 3242.0000     0.1160     0.2874     0.0193     2.4590    90.0734     8.1291   122.8146     3.2194     2.4529     2.6905   -33.4924
 3242.5000     0.1169     0.2823     0.0465     2.4582    90.2222     8.1289   125.7580     3.1728     2.4358     2.6713   -33.3101
 3243.0000     0.1170     0.2766     0.0665     2.4583    90.2195     8.1288   128.2489     3.1296     2.4188     2.6339   -33.1325
 3243.5000     0.1146     0.2827     0.0736     2.4583    90.3677     8.1286   128.2229     3.1071     2.4019     2.5971   -33.2831
 3244.0000     0.1098     0.2917     0.0676     2.4644    90.4413     8.1436   122.2798     3.1279     2.3668     2.5608   -33.2831
 3244.5000     0.1107     0.2921     0.0948     2.4689    90.8147     8.1434   119.6320     3.1486     2.3333     2.5249   -33.2831
 3245.0000     0.1146     0.2833     0.1023     2.4650    91.2639     8.1433   120.7161     3.1260     2.2874     2.4724   -33.2831
 3245.5000     0.1176     0.2809     0.0951     2.4584    91.7132     8.1431   124.4145     3.0396     2.2715     2.4548   -33.4337
 3246.0000     0.1210     0.2806     0.0677     2.4524    92.2376     8.1430   126.4529     2.9556     2.2556     2.4373   -33.5843
 3246.5000     0.1225     0.2787     0.0647     2.4486    92.4617     8.1278   124.6452     2.9344     2.2398     2.4199   -33.7349
 3247.0000     0.1228     0.2765     0.0662     2.4472    92.4589     8.1274   122.6112     2.9133     2.2397     2.3861   -33.5843
 3247.5000     0.1228     0.2888     0.0722     2.4479    92.2309     8.0973   121.2560     2.9534     2.2241     2.3527   -33.4337
 3248.0000     0.1231     0.2936     0.0813     2.4480    91.8524     8.0821   123.9731     3.0144     2.1781     2.3197   -33.2831
 3248.5000     0.1298     0.2864     0.0858     2.4382    91.5492     8.0668   128.0478     3.0559     2.1330     2.3032   -33.2831
 3249.0000     0.1376     0.2861     0.0798     2.4284    91.3213     8.0666   131.8962     3.0763     2.1181     2.2868   -33.5843
 3249.5000     0.1425     0.2910     0.0572     2.4126    91.9210     8.0665   135.0658     2.9093     2.1033     2.2863   -33.8855
 3250.0000     0.1428     0.2949     0.0357     2.4104    93.1227     8.0668   137.1042     2.7136     2.1061     2.3017   -33.8855
 3250.5000     0.1317     0.2915     0.0226     2.4266    93.6471     8.0712   128.2830     2.5845     2.1475     2.3174   -33.8855
 3251.0000     0.1214     0.2848     0.0377     2.4409    93.6337     8.0756   116.5205     2.7310     2.2233     2.3656   -33.7349
 3251.5000     0.1149     0.2753     0.0543     2.4566    92.8145     8.0800   114.0340     2.8860     2.2859     2.5001   -33.7349
 3252.0000     0.1070     0.2659     0.0574     2.4681    91.3074     8.0827   114.2625     2.9737     2.3831     2.7547   -33.5843
 3252.5000     0.0970     0.2564     0.0544     2.4869    89.9507     8.0981   113.1335     3.0734     2.5017     3.0454   -33.2831
 3253.0000     0.0931     0.2496     0.0514     2.4950    88.5189     8.1134   112.2308     3.3399     2.6263     3.2983   -33.1325
 3253.5000     0.0922     0.2481     0.0544     2.4980    86.7108     8.1439   114.9802     3.9720     2.7762     3.3668   -32.8313
 3254.0000     0.0934     0.2514     0.0876     2.4912    84.3008     8.1593   122.3421     4.3465     3.0174     3.4369   -32.5301
 3254.5000     0.0971     0.2610     0.1057     2.4830    82.6432     8.1898   133.3422     4.2567     3.2794     3.5085   -32.3795
 3255.0000     0.1004     0.2611     0.1178     2.4822    82.5662     8.2202   141.1607     3.8093     3.4667     3.6316   -32.2289
 3255.5000     0.0947     0.2557     0.1223     2.4921    84.2188     8.2054   143.9162     3.5293     3.6646     3.8117   -32.2289
 3256.0000     0.0850     0.2464     0.1043     2.5139    84.9691     8.1605   125.5932     3.6790     3.9008     4.0285   -32.2289
 3256.5000     0.0727     0.2166     0.0983     2.5283    84.4402     8.1306   111.7945     4.3450     4.1523     4.3774   -32.2289
 3257.0000     0.0709     0.2064     0.0968     2.5321    82.6243     8.1008   105.0094     4.9566     4.3590     4.7567   -32.2289
 3257.5000     0.0697     0.2049     0.0983     2.5343    81.2983     8.0709   103.4279     5.3122     4.5760     5.0272   -32.2289
 3258.0000     0.0673     0.2040     0.0999     2.5374    79.1143     8.0561   101.1677     5.4235     4.9049     5.1677   -32.2572
 3258.5000     0.0658     0.1992     0.0969     2.5382    77.7340     8.0564    97.5500     5.4232     5.2574     5.2753   -32.3795
 3259.0000     0.0643     0.1986     0.0849     2.5389    77.2050     8.0567    96.4211     5.5763     5.3681     5.2742   -32.5301
 3259.5000     0.0619     0.2028     0.0683     2.5427    77.0523     8.0570    98.2332     5.7337     5.3681     5.3099   -32.5301
 3260.0000     0.0595     0.2086     0.0623     2.5488    76.7491     8.0573    98.8892     5.8114     5.3681     5.3457   -32.5365
 3260.5000     0.0595     0.2146     0.0759     2.5496    76.7469     8.0576    98.8310     5.8515     5.3681     5.3446   -32.6139
 3261.0000     0.0628     0.2185     0.0805     2.5458    76.7447     8.0595    99.5933     5.8511     5.3309     5.3435   -32.6913
 3261.5000     0.0695     0.2231     0.0760     2.5338    76.7425     8.0733   100.8362     5.8051     5.2941     5.3796   -32.7687
 3262.0000     0.0779     0.2252     0.0760     2.5196    76.7403     8.0736   101.9742     5.6844     5.2574     5.3785   -32.8167
 3262.5000     0.0834     0.2194     0.0791     2.5090    77.2648     8.0739   103.3384     5.5277     5.3309     5.4149   -32.8121
 3263.0000     0.0840     0.2124     0.0806     2.5083    78.6170     8.0742   104.9288     5.3013     5.4054     5.5274   -32.8083
 3263.5000     0.0775     0.2024     0.0761     2.5166    79.4424     8.0746   106.0668     5.1268     5.4431     5.6425   -32.8046
 3264.0000     0.0652     0.1846     0.0701     2.5370    79.0478     8.0749   103.3586     4.9862     5.4431     5.8406   -32.8009
 3264.5000     0.0584     0.1856     0.0626     2.5528    77.3394     8.0600   101.5554     6.0966     5.3681     6.0037   -32.7971
 3265.0000     0.0674     0.1910     0.0535     2.5438    74.9958     8.0604   102.6934     7.6640     5.3681     6.1715   -32.7934
 3265.5000     0.0756     0.2000     0.0476     2.5258    73.8649     8.0607   105.8675     8.2139     5.3309     5.9598   -32.7897
 3266.0000     0.0801     0.2124     0.0527     2.5145    74.3894     8.0458   109.2680     7.1495     5.2941     5.6367   -32.7859
