~VERSION INFORMATION
 VERS.                2.0:   CWLS LOG ASCII STANDARD - VERSION 2.0
 WRAP.                 NO:   ONE LINE PER DEPTH STEP
~WELL INFORMATION
#MNEM.UNIT      DATA TYPE    INFORMATION
#----------   ------------   ------------------------------
 STRT.F          714.0000:   START DEPTH
 STOP.F         2268.0000:   STOP DEPTH
 STEP.F            0.5000:   STEP LENGTH
 NULL.          -999.2500:   NO VALUE
 COMP. LAWRENCE/ALLISON INC:   COMPANY
 WELL. 25-1-STX 10 #25-10:   WELL
 FLD .             TEAPOT:   FIELD
 LOC .      S10 T38N R78W:   LOCATION
 CNTY.            NATRONA:   COUNTY
 STAT.            WYOMING:   STATE
 CTRY. UNITED STATES OF AMERICA:   COUNTRY
 SRVC.            Unknown:   SERVICE COMPANY
 DATE.        07-JUN-1991:   LOGDATE
 API .       490251091300:   API NUMBER
~CURVE INFORMATION
#MNEM.UNIT       API CODE    CURVE DESCRIPTION
#----------   ------------   ------------------------------
 DEPT.F                  :   
 TGAS.UNITS  91 830 01 00:   TOTAL GAS FROM HOTWIRE
 ROP .MIN/FT 91 810 01 00:   RATE OF DRILLING PENETRATION
~PARAMETER INFORMATION
#MNEM.UNIT          VALUE    DESCRIPTION
#----------   ------------   ------------------------------
 EKB .F              5243:   KELLING BUSHING
 EGL .F              5233:   GROUND LEVEL
 DATE.             6-8-91:   RUN DATE
 BLI .F              2280:   BOTTOM LOG INTERVAL
 TLI .F              1680:   TOP LOG INTERVAL
 CS  .IN            9.625:   CASING SIZE
 CBD .F               740:   CASING BOTTOM DRILLER
 ENGI.              TOWER:   RECORDING ENGINEER
 WITN.               HUSK:   WITNESSED BY
 CLNT.            A2DTECH:   CLIENT CODE
 ORIG.           5" PRINT:   ORIGIN OF DATA
 UWI .       490251091300:   UNIQUE WELL ID
 DICO. A2D Technologies, Inc.:   DIGITIZING COMPANY
~OTHER INFORMATION
~A   DEPT     TGAS          ROP 
# ...
 1807.5000     1.4830     0.6447
 1808.0000     1.4892     0.6440
 1808.5000     1.4954     0.6432
 1809.0000     1.5017     0.6425
 1809.5000     1.5079     0.6418
 1810.0000     1.5141     0.6517
 1810.5000     1.5204     0.6620
 1811.0000     1.5266     0.6830
 1811.5000     1.5328     0.7037
 1812.0000     1.5391     0.7030
 1812.5000     1.5453     0.7240
 1813.0000     1.5516     0.7356
 1813.5000     1.5578     0.7442
 1814.0000     1.5640     0.7543
 1814.5000     1.5703     0.7534
 1815.0000     1.5765     0.7527
 1815.5000     1.5827     0.7411
 1816.0000     1.5890     0.7181
 1816.5000     1.5952     0.6635
 1817.0000     1.6014     0.6738
 1817.5000     1.6077     0.6729
 1818.0000     1.6139     0.6722
 1818.5000     1.6201     0.6606
 1819.0000     1.6264     0.6599
 1819.5000     1.6326     0.6591
 1820.0000     1.6389     0.6582
 1820.5000     1.6451     0.6466
 1821.0000     1.6513     0.6242
 1821.5000     1.6576     0.6018
 1822.0000     1.6638     0.6010
 1822.5000     1.6700     0.6003
 1823.0000     1.6763     0.6113
 1823.5000     1.6825     0.6529
 1824.0000     1.6887     0.7064
 1824.5000     1.6950     0.7275
 1825.0000     1.7012     0.7158
 1825.5000     1.7074     0.7150
 1826.0000     1.7137     0.7143
 1826.5000     1.7199     0.7136
 1827.0000     1.7262     0.7237
 1827.5000     1.7324     0.7228
 1828.0000     1.7386     0.7329
 1828.5000     1.7449     0.7538
 1829.0000     1.7511     0.7857
 1829.5000     1.7573     0.8283
 1830.0000     1.7636     0.8384
 1830.5000     1.7698     0.8485
 1831.0000     1.7760     0.8476
 1831.5000     1.7823     0.8469
 1832.0000     1.7885     0.8353
 1832.5000     1.7947     0.8020
 1833.0000     1.8010     0.7795
 1833.5000     1.8072     0.7572
 1834.0000     1.8135     0.7563
 1834.5000     1.8197     0.7555
 1835.0000     1.8259     0.7548
 1835.5000     1.8322     0.7541
 1836.0000     1.8384     0.7642
 1836.5000     1.8446     0.7743
 1837.0000     1.8509     0.7734
 1837.5000     1.8571     0.7727
 1838.0000     1.8633     0.7719
 1838.5000     1.8696     0.7712
 1839.0000     1.8758     0.7815
 1839.5000     1.8820     0.7914
 1840.0000     1.8850     0.7907
 1840.5000     1.8850     0.8116
 1841.0000     1.8850     0.8326
 1841.5000     1.8850     0.8751
 1842.0000     1.8850     0.9069
 1842.5000     1.8850     0.9172
 1843.0000     1.8850     0.9163
 1843.5000     1.8850     0.9155
 1844.0000     1.8850     0.8062
 1844.5000    81.5205     0.7403
 1845.0000   102.9816     0.6745
 1845.5000   129.6324     0.6075
 1846.0000   159.4095     0.5394
 1846.5000   159.4935     0.5391
 1847.0000   159.5776     0.5388
 1847.5000   159.6635     0.5385
 1848.0000   159.7500     0.5165
 1848.5000   159.8365     0.4728
 1849.0000   159.6883     0.4291
 1849.5000   157.5488     0.3854
 1850.0000   155.7552     0.3633
 1850.5000   158.0028     0.3413
 1851.0000   155.9423     0.4060
 1851.5000   155.4791     0.4492
 1852.0000   154.5651     0.4488
 1852.5000   154.8495     0.4484
 1853.0000   151.9615     0.4481
 1853.5000   152.0481     0.4044
 1854.0000   152.1346     0.3716
 1854.5000   152.2212     0.3929
 1855.0000   152.3077     0.4035
 1855.5000   151.3397     0.4251
 1856.0000   150.3173     0.4584
 1856.5000   150.4038     0.4893
 1857.0000   150.4904     0.5323
 1857.5000   150.5769     0.5753
 1858.0000   150.6635     0.5859
 1858.5000   149.3166     0.5530
 1859.0000   150.1696     0.5093
 1859.5000   150.9231     0.4981
 1860.0000   151.0096     0.4978
 1860.5000   151.0961     0.4975
 1861.0000   151.1827     0.4646
 1861.5000   151.2692     0.4426
 1862.0000   151.3558     0.4422
 1862.5000   151.4423     0.4419
 1863.0000   151.5288     0.4417
 1863.5000   151.6154     0.4425
 1864.0000   151.7019     0.4433
 1864.5000   151.7885     0.4440
 1865.0000   151.8750     0.4448
 1865.5000   151.9615     0.4455
 1866.0000   152.0481     0.4463
 1866.5000   152.1346     0.4471
 1867.0000   152.2211     0.4478
 1867.5000   152.3077     0.4486
 1868.0000   152.3942     0.4600
 1868.5000   152.4808     0.4815
 1869.0000   152.5673     0.5245
 1869.5000   152.6539     0.5350
 1870.0000   150.5909     0.5456
 1870.5000   146.3411     0.5344
 1871.0000   146.4231     0.5232
 1871.5000   144.8778     0.5009
 1872.0000   142.2804     0.4141
 1872.5000   140.9022     0.3920
 1873.0000   138.9987     0.3917
 1873.5000   136.8587     0.3914
 1874.0000   134.7188     0.3911
 1874.5000   134.0481     0.3907
 1875.0000   134.1346     0.3904
 1875.5000   134.2212     0.4010
 1876.0000   134.2993     0.4115
 1876.5000   133.2217     0.4106
 1877.0000   132.3110     0.4438
 1877.5000   134.0903     0.4785
 1878.0000   133.1030     0.5511
 1878.5000   131.2861     0.5617
 1879.0000   128.9857     0.5613
 1879.5000   126.1255     0.5610
 1880.0000   123.6678     0.5607
 1880.5000   121.3217     0.5822
 1881.0000   119.3933     0.6143
 1881.5000   117.5735     0.6574
 1882.0000   113.7017     0.7004
 1882.5000   113.7981     0.6242
 1883.0000   110.9645     0.5987
 1883.5000   109.6442     0.5801
 1884.0000   109.7308     0.5798
 1884.5000   109.8233     0.5795
 1885.0000   109.9073     0.5791
 1885.5000   107.5489     0.5788
 1886.0000   105.5193     0.5785
 1886.5000   104.7152     0.5782
 1887.0000   103.7743     0.5887
 1887.5000   101.6949     0.5992
 1888.0000   101.7692     0.5989
 1888.5000   100.9634     0.5985
 1889.0000    99.1756     0.5982
 1889.5000    97.7114     0.5979
 1890.0000    97.7955     0.6085
 1890.5000    95.7161     0.6190
 1891.0000    93.6346     0.6404
 1891.5000    93.2814     0.6942
 1892.0000    91.5719     0.7156
 1892.5000    89.5621     0.7044
 1893.0000    89.6538     0.7041
 1893.5000    86.6934     0.7038
 1894.0000    84.1399     0.7143
 1894.5000    82.1337     0.7031
 1895.0000    81.3462     0.6913
 1895.5000    79.8373     0.6591
 1896.0000    77.9341     0.6370
 1896.5000    74.3088     0.6367
 1897.0000    70.7733     0.6364
 1897.5000    67.7767     0.6361
 1898.0000    64.5675     0.6358
 1898.5000    60.2024     0.6354
 1899.0000    56.9244     0.6461
 1899.5000    54.9813     0.6457
 1900.0000    53.0048     0.6453
 1900.5000    52.0096     0.6450
 1901.0000    51.4469     0.6446
 1901.5000    48.5652     0.6443
 1902.0000    46.2475     0.6440
 1902.5000    43.3834     0.6545
 1903.0000    40.2454     0.6542
 1903.5000    36.9923     0.6539
 1904.0000    33.7391     0.6536
 1904.5000    31.0522     0.6532
 1905.0000    31.1538     0.6529
 1905.5000    35.3499     0.6526
 1906.0000    61.3229     0.6523
 1906.5000   118.0759     0.6519
 1907.0000   218.4959     0.6516
 1907.5000   326.9895     0.6513
 1908.0000   343.5356     0.6509
 1908.5000   349.4101     0.6506
 1909.0000   352.9941     0.6503
 1909.5000   354.2885     0.6459
 1910.0000   354.2000     0.6330
 1910.5000   353.9262     0.6013
 1911.0000   353.6524     0.6008
 1911.5000   353.9478     0.6111
 1912.0000   356.2935     0.6106
 1912.5000   358.0529     0.6101
 1913.0000   357.5443     0.5878
 1913.5000   355.4584     0.5535
 1914.0000   354.1154     0.5107
 1914.5000   354.2452     0.5320
 1915.0000   352.6799     0.5314
 1915.5000   349.2784     0.5309
 1916.0000   348.1442     0.5412
 1916.5000   347.2697     0.5515
 1917.0000   345.1841     0.5618
 1917.5000   343.0979     0.5722
 1918.0000   341.0118     0.5715
 1918.5000   338.9263     0.5710
 1919.0000   335.5743     0.5705
 1919.5000   333.9087     0.5699
 1920.0000   331.2984     0.5694
 1920.5000   329.8413     0.5689
 1921.0000   327.0213     0.5574
 1921.5000   325.7740     0.5352
 1922.0000   325.9039     0.4913
 1922.5000   327.6655     0.5016
 1923.0000   331.6943     0.5011
 1923.5000   334.9722     0.5221
 1924.0000   337.2624     0.5434
 1924.5000   337.3891     0.5863
 1925.0000   337.5159     0.6290
 1925.5000   339.8060     0.6719
 1926.0000   339.9328     0.7039
 1926.5000   344.3865     0.7468
 1927.0000   344.5132     0.7571
 1927.5000   346.8034     0.7564
 1928.0000   346.9327     0.7451
 1928.5000   347.0625     0.6578
