~VERSION INFORMATION
 VERS.                2.0:   CWLS LOG ASCII STANDARD - VERSION 2.0
 WRAP.                 NO:   ONE LINE PER DEPTH STEP
~WELL INFORMATION
#MNEM.UNIT      DATA TYPE    INFORMATION
#----------   ------------   ------------------------------
 STRT.F           10.0000:   START DEPTH
 STOP.F          580.0000:   STOP DEPTH
 STEP.F            0.5000:   STEP LENGTH
 NULL.          -999.2500:   NO VALUE
 COMP. FENIX & SCISSON INC:   COMPANY
 WELL.     NPR 3 #28-S-34:   WELL
 FLD .        TEAPOT DOME:   FIELD
 LOC .      S34 T39N R78W:   LOCATION
 CNTY.            NATRONA:   COUNTY
 STAT.            WYOMING:   STATE
 CTRY. UNITED STATES OF AMERICA:   COUNTRY
 SRVC.           BIRDWELL:   SERVICE COMPANY
 DATE.        05-AUG-1978:   LOGDATE
 API .       490251068200:   API NUMBER
~CURVE INFORMATION
#MNEM.UNIT       API CODE    CURVE DESCRIPTION
#----------   ------------   ------------------------------
 DEPT.F                  :   
 SPR .MV     05 010 01 00:   SPONTANEOUS POTENTIAL FROM RES.
 IL  .OHMM   05 120 00 00:   INDUCTION LOG
 SN  .OHMM   05 040 16 00:   SHORT NORMAL 16"
 GRD .GAPI   45 310 01 00:   GAMMA RAY FROM DENSITY LOG
 CALD.IN     45 280 60 00:   CALIPER
 RHOB.G/C3   45 350 01 00:   BULK DENSITY
 DPHI.DEC    45 890 12 00:   DENSITY POROSITY SANDSTONE
 CORR.G/C3   45 356 01 00:   DENSITY CORRECTION
~PARAMETER INFORMATION
#MNEM.UNIT          VALUE    DESCRIPTION
#----------   ------------   ------------------------------
 PD  .                 GL:   PERMANENT DATUM
 EPD .F              5191:   ELEVATION PERMANENT DATUM
 LMF .                 KB:   LOG MEASURED FROM
 DAPD.F                 4:   FEET ABOVE PERMANENT DATUM
 DMF .                 KB:   DRILLING MEASURED FROM
 EKB .F              5195:   KELLING BUSHING
 EGL .F              5191:   GROUND LEVEL
 DATE.             8-5-78:   RUN DATE
 RUN .                  1:   RUN NUMBER
 DD  .F               570:   DEPTH DRILLER
 DL  .F               586:   DEPTH LOGGER
 BLI .F               580:   BOTTOM LOG INTERVAL
 TLI .F                30:   TOP LOG INTERVAL
 CS  .IN            8.625:   CASING SIZE
 BS  .IN            7.875:   BIT SIZE
 BSD .F               570:   BIT SIZE AT DEPTH
 DFT .                KCL:   DRILLING FLUID TYPE
 DFD .                8.6:   DRILLING FLUID DENSITY
 DFV .                 32:   DRILLING FLUID VISCOSITY
 DFPH.                9.5:   DRILLING FLUID PH
 MSS .          FLOW LINE:   MUD SAMPLE SOURCE
 RMS .OHMM             .9:   RESISTIVITY MUD SAMPLE
 MST .F                74:   MUD SAMPLE TEMPERATURE
 RMF .OHMM            .17:   RESISTIVITY MUD FILTRATE SAMPLE
 MFST.F                79:   MUD FILTRATE SAMPLE TEMPERATURE
 RMC .OHMM            .42:   RESISTIVITY MUD CAKE
 MCST.F                80:   MUD CAKE SAMPLE TEMPERATURE
 MFSS.               MEAS:   MUD FILTRATE SAMPLE SOURCE
 TCS .HRS               3:   TIME CURCULATED STOPPED
 LUN .               3006:   LOGGING UNIT NUMBER
 LUL .               CASP:   LOGGING UNIT LOCATION
 ENGI.             MILLER:   RECORDING ENGINEER
 WITN.           MCGINLEY:   WITNESSED BY
 CLNT.            A2DTECH:   CLIENT CODE
 ORIG.           5" PRINT:   ORIGIN OF DATA
 UWI .       490251068200:   UNIQUE WELL ID
 DICO. A2D Technologies, Inc.:   DIGITIZING COMPANY
~OTHER INFORMATION
~A   DEPT      SPR         IL         SN         GRD      CALD       RHOB       DPHI       CORR   
# ...
  253.0000   -15.5930     7.7010     6.9380    86.1370     7.6050     2.4480     0.1380    -0.0020
  253.5000   -15.5820     7.6680     6.8900    86.0550     7.6340     2.4450     0.1370    -0.0030
  254.0000   -15.5720     7.6360     6.8430    83.1750     7.6680     2.4510     0.1360    -0.0020
  254.5000   -15.5620     7.6030     6.7920    80.3480     7.7000     2.4560     0.1340    -0.0020
  255.0000   -15.5520     7.5700     6.7920    79.4380     7.7210     2.4540     0.1330    -0.0020
  255.5000   -15.5420     7.5370     6.7920    80.5630     7.7080     2.4530     0.1320    -0.0010
  256.0000   -15.5310     7.5140     6.7920    82.2530     7.7120     2.4560     0.1310    -0.0030
  256.5000   -15.5210     7.5540     6.7920    83.1490     7.7160     2.4770     0.1230    -0.0080
  257.0000   -15.5110     7.5850     6.7920    80.1730     7.7200     2.4770     0.1260    -0.0130
  257.5000   -15.5010     7.6150     6.7910    74.4280     7.7240     2.4680     0.1300    -0.0190
  258.0000   -15.4900     7.6460     6.7910    72.9730     7.7270     2.4600     0.1340    -0.0130
  258.5000   -15.4800     7.6760     6.7920    76.0140     7.7300     2.4520     0.1380    -0.0050
  259.0000   -15.4700     7.7070     6.7730    80.1840     7.7330     2.4500     0.1400     0.0010
  259.5000   -15.4600     7.7370     6.7120    80.5800     7.7360     2.4470     0.1430    -0.0020
  260.0000   -15.4500     7.7680     6.6510    80.0970     7.7400     2.4380     0.1460    -0.0060
  260.5000   -15.4390     7.7960     6.5890    79.3810     7.7430     2.4300     0.1470    -0.0110
  261.0000   -15.4290     7.6550     6.5290    78.9950     7.7460     2.4280     0.1450    -0.0090
  261.5000   -15.4190     7.4980     6.4700    81.2480     7.7490     2.4320     0.1420    -0.0070
  262.0000   -15.4090     7.3410     6.4110    84.3650     7.7520     2.4380     0.1430    -0.0040
  262.5000   -15.3980     7.1850     6.3530    87.4700     7.7560     2.4420     0.1420    -0.0010
  263.0000   -15.3880     7.0280     6.2940    88.2100     7.7590     2.4440     0.1410     0.0010
  263.5000   -15.3780     6.8710     6.2350    85.1880     7.7620     2.4430     0.1380     0.0040
  264.0000   -15.3680     6.6680     6.1770    81.0230     7.7640     2.4450     0.1350     0.0050
  264.5000   -15.3580     6.6850     6.1180    80.4770     7.7680     2.4530     0.1330     0.0050
  265.0000   -15.3470     6.7180     6.0590    82.1090     7.7720     2.4580     0.1320     0.0030
  265.5000   -15.3370     6.7520     5.9710    82.2050     7.7770     2.4540     0.1320     0.0020
  266.0000   -15.3270     6.7860     5.9870    82.0200     7.7820     2.4500     0.1320     0.0010
  266.5000   -15.3170     6.8200     6.0190    82.4090     7.7840     2.4520     0.1310     0.0030
  267.0000   -15.3080     6.8540     6.0500    82.8000     7.7810     2.4600     0.1300     0.0040
  267.5000   -15.3340     6.8870     6.0820    83.1690     7.7720     2.4660     0.1280     0.0060
  268.0000   -15.5340     6.9210     6.1130    82.8150     7.7640     2.4660     0.1270     0.0070
  268.5000   -15.7350     6.9550     6.1440    82.2390     7.7550     2.4660     0.1280     0.0050
  269.0000   -15.9330     6.9890     6.1760    81.6230     7.7470     2.4650     0.1290     0.0020
  269.5000   -16.1100     7.0230     6.2070    83.2420     7.7380     2.4640     0.1310     0.0000
  270.0000   -16.1370     7.0560     6.2390    85.2070     7.7300     2.4630     0.1290    -0.0030
  270.5000   -16.1680     7.0900     6.2700    87.2220     7.7200     2.4620     0.1270    -0.0050
  271.0000   -16.1990     7.1240     6.3020    87.3260     7.7080     2.4610     0.1320    -0.0080
  271.5000   -16.2310     7.1580     6.3330    86.3380     7.6970     2.4600     0.1350    -0.0090
  272.0000   -16.2620     7.1910     6.3650    85.4220     7.6850     2.4620     0.1310    -0.0030
  272.5000   -16.2930     7.2250     6.3960    86.1290     7.6740     2.4730     0.1220     0.0040
  273.0000   -16.3250     7.2590     6.4280    86.8340     7.6640     2.4850     0.1140     0.0070
  273.5000   -16.3560     7.2930     6.4590    86.6520     7.6610     2.4960     0.1110     0.0010
  274.0000   -16.3870     7.3270     6.4900    86.1640     7.6580     2.4960     0.1190    -0.0080
  274.5000   -16.4180     7.3770     6.5220    85.6730     7.6550     2.4810     0.1250    -0.0130
  275.0000   -16.4470     7.3410     6.5530    85.1660     7.6520     2.4690     0.1310    -0.0110
  275.5000   -16.4710     7.2670     6.5850    85.5360     7.6490     2.4570     0.1340    -0.0080
  276.0000   -16.3430     7.1940     6.6070    86.4200     7.6460     2.4560     0.1330    -0.0060
  276.5000   -16.3000     7.1210     6.4790    86.8330     7.6440     2.4600     0.1300    -0.0040
  277.0000   -16.2980     7.0480     6.3810    86.4840     7.6410     2.4620     0.1320    -0.0030
  277.5000   -16.3000     6.9750     6.2830    86.7580     7.6380     2.4590     0.1340    -0.0030
  278.0000   -16.3000     6.9010     6.1950    90.0540     7.6350     2.4550     0.1390    -0.0040
  278.5000   -16.3000     6.7920     6.1870    93.2420     7.6320     2.4510     0.1400    -0.0040
  279.0000   -16.3000     6.8050     6.1690    93.2480     7.6290     2.4480     0.1390    -0.0040
  279.5000   -16.3000     6.8310     6.1520    90.0280     7.6260     2.4440     0.1410    -0.0040
  280.0000   -16.3020     6.8570     6.1350    90.0270     7.6250     2.4400     0.1430    -0.0050
  280.5000   -16.3600     6.8840     6.1180    90.8210     7.6270     2.4390     0.1390    -0.0050
  281.0000   -16.4190     6.9100     6.1010    90.3200     7.6300     2.4430     0.1350    -0.0020
  281.5000   -16.4780     6.9370     6.0830    88.8990     7.6320     2.4500     0.1310     0.0010
  282.0000   -16.5140     6.9630     6.0660    87.4630     7.6350     2.4560     0.1270     0.0030
  282.5000   -16.5370     6.9810     6.0490    87.4040     7.6380     2.4630     0.1250     0.0050
  283.0000   -16.5600     6.9220     6.0320    88.0860     7.6400     2.4690     0.1230     0.0070
  283.5000   -16.5830     6.8760     6.0150    86.3880     7.6430     2.4760     0.1220     0.0090
  284.0000   -16.6050     6.8300     5.9980    84.4500     7.6410     2.4800     0.1200     0.0130
  284.5000   -16.6280     6.7850     5.9800    86.0340     7.6160     2.4800     0.1200     0.0130
  285.0000   -16.6510     6.7390     5.9630    86.0700     7.5910     2.4810     0.1230     0.0080
  285.5000   -16.6740     6.6930     5.9460    85.6280     7.5660     2.4770     0.1260     0.0040
  286.0000   -16.6960     6.6470     5.9290    87.1310     7.5410     2.4680     0.1310    -0.0020
  286.5000   -16.7190     6.6020     5.9170    88.7940     7.5270     2.4600     0.1350    -0.0070
  287.0000   -16.7420     6.5560     5.9400    89.0840     7.5360     2.4520     0.1400    -0.0120
  287.5000   -16.7650     6.5100     5.9590    89.0050     7.5440     2.4430     0.1450    -0.0150
  288.0000   -16.7880     6.4640     5.9770    89.8030     7.5200     2.4360     0.1440    -0.0130
  288.5000   -16.8100     6.4190     5.9950    91.2930     7.4940     2.4340     0.1450    -0.0090
  289.0000   -16.8330     6.3680     6.0140    91.1040     7.4680     2.4320     0.1460    -0.0040
  289.5000   -16.8560     6.2780     6.0270    90.8030     7.4430     2.4310     0.1450     0.0000
  290.0000   -16.8790     6.1790     5.8890    91.5850     7.4260     2.4320     0.1420     0.0040
  290.5000   -16.8990     6.0790     5.7830    92.6930     7.4330     2.4380     0.1400     0.0090
  291.0000   -16.8500     5.9790     5.6770    92.9360     7.4400     2.4440     0.1370     0.0110
  291.5000   -16.7930     5.8790     5.5710    92.1870     7.4460     2.4510     0.1340     0.0110
  292.0000   -16.7360     5.8090     5.4640    90.2130     7.4530     2.4570     0.1320     0.0060
  292.5000   -16.6790     5.8460     5.3480    89.9930     7.4600     2.4590     0.1380     0.0000
  293.0000   -16.6220     5.8990     5.3940    90.2860     7.4660     2.4540     0.1370     0.0010
