~VERSION INFORMATION
 VERS.                2.0:   CWLS LOG ASCII STANDARD - VERSION 2.0
 WRAP.                 NO:   ONE LINE PER DEPTH STEP
~WELL INFORMATION
#MNEM.UNIT      DATA TYPE    INFORMATION
#----------   ------------   ------------------------------
 STRT.F           20.0000:   START DEPTH
 STOP.F          469.0000:   STOP DEPTH
 STEP.F            0.5000:   STEP LENGTH
 NULL.          -999.2500:   NO VALUE
 COMP. FENIX & SCISSON INC:   COMPANY
 WELL.       SX 3FO #26-3:   WELL
 FLD .             TEAPOT:   FIELD
 LOC .       S3 T38N R78W:   LOCATION
 CNTY.            NATRONA:   COUNTY
 STAT.            WYOMING:   STATE
 CTRY. UNITED STATES OF AMERICA:   COUNTRY
 SRVC.              Welex:   SERVICE COMPANY
 DATE.        02-JUL-1980:   LOGDATE
 API .       490251082500:   API NUMBER
~CURVE INFORMATION
#MNEM.UNIT       API CODE    CURVE DESCRIPTION
#----------   ------------   ------------------------------
 DEPT.F                  :   
 CALD.IN     45 280 60 00:   CALIPER
 GRD .GAPI   45 310 01 00:   GAMMA RAY FROM DENSITY LOG
 CORR.G/C3   45 356 01 00:   DENSITY CORRECTION
 RHOB.G/C3   45 350 01 00:   BULK DENSITY
 DPHI.DEC    45 890 12 00:   DENSITY POROSITY SANDSTONE
~PARAMETER INFORMATION
#MNEM.UNIT          VALUE    DESCRIPTION
#----------   ------------   ------------------------------
 PD  .                 GL:   PERMANENT DATUM
 EPD .F              5163:   ELEVATION PERMANENT DATUM
 LMF .                 KB:   LOG MEASURED FROM
 DAPD.F                 5:   FEET ABOVE PERMANENT DATUM
 DMF .                 KB:   DRILLING MEASURED FROM
 EKB .F              5168:   KELLING BUSHING
 EGL .F              5163:   GROUND LEVEL
 DATE.             7-2-80:   RUN DATE
 RUN .                  1:   RUN NUMBER
 DD  .F               470:   DEPTH DRILLER
 DL  .F               472:   DEPTH LOGGER
 BLI .F               470:   BOTTOM LOG INTERVAL
 TLI .F                20:   TOP LOG INTERVAL
 CS  .IN                7:   CASING SIZE
 CBD .F                43:   CASING BOTTOM DRILLER
 BS  .IN             6.25:   BIT SIZE
 BSD .F               470:   BIT SIZE AT DEPTH
 DFT .        AIR DRILLED:   DRILLING FLUID TYPE
 BHT .F                76:   BOTTOM HOLE TEMPERATURE
 TCS .HRS             1.5:   TIME CURCULATED STOPPED
 MRT .F                76:   MAXIMUM RECORDED TEMPERATURE
 ENGI.        REIN/GLASER:   RECORDING ENGINEER
 WITN.            RHOADES:   WITNESSED BY
 CLNT.            A2DTECH:   CLIENT CODE
 ORIG.           5" PRINT:   ORIGIN OF DATA
 UWI .       490251082500:   UNIQUE WELL ID
 DICO. A2D Technologies, Inc.:   DIGITIZING COMPANY
~OTHER INFORMATION
~A   DEPT     CALD         GRD      CORR       RHOB       DPHI   
# ...
  386.0000     6.1813    73.4167     0.0291     2.3468     0.2037
  386.5000     6.1813    71.1507     0.0222     2.3472     0.2049
  387.0000     6.1813    70.9522     0.0216     2.3507     0.2031
  387.5000     6.1813    70.2513     0.0209     2.3515     0.2014
  388.0000     6.1813    69.2531     0.0202     2.3567     0.1997
  388.5000     6.1813    68.8402     0.0208     2.3681     0.1908
  389.0000     6.1813    69.8751     0.0256     2.3795     0.1826
  389.5000     6.1813    71.1175     0.0303     2.3907     0.1767
  390.0000     6.1813    72.3796     0.0329     2.4017     0.1710
  390.5000     6.1813    73.0844     0.0272     2.4081     0.1679
  391.0000     6.1813    73.5199     0.0217     2.4061     0.1686
  391.5000     6.1803    74.8293     0.0162     2.4015     0.1715
  392.0000     6.1756    73.2777     0.0115     2.3968     0.1735
  392.5000     6.1709    71.7643     0.0095     2.3966     0.1748
  393.0000     6.1663    72.3299     0.0075     2.3972     0.1749
  393.5000     6.1616    73.4516     0.0060     2.3978     0.1746
  394.0000     6.1569    74.5699     0.0060     2.3980     0.1743
  394.5000     6.1523    75.5962     0.0060     2.3997     0.1728
  395.0000     6.1477    75.4965     0.0064     2.4052     0.1691
  395.5000     6.1426    74.9232     0.0116     2.4110     0.1645
  396.0000     6.1595    74.6087     0.0171     2.4224     0.1597
  396.5000     6.1858    75.3719     0.0226     2.4344     0.1509
  397.0000     6.2129    76.4612     0.0282     2.4439     0.1471
  397.5000     6.2205    77.5652     0.0299     2.4421     0.1463
  398.0000     6.2109    78.6455     0.0300     2.4420     0.1467
  398.5000     6.2013    77.9819     0.0300     2.4454     0.1444
  399.0000     6.1917    76.3075     0.0299     2.4485     0.1419
  399.5000     6.1823    76.2816     0.0313     2.4516     0.1394
  400.0000     6.1813    77.9933     0.0332     2.4549     0.1367
  400.5000     6.1813    77.4103     0.0351     2.4590     0.1360
  401.0000     6.1813    76.7849     0.0370     2.4634     0.1345
  401.5000     6.1813    77.4575     0.0390     2.4678     0.1325
  402.0000     6.1813    78.3424     0.0397     2.4734     0.1287
  402.5000     6.1813    79.0313     0.0392     2.4796     0.1243
  403.0000     6.1813    77.8837     0.0387     2.4867     0.1199
  403.5000     6.1813    77.0783     0.0382     2.4871     0.1193
  404.0000     6.1813    80.0040     0.0373     2.4849     0.1214
  404.5000     6.1813    81.9295     0.0355     2.4787     0.1262
  405.0000     6.1813    82.7655     0.0336     2.4678     0.1327
  405.5000     6.1813    83.8027     0.0304     2.4568     0.1399
  406.0000     6.1813    85.0984     0.0186     2.4501     0.1437
  406.5000     6.1813    85.8751     0.0195     2.4475     0.1446
  407.0000     6.1813    84.8537     0.0242     2.4449     0.1442
  407.5000     6.1813    83.8858     0.0067     2.4422     0.1466
  408.0000     6.1813    86.0108     0.0051     2.4444     0.1454
  408.5000     6.1813    88.8388     0.0155     2.4517     0.1429
  409.0000     6.1813    91.1561     0.0160     2.4525     0.1404
  409.5000     6.1813    90.1180     0.0169     2.4530     0.1387
  410.0000     6.1813    87.0454     0.0196     2.4614     0.1370
  410.5000     6.1813    85.5375     0.0220     2.4616     0.1351
  411.0000     6.1813    86.7802     0.0217     2.4620     0.1343
  411.5000     6.1813    86.4107     0.0213     2.4687     0.1318
  412.0000     6.1813    85.0092     0.0209     2.4756     0.1263
  412.5000     6.1813    85.6576     0.0205     2.4767     0.1270
  413.0000     6.1813    86.3301     0.0201     2.4761     0.1275
  413.5000     6.1813    85.5316     0.0211     2.4771     0.1266
  414.0000     6.1813    84.4164     0.0230     2.4790     0.1247
  414.5000     6.1813    84.3404     0.0204     2.4743     0.1283
  415.0000     6.1813    84.3463     0.0104     2.4658     0.1331
  415.5000     6.1813    84.5271     0.0003     2.4573     0.1383
  416.0000     6.1813    85.2733    -0.0017     2.4615     0.1379
  416.5000     6.1813    85.9889     0.0127     2.4674     0.1321
  417.0000     6.1813    86.7036     0.0239     2.4737     0.1271
  417.5000     6.1813    87.4068     0.0289     2.4803     0.1241
  418.0000     6.1813    87.9316     0.0287     2.4825     0.1228
  418.5000     6.1813    87.6299     0.0219     2.4823     0.1243
  419.0000     6.1813    87.2273     0.0242     2.4839     0.1219
  419.5000     6.1813    87.3224     0.0265     2.4825     0.1244
  420.0000     6.1813    88.1306     0.0268     2.4738     0.1287
  420.5000     6.1835    88.9086     0.0197     2.4702     0.1302
  421.0000     6.1881    89.6850     0.0133     2.4679     0.1326
  421.5000     6.1926    90.4995     0.0103     2.4641     0.1367
  422.0000     6.1971    90.4929     0.0072     2.4530     0.1408
  422.5000     6.2017    90.2925     0.0043     2.4460     0.1447
  423.0000     6.2062    90.9959     0.0036     2.4470     0.1445
  423.5000     6.2107    91.9859     0.0076     2.4497     0.1439
  424.0000     6.2152    93.0205     0.0115     2.4543     0.1399
  424.5000     6.2200    93.2708     0.0116     2.4501     0.1387
  425.0000     6.2211    93.2813     0.0053     2.4420     0.1461
  425.5000     6.2211    93.3021    -0.0009     2.4375     0.1499
  426.0000     6.2211    92.3454    -0.0021     2.4475     0.1465
  426.5000     6.2211    91.3095     0.0027     2.4504     0.1428
  427.0000     6.2211    90.2698     0.0098     2.4466     0.1451
  427.5000     6.2211    89.2499     0.0167     2.4477     0.1442
  428.0000     6.2211    88.5033     0.0237     2.4557     0.1409
  428.5000     6.2211    88.8113     0.0307     2.4622     0.1359
  429.0000     6.2211    89.4051     0.0298     2.4598     0.1355
  429.5000     6.2211    89.9975     0.0240     2.4571     0.1372
  430.0000     6.2211    90.5916     0.0148     2.4591     0.1399
  430.5000     6.2211    90.9452     0.0055     2.4645     0.1323
  431.0000     6.2211    91.2899     0.0060     2.4698     0.1299
  431.5000     6.2211    91.6347     0.0092     2.4751     0.1267
  432.0000     6.2211    92.0071     0.0125     2.4780     0.1255
  432.5000     6.2211    91.7504     0.0157     2.4794     0.1243
  433.0000     6.2211    91.2738     0.0189     2.4848     0.1231
  433.5000     6.2211    90.7980     0.0221     2.4923     0.1183
  434.0000     6.2211    90.3284     0.0225     2.4999     0.1148
  434.5000     6.2213    89.8618     0.0190     2.4973     0.1146
  435.0000     6.2154    89.3667     0.0155     2.4931     0.1162
  435.5000     6.2091    88.8241     0.0120     2.4926     0.1168
  436.0000     6.2027    87.4766     0.0086     2.4918     0.1180
  436.5000     6.1963    86.1567     0.0050     2.4868     0.1207
  437.0000     6.1900    84.8439     0.0015     2.4818     0.1247
  437.5000     6.1836    83.5376    -0.0020     2.4768     0.1279
  438.0000     6.1772    82.2219    -0.0055     2.4739     0.1283
  438.5000     6.1709    81.5652    -0.0052     2.4776     0.1264
  439.0000     6.1645    82.0867    -0.0033     2.4818     0.1233
  439.5000     6.1600    82.4681    -0.0014     2.4839     0.1223
  440.0000     6.1572    82.4294     0.0012     2.4814     0.1231
  440.5000     6.1544    81.0236     0.0028     2.4788     0.1259
  441.0000     6.1517    80.3358     0.0037     2.4794     0.1246
  441.5000     6.1489    82.2997     0.0055     2.4926     0.1193
  442.0000     6.1461    93.1956     0.0085     2.5037     0.1129
  442.5000     6.1434    91.2708     0.0147     2.5045     0.1113
  443.0000     6.1406    90.0992     0.0218     2.5049     0.1105
  443.5000     6.1375    91.0885     0.0289     2.5097     0.1068
  444.0000     6.1345    92.1294     0.0360     2.5174     0.1025
  444.5000     6.1315    92.5608     0.0430     2.5250     0.0985
  445.0000     6.1285    93.9513     0.0426     2.5263     0.0956
  445.5000     6.1254    95.6706     0.0399     2.5270     0.0963
  446.0000     6.1224    97.3615     0.0378     2.5264     0.0974
  446.5000     6.1194   101.6900     0.0391     2.5251     0.0984
