~VERSION INFORMATION
 VERS.                2.0:   CWLS LOG ASCII STANDARD - VERSION 2.0
 WRAP.                 NO:   ONE LINE PER DEPTH STEP
~WELL INFORMATION
#MNEM.UNIT      DATA TYPE    INFORMATION
#----------   ------------   ------------------------------
 STRT.F           46.0000:   START DEPTH
 STOP.F          522.0000:   STOP DEPTH
 STEP.F            0.5000:   STEP LENGTH
 NULL.          -999.2500:   NO VALUE
 COMP.       F D SERV INC:   COMPANY
 WELL.  82-4 SX 10 #82-10:   WELL
 FLD .             TEAPOT:   FIELD
 LOC .      S10 T38N R78W:   LOCATION
 CNTY.            NATRONA:   COUNTY
 STAT.            WYOMING:   STATE
 CTRY. UNITED STATES OF AMERICA:   COUNTRY
 SRVC.     Atlas Wireline:   SERVICE COMPANY
 DATE.        04-FEB-1993:   LOGDATE
 API .       490252257900:   API NUMBER
~CURVE INFORMATION
#MNEM.UNIT       API CODE    CURVE DESCRIPTION
#----------   ------------   ------------------------------
 DEPT.F                  :   
 C13 .IN     45 280 13 00:   CALIPER FROM DENSITY LOG
 GRD .GAPI   45 310 01 00:   GAMMA RAY FROM DENSITY LOG
 PORS.DEC    42 890 03 00:   NEUTRON POROSITY SANDSTONE
 PORZ.DEC    45 890 12 00:   DENSITY POROSITY SANDSTONE
 ZCOR.G/C3   45 356 01 00:   DENSITY CORRECTION
 ZDEN.G/C3   45 350 01 00:   BULK DENSITY
 RILD.OHMM   07 120 46 00:   INDUCTION LOG DEEP RESISTIVITY
 RILM.OHMM   07 120 44 00:   INDUCTION LOG MEDIUM RESISTIVITY
~PARAMETER INFORMATION
#MNEM.UNIT          VALUE    DESCRIPTION
#----------   ------------   ------------------------------
 PD  .                 GL:   PERMANENT DATUM
 EPD .F              5145:   ELEVATION PERMANENT DATUM
 LMF .                 KB:   LOG MEASURED FROM
 DAPD.F                10:   FEET ABOVE PERMANENT DATUM
 DMF .                 KB:   DRILLING MEASURED FROM
 EKB .F              5155:   KELLING BUSHING
 EDF .F              5154:   DRILLING FLOOR
 EGL .F              5145:   GROUND LEVEL
 DATE.        04-FEB-1993:   RUN DATE
 RUN .                  1:   RUN NUMBER
 DD  .F               525:   DEPTH DRILLER
 DL  .F               525:   DEPTH LOGGER
 BLI .F               517:   BOTTOM LOG INTERVAL
 TLI .F                81:   TOP LOG INTERVAL
 CS  .IN            8.625:   CASING SIZE
 CBD .F                45:   CASING BOTTOM DRILLER
 CBL .F                81:   CASING BOTTOM LOGGER
 BS  .IN            7.875:   BIT SIZE
 BSD .F               525:   BIT SIZE AT DEPTH
 DFT .                AIR:   DRILLING FLUID TYPE
 MRT .F                58:   MAXIMUM RECORDED TEMPERATURE
 LUN .            HL 6274:   LOGGING UNIT NUMBER
 LUL .             CASPER:   LOGGING UNIT LOCATION
 ENGI.          V. RAUTIO:   RECORDING ENGINEER
 WITN.          G. STRONG:   WITNESSED BY
 CLNT.            A2DTECH:   CLIENT CODE
 ORIG.           5" PRINT:   ORIGIN OF DATA
 UWI .       490252257900:   UNIQUE WELL ID
 DICO. A2D Technologies, Inc.:   DIGITIZING COMPANY
~OTHER INFORMATION
~A   DEPT      C13         GRD      PORS       PORZ       ZCOR       ZDEN       RILD       RILM   
# ...
  127.0000     8.3629   154.3478     0.2885     0.1058     0.0159     2.4743     8.9117     8.9442
  127.5000     8.3632   151.9490     0.2870     0.1007     0.0084     2.4842     8.9738     8.9463
  128.0000     8.3636   147.7511     0.2824     0.0989     0.0039     2.4871     8.9132     8.9481
  128.5000     8.3639   145.6492     0.2813     0.1022     0.0010     2.4796     8.9146     8.9498
  129.0000     8.3643   145.3523     0.2876     0.1127     0.0040     2.4645     8.9158     8.8899
  129.5000     8.3646   146.5517     0.2933     0.1179     0.0040     2.4569     8.9172     8.7699
  130.0000     8.3650   148.9505     0.2966     0.1188     0.0041     2.4690     8.7956     8.7107
  130.5000     8.3647   148.9505     0.2972     0.1098     0.0026     2.4772     8.6164     8.4752
  131.0000     8.3644   148.9505     0.2948     0.1028     0.0041     2.4817     8.3802     8.3032
  131.5000     8.3641   149.5502     0.2936     0.1016     0.0056     2.4765     8.0989     8.1343
  132.0000     8.3638   152.2489     0.2951     0.1070     0.0087     2.4719     7.8790     7.9689
  132.5000     8.3635   156.2519     0.2984     0.1097     0.0102     2.4689     7.7718     7.8068
  133.0000     8.3632   158.5457     0.3023     0.1112     0.0087     2.4651     7.6633     7.6484
  133.5000     8.3629   159.4453     0.3067     0.1130     0.0133     2.4576     7.5618     7.5448
  134.0000     8.3626   157.3852     0.3122     0.1169     0.0163     2.4478     7.5106     7.5462
  134.5000     8.3623   155.1370     0.3177     0.1202     0.0162     2.4508     7.5119     7.4957
  135.0000     8.3620   153.1484     0.3189     0.1226     0.0118     2.4540     7.5650     7.5495
  135.5000     8.3617   151.3403     0.3131     0.1201     0.0104     2.4598     7.6716     7.6034
  136.0000     8.3614   150.7496     0.3086     0.1136     0.0074     2.4628     7.6726     7.6049
  136.5000     8.3611   151.9490     0.3101     0.1124     0.0042     2.4605     7.7804     7.6663
  137.0000     8.3608   152.8486     0.3131     0.1145     0.0045     2.4590     7.7858     7.7142
  137.5000     8.3605   154.0730     0.3155     0.1160     0.0075     2.4627     7.8911     7.8231
  138.0000     8.3602   154.3478     0.3161     0.1165     0.0105     2.4687     7.8921     7.8246
  138.5000     8.3599   154.3478     0.3158     0.1123     0.0061     2.4718     8.0030     7.9355
  139.0000     8.3746   154.0480     0.3131     0.1086     0.0046     2.4747     8.0649     7.9921
  139.5000     8.4045   154.3478     0.3110     0.1069     0.0001     2.4732     8.1732     8.0492
  140.0000     8.4344   154.3478     0.3107     0.1081    -0.0013     2.4717     8.2881     8.1628
  140.5000     8.4492   151.9490     0.3116     0.1093     0.0002     2.4687     8.3467     8.2785
  141.0000     8.4787   148.9505     0.3119     0.1105    -0.0013     2.4694     8.4640     8.4537
  141.5000     8.4779   145.3523     0.3046     0.1108    -0.0013     2.4716     8.5832     8.5140
  142.0000     8.4770   146.5517     0.2989     0.1093    -0.0013     2.4724     8.6439     8.6343
  142.5000     8.4761   149.5502     0.2944     0.1075    -0.0042     2.4716     8.7050     8.7566
  143.0000     8.4753   151.9490     0.2938     0.1084     0.0003     2.4716     8.7062     8.7583
  143.5000     8.4744   151.3493     0.2956     0.1093     0.0034     2.4716     8.7076     8.7600
  144.0000     8.4736   152.5487     0.2977     0.1093     0.0049     2.4716     8.7087     8.6934
  144.5000     8.4727   154.3478     0.2998     0.1092     0.0019     2.4731     8.6498     8.5835
  145.0000     8.4719   154.9475     0.2986     0.1089     0.0020     2.4753     8.5321     8.4677
  145.5000     8.4710   155.5472     0.2976     0.1071     0.0020     2.4783     8.4161     8.2954
  146.0000     8.4702   155.8471     0.2991     0.1038    -0.0010     2.4805     8.3591     8.2399
  146.5000     8.4693   155.5472     0.3012     0.1026    -0.0010     2.4775     8.3029     8.2419
  147.0000     8.4685   155.5472     0.3015     0.1056    -0.0009     2.4752     8.3040     8.2435
  147.5000     8.4676   156.1469     0.3015     0.1080     0.0036     2.4737     8.3053     8.2451
  148.0000     8.4667   157.3463     0.3018     0.1083     0.0111     2.4714     8.3064     8.3043
  148.5000     8.4659   156.1469     0.3006     0.1086     0.0172     2.4714     8.3075     8.3059
  149.0000     8.4650   155.2054     0.2979     0.1089     0.0172     2.4699     8.2516     8.3075
  149.5000     8.4642   155.5472     0.2964     0.1098     0.0172     2.4683     8.2527     8.3092
  150.0000     8.4633   158.2459     0.2952     0.1116     0.0157     2.4601     8.2537     8.3112
  150.5000     8.4625   157.9460     0.2949     0.1156     0.0143     2.4548     8.2548     8.3128
  151.0000     8.4616   157.9460     0.2967     0.1191     0.0143     2.4542     8.2561     8.3144
  151.5000     8.4608   158.5457     0.2976     0.1187     0.0111     2.4584     8.2572     8.3161
  152.0000     8.4599   159.1454     0.2988     0.1112     0.0084     2.4625     8.2583     8.3181
  152.5000     8.4590   159.4453     0.2997     0.1076     0.0054     2.4714     8.2024     8.2619
  153.0000     8.4582   159.1454     0.2963     0.1040     0.0085     2.4775     8.1470     8.2639
  153.5000     8.4573   157.3463     0.2976     0.1019     0.0119     2.4820     8.1483     8.2086
  154.0000     8.4565   155.5472     0.3000     0.1006     0.0144     2.4850     8.1494     8.2106
  154.5000     8.4559   156.1579     0.3018     0.1045     0.0114     2.4820     8.1504     8.2122
  155.0000     8.4560   156.7466     0.3048     0.1066     0.0039     2.4752     8.1518     8.2138
  155.5000     8.4561   156.7466     0.3051     0.1081    -0.0036     2.4715     8.1528     8.2158
  156.0000     8.4562   153.7481     0.3033     0.1044    -0.0066     2.4746     8.0974     8.2174
  156.5000     8.4563   145.7361     0.2988     0.0994    -0.0006     2.4805     8.0429     8.1057
  157.0000     8.4564   140.5547     0.2928     0.0978    -0.0005     2.4835     7.9886     7.9963
  157.5000     8.4565   141.4061     0.2886     0.1017    -0.0005     2.4866     7.9345     7.8341
  158.0000     8.4566   145.0041     0.2976     0.1083    -0.0005     2.4848     7.6133     7.5172
  158.5000     8.4567   154.2967     0.3052     0.1137    -0.0005     2.4685     7.3049     7.2131
  159.0000     8.4568   157.8960     0.3115     0.1164    -0.0035     2.4632     6.9129     6.8548
  159.5000     8.4569   158.7888     0.3138     0.1182    -0.0035     2.4595     6.5417     6.4159
  160.0000     8.4570   158.4854     0.3171     0.1245    -0.0034     2.4541     6.2767     6.2421
  160.5000     8.4571   158.1828     0.3271     0.1337    -0.0049     2.4437     6.1913     6.1576
  161.0000     8.4571   158.7796     0.3398     0.1408    -0.0049     2.4279     6.1922     6.1959
  161.5000     8.4572   159.9755     0.3412     0.1428    -0.0064     2.4173     6.2805     6.3229
  162.0000     8.4573   160.5731     0.3373     0.1437    -0.0034     2.4151     6.3677     6.3676
  162.5000     8.4574   158.1708     0.3286     0.1335     0.0101     2.4174     6.4572     6.4126
  163.0000     8.4575   153.6422     0.3192     0.1172     0.0176     2.4339     6.6392     6.5936
  163.5000     8.4576   153.3669     0.3174     0.1097     0.0221     2.4528     6.8393     7.0665
  164.0000     8.4577   153.9644     0.3192     0.1085     0.0177     2.4686     7.3161     7.4694
  164.5000     8.4578   155.1603     0.3202     0.1112     0.0117     2.4686     7.5223     7.6799
  165.0000     8.4579   155.7572     0.3189     0.1123     0.0117     2.4656     7.6280     7.6811
  165.5000     8.4580   156.0542     0.3153     0.1135     0.0117     2.4626     7.7355     7.7354
  166.0000     8.4581   155.7509     0.3138     0.1147     0.0057     2.4596     7.7365     7.7901
  166.5000     8.4582   156.3478     0.3126     0.1150    -0.0033     2.4603     7.7375     7.7374
  167.0000     8.4583   153.3457     0.3145     0.1125    -0.0032     2.4626     7.7385     7.6851
