~VERSION INFORMATION
 VERS.                2.0:   CWLS LOG ASCII STANDARD - VERSION 2.0
 WRAP.                 NO:   ONE LINE PER DEPTH STEP
~WELL INFORMATION
#MNEM.UNIT      DATA TYPE    INFORMATION
#----------   ------------   ------------------------------
 STRT.F            0.0000:   START DEPTH
 STOP.F          464.0000:   STOP DEPTH
 STEP.F            0.5000:   STEP LENGTH
 NULL.          -999.2500:   NO VALUE
 COMP. BROWN JOHN E&C INC:   COMPANY
 WELL. NPR 3 SX-10 #64-3-10:   WELL
 FLD .             TEAPOT:   FIELD
 LOC .      S10 T38N R78W:   LOCATION
 CNTY.            NATRONA:   COUNTY
 STAT.            WYOMING:   STATE
 CTRY. UNITED STATES OF AMERICA:   COUNTRY
 SRVC.     Atlas Wireline:   SERVICE COMPANY
 DATE.        14-MAY-1991:   LOGDATE
 API .       490251133800:   API NUMBER
~CURVE INFORMATION
#MNEM.UNIT       API CODE    CURVE DESCRIPTION
#----------   ------------   ------------------------------
 DEPT.F                  :   
 RILD.OHMM   07 120 46 00:   INDUCTION LOG DEEP RESISTIVITY
 RILM.OHMM   07 120 44 00:   INDUCTION LOG MEDIUM RESISTIVITY
 GRR .GAPI   07 310 01 00:   GAMMA RAY
~PARAMETER INFORMATION
#MNEM.UNIT          VALUE    DESCRIPTION
#----------   ------------   ------------------------------
 PD  .                 GL:   PERMANENT DATUM
 EPD .F              5182:   ELEVATION PERMANENT DATUM
 LMF .                 KB:   LOG MEASURED FROM
 DAPD.F                 5:   FEET ABOVE PERMANENT DATUM
 DMF .                 KB:   DRILLING MEASURED FROM
 EKB .F              5187:   KELLING BUSHING
 EGL .F              5182:   GROUND LEVEL
 DATE.        01-MAY-1991:   RUN DATE
 RUN .                  1:   RUN NUMBER
 DD  .F               470:   DEPTH DRILLER
 DL  .F               470:   DEPTH LOGGER
 BLI .F               468:   BOTTOM LOG INTERVAL
 CS  .IN            8.625:   CASING SIZE
 CBD .F                45:   CASING BOTTOM DRILLER
 CBL .F                45:   CASING BOTTOM LOGGER
 BS  .IN            7.875:   BIT SIZE
 BSD .F               470:   BIT SIZE AT DEPTH
 DFT .                AIR:   DRILLING FLUID TYPE
 LUN .           HL- 6272:   LOGGING UNIT NUMBER
 LUL .             CASPER:   LOGGING UNIT LOCATION
 ENGI.             KINNET:   RECORDING ENGINEER
 WITN.             STRONG:   WITNESSED BY
 CLNT.            A2DTECH:   CLIENT CODE
 ORIG.           5" PRINT:   ORIGIN OF DATA
 UWI .       490251133800:   UNIQUE WELL ID
 DICO. A2D Technologies, Inc.:   DIGITIZING COMPANY
~OTHER INFORMATION
~A    DEPT    RILD       RILM         GRR  
# ...
  273.0000    28.2761    31.0786    87.5000
  273.5000    27.7211    30.0203    86.1364
  274.0000    27.1494    28.3995    84.5455
  274.5000    26.2227    26.8662    84.5727
  275.0000    25.1523    25.4157    86.1364
  275.5000    24.1256    24.0439    89.7727
  276.0000    23.1408    22.9043    96.3636
  276.5000    22.3509    22.5895    99.7727
  277.0000    21.5880    22.7488    96.8182
  277.5000    21.2902    22.9196    93.1818
  278.0000    21.4386    23.5562    96.5909
  278.5000    21.7385    23.7220    98.4091
  279.0000    21.7385    23.8889    98.8636
  279.5000    21.5880    23.7251    97.0455
  280.0000    21.5880    23.3994    95.2273
  280.5000    21.7385    22.9183    93.1818
  281.0000    21.8900    23.2408    93.8636
  281.5000    22.3509    23.5675    97.0940
  282.0000    22.6636    23.8988    97.7273
  282.5000    23.1408    24.2351    95.2273
  283.0000    23.6281    24.7470    94.0909
  283.5000    23.9586    25.0949    93.8636
  284.0000    24.2937    25.2714    95.9091
  284.5000    24.1256    25.4493    94.0909
  285.0000    24.1256    25.4514    88.8636
  285.5000    23.9586    24.9281    85.0000
  286.0000    23.7928    24.2467    88.6971
  286.5000    23.6281    23.5838   100.4545
  287.0000    23.1215    23.9153   103.1818
  287.5000    22.5067    23.9173   102.9545
  288.0000    21.8900    23.5885   101.5909
  288.5000    21.4386    22.9440   100.1848
  289.0000    20.9965    22.3168    97.2727
  289.5000    20.5635    21.5568    93.1818
  290.0000    20.4211    20.9675    91.3636
  290.5000    20.5635    20.8234    95.0000
  291.0000    20.5635    20.6806    97.5000
  291.5000    20.4211    20.8324    98.4091
  292.0000    20.1394    21.1196    98.8636
  292.5000    20.1394    21.5657    98.8636
  293.0000    19.8616    21.8688    96.8060
  293.5000    19.7241    22.0227    92.7273
  294.0000    19.8764    22.0242    94.7727
  294.5000    20.1394    22.0260    96.1364
  295.0000    20.2798    22.0274    93.8636
  295.5000    20.4211    21.7250    92.9545
  296.0000    20.2798    21.5760    95.2273
  296.5000    20.1394    20.9865    96.3636
  297.0000    20.1394    20.5551    95.0000
  297.5000    19.7241    20.1325    93.6364
  298.0000    19.4520    19.5822    93.9304
  298.5000    18.9155    19.4479    95.4545
  299.0000    18.5288    19.4495    96.5909
  299.5000    18.5288    19.4508    97.5000
  300.0000    18.2217    19.4210    99.7727
  300.5000    17.8964    19.2262   100.4527
  301.0000    17.5273    18.9190    99.5408
  301.5000    17.2855    18.4006    97.7205
  302.0000    17.0470    17.8964    96.1030
  302.5000    16.9290    17.4060    94.3064
  303.0000    16.8118    17.0470    95.2133
  303.5000    16.6890    16.9290    99.7565
  304.0000    16.4469    16.9290   101.7998
  304.5000    16.1256    17.1658    98.8430
  305.0000    16.1256    17.4060    95.8862
  305.5000    16.1256    17.5273    89.7477
  306.0000    16.1256    17.6495    89.7424
  306.5000    16.1256    17.5273    93.2623
  307.0000    16.1256    17.2855    98.8314
  307.5000    15.9031    16.9290    99.0570
  308.0000    15.6837    16.8118    96.0997
  308.5000    15.6837    16.5799    89.7338
  309.0000    15.4674    16.3512    88.3680
  309.5000    15.2540    16.0140    89.2749
  310.0000    14.8360    15.7930    90.8636
  310.5000    14.6313    15.5752    91.7704
  311.0000    14.5300    15.2540    94.1198
  311.5000    14.4295    15.0435    98.5836
  312.0000    14.1319    14.7333    99.9451
  312.5000    14.0341    14.6313   100.3980
  313.0000    14.0341    14.6313    96.5316
  313.5000    14.0341    14.5300    96.0748
  314.0000    14.0341    14.4295    98.1180
  314.5000    13.9369    14.5300   101.0704
  315.0000    13.7447    14.6313   102.2045
  315.5000    13.8405    14.7333   101.4509
  316.0000    13.8405    14.8360    99.4723
  316.5000    13.9369    14.9394   100.8337
  317.0000    14.0341    15.1484   101.2866
  317.5000    14.1319    15.1484   100.6020
  318.0000    14.3349    15.3603    97.1913
  318.5000    14.5459    15.3603    99.2339
  319.0000    14.7333    15.3603    99.7212
  319.5000    14.7333    15.4674    95.1386
  320.0000    14.7333    15.4674    96.5303
  320.5000    14.4295    15.1484    96.9524
  321.0000    14.0341    14.9394    94.4496
  321.5000    13.8405    14.6313    93.3110
  322.0000    13.5550    14.4295    97.8543
  322.5000    13.4612    14.2304   101.2612
  323.0000    13.2675    13.9369   101.7140
  323.5000    12.8224    13.6495    97.8476
  324.0000    12.5579    13.4612    99.6636
  324.5000    12.5579    13.3680   103.8038
  325.0000    12.5579    13.4612   106.2501
  325.5000    12.5579    13.5550   103.2928
  326.0000    12.6455    13.7447   102.3820
  326.5000    13.0017    13.9369   104.1974
  327.0000    13.6495    14.6313   105.1043
  327.5000    14.8412    15.4674   105.7839
  328.0000    16.1800    17.0470   106.9181
  328.5000    17.6495    18.9190   106.9159
  329.0000    20.7068    21.7385   102.7379
  329.5000    23.1408    26.3125    95.6821
  330.0000    25.1523    30.1307    79.1814
  330.5000    28.7007    33.9071    80.5428
  331.0000    31.4129    37.1113    81.4503
  331.5000    34.1435    38.1569    80.5384
  332.0000    35.1054    37.6305    81.8998
  332.5000    35.1054    37.1113    84.8522
  333.0000    35.0681    37.3700    85.9863
  333.5000    34.6211    37.8928    85.0583
  334.0000    34.3814    38.6980    84.3910
  334.5000    34.1435    38.9603    84.6161
  335.0000    34.1435    38.9603    82.3406
  335.5000    34.1435    37.8928    79.1565
  336.0000    33.4393    36.8545    79.8361
  336.5000    33.2079    36.0944    82.5612
  337.0000    32.7497    35.5965    84.8317
  337.5000    32.2979    34.8624    85.5113
  338.0000    31.8524    34.6211    85.9636
  338.5000    31.4129    34.6211    85.8992
  339.0000    30.7651    34.6211    84.3678
  339.5000    30.3407    34.0824    84.3656
  340.0000    29.9221    32.9780    84.8184
  340.5000    29.5093    32.0744    85.0429
  341.0000    28.7007    31.1955    84.5860
  341.5000    28.1088    29.9221    80.4929
  342.0000    27.3386    28.6955    78.4458
  342.5000    26.7532    27.5070    81.1703
  343.0000    26.0412    27.1494    87.7590
  343.5000    25.1523    27.1494    90.2568
  344.0000    24.9782    27.1494    90.0273
  344.5000    24.9782    27.1494    89.7697
  345.0000    25.1523    27.1494    88.8859
  345.5000    24.9782    27.1494    87.5201
  346.0000    24.9782    27.1494    88.6542
  346.5000    25.1523    27.1494    90.0157
  347.0000    25.1523    27.1494    91.1498
  347.5000    25.1523    27.3673    91.3754
  348.0000    25.1523    27.7211    91.8272
  348.5000    25.1523    27.9143    92.0523
  349.0000    25.1523    27.9143    90.5318
  349.5000    25.1523    27.9143    85.2291
  350.0000    25.1315    27.6528    83.8638
  350.5000    24.9782    27.1494    87.0455
  351.0000    24.8053    25.8609    92.9545
  351.5000    24.1256    25.5041    96.8182
  352.0000    23.7928    25.5041    98.6364
  352.5000    23.6281    25.6819    97.5000
  353.0000    23.4645    26.0412    92.2727
  353.5000    23.1408    25.6819    86.5909
  354.0000    22.6636    25.1523    87.0455
  354.5000    22.3509    23.9586    89.5455
  355.0000    21.7385    22.8216    91.5909
  355.5000    21.2877    21.7385    90.0000
  356.0000    20.5635    20.6839    89.7727
  356.5000    20.1394    20.0000    92.9545
  357.0000    19.5876    19.4520    96.8182
  357.5000    19.1836    19.1836   102.9545
  358.0000    18.5288    18.9190   105.9091
  358.5000    18.2585    18.9190   102.2727
  359.0000    18.0211    18.9190    98.1818
  359.5000    17.7725    19.0508    95.9091
  360.0000    17.7725    19.1836    97.2727
  360.5000    17.7725    19.1836    99.1008
  361.0000    17.7725    19.1836    99.3182
  361.5000    17.7725    19.1836    96.5909
  362.0000    17.7725    18.9190    92.2727
  362.5000    17.7725    18.9190    90.4545
  363.0000    17.5273    18.4006    89.5455
  363.5000    17.2855    17.8964    87.6802
