~VERSION INFORMATION
 VERS.                2.0:   CWLS LOG ASCII STANDARD - VERSION 2.0
 WRAP.                 NO:   ONE LINE PER DEPTH STEP
~WELL INFORMATION
#MNEM.UNIT      DATA TYPE    INFORMATION
#----------   ------------   ------------------------------
 STRT.F           30.0000:   START DEPTH
 STOP.F          770.5000:   STOP DEPTH
 STEP.F            0.5000:   STEP LENGTH
 NULL.          -999.2500:   NO VALUE
 COMP. FENIX & SCISSON INC:   COMPANY
 WELL. TEAPOT DOME 63 SX 34 #63-34:   WELL
 FLD .             TEAPOT:   FIELD
 LOC .      S34 T39N R78W:   LOCATION
 CNTY.            NATRONA:   COUNTY
 STAT.            WYOMING:   STATE
 CTRY. UNITED STATES OF AMERICA:   COUNTRY
 SRVC.           BIRDWELL:   SERVICE COMPANY
 DATE.        18-AUG-1978:   LOGDATE
 API .       490251070300:   API NUMBER
~CURVE INFORMATION
#MNEM.UNIT       API CODE    CURVE DESCRIPTION
#----------   ------------   ------------------------------
 DEPT.F                  :   
 SPR .MV     05 010 01 00:   SPONTANEOUS POTENTIAL
 SN  .OHMM   05 040 16 00:   SHORT NORMAL 16'
 ILD .OHMM   05 120 46 00:   INDUCTION LOG DEEP RESISTIVITY
 CALD.IN     45 280 60 00:   CALIPER
 GRD .GAPI   45 310 01 00:   GAMMA RAY FROM DENSITY LOG
 RHOB.G/C3   45 350 01 00:   BULK DENSITY
 DPHI.DEC    45 890 12 00:   DENSITY POROSITY SANDSTONE
 CORR.G/C3   45 356 01 00:   DENSITY CORRECTION
~PARAMETER INFORMATION
#MNEM.UNIT          VALUE    DESCRIPTION
#----------   ------------   ------------------------------
 PD  .                 GL:   PERMANENT DATUM
 EPD .F              5063:   ELEVATION PERMANENT DATUM
 LMF .                 KB:   LOG MEASURED FROM
 DAPD.F                 4:   FEET ABOVE PERMANENT DATUM
 DMF .                 KB:   DRILLING MEASURED FROM
 EKB .F              5067:   KELLING BUSHING
 EGL .F              5063:   GROUND LEVEL
 DATE.          8-18-1978:   RUN DATE
 RUN .                  1:   RUN NUMBER
 DD  .F               760:   DEPTH DRILLER
 DL  .F               770:   DEPTH LOGGER
 BLI .F               763:   BOTTOM LOG INTERVAL
 TLI .F                40:   TOP LOG INTERVAL
 CS  .IN            8.625:   CASING SIZE
 CBD .F                40:   CASING BOTTOM DRILLER
 CBL .F                40:   CASING BOTTOM LOGGER
 BS  .IN            7.875:   BIT SIZE
 BSD .F               760:   BIT SIZE AT DEPTH
 DFT .            MUD KCL:   DRILLING FLUID TYPE
 DFL .               10.6:   DRILLING FLUID LOSS
 MSS .          FLOW LINE:   MUD SAMPLE SOURCE
 RMS .OHMM             .2:   RESISTIVITY MUD SAMPLE
 MST .F                56:   MUD SAMPLE TEMPERATURE
 RMF .OHMM             .2:   RESISTIVITY MUD FILTRATE SAMPLE
 MFST.F                64:   MUD FILTRATE SAMPLE TEMPERATURE
 RMC .OHMM            .36:   RESISTIVITY MUD CAKE
 MCST.F                64:   MUD CAKE SAMPLE TEMPERATURE
 MFSS.               MEAS:   MUD FILTRATE SAMPLE SOURCE
 MCSS.               MEAS:   MUD CAKE SAMPLE SOURCE
 TCS .HRS               3:   TIME CURCULATED STOPPED
 MRT .F                72:   MAXIMUM RECORDED TEMPERATURE
 LUN .               3006:   LOGGING UNIT NUMBER
 LUL .               CASP:   LOGGING UNIT LOCATION
 ENGI.           REYNOLDS:   RECORDING ENGINEER
 WITN.              AMEND:   WITNESSED BY
 CLNT.            A2DTECH:   CLIENT CODE
 ORIG.           5" PRINT:   ORIGIN OF DATA
 UWI .       490251070300:   UNIQUE WELL ID
 DICO. A2D Technologies, Inc.:   DIGITIZING COMPANY
~OTHER INFORMATION
~A   DEPT      SPR         SN        ILD       CALD         GRD      RHOB       DPHI       CORR   
# ...
  151.5000   -70.0034    10.2445    10.0305     7.0382    70.1976     2.3578     0.1878     0.0419
  152.0000   -69.7371    10.2709    10.0471     7.0612    69.5284     2.3542     0.1892     0.0419
  152.5000   -69.4708    10.2972    10.0638     7.0842    69.6900     2.3561     0.1871     0.0419
  153.0000   -69.2044    10.3348    10.0805     7.1071    69.8350     2.3542     0.1896     0.0419
  153.5000   -68.9369    10.3726    10.0972     7.1301    69.9771     2.3492     0.1940     0.0447
  154.0000   -68.6701    10.4105    10.1139     7.1531    69.8717     2.3440     0.1944     0.0478
  154.5000   -68.4325    10.4485    10.1307     7.1760    67.9681     2.3470     0.1907     0.0509
  155.0000   -68.6676    10.4867    10.1475     7.1990    65.9944     2.3517     0.1848     0.0540
  155.5000   -69.4572    10.5250    10.1643     7.2100    65.1449     2.3565     0.1861     0.0543
  156.0000   -69.7691    10.5635    10.1812     7.2054    65.2676     2.3589     0.1872     0.0547
  156.5000   -69.9559    10.6021    10.1980     7.1698    66.6476     2.3593     0.1862     0.0550
  157.0000   -70.0478    10.6408    10.2149     7.1344    68.0428     2.3599     0.1842     0.0553
  157.5000   -70.0661    10.6797    10.2319     7.1200    68.6365     2.3605     0.1822     0.0557
  158.0000   -70.0832    10.7187    10.2488     7.1575    68.5293     2.3630     0.1802     0.0556
  158.5000   -70.1001    10.7540    10.2708     7.1932    69.0049     2.3675     0.1836     0.0492
  159.0000   -70.1171    10.7167    10.2568     7.1953    69.9280     2.3620     0.1886     0.0431
  159.5000   -70.1341    10.6827    10.2360     7.1690    70.8553     2.3499     0.1937     0.0370
  160.0000   -70.1512    10.6489    10.2155     7.1424    71.7878     2.3459     0.1988     0.0339
  160.5000   -70.1682    10.6151    10.1953     7.1421    72.7268     2.3392     0.2044     0.0340
  161.0000   -70.1852    10.5815    10.1769     7.1636    73.6664     2.3288     0.2034     0.0384
  161.5000   -70.2020    10.5263     9.9904     7.1853    73.6470     2.3307     0.2019     0.0434
  162.0000   -70.2184    10.4206     9.8238     7.2074    73.5694     2.3306     0.2021     0.0485
  162.5000   -70.2230    10.3168     9.6600     7.2290    73.4995     2.3299     0.2019     0.0537
  163.0000   -70.8799    10.2135     9.4990     7.2122    73.1466     2.3354     0.1972     0.0540
  163.5000   -71.4691    10.1114     9.3406     7.1929    70.6257     2.3388     0.1968     0.0532
  164.0000   -71.5168    10.0102     9.1848     7.1737    67.5753     2.3367     0.1994     0.0521
  164.5000   -71.5744     9.9101     9.0317     7.1546    66.9244     2.3336     0.2019     0.0510
  165.0000   -71.6299     9.8110     8.8662     7.1355    67.0359     2.3320     0.2019     0.0500
  165.5000   -71.6855     9.7128     8.8538     7.1164    68.2783     2.3422     0.1961     0.0517
  166.0000   -71.7396     9.6157     8.8361     7.0974    70.2306     2.3465     0.1900     0.0537
  166.5000   -71.7964     9.5195     8.8185     7.0782    70.8967     2.3594     0.1788     0.0558
  167.0000   -71.9880     9.4242     8.8010     7.0701    69.7113     2.3763     0.1720     0.0525
  167.5000   -72.9156     9.3300     8.7847     7.0700    68.5426     2.3825     0.1695     0.0487
  168.0000   -73.8380     9.2761     8.7860     7.0700    68.8856     2.3854     0.1673     0.0449
  168.5000   -74.7585     9.2619     8.7872     7.0700    69.9944     2.3876     0.1736     0.0409
  169.0000   -75.6809     9.2477     8.6599     7.0700    71.0639     2.3841     0.1725     0.0406
  169.5000   -76.8389     9.2335     8.5463     7.0700    71.1091     2.3818     0.1711     0.0415
  170.0000   -78.4146     9.2194     8.4346     7.0700    71.1379     2.3873     0.1626     0.0425
  170.5000   -79.9822     9.2053     8.3137     7.0700    73.4712     2.4087     0.1470     0.0434
  171.0000   -81.4645     9.1173     8.1664     7.0700    74.9250     2.4300     0.1329     0.0400
  171.5000   -82.4488     8.9576     7.9402     7.0699    76.4594     2.4376     0.1381     0.0323
  172.0000   -83.2831     8.7851     7.4883     7.0728    80.5451     2.4376     0.1362     0.0243
  172.5000   -83.8253     8.5423     7.0163     7.0764    82.1280     2.4393     0.1340     0.0233
  173.0000   -84.2839     8.2804     6.5740     7.0800    81.6906     2.4415     0.1321     0.0228
  173.5000   -84.2960     8.0266     6.1596     7.0835    84.2410     2.4436     0.1313     0.0222
  174.0000   -84.3165     7.7806     5.8090     7.0871    87.4150     2.4430     0.1334     0.0216
  174.5000   -84.3382     7.5421     5.6608     7.0907    88.3422     2.4417     0.1335     0.0210
  175.0000   -84.3600     7.3109     5.5481     7.0943    87.5527     2.4421     0.1321     0.0204
  175.5000   -84.3819     7.2383     5.5481     7.0979    84.2043     2.4431     0.1311     0.0198
  176.0000   -84.4037     7.2315     5.5481     7.1014    83.5589     2.4447     0.1309     0.0192
  176.5000   -84.4253     7.2252     5.5481     7.1050    87.1252     2.4381     0.1353     0.0186
  177.0000   -84.4455     7.2188     5.5481     7.1086    90.0123     2.4316     0.1409     0.0180
  177.5000   -84.4778     7.2123     5.5481     7.1122    89.6758     2.4292     0.1421     0.0174
  178.0000   -84.6985     7.2058     5.5481     7.1158    86.4638     2.4270     0.1437     0.0168
  178.5000   -84.7697     7.1993     5.5481     7.1193    84.9188     2.4247     0.1461     0.0161
  179.0000   -84.8441     7.1928     5.5481     7.1229    85.1577     2.4214     0.1485     0.0184
  179.5000   -84.7823     7.1863     5.5481     7.1266    85.3104     2.4183     0.1453     0.0220
  180.0000   -84.6445     7.1799     5.5481     7.1297    84.8840     2.4303     0.1389     0.0255
  180.5000   -84.5050     7.1734     5.5481     7.1226    84.8281     2.4356     0.1324     0.0279
  181.0000   -84.3654     7.1669     5.5481     7.1152    85.1251     2.4431     0.1253     0.0272
  181.5000   -84.2258     7.1605     5.5481     7.1079    85.3350     2.4509     0.1284     0.0266
  182.0000   -84.0864     7.1540     5.5481     7.1005    84.8102     2.4460     0.1328     0.0260
  182.5000   -83.9480     7.1476     5.5481     7.0932    82.5453     2.4362     0.1372     0.0264
  183.0000   -83.8910     7.1411     5.5481     7.0858    81.7029     2.4329     0.1391     0.0269
  183.5000   -83.9485     7.1347     5.5481     7.0785    82.2993     2.4316     0.1376     0.0274
  184.0000   -84.0045     7.1283     5.5481     7.0715    83.2393     2.4365     0.1337     0.0279
  184.5000   -84.0609     7.1219     5.5481     7.0611    84.1753     2.4426     0.1333     0.0283
  185.0000   -84.1172     7.1157     5.5481     7.0507    84.9405     2.4426     0.1347     0.0288
  185.5000   -84.1735     7.1110     5.5481     7.0400    83.8318     2.4414     0.1367     0.0293
  186.0000   -84.2298     7.0826     5.5481     7.0291    82.9520     2.4402     0.1345     0.0298
  186.5000   -84.2861     7.0570     5.5481     7.0583    84.1788     2.4397     0.1307     0.0318
  187.0000   -84.3424     7.0314     5.5481     7.0915    85.4026     2.4407     0.1331     0.0345
  187.5000   -84.3987     7.0060     5.5481     7.1249    85.7299     2.4449     0.1300     0.0371
  188.0000   -84.4550     6.9806     5.5481     7.1524    85.0396     2.4490     0.1253     0.0402
  188.5000   -84.5113     6.9553     5.5474     7.1589    84.7485     2.4523     0.1305     0.0436
  189.0000   -84.5676     6.9301     5.5481     7.1660    84.0040     2.4480     0.1285     0.0469
  189.5000   -84.6239     6.9176     5.6251     7.1598    81.7445     2.4522     0.1266     0.0503
  190.0000   -84.6802     6.9324     5.7120     7.1375    79.3996     2.4471     0.1317     0.0614
  190.5000   -84.7365     6.9422     5.8001     7.1153    78.5080     2.4575     0.1236     0.0809
  191.0000   -84.7928     6.9521     5.8664     7.0931    78.5276     2.4676     0.1174     0.0853
  191.5000   -84.8491     6.9619     5.8786     7.0711    79.4100     2.4772     0.1106     0.0750
