~VERSION INFORMATION
 VERS.                2.0:   CWLS LOG ASCII STANDARD - VERSION 2.0
 WRAP.                 NO:   ONE LINE PER DEPTH STEP
~WELL INFORMATION
#MNEM.UNIT      DATA TYPE    INFORMATION
#----------   ------------   ------------------------------
 STRT.F            1.0000:   START DEPTH
 STOP.F          524.0000:   STOP DEPTH
 STEP.F            0.1000:   STEP LENGTH
 NULL.          -999.2500:   NO VALUE
 COMP.       F D SERV INC:   COMPANY
 WELL.    87-2 SX-3 #87-3:   WELL
 FLD .             TEAPOT:   FIELD
 LOC .       S3 T38N R78W:   LOCATION
 CNTY.            NATRONA:   COUNTY
 STAT.            WYOMING:   STATE
 CTRY. UNITED STATES OF AMERICA:   COUNTRY
 SRVC.     Atlas Wireline:   SERVICE COMPANY
 DATE.        20-OCT-1992:   LOGDATE
 API .       490252254700:   API NUMBER
~CURVE INFORMATION
#MNEM.UNIT       API CODE    CURVE DESCRIPTION
#----------   ------------   ------------------------------
 DEPT.F                  :   
 GRR .GAPI   07 310 01 00:   GAMMA RAY
 RILD.OHMM   07 120 46 00:   INDUCTION LOG DEEP RESISTIVITY
 RILM.OHMM   07 120 44 00:   INDUCTION LOG MEDIUM RESISTIVITY
~PARAMETER INFORMATION
#MNEM.UNIT          VALUE    DESCRIPTION
#----------   ------------   ------------------------------
 PD  .                 GL:   PERMANENT DATUM
 EPD .F              5124:   ELEVATION PERMANENT DATUM
 LMF .                 KB:   LOG MEASURED FROM
 DAPD.F                10:   FEET ABOVE PERMANENT DATUM
 DMF .                 KB:   DRILLING MEASURED FROM
 EKB .F              5134:   KELLING BUSHING
 EDF .F              5133:   DRILLING FLOOR
 EGL .F              5124:   GROUND LEVEL
 DATE.        20-OCT-1992:   RUN DATE
 RUN .                  1:   RUN NUMBER
 DD  .F               533:   DEPTH DRILLER
 DL  .F               532:   DEPTH LOGGER
 BLI .F               524:   BOTTOM LOG INTERVAL
 TLI .F                74:   TOP LOG INTERVAL
 CS  .IN            8.625:   CASING SIZE
 CBD .F                85:   CASING BOTTOM DRILLER
 CBL .F                74:   CASING BOTTOM LOGGER
 BS  .IN            7.875:   BIT SIZE
 BSD .F               533:   BIT SIZE AT DEPTH
 DFT .           AIR FOAM:   DRILLING FLUID TYPE
 TCS .HRS               3:   TIME CURCULATED STOPPED
 MRT .F                70:   MAXIMUM RECORDED TEMPERATURE
 LUN .            HL-6274:   LOGGING UNIT NUMBER
 LUL .             CASPER:   LOGGING UNIT LOCATION
 ENGI.             RAUTIO:   RECORDING ENGINEER
 WITN.        GARY STRONG:   WITNESSED BY
 CLNT.            A2DTECH:   CLIENT CODE
 ORIG.           5" PRINT:   ORIGIN OF DATA
 UWI .       490252254700:   UNIQUE WELL ID
 DICO. A2D Technologies, Inc.:   DIGITIZING COMPANY
~OTHER INFORMATION
~A    DEPT     GRR       RILD       RILM   
# ...
  365.0000    91.7855    18.8220    18.0335
  365.1000    92.2957    18.7240    18.0332
  365.2000    92.7855    18.6917    17.9361
  365.3000    93.0983    18.6919    17.9070
  365.4000    93.3503    18.6922    17.8559
  365.5000    93.6024    18.6899    17.7818
  365.6000    93.8747    18.5628    17.7759
  365.7000    94.4461    18.5630    17.6573
  365.8000    94.6622    18.5633    17.5731
  365.9000    94.7575    18.5635    17.5338
  366.0000    94.8629    18.5638    17.5335
  366.1000    95.0687    18.5641    17.5333
  366.2000    94.7704    18.5643    17.5330
  366.3000    94.5368    18.5646    17.5328
  366.4000    94.1111    18.5648    17.5326
  366.5000    93.6196    18.5651    17.5832
  366.6000    93.2698    18.5653    17.6551
  366.7000    93.2589    18.5656    17.6611
  366.8000    92.9755    18.4825    17.7785
  366.9000    93.1864    18.4370    17.7783
  367.0000    93.4385    18.4373    17.7780
  367.1000    93.7868    18.4375    17.7778
  367.2000    94.3273    18.4378    17.7775
  367.3000    95.1207    18.4380    17.7773
  367.4000    95.5900    18.4383    17.7770
  367.5000    95.9130    18.4859    17.7768
  367.6000    96.2864    18.5679    17.7765
  367.7000    96.7864    18.5682    17.7763
  367.8000    97.2763    18.5684    17.7760
  367.9000    97.5747    18.5687    17.7757
  368.0000    97.7805    18.5690    17.7755
  368.1000    97.8859    18.5692    17.7753
  368.2000    97.8901    18.5695    17.7750
  368.3000    97.8590    18.5698    17.7934
  368.4000    97.5955    18.5700    17.8993
  368.5000    97.3718    18.5703    17.8990
  368.6000    97.1282    18.5705    17.8988
  368.7000    96.8846    18.5708    17.8985
  368.8000    96.6410    18.5710    17.8983
  368.9000    96.3924    18.5713    17.8980
  369.0000    95.9008    18.5716    17.8977
  369.1000    95.4094    18.5718    17.8975
  369.2000    94.9179    18.5721    17.8973
  369.3000    94.4264    18.5723    17.8970
  369.4000    93.9351    18.5726    17.8968
  369.5000    93.3935    18.5728    17.8965
  369.6000    92.9522    18.5731    17.8963
  369.7000    92.4607    18.5734    17.8960
  369.8000    91.8579    18.5736    17.8958
  369.9000    91.1742    18.5739    17.8955
  370.0000    90.6829    18.5741    17.8953
  370.1000    89.9437    18.5744    17.8950
  370.2000    89.5887    18.5747    17.8948
  370.3000    89.2085    18.5749    17.8945
  370.4000    88.7980    18.5752    17.8943
  370.5000    88.5543    18.5755    17.8940
  370.6000    88.2809    18.5757    17.8938
  370.7000    88.0672    18.5760    17.7941
  370.8000    87.9854    18.5325    17.7686
  370.9000    87.9897    18.4473    17.7683
  371.0000    87.9939    18.4476    17.7681
  371.1000    87.9983    18.4478    17.7678
  371.2000    88.0024    18.4481    17.7675
  371.3000    88.3809    18.3938    17.7673
  371.4000    89.1439    18.3203    17.7671
  371.5000    90.0637    18.3206    17.7668
  371.6000    90.8518    18.3209    17.7666
  371.7000    92.2731    18.3211    17.7663
  371.8000    93.3391    18.2561    17.7661
  371.9000    94.4256    18.1942    17.7658
  372.0000    95.5224    18.1759    17.7111
  372.1000    96.5839    18.0682    17.6415
  372.2000    96.8463    18.0685    17.6318
  372.3000    96.6126    17.9935    17.5181
  372.4000    96.1869    17.8914    17.5179
  372.5000    95.8220    17.7899    17.5176
  372.6000    95.4368    17.6951    17.4744
  372.7000    94.7126    17.6954    17.3950
  372.8000    94.1409    17.6113    17.3948
  372.9000    93.5222    17.5728    17.2966
  373.0000    92.7829    17.5340    17.2731
  373.1000    92.2359    17.4345    17.2192
  373.2000    92.0321    17.3301    17.1207
  373.3000    92.0373    17.3303    17.0227
  373.4000    92.0413    17.2595    16.9135
  373.5000    92.3995    17.1616    16.8284
  373.6000    92.8995    17.0642    16.6696
  373.7000    93.4653    16.9674    16.5205
  373.8000    94.2029    16.8545    16.4259
  373.9000    94.7947    16.8547    16.3312
  374.0000    95.4051    16.7971    16.2384
  374.1000    96.1529    16.7018    16.1455
  374.2000    96.9008    16.6218    16.0531
  374.3000    97.6132    16.6221    15.9612
  374.4000    98.1539    16.5341    15.8796
  374.5000    98.1578    16.4404    15.8793
  374.6000    98.3340    16.3471    15.7989
  374.7000    98.4698    16.2543    15.7682
  374.8000    98.4134    16.1657    15.7282
  374.9000    98.1697    16.1659    15.6579
  375.0000    97.9261    16.0912    15.6577
  375.1000    97.2879    15.9999    15.5681
  375.2000    96.5487    15.9091    15.4791
  375.3000    95.8095    15.8188    15.3905
  375.4000    95.0398    15.7221    15.3024
  375.5000    93.9519    15.7223    15.2247
  375.6000    93.2879    15.5981    15.2245
  375.7000    92.7156    15.4630    15.1468
  375.8000    92.3355    15.3972    15.0601
  375.9000    92.1475    15.3950    14.9739
  376.0000    92.1517    15.2906    14.8882
  376.1000    92.1560    15.1515    14.8035
  376.2000    92.3525    15.0791    14.8033
  376.3000    92.7412    15.0487    14.6709
  376.4000    93.3220    14.9633    14.5972
  376.5000    94.0445    14.8708    14.5685
  376.6000    94.6057    14.7940    14.4851
  376.7000    95.0443    14.7101    14.3939
  376.8000    95.7063    14.6267    14.2465
  376.9000    96.6667    14.5437    14.1387
  377.0000    97.8594    14.4611    14.0578
  377.1000    98.8754    14.3791    13.9773
  377.2000    99.8507    14.2976    13.8973
  377.3000   100.6591    14.2626    13.8178
  377.4000   101.2754    14.2348    13.6769
  377.5000   101.6995    14.1540    13.6092
  377.6000   101.9314    14.0656    13.5551
  377.7000   101.9363    14.0658    13.4100
  377.8000   101.9399    14.0120    13.3260
  377.9000   101.6306    13.9684    13.2570
  378.0000   100.9369    13.9504    13.2328
  378.1000    99.9496    13.8712    13.1977
  378.2000    98.9222    13.7926    13.1222
  378.3000    97.9753    13.7755    13.0485
  378.4000    97.1703    13.7321    13.0483
  378.5000    96.4310    13.6801    12.9887
  378.6000    95.7625    13.6717    12.9570
  378.7000    95.2710    13.5854    12.9306
  378.8000    94.6993    13.5856    12.8663
  378.9000    94.2881    13.5345    12.8661
  379.0000    93.9484    13.4915    12.8660
  379.1000    93.6087    13.4751    12.8151
  379.2000    93.1577    13.3981    12.7418
  379.3000    92.8992    13.3983    12.6868
  379.4000    92.9032    13.3984    12.6866
  379.5000    92.7304    13.3986    12.6864
  379.6000    92.4868    13.3742    12.6862
  379.7000    92.2432    13.3058    12.6860
  379.8000    91.9996    13.3060    12.6859
  379.9000    91.7113    13.3062    12.6857
  380.0000    91.5124    13.3064    12.6855
  380.1000    91.4155    13.3066    12.6853
  380.2000    91.4197    13.3068    12.6852
  380.3000    91.4594    13.3070    12.6850
  380.4000    91.7321    13.3071    12.6848
  380.5000    91.9636    13.3073    12.6846
  380.6000    92.3876    13.3075    12.6844
  380.7000    93.0040    13.3077    12.6843
  380.8000    93.8127    13.3079    12.6414
  380.9000    94.8082    13.3081    12.5955
  381.0000    95.8037    13.3082    12.5953
  381.1000    96.6021    13.3084    12.5952
  381.2000    97.3499    13.3086    12.5950
  381.3000    98.0117    13.3088    12.5948
  381.4000    98.5422    13.3090    12.5946
  381.5000    99.3661    13.3092    12.5757
  381.6000    99.8151    13.3094    12.5065
  381.7000   100.1481    13.3095    12.5063
  381.8000   100.4002    13.2870    12.5062
  381.9000   100.5410    13.2174    12.5060
  382.0000   100.2974    13.2176    12.5058
  382.1000    99.8059    13.1536    12.5056
  382.2000    99.1223    13.1260    12.5055
  382.3000    98.3830    13.0959    12.4388
  382.4000    97.6437    13.0351    12.4180
  382.5000    96.9045    13.0353    12.3832
  382.6000    96.0746    13.0355    12.3123
  382.7000    95.4257    12.9812    12.2418
  382.8000    94.6865    12.9075    12.1594
  382.9000    94.1596    12.8343    12.1021
  383.0000    93.8654    12.7661    12.0744
  383.1000    93.3640    12.7664    12.0480
