~VERSION INFORMATION
 VERS.                2.0:   CWLS LOG ASCII STANDARD - VERSION 2.0
 WRAP.                 NO:   ONE LINE PER DEPTH STEP
~WELL INFORMATION
#MNEM.UNIT      DATA TYPE    INFORMATION
#----------   ------------   ------------------------------
 STRT.F            0.5000:   START DEPTH
 STOP.F          474.0000:   STOP DEPTH
 STEP.F            0.5000:   STEP LENGTH
 NULL.          -999.2500:   NO VALUE
 COMP.       F D SERV INC:   COMPANY
 WELL. NAVAL PETROLEUM RESERVE 3 SX-3 #78-1-3:   WELL
 FLD .             TEAPOT:   FIELD
 LOC .       S3 T38N R78W:   LOCATION
 CNTY.            NATRONA:   COUNTY
 STAT.            WYOMING:   STATE
 CTRY. UNITED STATES OF AMERICA:   COUNTRY
 SRVC.      Western Atlas:   SERVICE COMPANY
 DATE.        13-OCT-1992:   LOGDATE
 API .       490252255800:   API NUMBER
~CURVE INFORMATION
#MNEM.UNIT       API CODE    CURVE DESCRIPTION
#----------   ------------   ------------------------------
 DEPT.F                  :   
 GRR .GAPI   06 310 01 00:   GAMMA RAY FROM RESISTIVITY
 RILD.OHMM   06 120 46 00:   DEEP INDUCTION RESISTIVITY
 RILM.OHMM   06 120 44 00:   INDUCTION LOG MEDIUM RESISTIVITY
~PARAMETER INFORMATION
#MNEM.UNIT          VALUE    DESCRIPTION
#----------   ------------   ------------------------------
 PD  .                 GL:   PERMANENT DATUM
 EPD .F              5157:   ELEVATION PERMANENT DATUM
 LMF .                 KB:   LOG MEASURED FROM
 DAPD.F                10:   FEET ABOVE PERMANENT DATUM
 DMF .                 KB:   DRILLING MEASURED FROM
 EKB .F              5167:   KELLING BUSHING
 EDF .F              5166:   DRILLING FLOOR
 EGL .F              5157:   GROUND LEVEL
 DATE.        13-OCT-1992:   RUN DATE
 RUN .                  1:   RUN NUMBER
 DD  .F               480:   DEPTH DRILLER
 DL  .F               480:   DEPTH LOGGER
 BLI .F               474:   BOTTOM LOG INTERVAL
 CS  .IN            8.625:   CASING SIZE
 CBD .F                85:   CASING BOTTOM DRILLER
 CBL .F               100:   CASING BOTTOM LOGGER
 BS  .IN            7.875:   BIT SIZE
 BSD .F               480:   BIT SIZE AT DEPTH
 DFT .           AIR FOAM:   DRILLING FLUID TYPE
 BHT .F                70:   BOTTOM HOLE TEMPERATURE
 TCS .HRS            0230:   TIME CURCULATED STOPPED
 MRT .F                70:   MAXIMUM RECORDED TEMPERATURE
 LUN .            HL-6274:   LOGGING UNIT NUMBER
 LUL .             CASPER:   LOGGING UNIT LOCATION
 ENGI.             RAUTIO:   RECORDING ENGINEER
 WITN.        GARY STRONG:   WITNESSED BY
 CLNT.            A2DTECH:   CLIENT CODE
 ORIG.           5" PRINT:   ORIGIN OF DATA
 UWI .       490252255800:   UNIQUE WELL ID
 DICO. A2D Technologies, Inc.:   DIGITIZING COMPANY
~OTHER INFORMATION
~A    DEPT      GRR      RILD       RILM   
# ...
   91.5000    88.3861  -999.2500  -999.2500
   92.0000    89.5928  -999.2500  -999.2500
   92.5000    91.4027  -999.2500  -999.2500
   93.0000    92.0060  -999.2500  -999.2500
   93.5000    91.1011  -999.2500  -999.2500
   94.0000    87.1795  -999.2500  -999.2500
   94.5000    84.7340  -999.2500  -999.2500
   95.0000    83.2579  -999.2500  -999.2500
   95.5000    82.8517  -999.2500  -999.2500
   96.0000    81.4480  -999.2500  -999.2500
   96.5000    81.7496  -999.2500  -999.2500
   97.0000    85.9728  -999.2500  -999.2500
   97.5000    88.0845  -999.2500  -999.2500
   98.0000    88.0603  -999.2500  -999.2500
   98.5000    86.5762  -999.2500  -999.2500
   99.0000    88.3861  -999.2500  -999.2500
   99.5000   101.9608  -999.2500  -999.2500
  100.0000   118.2504     4.2508     8.3997
  100.5000   131.2217     3.8275     6.2864
  101.0000   135.1433     1.8541     4.8348
  101.5000   141.3373     1.8672     5.0744
  102.0000   146.0770     2.2821     9.4504
  102.5000   148.5080     4.5572    11.7077
  103.0000   149.1290     5.6474    13.5359
  103.5000   149.1785     8.9146    15.2230
  104.0000   147.6562     8.2628    15.3286
  104.5000   141.2750     7.3984     9.3707
  105.0000   140.1502     6.7167     9.0666
  105.5000   141.9824     6.4893     9.3853
  106.0000   142.0001     6.4455    10.1264
  106.5000   139.6046     6.4913     9.9187
  107.0000   138.4157     7.0053     8.6984
  107.5000   139.0368     7.5078     8.0618
  108.0000   140.2611     7.8269     7.9511
  108.5000   140.2789     7.9370     8.0063
  109.0000   139.6889     8.0486     8.0063
  109.5000   138.2028     8.1055     8.0063
  110.0000   137.3155     8.1629     8.0026
  110.5000   136.7300     8.0519     7.9511
  111.0000   137.6812     8.1089     8.1177
  111.5000   139.2841     8.2229     8.2306
  112.0000   142.2175     8.3386     8.3452
  112.5000   144.9502     8.3976     8.3452
  113.0000   145.2696     8.3987     8.3452
  113.5000   144.6840     8.4001     8.3452
  114.0000   143.4951     8.4012     8.3452
  114.5000   137.1780     8.4024     8.2877
  115.0000   133.8775     8.3453     8.2306
  115.5000   133.5892     8.2321     8.2295
  116.0000   134.2147     8.2332     8.1740
  116.5000   133.9307     8.2343     8.1740
  117.0000   135.1875     8.1787     8.1740
  117.5000   137.6269     8.2366     8.1740
  118.0000   138.2072     8.2377     8.1740
  118.5000   136.1178     8.2959     8.1740
  119.0000   137.0405     8.2399     8.2306
  119.5000   138.2649     8.2413     8.2877
  120.0000   137.9810     8.2996     8.3452
  120.5000   136.7921     8.4163     8.4030
  121.0000   135.6032     8.5347     8.5200
  121.5000   135.0132     8.6547     8.6421
  122.0000   132.6221     8.8373     8.8284
  122.5000   131.1312     9.0863     9.0666
  123.0000   131.7567     9.1506     9.2565
  123.5000   133.0055     9.2828     9.3853
  124.0000   134.5038     9.4848     9.5159
  124.5000   134.8268     9.8101     9.6483
  125.0000   135.1462    10.0170     9.8504
  125.5000   136.6723    10.2284     9.9874
  126.0000   137.5950    10.4442    10.1966
  126.5000   134.2945    10.7385    10.4824
  127.0000   125.8658    11.0412    10.9271
  127.5000   121.0570    11.4312    11.3965
  128.0000   120.4714    11.7533    11.9529
  128.5000   119.8858    12.2529    12.6322
  129.0000   117.4903    12.6856    12.3731
  129.5000   114.1740    12.3412    12.2033
  130.0000   114.2885    12.4289    12.3731
  130.5000   123.2795    12.5166    12.3731
  131.0000   129.3304    12.5080    12.3731
  131.5000   130.5548    12.3484    12.3731
  132.0000   128.7626    12.0966    12.2033
  132.5000   125.1604    11.9320    11.9529
  133.0000   124.2688    11.7694    11.7077
  133.5000   123.0843    11.6898    11.6271
  134.0000   118.8788    11.5308    11.3886
  134.5000   118.2926    11.4529    11.3101
  135.0000   121.9309    11.4549    11.1549
  135.5000   124.3620    11.3775    11.0781
  136.0000   124.3238    11.2965    11.0781
  136.5000   121.4740    11.1469    11.0018
  137.0000   119.2914    11.1488    11.0018
  137.5000   119.6108    11.0731    11.0781
  138.0000   120.5335    11.1518    11.0781
  138.5000   121.1546    11.3871    11.0781
  139.0000   120.8707    11.3098    11.1549
  139.5000   117.5702    11.1559    11.2323
  140.0000   113.3647    11.1578    11.1549
  140.5000   111.8741    11.1593    11.0781
  141.0000   109.7803    11.0839    11.0018
  141.5000   108.8929    10.9272    10.9261
  142.0000   113.5163    10.7102    10.7761
  142.5000   120.5128    10.6378    10.6282
  143.0000   126.4469    10.5659    10.4824
  143.5000   128.2746    10.4945    10.3385
  144.0000   127.9907    10.4236    10.2673
  144.5000   126.8018    10.2822    10.1966
  145.0000   125.3068    10.2124    10.1966
  145.5000   125.3290    10.2141    10.1264
  146.0000   125.6484    10.2155    10.1264
  146.5000   124.4595    10.1465    10.1264
  147.0000   121.1590    10.0705    10.0567
  147.5000   119.6481     9.9412     9.9187
  148.0000   121.5083     9.8737     9.7826
  148.5000   123.6259     9.7394     9.6483
  149.0000   122.9884     9.8086     9.6483
  149.5000   120.6489     9.7420     9.6483
  150.0000   120.0589     9.6762     9.5819
  150.5000   120.6844     9.6108     9.5819
  151.0000   122.2104     9.6124     9.5819
  151.5000   128.5068     9.5475     9.4504
  152.0000   130.0151     9.4176     9.3207
  152.5000   129.4118     9.4103     9.2658
  153.0000   126.0372     9.4778     9.3323
  153.5000   120.6637     9.4778     9.3989
  154.0000   119.7587     9.4124     9.4661
  154.5000   120.9653     9.4778     9.4684
  155.0000   123.0769     9.4778     9.4051
  155.5000   124.5852     9.4038     9.2778
  156.0000   125.4902     9.1557     9.0893
  156.5000   126.0935     8.9677     8.8433
  157.0000   126.9985     8.7231     8.6636
  157.5000   128.2051     8.6033     8.4292
  158.0000   130.3167     8.3686     8.2583
  158.5000   129.7134     8.1968     8.0905
  159.0000   126.6968     8.0805     7.9807
  159.5000   120.0603     8.0285     7.9273
  160.0000   118.8537     8.0285     7.8747
  160.5000   118.5520     8.0285     7.8763
  161.0000   118.5520     7.9732     7.8822
  161.5000   120.0603     7.9732     7.9344
  162.0000   122.7753     8.1968     8.0465
  162.5000   126.9985     8.3686     8.2736
  163.0000   129.4118     8.3033     8.1055
  163.5000   130.0151     8.2536     7.9955
  164.0000   127.9035     8.3686     8.2216
  164.5000   122.4716     8.4266     8.2267
  165.0000   123.1574     8.4266     8.3397
  165.5000   125.1885     8.4851     8.4575
  166.0000   124.5852     8.7231     8.6962
  166.5000   124.2836     8.9059     8.8190
  167.0000   124.2836     8.7231     8.6398
  167.5000   125.4902     8.7231     8.7015
  168.0000   128.5068     8.8445     8.7636
  168.5000   131.5294     8.8445     8.7657
  169.0000   132.1267     8.8445     8.7675
  169.5000   131.8250     8.8445     8.7692
  170.0000   132.7300     8.9059     8.7710
  170.5000   133.6350     8.7836     8.7119
  171.0000   133.3333     8.7231     8.6540
  171.5000   133.0317     8.6630     8.6558
  172.0000   132.7300     8.6630     8.6576
  172.5000   133.0317     8.6630     8.6597
  173.0000   134.2866     8.6630     8.7215
  173.5000   137.5566     8.7231     8.7233
  174.0000   136.6516     8.7231     8.7250
  174.5000   133.0317     8.7231     8.6666
  175.0000   130.9201     8.6630     8.7285
  175.5000   129.1101     8.7231     8.7908
  176.0000   126.6968     8.7836     8.6122
  176.5000   125.4761     8.7231     8.6143
  177.0000   124.5852     8.7836     8.6160
  177.5000   123.9819     8.7836     8.6775
  178.0000   125.1885     8.7231     8.6793
  178.5000   125.7919     8.7231     8.6212
  179.0000   126.0935     8.7231     8.6230
  179.5000   127.9035     8.7231     8.6251
  180.0000   129.1101     8.6630     8.6268
  180.5000   131.5234     8.6033     8.5101
  181.0000   130.9201     8.4851     8.4532
  181.5000   131.2217     8.4266     8.3963
  182.0000   132.7300     8.3686     8.2831
