~VERSION INFORMATION
 VERS.                2.0:   CWLS LOG ASCII STANDARD - VERSION 2.0
 WRAP.                 NO:   ONE LINE PER DEPTH STEP
~WELL INFORMATION
#MNEM.UNIT      DATA TYPE    INFORMATION
#----------   ------------   ------------------------------
 STRT.F         1050.0000:   START DEPTH
 STOP.F         2592.5000:   STOP DEPTH
 STEP.F            0.5000:   STEP LENGTH
 NULL.          -999.2500:   NO VALUE
 COMP. LAWRENCE/ALLISON INC:   COMPANY
 WELL. NAVAL PETROLEUM RESERVE 3 X15 #34-15:   WELL
 FLD .            WILDCAT:   FIELD
 LOC .      S15 T38N R78W:   LOCATION
 CNTY.            NATRONA:   COUNTY
 STAT.            WYOMING:   STATE
 CTRY. UNITED STATES OF AMERICA:   COUNTRY
 SRVC.            Unknown:   SERVICE COMPANY
 DATE.        07-AUG-1988:   LOGDATE
 API .       490251125500:   API NUMBER
~CURVE INFORMATION
#MNEM.UNIT       API CODE    CURVE DESCRIPTION
#----------   ------------   ------------------------------
 DEPT.F                  :   
 ROP .MIN/FT 91 810 01 00:   RATE OF DRILLING PENETRATION
 TGAS.UNITS  91 830 01 00:   TOTAL GAS FROM HOTWIRE
~PARAMETER INFORMATION
#MNEM.UNIT          VALUE    DESCRIPTION
#----------   ------------   ------------------------------
 EKB .F              5286:   KELLING BUSHING
 EGL .F              5276:   GROUND LEVEL
 DATE.           9-7-1988:   RUN DATE
 RUN .                  1:   RUN NUMBER
 DD  .F              2592:   DEPTH DRILLER
 CBD .F              1044:   CASING BOTTOM DRILLER
 ENGI.               HUSK:   RECORDING ENGINEER
 CLNT.            A2DTECH:   CLIENT CODE
 ORIG.           5" PRINT:   ORIGIN OF DATA
 UWI .       490251125500:   UNIQUE WELL ID
 DICO. A2D Technologies, Inc.:   DIGITIZING COMPANY
~OTHER INFORMATION
~A  DEPT         ROP     TGAS   
# ...
 2386.5000     0.4546     8.5711
 2387.0000     0.4157     8.2096
 2387.5000     0.3909     7.8484
 2388.0000     0.3912     7.4877
 2388.5000     0.3929     7.3358
 2389.0000     0.3975     7.4293
 2389.5000     0.4021     7.5219
 2390.0000     0.4182     7.6162
 2390.5000     0.4416     7.7104
 2391.0000     0.4651     7.8045
 2391.5000     0.4889     7.8985
 2392.0000     0.5138     7.9925
 2392.5000     0.4836     8.0866
 2393.0000     0.4435     8.1806
 2393.5000     0.4288     8.2747
 2394.0000     0.4508     8.3687
 2394.5000     0.4848     8.4628
 2395.0000     0.5040     8.5569
 2395.5000     0.5041     8.6506
 2396.0000     0.5042     8.7438
 2396.5000     0.5042     8.7985
 2397.0000     0.5042     8.7986
 2397.5000     0.5042     8.7990
 2398.0000     0.5046     8.7989
 2398.5000     0.4856     8.7989
 2399.0000     0.4586     8.7989
 2399.5000     0.4317     8.7989
 2400.0000     0.4297     8.7989
 2400.5000     0.4516     8.7989
 2401.0000     0.4728     8.7989
 2401.5000     0.4915     8.7989
 2402.0000     0.4921     8.7989
 2402.5000     0.4775     8.7989
 2403.0000     0.4575     8.7989
 2403.5000     0.4374     8.7989
 2404.0000     0.4173     8.7989
 2404.5000     0.3967     8.7989
 2405.0000     0.3915     8.7989
 2405.5000     0.3897     8.7989
 2406.0000     0.3576     8.7989
 2406.5000     0.3515     8.7989
 2407.0000     0.3781     8.7989
 2407.5000     0.4047     8.7989
 2408.0000     0.4287     8.7989
 2408.5000     0.4290     8.7989
 2409.0000     0.4288     8.7989
 2409.5000     0.4247     8.7989
 2410.0000     0.4083     8.7989
 2410.5000     0.3919     8.7989
 2411.0000     0.3911     8.7989
 2411.5000     0.3912     8.7989
 2412.0000     0.3911     8.7989
 2412.5000     0.3913     8.7989
 2413.0000     0.3972     8.7989
 2413.5000     0.4173     8.7989
 2414.0000     0.4367     8.7989
 2414.5000     0.4543     8.7989
 2415.0000     0.4369     8.7989
 2415.5000     0.4125     8.7989
 2416.0000     0.3880     8.7989
 2416.5000     0.3664     8.7989
 2417.0000     0.3658     8.7989
 2417.5000     0.3811     8.7989
 2418.0000     0.4081     8.7989
 2418.5000     0.4351     8.7988
 2419.0000     0.4624     8.7986
 2419.5000     0.4904     8.7994
 2420.0000     0.4920     8.8258
 2420.5000     0.4877     8.9291
 2421.0000     0.4819     9.0293
 2421.5000     0.4663     9.1294
 2422.0000     0.4403     9.2289
 2422.5000     0.4144     9.3036
 2423.0000     0.3884     9.3017
 2423.5000     0.3613     9.3016
 2424.0000     0.3534     9.3017
 2424.5000     0.3700     9.3017
 2425.0000     0.3949     9.3017
 2425.5000     0.4200     9.3017
 2426.0000     0.4455     9.3017
 2426.5000     0.4525     9.3017
 2427.0000     0.4126     9.3017
 2427.5000     0.3726     9.3017
 2428.0000     0.3411     9.3017
 2428.5000     0.3423     9.3016
 2429.0000     0.3646     9.3020
 2429.5000     0.3871     9.2743
 2430.0000     0.3781     9.2299
 2430.5000     0.3471     9.1852
 2431.0000     0.3175     9.1405
 2431.5000     0.3281     9.0958
 2432.0000     0.3503     9.0512
 2432.5000     0.3863     9.0065
 2433.0000     0.4225     8.9618
 2433.5000     0.4587     8.9170
 2434.0000     0.4961     8.8723
 2434.5000     0.4911     8.8284
 2435.0000     0.4628     8.8354
 2435.5000     0.4250     8.9460
 2436.0000     0.3853     9.0546
 2436.5000     0.3332     9.1634
 2437.0000     0.3136     9.2750
 2437.5000     0.3142     9.3012
 2438.0000     0.3331     9.3020
 2438.5000     0.3702     9.3019
 2439.0000     0.4081     9.3014
 2439.5000     0.4458     9.3011
 2440.0000     0.4832     9.2322
 2440.5000     0.5169     9.0954
 2441.0000     0.5425     8.9587
 2441.5000     0.5669     8.8215
 2442.0000     0.5670     8.6841
 2442.5000     0.5595     8.5463
 2443.0000     0.5459     8.4106
 2443.5000     0.5321     8.3120
 2444.0000     0.5240     8.4403
 2444.5000     0.5127     8.5648
 2445.0000     0.4917     8.6884
 2445.5000     0.4705     8.8124
 2446.0000     0.4492     8.9363
 2446.5000     0.4287     9.0602
 2447.0000     0.4464     9.1842
 2447.5000     0.4674     9.3013
 2448.0000     0.4885     9.3504
 2448.5000     0.4794     9.3964
 2449.0000     0.4548     9.4425
 2449.5000     0.4272     9.4886
 2450.0000     0.3984     9.5348
 2450.5000     0.3918     9.5809
 2451.0000     0.4311     9.6271
 2451.5000     0.4748     9.6736
 2452.0000     0.4975     9.7206
 2452.5000     0.4468     9.7652
 2453.0000     0.4022     9.7104
 2453.5000     0.4037     9.2708
 2454.0000     0.4038     9.2000
 2454.5000     0.4038     9.1250
 2455.0000     0.4038     9.0501
 2455.5000     0.4038     8.9756
 2456.0000     0.4038     8.9010
 2456.5000     0.4038     8.8253
 2457.0000     0.4038     8.7982
 2457.5000     0.4038     8.8028
 2458.0000     0.4038     8.9181
 2458.5000     0.4038     9.0338
 2459.0000     0.4038     9.1486
 2459.5000     0.4038     9.2633
 2460.0000     0.4037     9.3780
 2460.5000     0.4034     9.4928
 2461.0000     0.4056     9.6077
 2461.5000     0.4504     9.7215
 2462.0000     0.4939     9.7975
 2462.5000     0.5165     9.7587
 2463.0000     0.5006     9.7229
 2463.5000     0.4824     9.6873
 2464.0000     0.4642     9.6515
 2464.5000     0.4555     9.6157
 2465.0000     0.4619     9.5800
 2465.5000     0.4681     9.5443
 2466.0000     0.4743     9.5085
 2466.5000     0.4795     9.4728
 2467.0000     0.4591     9.4371
 2467.5000     0.4282     9.4016
 2468.0000     0.4030     9.3664
 2468.5000     0.4038     9.3294
 2469.0000     0.4050     9.2349
 2469.5000     0.4113     8.8970
 2470.0000     0.4166     8.5653
 2470.5000     0.4159     8.2870
 2471.0000     0.4020     8.2957
 2471.5000     0.3877     8.2964
 2472.0000     0.3844     8.2960
 2472.5000     0.4188     8.2961
 2473.0000     0.4529     8.2961
 2473.5000     0.4870     8.2961
 2474.0000     0.5217     8.2961
 2474.5000     0.5292     8.2961
 2475.0000     0.5294     8.2961
 2475.5000     0.5290     8.2961
 2476.0000     0.5410     8.2961
 2476.5000     0.5564     8.2961
 2477.0000     0.5666     8.2961
 2477.5000     0.5877     8.2961
 2478.0000     0.6159     8.2961
 2478.5000     0.6303     8.2961
 2479.0000     0.5998     8.2961
 2479.5000     0.5585     8.2962
 2480.0000     0.5168     8.2959
 2480.5000     0.4794     8.2860
 2481.0000     0.4671     8.2466
 2481.5000     0.4539     8.2083
 2482.0000     0.4406     8.1700
 2482.5000     0.4272     8.1317
 2483.0000     0.4140     8.0934
 2483.5000     0.4035     8.0551
 2484.0000     0.4086     8.0169
 2484.5000     0.4327     7.9786
 2485.0000     0.4564     7.9403
 2485.5000     0.4802     7.9019
 2486.0000     0.5036     7.8634
 2486.5000     0.5038     7.8249
 2487.0000     0.4792     7.7941
 2487.5000     0.4532     7.9012
 2488.0000     0.4453     8.0148
 2488.5000     0.4724     8.1281
 2489.0000     0.5000     8.2414
 2489.5000     0.5282     8.3520
 2490.0000     0.5259     8.4601
 2490.5000     0.4927     8.5683
 2491.0000     0.4593     8.6772
 2491.5000     0.4415     8.7846
 2492.0000     0.4405     8.7191
 2492.5000     0.4361     8.6271
 2493.0000     0.4324     8.5346
 2493.5000     0.4354     8.4423
 2494.0000     0.4564     8.3501
 2494.5000     0.4962     8.2579
 2495.0000     0.5376     8.1657
 2495.5000     0.5788     8.0736
 2496.0000     0.6047     7.9813
 2496.5000     0.5771     7.8886
 2497.0000     0.5310     7.7956
 2497.5000     0.4848     7.7538
 2498.0000     0.4534     7.7137
 2498.5000     0.4572     7.6733
 2499.0000     0.4808     7.6327
 2499.5000     0.5044     7.5921
 2500.0000     0.4972     7.5515
 2500.5000     0.4387     7.5110
 2501.0000     0.3936     7.4704
 2501.5000     0.3538     7.4299
 2502.0000     0.3683     7.3894
 2502.5000     0.3959     7.3484
 2503.0000     0.4234     7.3075
 2503.5000     0.4512     7.2176
 2504.0000     0.4784     7.0916
 2504.5000     0.4834     6.9652
 2505.0000     0.4877     6.8372
 2505.5000     0.4910     6.7882
 2506.0000     0.4721     6.7877
 2506.5000     0.4525     6.7876
 2507.0000     0.4329     6.7877
 2507.5000     0.4134     6.7877
