~VERSION INFORMATION
 VERS.                2.0:   CWLS LOG ASCII STANDARD - VERSION 2.0
 WRAP.                 NO:   ONE LINE PER DEPTH STEP
~WELL INFORMATION
#MNEM.UNIT      DATA TYPE    INFORMATION
#----------   ------------   ------------------------------
 STRT.F         1420.5000:   START DEPTH
 STOP.F         2350.5000:   STOP DEPTH
 STEP.F            0.5000:   STEP LENGTH
 NULL.          -999.2500:   NO VALUE
 COMP. BROWN JOHN E&C INC:   COMPANY
 WELL.   15 STX-14 #15-14:   WELL
 FLD .             TEAPOT:   FIELD
 LOC .      S14 T38N R78W:   LOCATION
 CNTY.            NATRONA:   COUNTY
 STAT.            WYOMING:   STATE
 CTRY. UNITED STATES OF AMERICA:   COUNTRY
 SRVC.            Unknown:   SERVICE COMPANY
 DATE.        02-JUN-1991:   LOGDATE
 API .       490251096000:   API NUMBER
~CURVE INFORMATION
#MNEM.UNIT       API CODE    CURVE DESCRIPTION
#----------   ------------   ------------------------------
 DEPT.F                  :   
 ROP .MIN/FT 91 810 01 00:   RATE OF DRILLING PENETRATION
 TGAS.UNITS  91 830 01 00:   TOTAL GAS
~PARAMETER INFORMATION
#MNEM.UNIT          VALUE    DESCRIPTION
#----------   ------------   ------------------------------
 EKB .F              5241:   KELLING BUSHING
 EGL .F              5231:   GROUND LEVEL
 DATE.             6-2-91:   RUN DATE
 DD  .F              2350:   DEPTH DRILLER
 BLI .F              2347:   BOTTOM LOG INTERVAL
 TLI .F              1420:   TOP LOG INTERVAL
 ENGI.              TOWER:   RECORDING ENGINEER
 CLNT.            A2DTECH:   CLIENT CODE
 ORIG.         2.5" PRINT:   ORIGIN OF DATA
 UWI .       490251096000:   UNIQUE WELL ID
 DICO. A2D Technologies, Inc.:   DIGITIZING COMPANY
~OTHER INFORMATION
~A  DEPT       ROP        TGAS  
# ...
 1906.5000     0.6250  2470.2256
 1907.0000     0.6250  2470.7334
 1907.5000     0.6439  2489.5920
 1908.0000     0.6250  2489.8745
 1908.5000     0.6250  2490.1570
 1909.0000     0.6250  2490.4395
 1909.5000     0.6061  2490.7219
 1910.0000     0.5669  2491.0044
 1910.5000     0.5492  2491.3237
 1911.0000     0.5492  2491.5757
 1911.5000     0.5492  2491.8513
 1912.0000     0.5492  2492.1340
 1912.5000     0.5492  2492.4163
 1913.0000     0.5492  2492.6987
 1913.5000     0.5492  2492.9812
 1914.0000     0.5492  2493.2637
 1914.5000     0.5427  2493.5933
 1915.0000     0.5303  2493.8455
 1915.5000     0.5114  2494.1108
 1916.0000     0.5093  2494.3933
 1916.5000     0.4924  2494.6758
 1917.0000     0.4924  2494.9583
 1917.5000     0.4735  2485.1985
 1918.0000     0.4735  2476.6946
 1918.5000     0.4735  2462.4167
 1919.0000     0.4735  2439.6294
 1919.5000     0.4735  2402.2246
 1920.0000     0.4735  2399.9985
 1920.5000     0.4924  2383.9646
 1921.0000     0.5303  2377.2190
 1921.5000     0.5492  2365.7009
 1922.0000     0.5520  2354.4382
 1922.5000     0.5758  2347.4373
 1923.0000     0.6061  2328.9282
 1923.5000     0.6250  2329.1804
 1924.0000     0.6250  2308.8718
 1924.5000     0.6250  2292.0278
 1925.0000     0.6250  2286.0879
 1925.5000     0.6250  2265.2817
 1926.0000     0.6250  2255.2717
 1926.5000     0.6331  2255.5542
 1927.0000     0.6818  2237.0554
 1927.5000     0.7008  2237.3076
 1928.0000     0.7197  2197.9084
 1928.5000     0.7197  2159.2778
 1929.0000     0.7197  2132.9470
 1929.5000     0.7197  2091.0562
 1930.0000     0.6932  2049.1619
 1930.5000     0.6164  2019.5706
 1931.0000     0.5871  2013.3264
 1931.5000     0.5871  1994.8073
 1932.0000     0.6061  1957.1537
 1932.5000     0.6061  1933.8436
 1933.0000     0.6250  1891.9425
 1933.5000     0.6439  1857.0830
 1934.0000     0.6672  1817.7006
 1934.5000     0.6909  1754.7170
 1935.0000     0.7008  1705.5419
 1935.5000     0.7008  1658.1646
 1936.0000     0.7008  1620.7599
 1936.5000     0.7008  1579.8580
 1937.0000     0.7197  1541.9883
 1937.5000     0.7008  1521.1820
 1938.0000     0.7008  1508.9122
 1938.5000     0.7008  1498.4009
 1939.0000     0.7008  1490.6486
 1939.5000     0.7005  1490.9780
 1940.0000     0.6768  1491.2302
 1940.5000     0.6341  1490.4919
 1941.0000     0.5492  1472.9060
 1941.5000     0.5298  1473.2322
 1942.0000     0.4871  1481.2972
 1942.5000     0.4735  1492.6255
 1943.0000     0.4735  1492.9080
 1943.5000     0.4735  1493.1904
 1944.0000     0.4790  1493.4998
 1944.5000     0.4924  1493.7552
 1945.0000     0.5114  1496.5496
 1945.5000     0.5303  1508.3796
 1946.0000     0.5361  1494.6025
 1946.5000     0.5492  1476.3087
 1947.0000     0.5492  1445.9622
 1947.5000     0.5492  1425.1558
 1948.0000     0.5492  1363.9700
 1948.5000     0.5682  1345.3937
 1949.0000     0.5682  1304.5002
 1949.5000     0.5682  1262.5981
 1950.0000     0.5682  1220.7113
 1950.5000     0.5682  1170.2799
 1951.0000     0.5871  1118.0930
 1951.5000     0.5871  1063.1519
 1952.0000     0.5806  1008.4989
 1952.5000     0.5682   989.9227
 1953.0000     0.5682   951.5273
 1953.5000     0.5682   927.4569
 1954.0000     0.5750   885.5649
 1954.5000     0.6061   843.6730
 1955.0000     0.6250   801.7775
 1955.5000     0.6250   759.8874
 1956.0000     0.6439   747.1130
 1956.5000     0.6439   747.4223
 1957.0000     0.6439   747.6778
 1957.5000     0.6629   747.9603
 1958.0000     0.6818   748.2427
 1958.5000     0.6818   748.5251
 1959.0000     0.6629   739.5195
 1959.5000     0.6412   730.2615
 1960.0000     0.6250   730.5439
 1960.5000     0.6250   712.0349
 1961.0000     0.6250   712.2870
 1961.5000     0.6439   710.8071
 1962.0000     0.6518   693.9629
 1962.5000     0.7008   694.2991
 1963.0000     0.7197   694.5815
 1963.5000     0.7576   705.6606
 1964.0000     0.7765   713.9749
 1964.5000     0.7955   714.3044
 1965.0000     0.8333   714.5565
 1965.5000     0.8558   733.6506
 1966.0000     0.8795   733.9330
 1966.5000     0.9280   734.2155
 1967.0000     0.9470   734.4979
 1967.5000     0.9053   734.7803
 1968.0000     0.8523   722.7610
 1968.5000     0.7955   701.9564
 1969.0000     0.7765   697.9707
 1969.5000     0.7346   679.1725
 1970.0000     0.7197   658.3706
 1970.5000     0.7197   637.5612
 1971.0000     0.7008   623.7866
 1971.5000     0.7008   614.7810
 1972.0000     0.6917   605.5231
 1972.5000     0.6250   605.8055
 1973.0000     0.6061   606.1249
 1973.5000     0.6061   606.3771
 1974.0000     0.6061   606.6528
 1974.5000     0.6061   606.9352
 1975.0000     0.6061   607.2176
 1975.5000     0.6061   598.9636
 1976.0000     0.6061   578.1603
 1976.5000     0.5871   557.3527
 1977.0000     0.5682   533.0806
 1977.5000     0.5631   533.3327
 1978.0000     0.5394   514.7565
 1978.5000     0.4924   518.3156
 1979.0000     0.4730   534.1631
 1979.5000     0.4439   534.4456
 1980.0000     0.4167   544.7678
 1980.5000     0.4356   578.4390
 1981.0000     0.4545   650.0193
 1981.5000     0.4601   761.5437
 1982.0000     0.4735   933.0212
 1982.5000     0.5114  1085.9432
 1983.0000     0.5492  1280.7644
 1983.5000     0.5682  1498.9840
 1984.0000     0.5871  1703.3423
 1984.5000     0.6061  1883.8826
 1985.0000     0.6061  2087.7720
 1985.5000     0.6250  2270.0894
 1986.0000     0.6250  2345.6550
 1986.5000     0.6250  2366.5156
 1987.0000     0.6250  2383.8164
 1987.5000     0.6250  2359.0481
 1988.0000     0.6250  2329.7056
 1988.5000     0.6250  2287.8105
 1989.0000     0.6439  2245.9226
 1989.5000     0.6439  2197.0452
 1990.0000     0.6439  2178.4688
 1990.5000     0.6439  2138.0654
 1991.0000     0.6460  2078.3462
 1991.5000     0.6629  2030.9312
 1992.0000     0.6818  1975.7338
 1992.5000     0.6818  1923.7960
 1993.0000     0.6818  1873.1196
 1993.5000     0.6818  1831.2247
 1994.0000     0.6818  1766.5123
 1994.5000     0.6818  1747.4449
 1995.0000     0.6818  1705.5413
 1995.5000     0.6818  1663.6552
 1996.0000     0.6818  1628.7881
 1996.5000     0.6818  1598.6937
 1997.0000     0.6818  1568.3470
 1997.5000     0.6742  1547.5409
 1998.0000     0.6629  1542.8035
 1998.5000     0.6439  1524.2640
 1999.0000     0.6318  1524.5398
 1999.5000     0.5414  1524.8223
 2000.0000     0.5114  1525.1779
 2000.5000     0.4923  1525.7059
 2001.0000     0.4733  1526.5188
 2001.5000     0.4732  1593.5546
 2002.0000     0.4941  1733.3984
 2002.5000     0.5721  1993.5151
 2003.0000     0.6323  2480.0994
 2003.5000     0.7190  3232.9810
 2004.0000     0.7947  3732.6284
 2004.5000     0.9082  3695.4917
 2005.0000     1.0672  3618.8149
 2005.5000     1.1543  3537.6165
 2006.0000     1.1069  3456.3979
 2006.5000     1.0215  3380.5012
 2007.0000     0.9078  3319.7344
 2007.5000     0.8698  3267.5220
 2008.0000     0.8697  3227.1953
 2008.5000     0.8696  3198.6541
 2009.0000     0.8505  3165.3777
 2009.5000     0.8505  3136.3604
 2010.0000     0.8504  3099.2239
 2010.5000     0.8503  3062.0872
 2011.0000     0.8446  3043.7791
 2011.5000     0.8222  3044.3726
 2012.0000     0.8121  3040.6697
 2012.5000     0.8120  3032.5571
 2013.0000     0.8309  3046.0671
 2013.5000     0.8308  3037.5146
 2014.0000     0.8307  3028.3682
 2014.5000     0.8306  2967.2029
 2015.0000     0.8305  2851.5637
 2015.5000     0.8683  2691.2405
 2016.0000     0.9096  2578.7898
 2016.5000     0.9783  2447.5110
 2017.0000     1.0556  2284.6328
 2017.5000     1.1330  2128.0972
 2018.0000     1.1898  2030.1472
 2018.5000     1.2276  2016.7155
 2019.0000     1.2464  2009.2159
 2019.5000     1.2140  1999.0166
 2020.0000     1.1401  1999.5815
 2020.5000     1.0188  2000.1464
 2021.0000     0.9430  1986.1843
 2021.5000     0.9618  1982.4475
 2022.0000     0.9996  1983.0420
 2022.5000     1.0185  1983.5773
 2023.0000     1.0184  1984.1421
 2023.5000     1.0183  1984.7070
 2024.0000     1.0182  1985.2719
 2024.5000     1.0181  1985.8367
 2025.0000     1.0180  1986.4016
 2025.5000     0.9892  1986.9664
 2026.0000     0.9231  1987.5312
 2026.5000     0.7904  1988.0961
 2027.0000     0.7325  1988.7642
 2027.5000     0.7145  1989.2843
