~VERSION INFORMATION
 VERS.                2.0:   CWLS LOG ASCII STANDARD - VERSION 2.0
 WRAP.                 NO:   ONE LINE PER DEPTH STEP
~WELL INFORMATION
#MNEM.UNIT      DATA TYPE    INFORMATION
#----------   ------------   ------------------------------
 STRT.F           22.0000:   START DEPTH
 STOP.F          533.0000:   STOP DEPTH
 STEP.F            0.5000:   STEP LENGTH
 NULL.          -999.2500:   NO VALUE
 COMP. FENIX & SCISSON INC:   COMPANY
 WELL.        NPR 3 #32-3:   WELL
 FLD .        TEAPOT DOME:   FIELD
 LOC .       S3 T38N R78W:   LOCATION
 CNTY.            NATRONA:   COUNTY
 STAT.            WYOMING:   STATE
 CTRY. UNITED STATES OF AMERICA:   COUNTRY
 SRVC.            Unknown:   SERVICE COMPANY
 DATE.        19-JUL-1978:   LOGDATE
 API .       490251067200:   API NUMBER
~CURVE INFORMATION
#MNEM.UNIT       API CODE    CURVE DESCRIPTION
#----------   ------------   ------------------------------
 DEPT.F                  :   
 SPR .MV     05 010 01 00:   SPONTANEOUS POTENTIAL FROM RES.
 SN  .OHMM   05 040 16 00:   SHORT NORMAL 16"
 IL  .OHMM   05 120 00 00:   INDUCTION LOG
 RHOB.G/C3   45 350 01 00:   BULK DENSITY
 DPHI.DEC    45 890 12 00:   DENSITY POROSITY SANDSTONE
 CORR.G/C3   45 356 01 00:   DENSITY CORRECTION
 CALD.IN     45 280 60 00:   CALIPER
 GRD .GAPI   45 310 01 00:   GAMMA RAY FROM DENSITY LOG
~PARAMETER INFORMATION
#MNEM.UNIT          VALUE    DESCRIPTION
#----------   ------------   ------------------------------
 PD  .                 GL:   PERMANENT DATUM
 EPD .F              5179:   ELEVATION PERMANENT DATUM
 LMF .                 KB:   LOG MEASURED FROM
 DAPD.F                 4:   FEET ABOVE PERMANENT DATUM
 DMF .                 KB:   DRILLING MEASURED FROM
 EKB .F              5183:   KELLING BUSHING
 EGL .F              5179:   GROUND LEVEL
 DATE.            7-19-78:   RUN DATE
 RUN .                  1:   RUN NUMBER
 DD  .F               520:   DEPTH DRILLER
 DL  .F               533:   DEPTH LOGGER
 BLI .F               527:   BOTTOM LOG INTERVAL
 TLI .F                50:   TOP LOG INTERVAL
 CS  .IN            8.625:   CASING SIZE
 CBD .F                40:   CASING BOTTOM DRILLER
 BS  .IN            7.875:   BIT SIZE
 BSD .F               520:   BIT SIZE AT DEPTH
 DFT .                KCL:   DRILLING FLUID TYPE
 DFD .                8.7:   DRILLING FLUID DENSITY
 DFV .                 33:   DRILLING FLUID VISCOSITY
 DFPH.                  9:   DRILLING FLUID PH
 DFL .               12.4:   DRILLING FLUID LOSS
 MSS .          FLOW LINE:   MUD SAMPLE SOURCE
 RMS .OHMM            .28:   RESISTIVITY MUD SAMPLE
 MST .F                70:   MUD SAMPLE TEMPERATURE
 RMF .OHMM            .24:   RESISTIVITY MUD FILTRATE SAMPLE
 MFST.F                76:   MUD FILTRATE SAMPLE TEMPERATURE
 RMC .OHMM             .5:   RESISTIVITY MUD CAKE
 MCST.F                78:   MUD CAKE SAMPLE TEMPERATURE
 MFSS.               MEAS:   MUD FILTRATE SAMPLE SOURCE
 MCSS.               MEAS:   MUD CAKE SAMPLE SOURCE
 TCS .HRS               2:   TIME CURCULATED STOPPED
 LUN .               2958:   LOGGING UNIT NUMBER
 LUL .               CASP:   LOGGING UNIT LOCATION
 ENGI.             MILLER:   RECORDING ENGINEER
 WITN.           MCGINLEY:   WITNESSED BY
 CLNT.            A2DTECH:   CLIENT CODE
 ORIG.           5" PRINT:   ORIGIN OF DATA
 UWI .       490251067200:   UNIQUE WELL ID
 DICO. A2D Technologies, Inc.:   DIGITIZING COMPANY
~OTHER INFORMATION
~A   DEPT      SPR         SN         IL       RHOB       DPHI       CORR       CALD         GRD  
# ...
  103.0000   -27.0856     7.2688     8.0319     2.4483     0.1387     0.0171     7.5282    91.4677
  103.5000   -27.1699     7.2317     7.9982     2.4525     0.1360     0.0159     7.5395    87.5303
  104.0000   -27.2368     7.3108     8.0753     2.4556     0.1286     0.0147     7.5659    84.0989
  104.5000   -27.2615     7.4583     8.1434     2.4646     0.1276     0.0135     7.5921    84.3271
  105.0000   -27.2872     7.6088     8.2120     2.4732     0.1288     0.0124     7.6183    82.9090
  105.5000   -27.3126     7.7623     8.2808     2.4709     0.1308     0.0127     7.6445    80.5698
  106.0000   -27.3381     7.9189     8.4355     2.4657     0.1312     0.0191     7.6707    79.3820
  106.5000   -27.3637     8.0787     8.6189     2.4651     0.1315     0.0255     7.6969    80.1956
  107.0000   -27.3890     8.1491     8.8063     2.4684     0.1200     0.0253     7.7231    80.7026
  107.5000   -27.4153     8.1533     8.8594     2.4788     0.1235     0.0221     7.7492    80.8799
  108.0000   -27.3423     8.1576     8.8759     2.4835     0.1280     0.0188     7.7682    80.8247
  108.5000   -27.1959     8.1618     8.8918     2.4738     0.1212     0.0155     7.7679    80.0060
  109.0000   -27.0485     8.1660     8.9079     2.4788     0.1212     0.0123     7.7677    79.5923
  109.5000   -26.9007     8.1702     8.9240     2.4857     0.1206     0.0109     7.7782    79.5162
  110.0000   -26.7537     8.1745     8.9401     2.4859     0.1200     0.0227     7.7925    79.3964
  110.5000   -26.6389     8.1787     8.9563     2.4853     0.1171     0.0345     7.8069    77.5406
  111.0000   -26.6929     8.1830     8.9725     2.4858     0.1099     0.0465     7.8212    75.5010
  111.5000   -26.7440     8.1872     8.9888     2.4967     0.1013     0.0476     7.8356    74.8945
  112.0000   -26.7946     8.1914     9.0103     2.5076     0.1086     0.0431     7.8475    78.9013
  112.5000   -26.8451     8.1957     8.9922     2.5008     0.1192     0.0380     7.8473    81.8353
  113.0000   -26.8957     8.1999     8.9628     2.4895     0.1164     0.0399     7.8472    83.8319
  113.5000   -26.9462     8.2042     8.9337     2.4905     0.1112     0.0425     7.8472    83.9860
  114.0000   -26.9967     8.2084     8.9047     2.4969     0.1156     0.0451     7.8472    83.5417
  114.5000   -27.0473     8.2127     8.8759     2.4932     0.1208     0.0476     7.8472    83.1876
  115.0000   -27.0979     8.2172     8.8471     2.4851     0.1204     0.0483     7.8472    83.5962
  115.5000   -27.1484     8.2217     8.8184     2.4877     0.1147     0.0427     7.8470    83.2620
  116.0000   -27.1984     8.1634     8.7899     2.4979     0.1105     0.0374     7.8431    80.9159
  116.5000   -27.2104     8.0983     8.7614     2.5005     0.1180     0.0324     7.8391    78.6679
  117.0000   -27.1684     8.0336     8.7330     2.4890     0.1207     0.0198     7.8352    78.8500
  117.5000   -27.1271     7.9694     8.7047     2.4861     0.1284     0.0139     7.8313    80.0206
  118.0000   -27.0856     7.9257     8.6764     2.4751     0.1339     0.0143     7.8274    83.2696
  118.5000   -27.0442     7.9454     8.6484     2.4611     0.1352     0.0149     7.8235    85.6888
  119.0000   -27.0028     7.9603     8.6207     2.4560     0.1347     0.0155     7.8196    87.2669
  119.5000   -26.9614     7.9753     8.6067     2.4564     0.1372     0.0160     7.8156    87.4893
  120.0000   -26.9199     7.9903     8.6072     2.4571     0.1404     0.0166     7.8117    86.3503
  120.5000   -26.8783     8.0054     8.6072     2.4576     0.1338     0.0171     7.8078    84.1475
  121.0000   -26.8367     8.0205     8.6072     2.4582     0.1340     0.0177     7.8039    82.4850
  121.5000   -26.8428     8.0356     8.6072     2.4588     0.1360     0.0183     7.8000    83.2481
  122.0000   -26.8557     8.0507     8.6072     2.4590     0.1332     0.0188     7.7961    83.9664
  122.5000   -26.8687     8.0717     8.6072     2.4590     0.1352     0.0194     7.7922    84.6781
  123.0000   -26.8816     8.0594     8.6072     2.4600     0.1308     0.0175     7.7882    85.3867
  123.5000   -26.8945     8.0370     8.6072     2.4648     0.1276     0.0152     7.7877    85.6546
  124.0000   -26.9074     8.0146     8.6072     2.4694     0.1248     0.0128     7.7877    85.3182
  124.5000   -26.9203     7.9922     8.6072     2.4740     0.1288     0.0105     7.7877    83.9998
  125.0000   -26.9333     7.9699     8.6072     2.4787     0.1310     0.0081     7.7877    82.6977
  125.5000   -26.9462     7.9476     8.6072     2.4694     0.1408     0.0101     7.7877    81.3916
  126.0000   -26.9591     7.9260     8.6045     2.4555     0.1356     0.0191     7.7877    80.0760
  126.5000   -26.9720     7.9325     8.5897     2.4588     0.1289     0.0279     7.7877    80.2862
  127.0000   -26.9849     7.9389     8.5753     2.4680     0.1234     0.0357     7.7877    82.4013
  127.5000   -26.9978     7.9454     8.5610     2.4772     0.1200     0.0353     7.7877    84.2534
  128.0000   -27.0107     7.9520     8.5466     2.4847     0.1156     0.0352     7.7877    85.5216
  128.5000   -27.0237     7.9585     8.5323     2.4879     0.1232     0.0350     7.7877    86.7132
  129.0000   -27.0256     7.9651     8.5180     2.4881     0.1232     0.0348     7.7877    87.0150
  129.5000   -27.0181     7.9716     8.5038     2.4796     0.1191     0.0347     7.7877    86.6056
  130.0000   -27.0105     7.9782     8.4895     2.4841     0.1163     0.0345     7.7877    86.4782
  130.5000   -27.0029     7.9848     8.4753     2.4885     0.1152     0.0344     7.7877    86.8017
  131.0000   -26.9953     7.9914     8.4610     2.4899     0.1211     0.0342     7.7877    87.9252
  131.5000   -26.9877     7.9979     8.4516     2.4864     0.1228     0.0340     7.7877    89.0766
  132.0000   -26.9802     7.9987     8.4717     2.4783     0.1264     0.0339     7.7877    90.2855
  132.5000   -26.9726     7.9987     8.4879     2.4772     0.1192     0.0337     7.7877    86.9766
  133.0000   -26.9650     7.9986     8.5042     2.4840     0.1184     0.0336     7.7877    84.1190
  133.5000   -26.9574     7.9988     8.5204     2.4901     0.1199     0.0331     7.7873    85.7663
  134.0000   -26.9498     8.0133     8.5474     2.4871     0.1178     0.0293     7.7858    88.1984
  134.5000   -26.9422     8.0297     8.5843     2.4899     0.1142     0.0256     7.7844    89.6640
  135.0000   -26.9346     8.0461     8.6215     2.4940     0.1104     0.0218     7.7830    86.3734
  135.5000   -26.9270     8.0625     8.6588     2.4983     0.1108     0.0181     7.7815    84.5611
  136.0000   -26.9195     8.0789     8.6963     2.4898     0.1232     0.0142     7.7801    84.5902
  136.5000   -26.9119     8.0953     8.7340     2.4826     0.1210     0.0140     7.7787    84.3966
  137.0000   -26.9043     8.1118     8.7718     2.4869     0.1207     0.0147     7.7772    82.9463
  137.5000   -26.8967     8.1283     8.8098     2.4820     0.1288     0.0154     7.7758    81.4944
  138.0000   -26.8891     8.1448     8.8480     2.4734     0.1240     0.0162     7.7744    81.2562
  138.5000   -26.8815     8.1614     8.8863     2.4792     0.1156     0.0169     7.7729    84.8299
  139.0000   -26.8739     8.1781     8.9249     2.4889     0.1165     0.0176     7.7715    84.4853
  139.5000   -26.8663     8.1947     8.9634     2.4901     0.1174     0.0183     7.7701    83.1596
  140.0000   -26.8587     8.2114     9.0105     2.4867     0.1214     0.0190     7.7684    85.8458
  140.5000   -26.8511     8.2217     8.9445     2.4817     0.1260     0.0197     7.7566    88.6403
  141.0000   -26.8435     8.1362     8.8608     2.4766     0.1275     0.0204     7.7323    87.1436
  141.5000   -26.8361     8.0749     8.7776     2.4715     0.1257     0.0211     7.7081    84.8457
  142.0000   -26.8357     8.0141     8.6952     2.4746     0.1232     0.0173     7.6838    85.0275
  142.5000   -26.8451     7.9538     8.6136     2.4796     0.1204     0.0091     7.6596    86.6221
  143.0000   -26.8545     7.8939     8.5327     2.4832     0.1272     0.0008     7.6345    87.1482
