~VERSION INFORMATION
 VERS.                2.0:   CWLS LOG ASCII STANDARD - VERSION 2.0
 WRAP.                 NO:   ONE LINE PER DEPTH STEP
~WELL INFORMATION
#MNEM.UNIT      DATA TYPE    INFORMATION
#----------   ------------   ------------------------------
 STRT.F           27.0000:   START DEPTH
 STOP.F          992.0000:   STOP DEPTH
 STEP.F            0.5000:   STEP LENGTH
 NULL.          -999.2500:   NO VALUE
 COMP. FENIX & SCISSON INC:   COMPANY
 WELL. NPR 3  77- S -27 #77-27:   WELL
 FLD .             TEAPOT:   FIELD
 LOC .      S27 T39N R78W:   LOCATION
 CNTY.            NATRONA:   COUNTY
 STAT.            WYOMING:   STATE
 CTRY. UNITED STATES OF AMERICA:   COUNTRY
 SRVC.            Unknown:   SERVICE COMPANY
 DATE.        09-SEP-1978:   LOGDATE
 API .       490251069700:   API NUMBER
~CURVE INFORMATION
#MNEM.UNIT       API CODE    CURVE DESCRIPTION
#----------   ------------   ------------------------------
 DEPT.F                  :   
 SPR .MV     05 010 01 00:   SPONTANEOUS POTENTIAL FROM RES.
 SN  .OHMM   05 040 16 00:   SHORT NORMAL 16"
 ILD .OHMM   05 120 46 00:   INDUCTION LOG DEEP
 CALD.IN     45 280 60 00:   CALIPER
 GRD .GAPI   45 310 01 00:   GAMMA RAY FROM DENSITY LOG
 RHOB.G/C3   45 350 01 00:   BULK DENSITY
 CORR.G/C3   45 356 01 00:   DENSITY CORRECTION
 DPHI.DEC    45 890 12 00:   DENSITY POROSITY SANDSTONE
~PARAMETER INFORMATION
#MNEM.UNIT          VALUE    DESCRIPTION
#----------   ------------   ------------------------------
 PD  .                 GL:   PERMANENT DATUM
 EPD .F              5069:   ELEVATION PERMANENT DATUM
 LMF .                 KB:   LOG MEASURED FROM
 DAPD.F                 4:   FEET ABOVE PERMANENT DATUM
 DMF .                 KB:   DRILLING MEASURED FROM
 EKB .F              5073:   KELLING BUSHING
 EGL .F              5069:   GROUND LEVEL
 DATE.           9-9-1978:   RUN DATE
 RUN .                  1:   RUN NUMBER
 DD  .F               990:   DEPTH DRILLER
 DL  .F               998:   DEPTH LOGGER
 BLI .F               992:   BOTTOM LOG INTERVAL
 TLI .F                50:   TOP LOG INTERVAL
 CS  .IN            8.625:   CASING SIZE
 CBD .F                40:   CASING BOTTOM DRILLER
 BS  .IN            7.875:   BIT SIZE
 BSD .F               990:   BIT SIZE AT DEPTH
 DFT .                KCL:   DRILLING FLUID TYPE
 DFD .                8.7:   DRILLING FLUID DENSITY
 DFV .                 34:   DRILLING FLUID VISCOSITY
 DFPH.                  9:   DRILLING FLUID PH
 DFL .                  8:   DRILLING FLUID LOSS
 MSS .          FLOW LINE:   MUD SAMPLE SOURCE
 RMS .OHMM             .4:   RESISTIVITY MUD SAMPLE
 MST .F                79:   MUD SAMPLE TEMPERATURE
 RMF .OHMM            .12:   RESISTIVITY MUD FILTRATE SAMPLE
 MFST.F                84:   MUD FILTRATE SAMPLE TEMPERATURE
 RMC .OHMM            .34:   RESISTIVITY MUD CAKE
 MCST.F                84:   MUD CAKE SAMPLE TEMPERATURE
 MFSS.               MEAS:   MUD FILTRATE SAMPLE SOURCE
 MCSS.               MEAS:   MUD CAKE SAMPLE SOURCE
 TCS .HRS               3:   TIME CURCULATED STOPPED
 LUN .               2958:   LOGGING UNIT NUMBER
 LUL .               CASP:   LOGGING UNIT LOCATION
 ENGI.             MILLER:   RECORDING ENGINEER
 WITN.              AMEND:   WITNESSED BY
 CLNT.            A2DTECH:   CLIENT CODE
 ORIG.           5" PRINT:   ORIGIN OF DATA
 UWI .       490251069700:   UNIQUE WELL ID
 DICO. A2D Technologies, Inc.:   DIGITIZING COMPANY
~OTHER INFORMATION
~A   DEPT      SPR         SN        ILD       CALD        GRD       RHOB       CORR       DPHI   
# ...
  351.0000   -78.5179     4.5926     4.7806     7.7956   133.1579     2.4320    -0.0039     0.1489
  351.5000   -78.5008     4.7140     4.9366     7.7956   129.3899     2.4291    -0.0037     0.1496
  352.0000   -78.4837     4.8398     4.9748     7.7956   125.7183     2.4270    -0.0034     0.1451
  352.5000   -78.4666     4.9690     5.0449     7.7956   124.6305     2.4290    -0.0032     0.1402
  353.0000   -78.4494     5.1017     5.1819     7.7956   124.2003     2.4326    -0.0030     0.1353
  353.5000   -78.4323     5.2379     5.3228     7.7956   124.3309     2.4415    -0.0028     0.1303
  354.0000   -78.4152     5.3777     5.4676     7.7955   124.9321     2.4502    -0.0026     0.1254
  354.5000   -78.3981     5.5212     5.6162     7.7917   125.2250     2.4588    -0.0023     0.1216
  355.0000   -78.3810     5.6686     5.7689     7.7840   125.2302     2.4678    -0.0021     0.1230
  355.5000   -78.3639     5.8028     5.9257     7.7763   125.2230     2.4711    -0.0019     0.1252
  356.0000   -78.3468     5.8518     6.0868     7.7686   124.7821     2.4685    -0.0017     0.1258
  356.5000   -78.3297     5.9024     6.1339     7.7609   123.8300     2.4660    -0.0015     0.1260
  357.0000   -78.3125     5.9158     6.1468     7.7532   123.9825     2.4663    -0.0013     0.1260
  357.5000   -78.2954     5.9296     6.1599     7.7455   126.4678     2.4667    -0.0010     0.1248
  358.0000   -78.2783     5.9433     6.1728     7.7378   128.4701     2.4669    -0.0008     0.1230
  358.5000   -78.2608     5.9571     6.1858     7.7303   127.2246     2.4689    -0.0006     0.1213
  359.0000   -78.2441     5.9709     6.1988     7.7234   125.9553     2.4715    -0.0007     0.1195
  359.5000   -78.2551     5.9847     6.2119     7.7081   127.9197     2.4741    -0.0013     0.1180
  360.0000   -78.3898     5.9986     6.2250     7.5691   130.0992     2.4770    -0.0019     0.1201
  360.5000   -78.5217     6.0125     6.2381     7.5350   130.8373     2.4777    -0.0024     0.1232
  361.0000   -78.6533     6.0265     6.2513     7.5623   130.2618     2.4715    -0.0030     0.1215
  361.5000   -78.7849     6.0405     6.2645     7.6010   129.7065     2.4709    -0.0036     0.1200
  362.0000   -78.9166     6.0544     6.2776     7.6366   129.1526     2.4741    -0.0042     0.1196
  362.5000   -79.0481     6.0678     6.2909     7.6239   128.5789     2.4771    -0.0048     0.1199
  363.0000   -79.1813     6.1007     6.3042     7.3762   128.4773     2.4771    -0.0054     0.1224
  363.5000   -79.2102     6.1321     6.3174     7.1690   128.6262     2.4737    -0.0060     0.1264
  364.0000   -79.1903     6.1638     6.3308     7.1867   127.6899     2.4691    -0.0066     0.1277
  364.5000   -79.1694     6.1956     6.3443     7.4022   126.2248     2.4644    -0.0071     0.1279
  365.0000   -79.1484     6.2276     6.3766     7.5694   121.9454     2.4617    -0.0077     0.1282
  365.5000   -79.1276     6.2597     6.4662     7.6157   120.6200     2.4609    -0.0083     0.1284
  366.0000   -79.1068     6.2921     6.5556     7.6077   122.8781     2.4602    -0.0085     0.1320
  366.5000   -79.0858     6.3243     6.6462     7.5987   125.8727     2.4567    -0.0078     0.1312
  367.0000   -79.0640     6.3533     6.7381     7.5899   127.1332     2.4542    -0.0069     0.1305
  367.5000   -79.0430     6.3442     6.8396     7.5814   127.4799     2.4577    -0.0059     0.1298
  368.0000   -79.0821     6.3356     6.8709     7.5801   126.1509     2.4612    -0.0050     0.1266
  368.5000   -79.5822     6.3269     6.9054     7.6012   124.2899     2.4622    -0.0040     0.1223
  369.0000   -79.8405     6.3182     6.9400     7.6212   123.8397     2.4639    -0.0031     0.1181
  369.5000   -79.8904     6.3096     6.9749     7.6412   124.0812     2.4733    -0.0021     0.1161
  370.0000   -79.9349     6.3019     7.0099     7.6666   124.6236     2.4779    -0.0012     0.1205
  370.5000   -79.9801     6.2999     7.0451     7.7109   123.8229     2.4781    -0.0005     0.1251
  371.0000   -80.1182     6.0042     7.0805     7.7542   122.9147     2.4720    -0.0005     0.1297
  371.5000   -80.8025     5.7416     7.0963     7.7756   123.0900     2.4648    -0.0005     0.1343
  372.0000   -81.4862     5.4922     6.9668     7.7606   125.1487     2.4575    -0.0005     0.1389
  372.5000   -82.1693     5.2436     6.5656     7.7434   125.8111     2.4487    -0.0005     0.1435
  373.0000   -82.8639     5.0062     5.4435     7.7106   122.8229     2.4378    -0.0005     0.1482
  373.5000   -83.1688     4.7075     4.5136     7.6601   119.6191     2.4325    -0.0018     0.1524
  374.0000   -83.3856     4.1198     3.7420     7.6108   118.8577     2.4248    -0.0043     0.1898
  374.5000   -83.5920     3.6067     3.1024     7.5742   118.0806     2.3728    -0.0067     0.2323
  375.0000   -83.6012     3.1577     2.6281     7.5838   116.6004     2.3003    -0.0086     0.2775
  375.5000   -83.6011     2.7647     2.2387     7.5932   114.1390     2.2313    -0.0058     0.3227
  376.0000   -83.5465     2.5515     1.9726     7.6026   114.4025     2.1617    -0.0024     0.3637
  376.5000   -83.2087     2.5295     1.9726     7.6117   120.1586     2.0921     0.0087     0.3522
  377.0000   -82.7456     2.5529     2.0092     7.6449   125.9629     2.0425     0.0786     0.3357
  377.5000   -81.7948     2.6244     2.1732     7.6954   131.8066     2.0379     0.1625     0.3020
  378.0000   -80.3028     2.8957     2.4946     7.7532   138.0066     2.1266     0.2243     0.2281
  378.5000   -78.8311     3.2436     2.8686     7.7516   138.6496     2.2048     0.1669     0.1615
  379.0000   -77.4463     3.8373     3.2875     7.5358   138.5665     2.2834     0.0868     0.1332
  379.5000   -77.0602     4.5092     4.4126     7.3542   138.2799     2.3623     0.0114     0.1142
  380.0000   -76.7111     5.2988     6.0715     7.3697   138.1570     2.4401     0.0040     0.1130
  380.5000   -76.3577     6.2266     8.3541     7.4872   137.5170     2.4826     0.0044     0.1128
  381.0000   -76.1166     7.3168    10.8617     7.6127   134.8291     2.4871     0.0055     0.1132
  381.5000   -75.9292     8.3527    12.0053     7.7136   130.2797     2.4858     0.0015     0.1142
  382.0000   -75.7438     8.8393    12.0025     7.7100   120.7452     2.4845    -0.0026     0.1148
  382.5000   -75.6499     9.1057    11.1061     7.6978   111.2891     2.4832    -0.0028     0.1136
  383.0000   -75.8432     9.0154    10.3339     7.6859   109.8541     2.4821    -0.0031     0.1125
  383.5000   -76.3508     9.0195     9.1586     7.6750   108.9660     2.4848    -0.0033     0.1115
  384.0000   -76.9070     8.2904     8.0716     7.6753   108.0272     2.4871    -0.0036     0.1121
  384.5000   -77.4806     7.7538     7.1135     7.6754   107.0427     2.4824    -0.0038     0.1295
  385.0000   -77.8134     7.2519     6.2692     7.6753   105.1293     2.4721    -0.0041     0.1455
  385.5000   -78.0312     6.7825     5.8971     7.6753   102.1647     2.4579    -0.0043     0.1615
  386.0000   -77.9786     6.3435     5.8870     7.6757    99.2705     2.4294    -0.0009     0.1775
  386.5000   -77.7071     6.0678     5.8769     7.6815    97.0631     2.4018     0.0141     0.1859
  387.0000   -76.6789     6.0678     5.8665     7.6873    97.6497     2.3730     0.0289     0.1759
  387.5000   -75.2760     6.1239     5.8564     7.6929   105.4443     2.3673     0.0213     0.1648
  388.0000   -74.4115     6.3558     5.8441     7.6986   112.7244     2.3882     0.0121     0.1537
  388.5000   -73.9433     6.7013     6.2700     7.7043   119.9128     2.4089     0.0053     0.1453
  389.0000   -73.2013     7.0657     7.2288     7.7099   127.0872     2.4300     0.0037     0.1448
  389.5000   -71.9276     7.4499     8.3342     7.7156   134.1412     2.4343     0.0034     0.1456
  390.0000   -70.6651     7.8045     9.1320     7.7213   139.5272     2.4339     0.0025     0.1486
  390.5000   -69.4703     7.9379     9.6391     7.7269   132.6437     2.4301     0.0015     0.1515
  391.0000   -68.8296     8.0736    10.0700     7.7321   122.9250     2.4264     0.0039     0.1520
