~VERSION INFORMATION
 VERS.                2.0:   CWLS LOG ASCII STANDARD - VERSION 2.0
 WRAP.                 NO:   ONE LINE PER DEPTH STEP
~WELL INFORMATION
#MNEM.UNIT      DATA TYPE    INFORMATION
#----------   ------------   ------------------------------
 STRT.F           20.0000:   START DEPTH
 STOP.F         2420.0000:   STOP DEPTH
 STEP.F            0.5000:   STEP LENGTH
 NULL.          -999.2500:   NO VALUE
 COMP. FENIX & SCISSON INC:   COMPANY
 WELL.    SHX 15 #71-1-15:   WELL
 FLD .             TEAPOT:   FIELD
 LOC .      S15 T38N R78W:   LOCATION
 CNTY.            NATRONA:   COUNTY
 STAT.            WYOMING:   STATE
 CTRY. UNITED STATES OF AMERICA:   COUNTRY
 SRVC.           BIRDWELL:   SERVICE COMPANY
 DATE.        03-SEP-1978:   LOGDATE
 API .       490251081800:   API NUMBER
~CURVE INFORMATION
#MNEM.UNIT       API CODE    CURVE DESCRIPTION
#----------   ------------   ------------------------------
 DEPT.F                  :   
 CALD.IN     45 280 60 00:   CALIPER
 GRD .GAPI   45 310 01 00:   GAMMA RAY FROM DENSITY LOG
 RHOB.G/C3   45 350 01 00:   BULK DENSITY
 DPHI.DEC    45 890 12 00:   DENSITY POROSITY SANDSTONE
 CORR.G/C3   45 356 01 00:   DENSITY CORRECTION
 NPHI.DEC    42 890 03 00:   NEUTRON POROSITY
~PARAMETER INFORMATION
#MNEM.UNIT          VALUE    DESCRIPTION
#----------   ------------   ------------------------------
 PD  .                 GL:   PERMANENT DATUM
 EPD .F              5249:   ELEVATION PERMANENT DATUM
 LMF .                 KB:   LOG MEASURED FROM
 DAPD.F                10:   FEET ABOVE PERMANENT DATUM
 DMF .                 KB:   DRILLING MEASURED FROM
 EKB .F              5259:   KELLING BUSHING
 EGL .F              5249:   GROUND LEVEL
 DATE.             9-3-78:   RUN DATE
 RUN .                  1:   RUN NUMBER
 DD  .F              2450:   DEPTH DRILLER
 DL  .F              2422:   DEPTH LOGGER
 BLI .F              2420:   BOTTOM LOG INTERVAL
 TLI .F                50:   TOP LOG INTERVAL
 CS  .IN            9.625:   CASING SIZE
 CBD .F               650:   CASING BOTTOM DRILLER
 CBL .F               676:   CASING BOTTOM LOGGER
 BS  .IN             8.75:   BIT SIZE
 BSD .F              2450:   BIT SIZE AT DEPTH
 DFT .           AIR MIST:   DRILLING FLUID TYPE
 LUN .               2958:   LOGGING UNIT NUMBER
 LUL .               CASP:   LOGGING UNIT LOCATION
 ENGI.             MILLER:   RECORDING ENGINEER
 WITN.           MCGINLEY:   WITNESSED BY
 CLNT.            A2DTECH:   CLIENT CODE
 ORIG.         2.5" PRINT:   ORIGIN OF DATA
 UWI .       490251081800:   UNIQUE WELL ID
 DICO. A2D Technologies, Inc.:   DIGITIZING COMPANY
~OTHER INFORMATION
~A   DEPT     CALD        GRD       RHOB       DPHI       CORR         NPHI 
# ...
 2360.0000    11.1493   120.7804     2.4464     0.1235     0.0049  -999.2500
 2360.5000    11.1755   105.3288     2.4726     0.1132     0.0045  -999.2500
 2361.0000    11.2039   107.1317     2.4741     0.1084     0.0041  -999.2500
 2361.5000    11.2225   109.5376     2.4988     0.1032     0.0037  -999.2500
 2362.0000    11.2233   111.7914     2.4969     0.0979     0.0033  -999.2500
 2362.5000    11.2264   108.0207     2.4931     0.0947     0.0030  -999.2500
 2363.0000    11.2293   104.9990     2.4944     0.0923     0.0026  -999.2500
 2363.5000    11.2319   103.4173     2.5035     0.0899     0.0022  -999.2500
 2364.0000    11.2347   102.9567     2.5115     0.0875     0.0020  -999.2500
 2364.5000    11.2375   102.4811     2.5098     0.0885     0.0020  -999.2500
 2365.0000    11.2402   101.2921     2.5048     0.0908     0.0019  -999.2500
 2365.5000    11.2430    99.7649     2.4996     0.0893     0.0012  -999.2500
 2366.0000    11.2458    97.4487     2.5070     0.0837     0.0004  -999.2500
 2366.5000    11.2486    94.7186     2.5164     0.0773    -0.0004  -999.2500
 2367.0000    11.2513    92.4937     2.5186     0.0814    -0.0011  -999.2500
 2367.5000    11.2542    92.7273     2.5091     0.0861    -0.0019  -999.2500
 2368.0000    11.2567    93.8384     2.5086     0.0908    -0.0020  -999.2500
 2368.5000    11.2595    95.7540     2.4955     0.0945    -0.0020  -999.2500
 2369.0000    11.2501    97.5461     2.4921     0.0977    -0.0020  -999.2500
 2369.5000    11.2384    99.5669     2.4872     0.0988    -0.0025  -999.2500
 2370.0000    11.2265   101.0456     2.4877     0.0970    -0.0029  -999.2500
 2370.5000    11.2150   100.9458     2.4943     0.0929    -0.0034  -999.2500
 2371.0000    11.2030    97.5801     2.5041     0.0888    -0.0038  -999.2500
 2371.5000    11.1915    93.4166     2.5117     0.0847    -0.0043  -999.2500
 2372.0000    11.1807    91.0899     2.5148     0.0806    -0.0047  -999.2500
 2372.5000    11.1839    91.0908     2.5187     0.0757    -0.0052  -999.2500
 2373.0000    11.1873    92.7063     2.5181     0.0806    -0.0057  -999.2500
 2373.5000    11.1912    95.6213     2.5173     0.0821    -0.0049  -999.2500
 2374.0000    11.1948    99.2477     2.5191     0.0807     0.0001  -999.2500
 2374.5000    11.1985   100.8858     2.5225     0.0797     0.0050  -999.2500
 2375.0000    11.2022   100.4527     2.5129     0.0845     0.0101  -999.2500
 2375.5000    11.2059   100.1551     2.5025     0.0904     0.0138  -999.2500
 2376.0000    11.2095    99.8426     2.4932     0.0931     0.0140  -999.2500
 2376.5000    11.2135   102.6042     2.4874     0.0949     0.0144  -999.2500
 2377.0000    11.2169   105.3839     2.4880     0.0968     0.0191  -999.2500
 2377.5000    11.2192   108.4635     2.4887     0.0986     0.0238  -999.2500
 2378.0000    11.2090   110.8298     2.4832     0.1005     0.0235  -999.2500
 2378.5000    11.2005   112.0289     2.4768     0.1020     0.0141  -999.2500
 2379.0000    11.1912   110.4884     2.4713     0.1072     0.0127  -999.2500
 2379.5000    11.1822   107.2909     2.4715     0.1092     0.0214  -999.2500
 2380.0000    11.1731   104.1281     2.4750     0.1080     0.0291  -999.2500
 2380.5000    11.1640   100.8736     2.4781     0.1065     0.0218  -999.2500
 2381.0000    11.1550    99.4076     2.4792     0.1050     0.0138  -999.2500
 2381.5000    11.1459   100.0475     2.4794     0.1018     0.0100  -999.2500
 2382.0000    11.1369   102.4753     2.4823     0.0972     0.0165  -999.2500
 2382.5000    11.1279   105.3168     2.4862     0.0932     0.0217  -999.2500
 2383.0000    11.1187   107.1454     2.4960     0.0824     0.0269  -999.2500
 2383.5000    11.1097   107.2262     2.5232     0.0741     0.0325  -999.2500
 2384.0000    11.0998   106.1800     2.5137     0.0829     0.0243  -999.2500
 2384.5000    11.0752   104.3063     2.4946     0.0906     0.0099  -999.2500
 2385.0000    11.0568   102.2358     2.4790     0.0983     0.0052  -999.2500
 2385.5000    11.0526   101.8773     2.4720     0.1052     0.0042  -999.2500
 2386.0000    11.0464   101.7611     2.4676     0.1084     0.0027  -999.2500
 2386.5000    11.0404   102.0550     2.4755     0.1045     0.0012  -999.2500
 2387.0000    11.0347   102.9282     2.4847     0.1001    -0.0001  -999.2500
 2387.5000    11.0288   104.2167     2.4932     0.0980    -0.0017  -999.2500
 2388.0000    11.0230   105.3577     2.4927     0.0988    -0.0010  -999.2500
 2388.5000    11.0171   106.3926     2.4833     0.0999     0.0009  -999.2500
 2389.0000    11.0112   104.9773     2.4814     0.1012     0.0020  -999.2500
 2389.5000    11.0054   105.2318     2.4817     0.1002     0.0011  -999.2500
 2390.0000    10.9995   105.5329     2.4973     0.0983     0.0001  -999.2500
 2390.5000    10.9936   105.4604     2.4917     0.1004    -0.0009  -999.2500
 2391.0000    10.9879   104.2607     2.4876     0.1052    -0.0020  -999.2500
 2391.5000    10.9819   101.8455     2.4883     0.1036    -0.0029  -999.2500
 2392.0000    10.9798    99.5735     2.4984     0.0998    -0.0039  -999.2500
 2392.5000    10.9800    97.4630     2.4952     0.0963    -0.0049  -999.2500
 2393.0000    10.9800    98.1189     2.4930     0.0928    -0.0058  -999.2500
 2393.5000    10.9800    98.9328     2.4896     0.0923    -0.0062  -999.2500
 2394.0000    10.9800    99.9992     2.4947     0.0972    -0.0059  -999.2500
 2394.5000    10.9800   100.8284     2.5044     0.0877    -0.0020  -999.2500
 2395.0000    10.9800   103.0254     2.5042     0.0894     0.0205  -999.2500
 2395.5000    10.9800   105.9735     2.4958     0.0969     0.0210  -999.2500
 2396.0000    10.9800   106.0881     2.4760     0.1004     0.0086  -999.2500
 2396.5000    10.9800   106.1550     2.4705     0.1006     0.0013  -999.2500
 2397.0000    10.9800   107.4181     2.4843     0.1009     0.0022  -999.2500
 2397.5000    10.9800   109.5881     2.4853     0.1011     0.0021  -999.2500
 2398.0000    10.9800   111.4887     2.4853     0.0996     0.0013  -999.2500
 2398.5000    10.9800   112.4546     2.5020     0.0921     0.0113  -999.2500
 2399.0000    10.9800   111.9744     2.4979     0.0896     0.0298  -999.2500
 2399.5000    10.9800   109.7931     2.4867     0.0913     0.0251  -999.2500
 2400.0000    10.9800   106.6538     2.4780     0.0931     0.0200  -999.2500
 2400.5000    10.9800   103.4365     2.4878     0.0948     0.0144  -999.2500
 2401.0000    10.9800    98.8057     2.4956     0.0929     0.0173  -999.2500
 2401.5000    10.9800    95.1809     2.5048     0.0910     0.0205  -999.2500
 2402.0000    10.9798    90.4435     2.5094     0.0890     0.0218  -999.2500
 2402.5000    10.9774    88.0349     2.5181     0.0810     0.0157  -999.2500
 2403.0000    10.9754    89.2834     2.5276     0.0706     0.0105  -999.2500
 2403.5000    10.9732    91.1928     2.5361     0.0642     0.0049  -999.2500
 2404.0000    10.9711    93.3667     2.5320     0.0691    -0.0003  -999.2500
 2404.5000    10.9689    99.0265     2.5198     0.0749    -0.0027  -999.2500
 2405.0000    10.9668   104.0464     2.5024     0.0784    -0.0038  -999.2500
 2405.5000    10.9647   107.4399     2.4874     0.0826    -0.0048  -999.2500
 2406.0000    10.9626   104.2159     2.4821     0.0849    -0.0061  -999.2500
 2406.5000    10.9604    99.0235     2.5087     0.0839    -0.0054  -999.2500
 2407.0000    10.9583    94.2813     2.5038     0.0859    -0.0035  -999.2500
 2407.5000    10.9562    89.4706     2.4975     0.0901    -0.0033  -999.2500
 2408.0000    10.9541    87.2824     2.4942     0.0941     0.0044  -999.2500
 2408.5000    10.9519    86.4585     2.4928     0.0976     0.0031  -999.2500
 2409.0000    10.9498    86.8611     2.4939     0.1016     0.0001  -999.2500
 2409.5000    10.9477    87.3940     2.4924     0.1015    -0.0036  -999.2500
 2410.0000    10.9455    87.7876     2.5171     0.0836    -0.0056  -999.2500
 2410.5000    10.9434    89.2933     2.5229     0.0729    -0.0044  -999.2500
 2411.0000    10.9416    92.5632     2.5250     0.0730    -0.0034  -999.2500
 2411.5000    10.9352    94.4335     2.5137     0.0767    -0.0022  -999.2500
