~VERSION INFORMATION
 VERS.                2.0:   CWLS LOG ASCII STANDARD - VERSION 2.0
 WRAP.                 NO:   ONE LINE PER DEPTH STEP
~WELL INFORMATION
#MNEM.UNIT      DATA TYPE    INFORMATION
#----------   ------------   ------------------------------
 STRT.F            0.0000:   START DEPTH
 STOP.F          652.0000:   STOP DEPTH
 STEP.F            0.5000:   STEP LENGTH
 NULL.          -999.2500:   NO VALUE
 COMP.   FLUOR DANIEL INC:   COMPANY
 WELL.   68-1 X 34 #68-34:   WELL
 FLD .             TEAPOT:   FIELD
 LOC .      S34 T39N R78W:   LOCATION
 CNTY.            NATRONA:   COUNTY
 STAT.            WYOMING:   STATE
 CTRY. UNITED STATES OF AMERICA:   COUNTRY
 SRVC.      Western Atlas:   SERVICE COMPANY
 DATE.        08-APR-1995:   LOGDATE
 API .       490252269900:   API NUMBER
~CURVE INFORMATION
#MNEM.UNIT       API CODE    CURVE DESCRIPTION
#----------   ------------   ------------------------------
 DEPT.F                  :   
 GRR .GAPI   07 310 01 00:   GAMMA RAY
 RILD.OHMM   07 120 46 00:   INDUCTION LOG DEEP RESISTIVITY
 RILM.OHMM   07 120 44 00:   RESITIVITY LONG MEDIUM
~PARAMETER INFORMATION
#MNEM.UNIT          VALUE    DESCRIPTION
#----------   ------------   ------------------------------
 PD  .                 GL:   PERMANENT DATUM
 EPD .F              5106:   ELEVATION PERMANENT DATUM
 LMF .                 KB:   LOG MEASURED FROM
 DAPD.F                10:   FEET ABOVE PERMANENT DATUM
 DMF .                 KB:   DRILLING MEASURED FROM
 EKB .F              5116:   KELLING BUSHING
 EDF .F              5115:   DRILLING FLOOR
 EGL .F              5106:   GROUND LEVEL
 DATE.        08-APR-1995:   RUN DATE
 RUN .                  1:   RUN NUMBER
 DD  .F               660:   DEPTH DRILLER
 DL  .F               660:   DEPTH LOGGER
 BLI .F               652:   BOTTOM LOG INTERVAL
 TLI .F                54:   TOP LOG INTERVAL
 CS  .IN            9.625:   CASING SIZE
 CBD .F                53:   CASING BOTTOM DRILLER
 CBL .F                54:   CASING BOTTOM LOGGER
 BS  .IN             8.75:   BIT SIZE
 BSD .F               660:   BIT SIZE AT DEPTH
 DFT .                AIR:   DRILLING FLUID TYPE
 MRT .F                90:   MAXIMUM RECORDED TEMPERATURE
 LUN .            HL 6530:   LOGGING UNIT NUMBER
 LUL .             CASPER:   LOGGING UNIT LOCATION
 ENGI.      PAT RASMUSSEN:   RECORDING ENGINEER
 WITN.        GARY STRONG:   WITNESSED BY
 CLNT.            A2DTECH:   CLIENT CODE
 ORIG.           5" PRINT:   ORIGIN OF DATA
 UWI .       490252269900:   UNIQUE WELL ID
 DICO. A2D Technologies, Inc.:   DIGITIZING COMPANY
~OTHER INFORMATION
~A    DEPT      GRR      RILD       RILM   
# ...
   91.0000   132.9865     7.0414     7.3380
   91.5000   132.6822     7.1902     7.4927
   92.0000   131.7771     7.2914     7.5978
   92.5000   130.2705     7.3430     7.7043
   93.0000   128.4471     7.4463     7.8124
   93.5000   121.8431     7.5513     7.9221
   94.0000   119.1342     7.6047     7.9777
   94.5000   120.6352     7.7117     7.9782
   95.0000   120.0301     7.7127     8.0342
   95.5000   118.5228     7.7139     8.0348
   96.0000   115.2117     7.6615     7.9799
   96.5000   116.4119     7.5574     7.9253
   97.0000   119.2441     7.5063     7.8167
   97.5000   125.4281     7.4043     7.7096
   98.0000   127.2298     7.3540     7.5516
   98.5000   126.6255     7.2541     7.3967
   99.0000   126.3218     7.1059     7.2376
   99.5000   126.3184     7.0092     7.0963
  100.0000   126.6170     7.1270     7.1770
  100.5000   126.3278     6.9819     7.1292
  101.0000   122.7330     6.9836     7.0828
  101.5000   122.1399     7.0334     7.0362
  102.0000   123.3570     7.1333     7.0880
  102.5000   123.0674     7.1346     7.0902
  103.0000   123.0815     7.1856     7.0972
  103.5000   123.3935     7.1897     7.2443
  104.0000   123.7055     7.2387     7.5020
  104.5000   125.5240     7.3411     7.5566
  105.0000   129.1443     7.3935     7.6121
  105.5000   132.1630     7.3953     7.6146
  106.0000   130.9313     7.4481     7.4604
  106.5000   124.3687     7.3982     7.4634
  107.0000   120.4674     7.3996     7.5177
  107.5000   122.8875     7.4528     7.5724
  108.0000   123.5002     7.5061     7.6819
  108.5000   123.2107     7.5597     7.8449
  109.0000   123.5255     7.6141     7.9020
  109.5000   123.8526     7.6685     7.9045
  110.0000   125.3553     7.7232     7.9627
  110.5000   128.0733     7.6714     7.9096
  111.0000   127.4830     7.6200     7.8576
  111.5000   127.1935     7.5170     7.6949
  112.0000   127.8090     7.4130     7.4918
  112.5000   129.3240     7.2142     7.3911
  113.0000   130.8390     7.1654     7.1915
  113.5000   129.9508     6.9714     6.9979
  114.0000   128.7590     6.8771     6.9033
  114.5000   127.8680     6.8310     6.8579
  115.0000   126.3783     6.7848     6.8071
  115.5000   125.4873     6.6931     6.7684
  116.0000   124.5962     6.6482     6.7239
  116.5000   124.0060     6.6039     6.7266
  117.0000   124.6215     6.6052     6.7293
  117.5000   124.9335     6.6068     6.7315
  118.0000   124.3432     6.5622     6.7337
  118.5000   124.6580     6.5638     6.6894
  119.0000   125.8723     6.6107     6.6921
  119.5000   127.3873     6.6123     6.6942
  120.0000   127.6992     6.6135     6.6964
  120.5000   127.7133     6.6608     6.7456
  121.0000   127.1202     6.7553     6.8419
  121.5000   127.1343     6.9464     7.0852
  122.0000   127.1459     7.0446     7.3378
  122.5000   126.8560     7.0953     7.4426
  123.0000   127.1708     7.2457     7.4967
  123.5000   127.7835     7.4506     7.5513
  124.0000   128.3990     7.5602     7.6068
  124.5000   127.8060     7.6103     7.7154
  125.0000   124.2110     7.6647     7.8799
  125.5000   122.9494     7.6662     7.9378
  126.0000   120.6244     7.6148     7.8849
  126.5000   121.5407     7.5637     7.7796
  127.0000   124.5595     7.4611     7.5179
  127.5000   124.8743     7.4046     7.4163
  128.0000   122.7803     7.3617     7.3675
  128.5000   119.1825     7.3123     7.3705
  129.0000   119.1940     7.3140     7.3225
  129.5000   118.3055     7.0668     7.2242
  130.0000   118.0132     6.9710     7.1270
  130.5000   119.5310     6.9723     7.0802
  131.0000   123.7555     7.0225     7.0830
  131.5000   124.0675     7.0238     7.1346
  132.0000   126.1840     7.0740     7.1918
  132.5000   128.9273     7.1774     7.3913
  133.0000   128.6153     7.3264     7.5489
  133.5000   125.9198     7.4817     7.7098
  134.0000   122.6226     7.6933     7.8749
  134.5000   125.6443     7.9663     8.0428
  135.0000   126.2570     8.1916     8.2143
  135.5000   125.6640     8.2502     8.3901
  136.0000   125.9990     8.2518     8.4511
  136.5000   128.6996     8.1964     8.2800
  137.0000   129.0116     8.1414     8.2255
  137.5000   129.0228     8.0314     8.1150
  138.0000   128.1318     7.8138     8.0060
  138.5000   126.9428     7.6543     7.8445
  139.0000   125.1495     7.5508     7.6333
  139.5000   125.1760     7.4484     7.4271
  140.0000   126.0771     7.2970     7.1767
  140.5000   125.4868     7.0991     7.0314
  141.0000   123.9943     6.8588     6.9851
  141.5000   123.4068     6.8131     6.9879
  142.0000   123.7188     6.8618     6.9902
  142.5000   124.3315     6.9108     7.0905
  143.0000   125.2551     6.9605     7.1421
  143.5000   127.3643     6.9743     7.1941
  144.0000   127.9771     7.0603     7.2470
  144.5000   127.9883     7.1708     7.3504
  145.0000   127.7016     7.3630     7.4039
  145.5000   127.1113     7.4672     7.5110
  146.0000   124.1150     7.5728     7.6703
  146.5000   124.4321     7.6803     7.7798
  147.0000   128.3508     7.7351     7.8364
  147.5000   129.5651     7.7904     8.0041
  148.0000   130.7793     7.9009     8.0623
  148.5000   132.2971     7.9574     8.1210
  149.0000   132.6091     8.0142     8.2415
  149.5000   131.7181     8.1299     8.4132
  150.0000   128.7218     8.1860     8.5333
  150.5000   128.7359     8.3018     8.7152
  151.0000   129.0478     8.1903     8.6564
  151.5000   128.4580     8.1364     8.3646
  152.0000   127.5669     8.1385     8.0826
  152.5000   126.9798     8.0287     7.9735
  153.0000   123.3822     7.9200     7.8654
  153.5000   123.9950     7.7065     7.6530
  154.0000   128.2169     7.5500     7.3945
  154.5000   129.1308     7.5520     7.3454
  155.0000   127.9417     7.5018     7.2966
  155.5000   127.3488     7.4006     7.2990
  156.0000   129.1675     7.3515     7.2505
  156.5000   130.6927     7.3539     7.2529
  157.0000   130.9976     7.3558     7.2649
  157.5000   131.9112     7.3577     7.3579
  158.0000   135.8323     7.3601     7.4110
  158.5000   140.0542     7.4132     7.4130
  159.0000   140.3692     7.4152     7.4669
  159.5000   140.0770     7.4171     7.4689
  160.0000   135.8806     7.4776     7.5227
  160.5000   125.9672     7.5773     7.5247
  161.0000   126.3599     7.5793     7.5836
  161.5000   130.5041     7.7404     7.6872
  162.0000   130.8133     7.8519     7.7427
  162.5000   129.3238     8.0179     7.9073
  163.0000   127.4907     8.0757     8.0227
  163.5000   126.3390     8.0215     8.0780
  164.0000   125.4481     8.0242     8.1363
  164.5000   125.7631     7.9631     8.1385
  165.0000   126.6767     7.9180     8.1406
  165.5000   129.6984     7.9756     8.1428
  166.0000   129.4062     7.9777     8.1454
  166.5000   130.3226     8.0353     8.1475
  167.0000   131.5370     8.0937     8.1497
  167.5000   131.8520     8.2088     8.1518
  168.0000   129.1566     8.3254     8.3257
  168.5000   129.4687     8.4438     8.4440
  169.0000   129.7808     8.5639     8.6235
  169.5000   131.3866     8.6261     8.6258
  170.0000   132.5103     8.5683     8.6281
  170.5000   131.6194     8.5711     8.6309
  171.0000   132.8367     8.5733     8.6332
  171.5000   132.8480     8.5761     8.6354
  172.0000   130.1526     8.5784     8.6377
  172.5000   131.6706     8.6403     8.6405
  173.0000   134.3887     8.7026     8.7029
  173.5000   139.2221     8.8268     8.7656
  174.0000   138.3241     8.9523     8.8289
  174.5000   137.1324     9.0795     8.9615
  175.0000   134.7378     9.2726     9.1453
  175.5000   132.9444     9.5356     9.4047
  176.0000   133.5980     9.8747     9.7386
  176.5000   134.1732    10.0846    10.0843
  177.0000   134.7861    10.2280    10.3710
  177.5000   134.7975    10.3733    10.5915
  178.0000   132.6436    10.5946    10.7420
  178.5000   123.6952    10.7452    10.9704
  179.0000   123.1022    10.8227    10.9733
  179.5000   126.1240    10.9007    10.9769
  180.0000   131.2481    10.9036    10.9797
  180.5000   133.3647    10.9072    10.9826
  181.0000   130.3714    10.9100    10.9855
  181.5000   124.9693    10.8376    10.8373
