~VERSION INFORMATION
 VERS.                2.0:   CWLS LOG ASCII STANDARD - VERSION 2.0
 WRAP.                 NO:   ONE LINE PER DEPTH STEP
~WELL INFORMATION
#MNEM.UNIT      DATA TYPE    INFORMATION
#----------   ------------   ------------------------------
 STRT.F            0.0000:   START DEPTH
 STOP.F          663.0000:   STOP DEPTH
 STEP.F            0.1000:   STEP LENGTH
 NULL.          -999.2500:   NO VALUE
 COMP.   FLUOR DANIEL INC:   COMPANY
 WELL.     62-6 X 3 #62-3:   WELL
 FLD .             TEAPOT:   FIELD
 LOC .       S3 T38N R78W:   LOCATION
 CNTY.            NATRONA:   COUNTY
 STAT.            WYOMING:   STATE
 CTRY. UNITED STATES OF AMERICA:   COUNTRY
 SRVC.      Western Atlas:   SERVICE COMPANY
 DATE.        11-APR-1995:   LOGDATE
 API .       490252270400:   API NUMBER
~CURVE INFORMATION
#MNEM.UNIT       API CODE    CURVE DESCRIPTION
#----------   ------------   ------------------------------
 DEPT.F                  :   
 GRR .GAPI   07 310 01 00:   GAMMA RAY
 RILD.OHMM   07 120 46 00:   INDUCTION LOG DEEP RESISTIVITY
 RILM.OHMM   07 120 44 00:   INDUCTION LOG MEDIUM RESISTIVITY
~PARAMETER INFORMATION
#MNEM.UNIT          VALUE    DESCRIPTION
#----------   ------------   ------------------------------
 PD  .                 GL:   PERMANENT DATUM
 EPD .F              5157:   ELEVATION PERMANENT DATUM
 LMF .                 KB:   LOG MEASURED FROM
 DAPD.F                10:   FEET ABOVE PERMANENT DATUM
 DMF .                 KB:   DRILLING MEASURED FROM
 EKB .F              5167:   KELLING BUSHING
 EDF .F              5166:   DRILLING FLOOR
 EGL .F              5157:   GROUND LEVEL
 DATE.        11-APR-1995:   RUN DATE
 RUN .                  1:   RUN NUMBER
 DD  .F               671:   DEPTH DRILLER
 DL  .F               671:   DEPTH LOGGER
 BLI .F               663:   BOTTOM LOG INTERVAL
 TLI .F                95:   TOP LOG INTERVAL
 CS  .IN            9.625:   CASING SIZE
 CBD .F                95:   CASING BOTTOM DRILLER
 CBL .F                95:   CASING BOTTOM LOGGER
 BS  .IN             8.75:   BIT SIZE
 BSD .F               671:   BIT SIZE AT DEPTH
 DFT .                AIR:   DRILLING FLUID TYPE
 MRT .F                90:   MAXIMUM RECORDED TEMPERATURE
 LUN .            HL 6530:   LOGGING UNIT NUMBER
 LUL .             CASPER:   LOGGING UNIT LOCATION
 ENGI.      PAT RASMUSSEN:   RECORDING ENGINEER
 WITN.        GARY STRONG:   WITNESSED BY
 CLNT.            A2DTECH:   CLIENT CODE
 ORIG.           5" PRINT:   ORIGIN OF DATA
 UWI .       490252270400:   UNIQUE WELL ID
 DICO. A2D Technologies, Inc.:   DIGITIZING COMPANY
~OTHER INFORMATION
~A    DEPT      GRR      RILD       RILM   
# ...
  491.4000    64.2382    12.4249    15.7717
  491.5000    63.8884    12.6695    16.1186
  491.6000    63.7490    12.9621    16.3141
  491.7000    63.6828    13.2075    16.5446
  491.8000    63.4063    13.3555    16.7863
  491.9000    62.8515    13.5755    16.9602
  492.0000    62.6204    13.8182    17.0159
  492.1000    62.1792    14.0314    17.0169
  492.2000    61.6697    14.1983    17.0178
  492.3000    61.2563    14.3634    17.0189
  492.4000    60.9520    14.4607    16.9269
  492.5000    60.4423    14.6097    16.8277
  492.6000    59.8520    14.7239    16.6732
  492.7000    59.6386    14.7677    16.5537
  492.8000    59.5547    14.7687    16.5337
  492.9000    59.6812    14.7698    16.4299
  493.0000    60.0964    14.7708    16.1006
  493.1000    60.8670    14.6880    16.0196
  493.2000    61.6761    14.6029    15.9258
  493.3000    62.4079    14.5183    15.7855
  493.4000    63.1783    14.4341    15.6302
  493.5000    63.9486    14.3294    15.5115
  493.6000    64.7191    14.1686    15.2308
  493.7000    65.4896    14.0777    15.1442
  493.8000    66.2749    14.0049    14.9849
  493.9000    67.4247    13.8080    14.8091
  494.0000    68.1026    13.6524    14.6353
  494.1000    68.5138    13.5452    14.4858
  494.2000    68.6383    13.4013    14.4009
  494.3000    68.6407    13.3234    14.3087
  494.4000    68.6431    13.2324    14.1565
  494.5000    68.6456    13.1067    14.0509
  494.6000    68.6484    13.0029    14.0144
  494.7000    68.4430    12.9276    13.9841
  494.8000    68.1894    12.8737    13.9021
  494.9000    67.9358    12.8671    13.8207
  495.0000    67.6823    12.7866    13.7270
  495.1000    67.4040    12.7184    13.7277
  495.2000    66.8527    12.6999    13.7284
  495.3000    66.3847    12.7008    13.7292
  495.4000    66.0645    12.7017    13.7554
  495.5000    65.5234    12.7179    13.8379
  495.6000    64.9541    12.7919    13.9247
  495.7000    64.5955    12.7929    14.0046
  495.8000    63.8435    12.8575    14.0238
  495.9000    63.5515    12.8836    14.0747
  496.0000    62.9019    12.8845    14.1951
  496.1000    62.3079    12.9088    14.3230
  496.2000    61.7982    12.9759    14.3297
  496.3000    61.2887    12.9769    14.4251
  496.4000    60.7792    12.9777    14.5024
  496.5000    60.2475    13.0376    14.6517
  496.6000    59.5148    13.1155    14.7329
  496.7000    59.1479    13.1937    14.7652
  496.8000    58.8943    13.2543    14.8378
  496.9000    58.5327    13.2552    14.8386
  497.0000    58.0855    13.2562    14.8396
  497.1000    57.8484    13.2570    14.8402
  497.2000    57.8513    13.3123    14.8985
  497.3000    57.8534    13.3511    14.9459
  497.4000    57.8558    13.3521    14.9207
  497.5000    57.9940    13.3530    14.8435
  497.6000    58.3424    13.3539    14.8444
  497.7000    58.8124    13.2783    14.8452
  497.8000    59.0721    13.2634    14.7791
  497.9000    59.9799    13.2162    14.6925
  498.0000    60.1911    13.1396    14.5714
  498.1000    60.7765    13.0635    14.4198
  498.2000    61.3112    12.9877    14.3258
  498.3000    61.5697    12.9051    14.0623
  498.4000    61.8547    12.7699    13.7988
  498.5000    62.4074    12.6751    13.5353
  498.6000    62.6465    12.6016    13.2718
  498.7000    63.0963    12.4755    13.0461
  498.8000    63.4651    12.2711    12.8679
  498.9000    63.7235    12.1283    12.5631
  499.0000    63.9276    11.9631    12.3896
  499.1000    63.9387    11.7342    12.2718
  499.2000    64.2344    11.5930    12.1733
  499.3000    64.6744    11.4630    12.1019
  499.4000    65.0156    11.2632    12.0113
  499.5000    65.1463    11.0738    11.8844
  499.6000    65.2308    10.9361    11.8852
  499.7000    65.5255    10.8179    11.8208
  499.8000    66.0586    10.6922    11.6998
  499.9000    66.3077    10.5679    11.6015
  500.0000    66.7672    10.4451    11.5335
  500.1000    67.2817    10.3108    11.4515
  500.2000    67.7961    10.1349    11.3194
  500.3000    68.3106    10.0677    11.2439
  500.4000    68.7879    10.0683    11.1873
  500.5000    68.7906     9.9895    11.1217
  500.6000    69.0216     9.9021    11.0237
  500.7000    69.2800     9.8631    10.9365
  500.8000    69.5385     9.8637    10.9274
  500.9000    69.7050     9.8645    10.8617
  501.0000    69.7074     9.8097    10.7377
  501.1000    69.7098     9.7976    10.6618
  501.2000    69.4110     9.7983    10.5994
  501.3000    69.2020     9.7990    10.5373
  501.4000    68.9484     9.7997    10.4593
  501.5000    68.5752     9.8003    10.3469
  501.6000    68.0655     9.8011    10.3476
  501.7000    67.6124     9.8017    10.2925
  501.8000    67.6152     9.8024    10.2323
  501.9000    67.3788     9.8031    10.1723
  502.0000    66.9321     9.8037    10.1127
  502.1000    66.5699     9.8044    10.0652
  502.2000    66.4181     9.8051    10.0659
  502.3000    66.4205     9.8059    10.0665
  502.4000    66.4229     9.8065    10.0670
  502.5000    66.4257     9.8071    10.1076
  502.6000    66.4277     9.8078    10.1683
  502.7000    66.4302     9.8085    10.2293
  502.8000    66.5621     9.8144    10.2907
  502.9000    66.7366     9.8782    10.3551
  503.0000    66.8153     9.8788    10.5092
  503.1000    67.3278     9.8795    10.6701
  503.2000    67.8402     9.9125    10.8311
  503.3000    68.3527     9.9496    10.9920
  503.4000    68.8398     9.9618    11.1530
  503.5000    68.8418    10.0212    11.2884
  503.6000    69.0759    10.0908    11.3658
  503.7000    69.1469    10.1412    11.5096
  503.8000    69.2992    10.2018    11.5912
  503.9000    69.4522    10.2917    11.6484
  504.0000    69.4540    10.3957    11.6739
  504.1000    69.4558    10.4504    11.7094
  504.2000    69.4577    10.4512    11.7811
  504.3000    69.4594    10.5682    11.8406
  504.4000    69.4612    10.6462    11.8427
  504.5000    69.4630    10.7097    11.9253
  504.6000    69.4649    10.7481    11.9260
  504.7000    69.4667    10.7630    11.9269
  504.8000    69.4267    10.8272    11.9277
  504.9000    69.1686    10.9006    11.9285
  505.0000    69.1707    10.9569    11.9461
  505.1000    69.1722    10.9779    12.0138
  505.2000    69.3534    11.0114    12.0147
  505.3000    69.4775    11.0558    12.0155
  505.4000    69.5767    11.0566    11.9615
  505.5000    69.7828    11.0574    11.9335
  505.6000    69.7999    11.0581    11.8708
  505.7000    70.0883    11.0589    11.7697
  505.8000    70.0899    11.0596    11.7613
  505.9000    70.0917    11.0604    11.6894
  506.0000    69.9407    11.0612    11.6904
  506.1000    69.5701    11.0667    11.6338
  506.2000    69.1922    11.1398    11.6105
  506.3000    69.1642    11.1405    11.6113
  506.4000    68.8942    11.1412    11.6121
  506.5000    69.1453    11.1772    11.6129
  506.6000    69.1994    11.2203    11.6137
  506.7000    69.3686    11.2211    11.6147
  506.8000    69.7573    11.2219    11.6154
  506.9000    70.1098    11.2228    11.6162
  507.0000    70.1558    11.1697    11.6170
  507.1000    70.4151    11.1467    11.6178
  507.2000    70.4172    11.1174    11.6186
  507.3000    70.6415    11.0711    11.6136
  507.4000    70.7222    11.0654    11.5394
  507.5000    70.8648    10.9962    11.4759
  507.6000    70.9277    10.8786    11.4077
  507.7000    70.6689    10.7959    11.3817
  507.8000    70.4276    10.7288    11.3515
  507.9000    70.4297    10.6618    11.2840
  508.0000    70.1941    10.5948    11.2169
  508.1000    69.7390    10.5277    11.1489
  508.2000    69.3748    10.4607    11.0722
  508.3000    69.1159    10.3936    11.0729
  508.4000    68.7840    10.3266    11.0292
  508.5000    68.2967    10.2596    10.9637
  508.6000    68.0290    10.1925    10.8755
  508.7000    67.7295    10.1385    10.7707
  508.8000    67.7309    10.1373    10.7692
  508.9000    67.3933    10.0704    10.6975
  509.0000    67.1312     9.9657    10.6416
  509.1000    67.2207     9.8904    10.5325
  509.2000    67.4832     9.8654    10.4778
  509.3000    67.7400     9.8184    10.4529
  509.4000    67.7420     9.7166    10.4064
  509.5000    67.7436     9.6646    10.4071
