~VERSION INFORMATION
 VERS.                2.0:   CWLS LOG ASCII STANDARD - VERSION 2.0
 WRAP.                 NO:   ONE LINE PER DEPTH STEP
~WELL INFORMATION
#MNEM.UNIT      DATA TYPE    INFORMATION
#----------   ------------   ------------------------------
 STRT.F           11.0000:   START DEPTH
 STOP.F          804.0000:   STOP DEPTH
 STEP.F            0.1000:   STEP LENGTH
 NULL.          -999.2500:   NO VALUE
 COMP. BROWN JOHN E&C INC:   COMPANY
 WELL. 72-1 STX-34 #72-34:   WELL
 FLD .             TEAPOT:   FIELD
 LOC .      S34 T39N R78W:   LOCATION
 CNTY.            NATRONA:   COUNTY
 STAT.            WYOMING:   STATE
 CTRY. UNITED STATES OF AMERICA:   COUNTRY
 SRVC.     Atlas Wireline:   SERVICE COMPANY
 DATE.        31-JAN-1992:   LOGDATE
 API .       490252250200:   API NUMBER
~CURVE INFORMATION
#MNEM.UNIT       API CODE    CURVE DESCRIPTION
#----------   ------------   ------------------------------
 DEPT.F                  :   
 GRR .GAPI   07 310 01 00:   GAMMA RAY
 RILD.OHMM   07 120 46 00:   INDUCTION LOG DEEP RESISTIVITY
 RILM.OHMM   07 120 44 00:   INDUCTION LOG MEDIUM RESISTIVITY
~PARAMETER INFORMATION
#MNEM.UNIT          VALUE    DESCRIPTION
#----------   ------------   ------------------------------
 PD  .                 GL:   PERMANENT DATUM
 EPD .F              5069:   ELEVATION PERMANENT DATUM
 LMF .                 KB:   LOG MEASURED FROM
 DAPD.F                10:   FEET ABOVE PERMANENT DATUM
 DMF .                 KB:   DRILLING MEASURED FROM
 EKB .F              5079:   KELLING BUSHING
 EDF .F              5078:   DRILLING FLOOR
 EGL .F              5069:   GROUND LEVEL
 DATE.        31-JAN-1992:   RUN DATE
 RUN .                  1:   RUN NUMBER
 DD  .F               814:   DEPTH DRILLER
 DL  .F               813:   DEPTH LOGGER
 BLI .F               804:   BOTTOM LOG INTERVAL
 CS  .IN            9.625:   CASING SIZE
 CBD .F               100:   CASING BOTTOM DRILLER
 CBL .F               104:   CASING BOTTOM LOGGER
 BS  .IN             8.75:   BIT SIZE
 BSD .F               814:   BIT SIZE AT DEPTH
 DFT .                AIR:   DRILLING FLUID TYPE
 MRT .F                90:   MAXIMUM RECORDED TEMPERATURE
 LUN .           HL- 6274:   LOGGING UNIT NUMBER
 LUL .             CASPER:   LOGGING UNIT LOCATION
 ENGI.             RAUTIO:   RECORDING ENGINEER
 WITN.        GARY STRONG:   WITNESSED BY
 CLNT.            A2DTECH:   CLIENT CODE
 ORIG.           5" PRINT:   ORIGIN OF DATA
 UWI .       490252250200:   UNIQUE WELL ID
 DICO. A2D Technologies, Inc.:   DIGITIZING COMPANY
~OTHER INFORMATION
~A   DEPT       GRR      RILD       RILM   
# ...
  557.0000   131.3290     5.7053     5.8199
  557.1000   132.6342     5.7842     5.8869
  557.2000   134.1963     5.8837     5.9683
  557.3000   136.1606     5.9615     6.0052
  557.4000   138.1519     5.9918     6.1265
  557.5000   139.6061     5.9920     6.1836
  557.6000   140.8959     5.9921     6.2538
  557.7000   141.6149     5.9922     6.3117
  557.8000   142.0028     5.9922     6.3519
  557.9000   142.7285     5.9923     6.4311
  558.0000   143.3106     5.9924     6.4638
  558.1000   143.9151     5.9602     6.4755
  558.2000   144.3663     5.9508     6.4753
  558.3000   144.7004     5.9344     6.4672
  558.4000   145.1353     5.9009     6.4298
  558.5000   145.1379     5.8684     6.4296
  558.6000   145.3571     5.8685     6.3748
  558.7000   145.4451     5.8686     6.3214
  558.8000   145.4475     5.8686     6.2958
  558.9000   145.4951     5.8578     6.2932
  559.0000   145.7550     5.8279     6.2516
  559.1000   145.9908     5.8280     6.2514
  559.2000   146.2384     5.7994     6.2512
  559.3000   146.4860     5.7667     6.2509
  559.4000   146.7336     5.7341     6.2507
  559.5000   146.9812     5.7073     6.2503
  559.6000   147.2290     5.7074     6.2501
  559.7000   147.4767     5.7380     6.2743
  559.8000   147.7244     5.7708     6.2933
  559.9000   147.8947     5.7879     6.3094
  560.0000   147.8971     5.7962     6.3809
  560.1000   147.8999     5.8288     6.4169
  560.2000   147.2776     5.8289     6.4250
  560.3000   146.3932     5.8812     6.4247
  560.4000   145.6016     5.9484     6.4244
  560.5000   145.0049     5.9944     6.4212
  560.6000   143.6759     5.9975     6.3793
  560.7000   142.3320     6.0367     6.3791
  560.8000   141.3640     6.0663     6.3564
  560.9000   140.7403     6.0793     6.3202
  561.0000   140.1995     6.0658     6.2901
  561.1000   139.4518     6.0370     6.2898
  561.2000   139.4542     6.0371     6.2564
  561.3000   139.4566     6.0054     6.1961
  561.4000   139.4590     5.9479     6.1425
  561.5000   139.6677     5.8808     6.0991
  561.6000   140.3831     5.8222     6.0302
  561.7000   140.6770     5.7889     5.9621
  561.8000   141.0774     5.6914     5.8686
  561.9000   141.5704     5.6446     5.8058
  562.0000   142.1480     5.5616     5.7412
  562.1000   142.8317     5.4461     5.6151
  562.2000   143.1095     5.3563     5.5080
  562.3000   143.3271     5.2868     5.4273
  562.4000   143.2585     5.2113     5.3166
  562.5000   143.0157     5.1234     5.1973
  562.6000   142.6855     5.0261     5.0805
  562.7000   141.9112     4.9173     4.9608
  562.8000   141.9135     4.8277     4.8813
  562.9000   141.7416     4.7528     4.7990
  563.0000   141.6158     4.6726     4.7180
  563.1000   141.5585     4.5937     4.6519
  563.2000   141.3130     4.5104     4.6237
  563.3000   140.8250     4.4084     4.5304
  563.4000   140.7177     4.3837     4.4893
  563.5000   140.7201     4.3215     4.4243
  563.6000   140.7225     4.2486     4.3579
  563.7000   140.7250     4.1838     4.3086
  563.8000   140.7278     4.1366     4.2544
  563.9000   141.1431     4.0824     4.1701
  564.0000   141.3374     4.0631     4.0916
  564.1000   141.2479     4.0263     4.0321
  564.2000   140.9705     3.9808     3.9865
  564.3000   140.4371     3.9391     3.9399
  564.4000   139.7715     3.9149     3.8969
  564.5000   139.5340     3.8747     3.8369
  564.6000   139.4284     3.8458     3.7937
  564.7000   139.2363     3.8240     3.7663
  564.8000   139.2388     3.7978     3.7246
  564.9000   139.0024     3.7543     3.6997
  565.0000   138.9410     3.7334     3.6996
  565.1000   139.0677     3.7282     3.6871
  565.2000   139.2484     3.7282     3.6736
  565.3000   139.2604     3.7222     3.6735
  565.4000   139.5563     3.7024     3.6733
  565.5000   140.1513     3.7024     3.6544
  565.6000   140.6088     3.7025     3.6475
  565.7000   140.8566     3.6901     3.6473
  565.8000   141.1299     3.6844     3.6516
  565.9000   141.6862     3.7054     3.6725
  566.0000   141.9022     3.7287     3.6723
  566.1000   141.9933     3.7287     3.6722
  566.2000   141.7971     3.7573     3.6830
  566.3000   141.3091     3.7908     3.6976
  566.4000   140.7905     3.8124     3.7016
  566.5000   139.8737     3.8347     3.7752
  566.6000   138.5501     3.8992     3.7930
  566.7000   136.7341     3.9327     3.8409
  566.8000   134.5284     3.9668     3.8897
  566.9000   132.3270     4.0122     3.9182
  567.0000   131.1023     4.0568     3.9907
  567.1000   129.5011     4.0842     4.0323
  567.2000   128.0494     4.1224     4.0780
  567.3000   126.7508     4.1696     4.1135
  567.4000   125.3665     4.2258     4.1422
  567.5000   125.0836     4.2893     4.1891
  567.6000   125.0856     4.2894     4.2367
  567.7000   125.2357     4.3553     4.2848
  567.8000   125.6641     4.3969     4.3334
  567.9000   126.4026     4.4220     4.3826
  568.0000   127.2136     4.4523     4.4322
  568.1000   128.3215     4.5049     4.4899
  568.2000   129.8778     4.5297     4.5115
  568.3000   131.4906     4.5940     4.5693
  568.4000   132.8666     4.6462     4.6265
  568.5000   133.8821     4.6873     4.6613
  568.6000   134.5964     4.7656     4.7461
  568.7000   135.3345     4.7980     4.8219
  568.8000   135.8273     4.8648     4.8652
  568.9000   136.2704     4.9160     4.9328
  569.0000   137.2457     4.9538     5.0312
  569.1000   137.9844     5.0070     5.0883
  569.2000   138.7231     5.0391     5.1460
  569.3000   139.3225     5.0644     5.2278
  569.4000   139.8969     5.1313     5.2834
  569.5000   140.5870     5.1946     5.3332
  569.6000   140.8681     5.2242     5.4212
  569.7000   140.8702     5.2554     5.4907
  569.8000   140.8726     5.3129     5.5724
  569.9000   140.9726     5.3516     5.6470
  570.0000   141.1800     5.3973     5.7111
  570.1000   141.1826     5.4589     5.7819
  570.2000   141.1849     5.5203     5.8854
  570.3000   141.1873     5.5518     5.9490
  570.4000   141.0759     5.6346     6.0413
  570.5000   140.8896     5.7315     6.1445
  570.6000   140.8920     5.8077     6.2307
  570.7000   140.4054     5.8479     6.2682
  570.8000   139.9171     5.9613     6.3965
  570.9000   139.2990     5.9910     6.4255
  571.0000   138.7111     6.0695     6.4618
  571.1000   138.4834     6.1449     6.5110
  571.2000   138.4863     6.1925     6.5805
  571.3000   138.2851     6.3047     6.6218
  571.4000   138.1882     6.3730     6.6549
  571.5000   138.2791     6.4459     6.7174
  571.6000   138.4956     6.5017     6.7607
  571.7000   138.4983     6.5576     6.7680
  571.8000   139.1587     6.6688     6.8073
  571.9000   139.5728     6.7068     6.8071
  572.0000   139.8205     6.7451     6.8353
  572.1000   140.1156     6.7836     6.8738
  572.2000   140.6282     6.8224     6.9126
  572.3000   140.6305     6.8576     6.9496
  572.4000   140.6330     6.8577     6.9492
  572.5000   140.6354     6.8915     6.9490
  572.6000   140.5102     6.9061     6.9720
  572.7000   140.0287     6.9061     6.9970
  572.8000   139.7857     6.9062     6.9967
  572.9000   139.5429     6.9063     6.9963
  573.0000   139.1628     6.8698     6.9961
  573.1000   138.7545     6.8584     6.9693
  573.2000   138.4892     6.8219     6.9470
  573.3000   137.9320     6.7633     6.9466
  573.4000   137.5128     6.7634     6.9464
  573.5000   137.1781     6.7635     6.9075
  573.6000   136.7434     6.7636     6.8682
  573.7000   136.1255     6.7637     6.8495
  573.8000   136.1285     6.7759     6.8378
  573.9000   135.9042     6.8113     6.8014
  574.0000   135.8306     6.8115     6.8011
  574.1000   135.8330     6.8116     6.8008
  574.2000   135.8902     6.8117     6.7773
  574.3000   136.1404     6.7818     6.7387
  574.4000   136.8715     6.7172     6.7004
  574.5000   137.7952     6.7173     6.6591
  574.6000   138.7788     6.6822     6.6244
  574.7000   139.6917     6.5926     6.6124
  574.8000   140.4161     6.5323     6.5950
  574.9000   140.9965     6.5153     6.5490
  575.0000   141.6039     6.4417     6.4749
  575.1000   142.0531     6.3692     6.4381
