~VERSION INFORMATION
 VERS.                2.0:   CWLS LOG ASCII STANDARD - VERSION 2.0
 WRAP.                 NO:   ONE LINE PER DEPTH STEP
~WELL INFORMATION
#MNEM.UNIT      DATA TYPE    INFORMATION
#----------   ------------   ------------------------------
 STRT.F           20.0000:   START DEPTH
 STOP.F          710.0000:   STOP DEPTH
 STEP.F            0.5000:   STEP LENGTH
 NULL.          -999.2500:   NO VALUE
 COMP. FENIX & SCISSON INC:   COMPANY
 WELL.     NPR-3 #42SX-34:   WELL
 FLD .             TEAPOT:   FIELD
 LOC .      S34 T39N R78W:   LOCATION
 CNTY.            NATRONA:   COUNTY
 STAT.            WYOMING:   STATE
 CTRY. UNITED STATES OF AMERICA:   COUNTRY
 SRVC.           BIRDWELL:   SERVICE COMPANY
 DATE.        30-AUG-1978:   LOGDATE
 API .       490251070800:   API NUMBER
~CURVE INFORMATION
#MNEM.UNIT       API CODE    CURVE DESCRIPTION
#----------   ------------   ------------------------------
 DEPT.F                  :   
 SPR .MV     05 010 01 00:   SPONTANEOUS POTENTIAL
 SN  .OHMM   05 040 16 00:   SHORT NORMAL 16'
 ILD .OHMM   05 120 46 00:   INDUCTION LOG DEEP RESISTIVITY
 GRD .GAPI   45 310 01 00:   GAMMA RAY FROM DENSITY LOG
 CALD.IN     45 280 60 00:   CALIPER
 RHOB.G/C3   45 350 01 00:   BULK DENSITY
 DPHI.DEC    45 890 12 00:   DENSITY POROSITY SANDSTONE
 CORR.G/C3   45 356 01 00:   DENSITY CORRECTION
~PARAMETER INFORMATION
#MNEM.UNIT          VALUE    DESCRIPTION
#----------   ------------   ------------------------------
 PD  .                 GL:   PERMANENT DATUM
 EPD .F              5079:   ELEVATION PERMANENT DATUM
 LMF .                 KB:   LOG MEASURED FROM
 DAPD.F                 4:   FEET ABOVE PERMANENT DATUM
 DMF .                 KB:   DRILLING MEASURED FROM
 EKB .F              5083:   KELLING BUSHING
 EGL .F              5079:   GROUND LEVEL
 DATE.            8-30-78:   RUN DATE
 RUN .                  1:   RUN NUMBER
 DD  .F               705:   DEPTH DRILLER
 DL  .F               708:   DEPTH LOGGER
 BLI .F               702:   BOTTOM LOG INTERVAL
 TLI .F                50:   TOP LOG INTERVAL
 CS  .IN            8.625:   CASING SIZE
 CBD .F                40:   CASING BOTTOM DRILLER
 CBL .F                40:   CASING BOTTOM LOGGER
 BS  .IN            7.875:   BIT SIZE
 BSD .F               705:   BIT SIZE AT DEPTH
 DFT .                KCL:   DRILLING FLUID TYPE
 DFD .                8.6:   DRILLING FLUID DENSITY
 DFV .                 34:   DRILLING FLUID VISCOSITY
 DFPH.                  9:   DRILLING FLUID PH
 DFL .                7.4:   DRILLING FLUID LOSS
 MSS .           FLOWLINE:   MUD SAMPLE SOURCE
 RMS .OHMM             .3:   RESISTIVITY MUD SAMPLE
 MST .F                80:   MUD SAMPLE TEMPERATURE
 RMF .OHMM             .4:   RESISTIVITY MUD FILTRATE SAMPLE
 MFST.F                80:   MUD FILTRATE SAMPLE TEMPERATURE
 RMC .OHMM             .5:   RESISTIVITY MUD CAKE
 MCST.F                82:   MUD CAKE SAMPLE TEMPERATURE
 MFSS.               MEAS:   MUD FILTRATE SAMPLE SOURCE
 MCSS.               MEAS:   MUD CAKE SAMPLE SOURCE
 RMB .OHMM            .32:   RESISTIVITY MUD AT BHT
 BHT .F                73:   BOTTOM HOLE TEMPERATURE
 TCS .HRS               3:   TIME CURCULATED STOPPED
 MRT .F                73:   MAXIMUM RECORDED TEMPERATURE
 LUN .               3006:   LOGGING UNIT NUMBER
 LUL .               CASP:   LOGGING UNIT LOCATION
 ENGI.            POINTER:   RECORDING ENGINEER
 WITN.              AMEND:   WITNESSED BY
 CLNT.            A2DTECH:   CLIENT CODE
 ORIG.           5" PRINT:   ORIGIN OF DATA
 UWI .       490251070800:   UNIQUE WELL ID
 DICO. A2D Technologies, Inc.:   DIGITIZING COMPANY
~OTHER INFORMATION
~A   DEPT      SPR         SN        ILD         GRD      CALD       RHOB       DPHI       CORR   
# ...
   60.5000   -47.7054     8.5485     7.1950    73.2521     8.9215     2.3452     0.2100     0.1326
   61.0000   -46.7343     8.3374     7.1356    66.7376     8.9345     2.3441     0.2108     0.1638
   61.5000   -45.7866     8.3374     7.0789    65.9279     8.9475     2.3426     0.2045     0.2046
   62.0000   -44.9997     8.6092     7.0637    66.4190     8.8524     2.3568     0.1830     0.2297
   62.5000   -44.6575     8.9956     7.1950    67.4739     8.7513     2.4090     0.1572     0.2264
   63.0000   -44.3617     9.3993     7.7193    68.4166     8.6496     2.4287     0.1508     0.1744
   63.5000   -44.0674     9.8212     8.4216    69.0732     8.5546     2.4350     0.1679     0.1257
   64.0000   -43.7671    10.2619     9.1878    66.5176     8.5577     2.4077     0.1865     0.0747
   64.5000   -43.4741    10.7225    10.0237    63.3337     8.5608     2.3681     0.2051     0.0348
   65.0000   -42.7421    11.2037    10.3999    61.1839     8.5683     2.3397     0.2178     0.0342
   65.5000   -41.8377    11.7066    10.3014    62.4890     8.5742     2.3298     0.2213     0.0377
   66.0000   -40.9198    12.2320    10.2101    64.0742     8.5800     2.3224     0.2260     0.0461
   66.5000   -40.4829    12.5984    10.3999    63.7308     8.5863     2.3158     0.2174     0.0545
   67.0000   -40.3312    12.7904    11.0884    62.8590     8.5922     2.3268     0.2042     0.0558
   67.5000   -40.1696    12.9853    11.7228    62.0314     8.5983     2.3496     0.1909     0.0499
   68.0000   -40.0027    13.1832    11.9424    61.2249     8.6044     2.3718     0.1776     0.0446
   68.5000   -39.8427    13.3841    12.2093    62.1441     8.6100     2.3945     0.1644     0.0393
   69.0000   -39.6788    13.5880    12.4822    63.2067     8.6164     2.4159     0.1532     0.0337
   69.5000   -39.5134    13.7951    12.7612    63.0319     8.6226     2.4334     0.1638     0.0285
   70.0000   -39.4116    13.9647    13.0464    62.0315     8.6257     2.4240     0.1730     0.0232
   70.5000   -39.4605    14.2577    13.3380    61.0198     8.6568     2.4099     0.1822     0.0252
   71.0000   -39.5052    14.5081    13.6379    60.2882     8.7052     2.3945     0.1914     0.0299
   71.5000   -39.5531    14.7630    13.9437    62.7314     8.7507     2.3797     0.1973     0.0346
   72.0000   -39.6004    15.0325    14.2564    66.3142     8.7957     2.3638     0.1994     0.0486
   72.5000   -39.6478    14.9634    14.5758    69.9540     8.8412     2.3594     0.1984     0.0617
   73.0000   -39.6969    14.8919    14.7631    68.7115     8.8864     2.3672     0.1943     0.0756
   73.5000   -39.7415    14.8207    14.7546    67.2210     8.9335     2.3731     0.1903     0.0900
   74.0000   -39.7897    14.7499    14.7213    67.0331     8.9537     2.3764     0.1890     0.1013
   74.5000   -39.6703    14.6795    14.6398    68.1683     8.9521     2.3787     0.1886     0.1076
   75.0000   -39.4744    14.6093    14.5575    68.9971     8.9523     2.3764     0.1884     0.1148
   75.5000   -39.2826    14.5395    14.4781    68.9839     8.9519     2.3767     0.1851     0.1226
   76.0000   -39.1277    14.4700    14.3990    68.4819     8.9513     2.3832     0.1811     0.1253
   76.5000   -38.5884    14.4009    14.3204    66.2961     8.9164     2.3904     0.1786     0.1224
   77.0000   -37.6294    14.3321    14.2423    64.7458     8.8735     2.3903     0.1806     0.1203
   77.5000   -36.7324    14.2636    14.1645    65.1734     8.8301     2.3893     0.1826     0.1108
   78.0000   -35.8390    14.1955    14.0872    66.0234     8.7869     2.3934     0.1844     0.0846
   78.5000   -35.6366    14.1277    14.0103    66.9298     8.7445     2.3998     0.1887     0.0595
   79.0000   -35.4463    14.0602    13.9338    66.0962     8.7012     2.3916     0.1926     0.0386
   79.5000   -35.2850    13.9647    13.8577    64.5592     8.6555     2.3716     0.1964     0.0397
   80.0000   -35.1107    14.0199    13.7821    63.0065     8.6244     2.3595     0.1941     0.0405
   80.5000   -34.9379    14.1161    13.7098    61.3806     8.6169     2.3701     0.1900     0.0420
   81.0000   -34.7656    14.2243    13.9990    60.5007     8.6065     2.3820     0.1859     0.0433
   81.5000   -34.5960    14.4266    14.5865    60.5647     8.5953     2.3858     0.1818     0.0444
   82.0000   -34.4274    14.6587    15.3387    61.9713     8.5898     2.3885     0.1777     0.0458
   82.5000   -34.2396    15.0488    16.1235    63.9044     8.5903     2.4029     0.1660     0.0421
   83.0000   -34.3126    15.5662    16.9551    64.0335     8.5903     2.4303     0.1465     0.0378
   83.5000   -34.5175    16.1015    17.8276    61.9180     8.5903     2.4557     0.1270     0.0334
   84.0000   -34.7067    16.6551    18.7436    59.9372     8.5904     2.4853     0.1220     0.0289
   84.5000   -34.8995    17.2278    19.7069    58.0645     8.5903     2.4787     0.1244     0.0246
   85.0000   -35.0172    17.8202    20.9678    56.4468     8.5903     2.4655     0.1532     0.0217
   85.5000   -34.9928    18.4090    20.9239    57.7568     8.5903     2.4400     0.1781     0.0210
   86.0000   -34.9678    18.2268    20.2867    58.8344     8.5903     2.3977     0.2105     0.0375
   86.5000   -34.4150    18.0730    19.7029    60.1688     8.5899     2.3515     0.2001     0.0659
   87.0000   -33.9308    17.3375    19.1218    61.3908     8.5903     2.3680     0.1903     0.0556
   87.5000   -33.4248    16.7035    18.5579    64.4799     8.5902     2.3751     0.1885     0.0444
   88.0000   -33.4483    16.0927    18.0107    67.4533     8.5882     2.3761     0.1980     0.0343
   88.5000   -33.4790    15.6048    17.4795    69.6199     8.6127     2.3593     0.2092     0.0329
   89.0000   -33.5277    15.1835    16.9641    68.0907     8.6713     2.3474     0.2076     0.0318
   89.5000   -33.5689    14.7736    16.4638    66.4053     8.7277     2.3471     0.2059     0.0308
   90.0000   -33.6114    14.3748    15.9783    67.3151     8.7847     2.3467     0.2052     0.0300
   90.5000   -33.6533    13.9867    15.5071    71.0488     8.8408     2.3471     0.2052     0.0307
   91.0000   -33.6953    13.6510    15.0498    74.7526     8.8978     2.3469     0.2052     0.0317
   91.5000   -33.7459    13.4348    14.6060    75.4430     8.9586     2.3466     0.2052     0.0327
   92.0000   -33.7764    13.2220    14.2243    73.4889     8.9955     2.3505     0.2032     0.0337
   92.5000   -34.3213    13.0126    14.1310    72.0191     8.9917     2.3613     0.1957     0.0347
   93.0000   -35.1094    12.8065    14.0346    73.6195     8.9920     2.3764     0.1876     0.0356
   93.5000   -35.8750    12.7359    13.9647    75.6871     8.9926     2.3814     0.1831     0.0366
   94.0000   -36.6668    12.7359    13.7098    76.6533     8.9920     2.3870     0.1783     0.0378
   94.5000   -37.4402    12.7359    13.7098    77.1245     8.9921     2.3918     0.1734     0.0363
   95.0000   -38.8090    12.7359    13.5841    77.4791     8.9921     2.4004     0.1651     0.0327
   95.5000   -40.1216    12.7359    13.0014    78.8480     8.9920     2.4147     0.1558     0.0292
   96.0000   -41.4756    12.2914    12.5127    80.2512     8.9920     2.4288     0.1468     0.0260
   96.5000   -42.8032    11.8780    12.0423    86.9551     8.9920     2.4388     0.1480     0.0222
   97.0000   -44.1434    11.4785    11.5896    93.8060     8.9920     2.4382     0.1492     0.0228
   97.5000   -45.5127    11.0925    11.1952    97.3448     8.9920     2.4378     0.1498     0.0244
   98.0000   -46.6124    10.7195    11.1952    93.5480     8.9920     2.4372     0.1493     0.0258
   98.5000   -47.4365    10.3589    10.7774    89.2085     8.9920     2.4386     0.1481     0.0237
   99.0000   -47.8349    10.0106    10.3898    91.2585     8.9920     2.4408     0.1468     0.0220
   99.5000   -47.8059     9.6739    10.0161    96.3319     8.9920     2.4429     0.1468     0.0200
  100.0000   -47.8008     9.3485     9.6559   101.4703     8.9920     2.4420     0.1468     0.0180
  100.5000   -47.8077     9.0342     9.3087   103.7754     8.9920     2.4412     0.1468     0.0162
