~VERSION INFORMATION
 VERS.                2.0:   CWLS LOG ASCII STANDARD - VERSION 2.0
 WRAP.                 NO:   ONE LINE PER DEPTH STEP
~WELL INFORMATION
#MNEM.UNIT      DATA TYPE    INFORMATION
#----------   ------------   ------------------------------
 STRT.F            0.0000:   START DEPTH
 STOP.F          546.0000:   STOP DEPTH
 STEP.F            0.5000:   STEP LENGTH
 NULL.          -999.2500:   NO VALUE
 COMP. LAWRENCE/ALLISON INC:   COMPANY
 WELL.   NPR 3 #76-21SX10:   WELL
 FLD .             TEAPOT:   FIELD
 LOC .      S10 T38N R78W:   LOCATION
 CNTY.            NATRONA:   COUNTY
 STAT.            WYOMING:   STATE
 CTRY. UNITED STATES OF AMERICA:   COUNTRY
 SRVC.      Dresser Atlas:   SERVICE COMPANY
 DATE.        22-JUL-1984:   LOGDATE
 API .       490251097000:   API NUMBER
~CURVE INFORMATION
#MNEM.UNIT       API CODE    CURVE DESCRIPTION
#----------   ------------   ------------------------------
 DEPT.F                  :   
 CALD.IN     45 280 60 00:   CALIPER FROM DENSITY LOG
 DEN .G/C3   45 350 01 00:   COMPENSATED BULK DENSTIY
 CORR.G/C3   45 356 01 00:   DENSITY CORRECTION
 DPHI.DEC    45 890 12 00:   POROSITY DENSITY SANDSTONE
 CNC .DEC    42 890 03 00:   NEUTRON POROSITY SANDSTONE
 GRR .GAPI   07 310 01 00:   GAMMA RAY
 SPR .MV     07 010 01 00:   SPONTANEOUS POTENTIAL
 RILD.OHMM   07 120 46 00:   INDUCTION LOG DEEP RESISTIVITY
 RILM.OHMM   07 120 44 00:   INDUCTION LOG MEDIUM RESISTIVITY
 RFOC.OHMM   07 220 04 00:   RESISTIVITY FOCUSED LOG
 AC  .US/F   60 520 00 00:   ACCOUSTIC
~PARAMETER INFORMATION
#MNEM.UNIT          VALUE    DESCRIPTION
#----------   ------------   ------------------------------
 PD  .                 GL:   PERMANENT DATUM
 EPD .F              5167:   ELEVATION PERMANENT DATUM
 LMF .                 GL:   LOG MEASURED FROM
 DMF .                 GL:   DRILLING MEASURED FROM
 EGL .F              5167:   GROUND LEVEL
 DATE.        22-JUL-1984:   RUN DATE
 RUN .                  1:   RUN NUMBER
 DD  .F               551:   DEPTH DRILLER
 DL  .F               547:   DEPTH LOGGER
 BLI .F               544:   BOTTOM LOG INTERVAL
 CS  .IN            9.625:   CASING SIZE
 CBD .F                40:   CASING BOTTOM DRILLER
 CBL .F                42:   CASING BOTTOM LOGGER
 BS  .IN            7.875:   BIT SIZE
 BSD .F               551:   BIT SIZE AT DEPTH
 DFT .        KCL POLYMER:   DRILLING FLUID TYPE
 MSS .           FLOWLINE:   MUD SAMPLE SOURCE
 RMS .OHMM           .193:   RESISTIVITY MUD SAMPLE
 MST .F                75:   MUD SAMPLE TEMPERATURE
 RMF .OHMM           .144:   RESISTIVITY MUD FILTRATE SAMPLE
 MFST.F                75:   MUD FILTRATE SAMPLE TEMPERATURE
 RMC .OHMM            .24:   RESISTIVITY MUD CAKE
 MCST.F                74:   MUD CAKE SAMPLE TEMPERATURE
 MFSS.               CALC:   MUD FILTRATE SAMPLE SOURCE
 MCSS.               CALC:   MUD CAKE SAMPLE SOURCE
 TCS .HRS               5:   TIME CURCULATED STOPPED
 MRT .F                90:   MAXIMUM RECORDED TEMPERATURE
 LUN .               6274:   LOGGING UNIT NUMBER
 LUL .               GLTE:   LOGGING UNIT LOCATION
 ENGI.             RAUTIO:   RECORDING ENGINEER
 WITN.              FIVAS:   WITNESSED BY
 CLNT.            A2DTECH:   CLIENT CODE
 ORIG.       2", 5" PRINT:   ORIGIN OF DATA
 UWI .       490251097000:   UNIQUE WELL ID
 DICO. A2D Technologies, Inc.:   DIGITIZING COMPANY
~OTHER INFORMATION
~A    DEPT    CALD        DEN       CORR       DPHI        CNC         GRR       SPR       RILD       RILM       RFOC         AC   
# ...
  488.0000     7.9560     2.5500     0.0650     0.0600     0.2678   112.0840   -23.2600     8.1700     7.1580     9.7910    98.5570
  488.5000     7.9550     2.5420     0.0590     0.0640     0.2644   112.9200   -22.8240     8.2270     7.1450     9.6510    99.4770
  489.0000     7.9550     2.5300     0.0540     0.0720     0.2767   112.4560   -22.5640     8.2840     7.1330     9.5110   100.3920
  489.5000     7.9540     2.5170     0.0550     0.0800     0.2837   111.3140   -22.4870     8.3410     7.1200     9.3710   101.0530
  490.0000     7.9530     2.5130     0.0600     0.0830     0.2871   109.6820   -22.4020     8.3740     7.1080     9.2620   101.3130
  490.5000     7.9520     2.5100     0.0660     0.0850     0.2895   108.2180   -22.4890     8.1910     7.0690     9.2620   100.8240
  491.0000     7.9520     2.5080     0.0600     0.0860     0.2901   108.2260   -22.6800     8.0410     6.9950     9.2620   100.1910
  491.5000     7.9510     2.5140     0.0510     0.0830     0.2911   110.0120   -23.1760     7.8770     6.9200     9.2620    99.5590
  492.0000     7.9510     2.5260     0.0510     0.0760     0.2986   111.5350   -23.7470     7.6650     6.7280     9.4330    99.4530
  492.5000     7.9500     2.5310     0.0530     0.0720     0.2998   112.7550   -24.5930     7.4530     6.5110     9.3530   100.2190
  493.0000     7.9500     2.5310     0.0560     0.0720     0.3025   116.3290   -25.4430     7.2410     6.2950     9.1770   101.1350
  493.5000     7.9500     2.5260     0.0590     0.0750     0.2985   121.9060   -26.2930     7.1300     6.1320     8.6090   101.7160
  494.0000     7.9500     2.5230     0.0640     0.0770     0.2969   125.2670   -27.1080     7.0910     6.1320     7.5020   101.6420
  494.5000     7.9500     2.5270     0.0730     0.0750     0.2885   124.7210   -27.4260     7.0690     6.3060     7.5410   100.7660
  495.0000     7.9480     2.5330     0.0750     0.0720     0.2736   121.3140   -27.7030     7.0360     6.4710     7.7820    99.9340
  495.5000     7.9400     2.5320     0.0680     0.0710     0.2711   115.1750   -27.7100     7.1310     6.6370     8.5660    99.1010
  496.0000     7.9310     2.5280     0.0610     0.0740     0.2710   110.0150   -27.7090     7.3380     6.8440     9.2620    98.2690
  496.5000     7.9220     2.5250     0.0570     0.0750     0.2670   111.2000   -27.4730     7.6170     7.0580     9.4470    97.4360
  497.0000     7.9130     2.5260     0.0570     0.0750     0.2654   113.4520   -26.9460     7.9920     7.2720     9.6080    96.6040
  497.5000     7.9140     2.5270     0.0570     0.0740     0.2690   114.6030   -26.4230     8.3680     7.4610     9.8140    95.7710
  498.0000     7.9190     2.5230     0.0540     0.0760     0.2742   113.6810   -25.9240     8.7430     7.6460    10.0960    95.1220
  498.5000     7.9240     2.5190     0.0460     0.0790     0.2742   113.2930   -25.4030     9.0560     7.8310    10.3650    94.6480
  499.0000     7.9290     2.5180     0.0380     0.0800     0.2763   113.7530   -24.3190     9.2140     7.9770    10.6340    94.5770
  499.5000     7.9340     2.5210     0.0310     0.0780     0.2793   113.2040   -23.2060     9.3720     8.0720    10.8230    94.6770
  500.0000     7.9390     2.5240     0.0240     0.0770     0.2811   113.2770   -22.1410     9.5300     8.0900    10.8230    94.9670
  500.5000     7.9440     2.5230     0.0230     0.0770     0.2823   113.5340   -21.2570     9.7230     8.1050    10.8230    95.2310
  501.0000     7.9490     2.5190     0.0360     0.0800     0.2842   113.7570   -20.7900     9.9660     8.1210    10.8230    95.4960
  501.5000     7.9530     2.5150     0.0490     0.0820     0.2840   114.1490   -20.3180     9.9660     8.1360    10.8230    95.6790
  502.0000     7.9580     2.5100     0.0610     0.0850     0.2850   114.6880   -19.8610     9.9660     8.1580    10.8340    95.8290
  502.5000     7.9630     2.5080     0.0630     0.0860     0.2770   114.6250   -19.8230     9.9660     8.1900    10.9060    95.5680
  503.0000     7.9680     2.5070     0.0500     0.0870     0.2700   113.2730   -19.8210     9.9660     8.2210    10.9790    95.0400
  503.5000     7.9690     2.5060     0.0370     0.0880     0.2670   111.7050   -19.8420     9.9660     8.2530    11.0740    94.3780
  504.0000     7.9670     2.5060     0.0310     0.0880     0.2690   110.5910   -20.3630     9.9670     8.2970    11.2050    94.0640
  504.5000     7.9660     2.5090     0.0290     0.0860     0.2730   110.0790   -20.8920     9.9430     8.2760    11.3350    94.0000
  505.0000     7.9640     2.5120     0.0270     0.0840     0.2720   111.0050   -21.6420     9.9050     8.2240    11.4350    94.7870
  505.5000     7.9620     2.5130     0.0270     0.0830     0.2690   112.5520   -22.3980     9.8760     8.1720    11.4350    95.5730
  506.0000     7.9600     2.5100     0.0390     0.0840     0.2650   113.3150   -23.1610     9.7290     8.1200    11.4350    96.3590
  506.5000     7.9580     2.5060     0.0490     0.0860     0.2680   110.0850   -23.6850     9.5880     8.0720    11.1590    97.1640
  507.0000     7.9560     2.5050     0.0470     0.0880     0.2730   106.8060   -23.9330     9.4330     8.0060    10.9230    97.5710
  507.5000     7.9540     2.5090     0.0440     0.0860     0.2820   106.1520   -24.1660     9.3240     7.9440    10.8020    97.7610
  508.0000     7.9530     2.5120     0.0420     0.0820     0.2830   109.1260   -24.3430     9.2010     7.8830    10.6910    97.7610
  508.5000     7.9510     2.5150     0.0390     0.0810     0.2840   112.1160   -24.5140     9.0840     7.8010    10.5800    97.7610
  509.0000     7.9490     2.5180     0.0380     0.0800     0.2850   111.5980   -24.4070     9.0050     7.7020    10.4690    97.9620
  509.5000     7.9470     2.5210     0.0380     0.0780     0.2840   110.3540   -24.1410     8.9270     7.6030    10.3580    98.2820
  510.0000     7.9450     2.5240     0.0510     0.0770     0.2830   110.2000   -23.8770     8.8470     7.5020    10.2440    98.4580
  510.5000     7.9430     2.5210     0.0630     0.0780     0.2860   112.0380   -23.3530     8.8610     7.5180    10.1510    98.3730
  511.0000     7.9410     2.5180     0.0580     0.0800     0.2860   112.7580   -22.6510     8.8760     7.5350    10.1510    98.2370
  511.5000     7.9400     2.5160     0.0470     0.0810     0.2850   115.7870   -21.9530     8.8910     7.5510    10.1510    98.2240
  512.0000     7.9380     2.5150     0.0370     0.0810     0.2870   118.0760   -21.3440     8.9060     7.5680    10.2440    98.3740
  512.5000     7.9360     2.5130     0.0340     0.0840     0.2910   115.6780   -21.1560     8.9200     7.5940    10.3390    98.3340
  513.0000     7.9340     2.5100     0.0430     0.0860     0.2850   109.9750   -20.9930     8.9370     7.6320    10.2560    98.0560
  513.5000     7.9320     2.5080     0.0520     0.0860     0.2750   107.6290   -20.9520     8.9550     7.6690    10.1510    97.7780
  514.0000     7.9330     2.5110     0.0590     0.0840     0.2700   109.1270   -20.9090     8.9730     7.7060    10.2600    97.5000
  514.5000     7.9480     2.5180     0.0550     0.0790     0.2840   110.5740   -20.8650     8.9910     7.7530    10.4210    97.1160
  515.0000     7.9620     2.5200     0.0520     0.0790     0.2870   111.0890   -20.8130     9.0110     7.8020    10.5830    96.7160
  515.5000     7.9640     2.5200     0.0480     0.0790     0.2840   112.0040   -21.1700     9.0490     7.8530    10.7250    96.3150
  516.0000     7.9500     2.5210     0.0500     0.0770     0.2840   112.6200   -21.6630     9.0910     7.8530    10.7250    96.1690
  516.5000     7.9350     2.5260     0.0610     0.0750     0.2860   109.3980   -22.3820     9.1340     7.8530    10.7250    96.3660
  517.0000     7.9320     2.5280     0.0560     0.0740     0.2850   107.1550   -23.1690     9.1770     7.8530    10.7250    96.7160
  517.5000     7.9330     2.5270     0.0520     0.0750     0.2820   109.3820   -23.9580     9.1770     7.8530    10.8230    97.2170
  518.0000     7.9340     2.5240     0.0540     0.0770     0.2810   111.7360   -24.7410     9.1520     7.8530    10.7200    97.7170
