~VERSION INFORMATION
 VERS.                2.0:   CWLS LOG ASCII STANDARD - VERSION 2.0
 WRAP.                 NO:   ONE LINE PER DEPTH STEP
~WELL INFORMATION
#MNEM.UNIT      DATA TYPE    INFORMATION
#----------   ------------   ------------------------------
 STRT.F            0.0000:   START DEPTH
 STOP.F          446.0000:   STOP DEPTH
 STEP.F            0.5000:   STEP LENGTH
 NULL.          -999.2500:   NO VALUE
 COMP.       F D SERV INC:   COMPANY
 WELL. NAVAL PETROLEUM RESERVE 3 SX-1 #63-5-10:   WELL
 FLD .            WILDCAT:   FIELD
 LOC .      S10 T38N R78W:   LOCATION
 CNTY.            NATRONA:   COUNTY
 STAT.            WYOMING:   STATE
 CTRY. UNITED STATES OF AMERICA:   COUNTRY
 SRVC.     Atlas Wireline:   SERVICE COMPANY
 DATE.        02-FEB-1993:   LOGDATE
 API .       490252257100:   API NUMBER
~CURVE INFORMATION
#MNEM.UNIT       API CODE    CURVE DESCRIPTION
#----------   ------------   ------------------------------
 DEPT.F                  :   
 GRR .GAPI   07 310 01 00:   GAMMA RAY
 RILD.OHMM   07 120 46 00:   INDUCTION LOG DEEP RESISTIVITY
 RILM.OHMM   07 120 44 00:   RESITIVITY LONG MEDIUM
 PORZ.DEC    45 890 12 00:   DENSITY POROSITY SANDSTONE
 ZCOR.G/C3   45 356 01 00:   DENSITY CORRECTION
 ZDEN.G/C3   45 350 01 00:   BULK DENSITY
 NPHI.DEC    42 890 03 00:   NEUTRON POROSITY SANDSTONE
 C13 .IN     45 280 13 00:   CALIPER X
~PARAMETER INFORMATION
#MNEM.UNIT          VALUE    DESCRIPTION
#----------   ------------   ------------------------------
 PD  .                 GL:   PERMANENT DATUM
 EPD .F              5182:   ELEVATION PERMANENT DATUM
 LMF .                 KB:   LOG MEASURED FROM
 DAPD.F                10:   FEET ABOVE PERMANENT DATUM
 DMF .                 KB:   DRILLING MEASURED FROM
 EKB .F              5192:   KELLING BUSHING
 EDF .F              5191:   DRILLING FLOOR
 EGL .F              5182:   GROUND LEVEL
 DATE.        02-FEB-1993:   RUN DATE
 RUN .                  1:   RUN NUMBER
 DD  .F               450:   DEPTH DRILLER
 DL  .F               450:   DEPTH LOGGER
 BLI .F               442:   BOTTOM LOG INTERVAL
 CS  .IN            8.625:   CASING SIZE
 CBD .F                84:   CASING BOTTOM DRILLER
 CBL .F                84:   CASING BOTTOM LOGGER
 BS  .IN            7.875:   BIT SIZE
 BSD .F               450:   BIT SIZE AT DEPTH
 DFT .                AIR:   DRILLING FLUID TYPE
 MRT .F                51:   MAXIMUM RECORDED TEMPERATURE
 LUN .            HL 6274:   LOGGING UNIT NUMBER
 LUL .             CASPER:   LOGGING UNIT LOCATION
 ENGI.       P. RASMUSSEN:   RECORDING ENGINEER
 WITN.          G. STRONG:   WITNESSED BY
 CLNT.            A2DTECH:   CLIENT CODE
 ORIG.           5" PRINT:   ORIGIN OF DATA
 UWI .       490252257100:   UNIQUE WELL ID
 DICO. A2D Technologies, Inc.:   DIGITIZING COMPANY
~OTHER INFORMATION
~A    DEPT      GRR      RILD       RILM       PORZ       ZCOR       ZDEN       NPHI        C13   
# ...
  243.0000   139.7959     7.4139     6.1070     0.1576     0.0006     2.4037     0.3732     8.2114
  243.5000   143.1033     6.4019     5.2422     0.1997     0.0336     2.3254     0.3747     8.2104
  244.0000   151.2395     6.0186     5.2043     0.2042     0.0651     2.3232     0.3374     8.2246
  244.5000   159.4058     5.9339     5.4276     0.1801     0.0681     2.3999     0.3031     8.2237
  245.0000   163.2864     5.9731     5.9730     0.1397     0.0365     2.4503     0.2934     8.2229
  245.5000   162.0711     6.2677     6.4884     0.1029     0.0289     2.4864     0.2857     8.2218
  246.0000   149.9960     6.7616     6.9996     0.0891     0.0184     2.5059     0.2812     8.2210
  246.5000   142.1442     7.2537     7.6036     0.0837     0.0078     2.5126     0.2785     8.2201
  247.0000   142.1356     7.9782     8.3750     0.0831     0.0048     2.5134     0.2815     8.2193
  247.5000   142.4286     8.7875     9.2394     0.0921     0.0017     2.5058     0.2906     8.2182
  248.0000   137.8929     9.4145     9.8137     0.0987     0.0077     2.4915     0.2960     8.2174
  248.5000   134.2643     9.8789    10.0860     0.0991     0.0196     2.4869     0.2985     8.2165
  249.0000   133.0511    10.1530    10.1535     0.0982     0.0256     2.4869     0.2997     8.2157
  249.5000   134.5486    10.1495    10.1493     0.0970     0.0331     2.4899     0.3034     8.2297
  250.0000   134.5400    10.1454    10.2875     0.0940     0.0420     2.4921     0.3060     8.2417
  250.5000   132.7170    10.3553    10.5732     0.0934     0.0630     2.4930     0.3009     8.2581
  251.0000   133.9059    11.1704    11.1726     0.1000     0.0749     2.4826     0.2895     8.2267
  251.5000   135.7017    11.7214    11.9940     0.1220     0.0719     2.4363     0.2853     8.2257
  252.0000   133.8740    12.6451    13.1850     0.1629     0.0433     2.3467     0.2841     8.2245
  252.5000   126.3184    13.3611    13.9324     0.1933     0.0644     2.3053     0.2802     8.2235
  253.0000   110.6180    14.7153    15.1357     0.2273     0.0927     2.2699     0.2697     8.2225
  253.5000    96.7935    15.7653    16.4673     0.2325     0.0957     2.2676     0.2447     8.2365
  254.0000    86.1517    16.8903    17.4947     0.2242     0.0641     2.2908     0.2474     8.2355
  254.5000    79.1993    17.9723    18.4865     0.2171     0.0220     2.2923     0.2583     8.2496
  255.0000    75.2636    19.1186    19.3996     0.2201     0.0400     2.2810     0.2586     8.2637
  255.5000    72.8326    20.0617    20.1113     0.2243     0.0519     2.2764     0.2574     8.2624
  256.0000    74.9300    20.7617    20.6364     0.2274     0.0473     2.2694     0.2581     8.2614
  256.5000    78.2341    20.8992    20.9174     0.2328     0.0368     2.2575     0.2599     8.2604
  257.0000    80.9349    20.8907    20.9120     0.2379     0.0277     2.2462     0.2620     8.2591
  257.5000    80.6155    20.8839    20.9063     0.2439     0.0170     2.2303     0.2626     8.2581
  258.0000    79.6964    20.8771    20.7555     0.2509     0.0141     2.2263     0.2623     8.2571
  258.5000    81.4921    20.7262    20.6069     0.2566     0.0215     2.2426     0.2601     8.2561
  259.0000    81.4780    20.5749    20.3181     0.2461     0.0245     2.2746     0.2593     8.2551
  259.5000    78.1420    20.2853    20.3127     0.2268     0.0214     2.2911     0.2645     8.2539
  260.0000    77.2264    20.1388    20.3062     0.2184     0.0077     2.2978     0.2705     8.2529
  260.5000    80.5269    19.9933    20.3010     0.2124     0.0063     2.2933     0.2678     8.2519
  261.0000    82.9260    20.1257    20.5788     0.2215     0.0152     2.2803     0.2636     8.2509
  261.5000    82.0033    20.3981    21.4448     0.2254     0.0211     2.2856     0.2579     8.2498
  262.0000    81.6910    21.2566    22.3488     0.2212     0.0226     2.2954     0.2513     8.2486
  262.5000    84.6899    22.7715    23.4527     0.2161     0.0086     2.2773     0.2474     8.2476
  263.0000    87.0931    24.0608    24.7822     0.2207    -0.0001     2.2261     0.2434     8.2466
  263.5000    88.5796    25.4232    26.1854     0.2495     0.0179     2.1867     0.2375     8.2456
  264.0000    93.0903    26.8626    27.6698     0.2802     0.0283     2.2117     0.2303     8.2446
  264.5000    94.5880    29.1784    28.6372     0.2718     0.0286     2.2590     0.2276     8.2434
  265.0000    91.5134    29.3740    29.4339     0.2446     0.0021     2.2861     0.2461     8.2424
  265.5000    84.8994    29.3621    30.0420     0.2219    -0.0064     2.2883     0.2532     8.2564
  266.0000    84.5872    29.3526    30.2449     0.2192     0.0041     2.2473     0.2496     8.2554
  266.5000    92.1109    29.7523    30.2350     0.2360    -0.0020     2.2310     0.2448     8.2544
  267.0000    94.5100    30.1574    30.6487     0.2511    -0.0141     2.2144     0.2379     8.2532
  267.5000    92.3807    30.7780    31.0680     0.2589    -0.0078     2.1873     0.2364     8.2522
  268.0000    86.3333    31.4196    31.7099     0.2722     0.0083     2.1436     0.2346     8.2511
  268.5000    83.0009    32.0603    32.3671     0.3010     0.0218     2.1464     0.2283     8.2501
  269.0000    81.7537    32.2726    33.4988     0.3083     0.0277     2.2097     0.2220     8.2489
  269.5000    80.5557    32.9393    34.1931     0.2985     0.0307     2.2563     0.2196     8.2479
  270.0000    79.0333    33.4032    34.4217     0.2629     0.0287     2.3022     0.2248     8.2469
  270.5000    78.6747    34.3117    34.4105     0.2181     0.0170     2.3135     0.2293     8.2459
  271.0000    83.3303    34.3006    34.4016     0.2046     0.0065     2.2989     0.2284     8.2449
  271.5000    88.0370    34.2894    33.6833     0.2103     0.0004     2.2885     0.2278     8.2286
  272.0000    90.1344    33.7816    32.7545     0.2181    -0.0026     2.2967     0.2296     8.2277
  272.5000    91.6285    32.8698    31.8513     0.2163    -0.0042     2.3087     0.2339     8.2267
  273.0000    93.8100    31.7408    30.9731     0.2085     0.0002     2.3124     0.2357     8.2256
  273.5000    95.2201    30.6506    29.2943     0.2043     0.0047     2.3116     0.2378     8.2245
  274.0000    92.1858    29.9799    28.4865     0.2040     0.0091     2.3131     0.2400     8.2386
  274.5000    91.5144    28.7776    27.5099     0.2010     0.0121     2.3168     0.2414     8.2374
  275.0000    96.0755    27.9823    26.9373     0.2023     0.0180     2.3123     0.2412     8.2364
  275.5000    97.8713    27.2089    26.3748     0.2065     0.0195     2.3070     0.2403     8.2504
  276.0000    97.2538    26.2723    26.0053     0.2065     0.0194     2.3209     0.2406     8.2645
  276.5000    93.9213    25.3699    25.2882     0.1951     0.0148     2.3550     0.2466     8.2632
  277.0000    95.7136    24.6688    24.4190     0.1800     0.0073     2.3640     0.2512     8.2622
  277.5000    97.5094    24.1537    23.5824     0.1722     0.0027     2.3700     0.2518     8.2612
  278.0000    98.4002    23.1613    22.9322     0.1683     0.0026     2.3692     0.2500     8.2602
  278.5000    99.8943    22.5212    22.2998     0.1732     0.0041     2.3623     0.2472     8.2592
  279.0000   100.4834    21.8988    21.5353     0.1756     0.0055     2.3601     0.2458     8.2580
  279.5000   101.6724    21.4405    21.0857     0.1747     0.0055     2.3600     0.2470     8.2570
  280.0000   102.8648    20.8473    20.9347     0.1735     0.0039     2.3607     0.2488     8.2560
  280.5000   104.0573    20.4120    20.6414     0.1747     0.0008     2.3599     0.2504     8.2550
  281.0000   103.1346    20.2645    20.4935     0.1795    -0.0007     2.3545     0.2543     8.2539
  281.5000   101.3105    20.2579    20.3455     0.1838     0.0007     2.3470     0.2570     8.2527
  282.0000   100.0932    20.2497    20.3402     0.1865     0.0022     2.3417     0.2579     8.2517
  282.5000   102.2071    20.3855    20.3349     0.1877     0.0021     2.3372     0.2579     8.2507
  283.0000   105.4876    20.3772    20.3295     0.1868    -0.0010     2.3401     0.2577     8.2497
