~VERSION INFORMATION
 VERS.                2.0:   CWLS LOG ASCII STANDARD - VERSION 2.0
 WRAP.                 NO:   ONE LINE PER DEPTH STEP
~WELL INFORMATION
#MNEM.UNIT      DATA TYPE    INFORMATION
#----------   ------------   ------------------------------
 STRT.F            2.0000:   START DEPTH
 STOP.F          548.0000:   STOP DEPTH
 STEP.F            0.1000:   STEP LENGTH
 NULL.          -999.2500:   NO VALUE
 COMP.       F D SERV INC:   COMPANY
 WELL. NAVAL PETROLEUM RESERVE 3 SX-3 #88-10-3:   WELL
 FLD .             TEAPOT:   FIELD
 LOC .       S3 T38N R78W:   LOCATION
 CNTY.            NATRONA:   COUNTY
 STAT.            WYOMING:   STATE
 CTRY. UNITED STATES OF AMERICA:   COUNTRY
 SRVC.     Atlas Wireline:   SERVICE COMPANY
 DATE.        19-OCT-1992:   LOGDATE
 API .       490252254600:   API NUMBER
~CURVE INFORMATION
#MNEM.UNIT       API CODE    CURVE DESCRIPTION
#----------   ------------   ------------------------------
 DEPT.F                  :   
 GRR .GAPI   07 310 01 00:   GAMMA RAY
 ILD .OHMM   07 120 46 00:   INDUCTION LOG DEEP
 ILM .OHMM   07 120 44 00:   INDUCTION LOG MEDIUM
~PARAMETER INFORMATION
#MNEM.UNIT          VALUE    DESCRIPTION
#----------   ------------   ------------------------------
 PD  .                 GL:   PERMANENT DATUM
 EPD .F              5126:   ELEVATION PERMANENT DATUM
 LMF .                 KB:   LOG MEASURED FROM
 DAPD.F                10:   FEET ABOVE PERMANENT DATUM
 DMF .                 KB:   DRILLING MEASURED FROM
 EKB .F              5136:   KELLING BUSHING
 EDF .F              5135:   DRILLING FLOOR
 EGL .F              5126:   GROUND LEVEL
 DATE.        19-OCT-1992:   RUN DATE
 RUN .                  1:   RUN NUMBER
 DD  .F               566:   DEPTH DRILLER
 DL  .F               558:   DEPTH LOGGER
 BLI .F               550:   BOTTOM LOG INTERVAL
 TLI .F                98:   TOP LOG INTERVAL
 CS  .IN            8.625:   CASING SIZE
 CBD .F                85:   CASING BOTTOM DRILLER
 CBL .F                98:   CASING BOTTOM LOGGER
 BS  .IN            7.875:   BIT SIZE
 BSD .F               566:   BIT SIZE AT DEPTH
 DFT .           AIR FOAM:   DRILLING FLUID TYPE
 TCS .HRS               2:   TIME CURCULATED STOPPED
 MRT .F                73:   MAXIMUM RECORDED TEMPERATURE
 LUN .            HL-6274:   LOGGING UNIT NUMBER
 LUL .             CASPER:   LOGGING UNIT LOCATION
 ENGI.             RAUTIO:   RECORDING ENGINEER
 WITN.        GARY STRONG:   WITNESSED BY
 CLNT.            A2DTECH:   CLIENT CODE
 ORIG.           5" PRINT:   ORIGIN OF DATA
 UWI .       490252254600:   UNIQUE WELL ID
 DICO. A2D Technologies, Inc.:   DIGITIZING COMPANY
~OTHER INFORMATION
~A    DEPT     GRR        ILD        ILM   
# ...
  129.4000   124.4894     7.9683     8.1200
  129.5000   124.8532     7.9972     8.1199
  129.6000   124.8508     8.0021     8.1198
  129.7000   124.8484     8.0526     8.1197
  129.8000   124.8460     8.0523     8.1489
  129.9000   124.9812     8.0815     8.1764
  130.0000   125.1437     8.1080     8.1762
  130.1000   125.1651     8.1077     8.1761
  130.2000   125.4411     8.1073     8.1760
  130.3000   125.6516     8.1504     8.1759
  130.4000   126.0506     8.1635     8.1970
  130.5000   126.6384     8.1850     8.2330
  130.6000   127.3730     8.2311     8.2328
  130.7000   128.1523     8.2772     8.2788
  130.8000   129.3038     8.2769     8.3256
  130.9000   130.5299     8.2765     8.3483
  131.0000   131.8730     8.2762     8.3614
  131.1000   133.2845     8.2900     8.4066
  131.2000   134.5106     8.3335     8.4064
  131.3000   135.7366     8.3331     8.4449
  131.4000   137.5387     8.3328     8.4651
  131.5000   138.8260     8.3324     8.4812
  131.6000   139.4041     8.3321     8.5291
  131.7000   139.6262     8.3378     8.5838
  131.8000   139.6232     8.3897     8.6259
  131.9000   139.6212     8.3894     8.6437
  132.0000   139.3121     8.3891     8.6630
  132.1000   138.5290     8.3887     8.7040
  132.2000   137.2981     8.3974     8.6433
  132.3000   135.9805     8.4468     8.6432
  132.4000   134.8364     8.4464     8.6431
  132.5000   133.7770     8.4461     8.6430
  132.6000   132.3335     8.4226     8.6323
  132.7000   130.4810     8.3866     8.5826
  132.8000   129.0069     8.3863     8.5825
  132.9000   128.2675     8.3859     8.5823
  133.0000   127.7177     8.3856     8.5575
  133.1000   127.3565     8.3852     8.5224
  133.2000   127.1843     8.3997     8.5223
  133.3000   127.1629     8.4433     8.5221
  133.4000   126.8765     8.4428     8.4834
  133.5000   126.8744     8.4425     8.4626
  133.6000   126.8720     8.4422     8.4625
  133.7000   127.0576     8.4418     8.4577
  133.8000   127.6578     8.4415     8.4034
  133.9000   128.9826     8.4411     8.4033
  134.0000   129.8840     8.4408     8.4031
  134.1000   131.0333     8.4404     8.4030
  134.2000   132.2594     8.4401     8.4029
  134.3000   133.4855     8.4397     8.4028
  134.4000   134.7195     8.4394     8.3592
  134.5000   135.6935     8.3930     8.3441
  134.6000   137.2354     8.3799     8.3440
  134.7000   138.6921     8.3796     8.3439
  134.8000   139.9181     8.3792     8.3437
  134.9000   141.1276     8.3789     8.3436
  135.0000   142.2689     8.3785     8.3435
  135.1000   142.8829     8.3782     8.3196
  135.2000   143.6175     8.3778     8.2852
  135.3000   144.1690     8.3775     8.2851
  135.4000   144.3780     8.3771     8.2850
  135.5000   144.0724     8.3767     8.2849
  135.6000   143.1762     8.3360     8.2848
  135.7000   142.0245     8.3178     8.2846
  135.8000   140.7936     8.3174     8.2845
  135.9000   139.4571     8.3171     8.2844
  136.0000   137.7065     8.3167     8.2843
  136.1000   136.7375     8.3164     8.2842
  136.2000   135.9371     8.3160     8.2841
  136.3000   135.1976     8.3157     8.2769
  136.4000   134.5291     8.3154     8.2262
  136.5000   134.0494     8.3150     8.2261
  136.6000   133.7581     8.3147     8.2576
  136.7000   133.5532     8.3143     8.2835
  136.8000   133.3051     8.3140     8.2834
  136.9000   133.1461     8.3136     8.2832
  137.0000   133.1437     8.3133     8.2831
  137.1000   133.1411     8.3128     8.2487
  137.2000   133.3600     8.3126     8.2253
  137.3000   133.9316     8.3122     8.2251
  137.4000   134.7736     8.3119     8.2250
  137.5000   135.8044     8.3115     8.2249
  137.6000   137.0626     8.3111     8.2248
  137.7000   137.7780     8.3108     8.2507
  137.8000   138.5126     8.3105     8.2822
  137.9000   139.1217     8.3101     8.2821
  138.0000   139.5421     8.3098     8.2820
  138.1000   139.7738     8.3094     8.2819
  138.2000   139.7708     8.3091     8.2817
  138.3000   139.5684     8.3087     8.2639
  138.4000   139.3203     8.3084     8.2239
  138.5000   138.9854     8.3080     8.2238
  138.6000   138.4618     8.3077     8.2237
  138.7000   137.6409     8.3073     8.2550
  138.8000   136.7641     8.3070     8.2810
  138.9000   135.7789     8.3066     8.2809
  139.0000   134.5840     8.3063     8.2808
  139.1000   133.2994     8.3060     8.3261
  139.2000   132.7878     8.3055     8.3386
  139.3000   132.3119     8.3439     8.3385
  139.4000   131.9980     8.3631     8.3384
  139.5000   131.7499     8.3628     8.3394
  139.6000   131.5018     8.3624     8.3866
  139.7000   131.2536     8.3620     8.3965
  139.8000   130.9575     8.3617     8.3963
  139.9000   130.7574     8.3920     8.4114
  140.0000   130.6505     8.4196     8.4549
  140.1000   130.6481     8.4277     8.4548
  140.2000   130.6457     8.4779     8.4953
  140.3000   130.6430     8.4775     8.5433
  140.4000   131.0733     8.4772     8.5916
  140.5000   131.5623     8.4996     8.6333
  140.6000   131.9487     8.5359     8.6332
  140.7000   132.2831     8.5355     8.6331
  140.8000   133.0516     8.5838     8.6657
  140.9000   133.7525     8.5946     8.6933
  141.0000   134.3096     8.6203     8.7030
  141.1000   134.7986     8.6688     8.7540
  141.2000   135.2875     8.7176     8.8016
  141.3000   135.7765     8.7750     8.8514
  141.4000   136.2654     8.7747     8.8767
  141.5000   136.5587     8.7743     8.8895
  141.6000   136.8020     8.7920     8.9387
  141.7000   137.0453     8.8415     8.9386
  141.8000   137.2638     8.8966     9.0182
  141.9000   136.9582     8.9413     9.0922
  142.0000   136.7423     8.9917     9.1274
  142.1000   136.3372     9.0206     9.1313
  142.2000   135.6433     9.0299     9.1911
  142.3000   134.7013     9.0830     9.1910
  142.4000   133.9206     9.1319     9.2543
  142.5000   132.9904     9.1833     9.3396
  142.6000   132.1803     9.2350     9.3852
  142.7000   131.7955     9.2870     9.3850
  142.8000   131.7930     9.3401     9.4328
  142.9000   131.7906     9.4461     9.4505
  143.0000   131.7882     9.5109     9.4965
  143.1000   131.7858     9.5645     9.5936
  143.2000   131.7834     9.6183     9.6502
  143.3000   131.7809     9.6724     9.6501
  143.4000   131.7559     9.7354     9.6499
  143.5000   131.4732     9.7351     9.6764
  143.6000   131.2597     9.7683     9.7173
  143.7000   131.0116     9.8025     9.7179
  143.8000   130.7635     9.8020     9.7729
  143.9000   130.5154     9.8016     9.8282
  144.0000   130.2510     9.8012     9.8534
  144.1000   130.0191     9.8381     9.8704
  144.2000   129.7710     9.8691     9.9222
  144.3000   129.5229     9.8799     9.9220
  144.4000   129.2748     9.9374     9.9219
  144.5000   129.0267     9.9915     9.9556
  144.6000   128.7786    10.0062     9.9911
  144.7000   128.3397    10.0341     9.9910
  144.8000   128.1138    10.0755     9.9908
  144.9000   128.0343    10.0750    10.0924
  145.0000   127.7660    10.0746    10.1311
  145.1000   127.1984    10.1196    10.1552
  145.2000   126.9874    10.1444    10.2018
  145.3000   126.8914    10.1627    10.2016
  145.4000   126.7937    10.2198    10.2566
  145.5000   126.5456    10.2857    10.2728
  145.6000   126.2788    10.3353    10.3289
  145.7000   126.0494    10.3569    10.4315
  145.8000   125.8013    10.3792    10.4898
  145.9000   125.6666    10.4377    10.4897
  146.0000   125.6077    10.5012    10.5356
  146.1000   125.3591    10.5555    10.5952
  146.2000   124.8662    10.6150    10.6551
  146.3000   124.5608    10.6747    10.7153
  146.4000   124.3127    10.7348    10.7860
  146.5000   123.9899    10.7965    10.7859
  146.6000   123.5139    10.8560    10.8222
  146.7000   123.2262    10.9172    10.9058
  146.8000   122.3980    10.9786    11.0138
  146.9000   121.4128    11.0404    11.0136
  147.0000   120.0565    11.1025    11.0691
  147.1000   118.2322    11.1772    11.1316
  147.2000   117.1629    11.2280    11.2213
  147.3000   116.7824    11.2546    11.3367
  147.4000   115.3079    11.2757    11.4042
  147.5000   113.8334    11.3392    11.4653
