~VERSION INFORMATION
 VERS.                2.0:   CWLS LOG ASCII STANDARD - VERSION 2.0
 WRAP.                 NO:   ONE LINE PER DEPTH STEP
~WELL INFORMATION
#MNEM.UNIT      DATA TYPE    INFORMATION
#----------   ------------   ------------------------------
 STRT.F           30.0000:   START DEPTH
 STOP.F          626.0000:   STOP DEPTH
 STEP.F            0.5000:   STEP LENGTH
 NULL.          -999.2500:   NO VALUE
 COMP.       F D SERV INC:   COMPANY
 WELL.    63-2 SX-3 #63-3:   WELL
 FLD .             TEAPOT:   FIELD
 LOC .       S3 T38N R78W:   LOCATION
 CNTY.            NATRONA:   COUNTY
 STAT.            WYOMING:   STATE
 CTRY. UNITED STATES OF AMERICA:   COUNTRY
 SRVC.     Atlas Wireline:   SERVICE COMPANY
 DATE.        29-APR-1992:   LOGDATE
 API .       490252251900:   API NUMBER
~CURVE INFORMATION
#MNEM.UNIT       API CODE    CURVE DESCRIPTION
#----------   ------------   ------------------------------
 DEPT.F                  :   
 CALD.IN     45 280 60 00:   CALIPER FROM DENSITY
 CORR.G/C3   45 356 01 00:   DENSITY CORRECTION
 DEN .G/C3   45 350 01 00:   COMPENSATED BULK DENSTIY
 GRD .GAPI   45 310 01 00:   GAMMA RAY FROM DENSITY LOG
 PORD.DEC    45 890 12 00:   POROSITY DENSITY SANDSTONE
 RILD.OHMM   07 120 46 00:   INDUCTION LOG DEEP RESISTIVITY
 RILM.OHMM   07 120 44 00:   INDUCTION LOG MEDIUM RESISTIVITY
~PARAMETER INFORMATION
#MNEM.UNIT          VALUE    DESCRIPTION
#----------   ------------   ------------------------------
 PD  .                 GL:   PERMANENT DATUM
 EPD .F              5160:   ELEVATION PERMANENT DATUM
 LMF .                 KB:   LOG MEASURED FROM
 DAPD.F                 5:   FEET ABOVE PERMANENT DATUM
 DMF .                 KB:   DRILLING MEASURED FROM
 EKB .F              5165:   KELLING BUSHING
 EGL .F              5160:   GROUND LEVEL
 DATE.        29-APR-1992:   RUN DATE
 RUN .                  1:   RUN NUMBER
 DD  .F               630:   DEPTH DRILLER
 DL  .F               629:   DEPTH LOGGER
 BLI .F               626:   BOTTOM LOG INTERVAL
 CS  .IN            8.625:   CASING SIZE
 CBD .F                45:   CASING BOTTOM DRILLER
 CBL .F                45:   CASING BOTTOM LOGGER
 BS  .IN            7.875:   BIT SIZE
 BSD .F               630:   BIT SIZE AT DEPTH
 DFT .                AIR:   DRILLING FLUID TYPE
 LUN .            HL-6212:   LOGGING UNIT NUMBER
 LUL .             CASPER:   LOGGING UNIT LOCATION
 ENGI.             ZIEGEN:   RECORDING ENGINEER
 WITN.             STRONG:   WITNESSED BY
 CLNT.            A2DTECH:   CLIENT CODE
 ORIG.           5" PRINT:   ORIGIN OF DATA
 UWI .       490252251900:   UNIQUE WELL ID
 DICO. A2D Technologies, Inc.:   DIGITIZING COMPANY
~OTHER INFORMATION
~A   DEPT     CALD       CORR        DEN        GRD       PORD       RILD       RILM   
# ...
  257.5000     8.2556     0.0004     2.5011   185.1158     0.0902     6.9808     6.8800
  258.0000     8.2552     0.0034     2.4989   185.4019     0.0890     7.3278     7.1630
  258.5000     8.2547     0.0064     2.4936   183.8852     0.0929     7.4816     7.4073
  259.0000     8.2543     0.0048     2.4906   183.8791     0.0959     7.6916     7.6240
  259.5000     8.2689    -0.0013     2.4913   182.9656     0.0959     7.7446     7.8305
  260.0000     8.2835    -0.0070     2.4974   179.6364     0.0959     7.9070     7.9954
  260.5000     8.2982    -0.0115     2.4996   176.9114     0.0935     8.0169     8.0580
  261.0000     8.2977    -0.0129     2.4989   176.3012     0.0911     8.1286     8.2272
  261.5000     8.2973    -0.0039     2.4996   175.9946     0.0887     8.2989     8.2839
  262.0000     8.2818     0.0007     2.5058   180.5188     0.0872     8.3563     8.4523
  262.5000     8.2964     0.0023     2.5072   177.7938     0.0866     8.5315     8.4523
  263.0000     8.2959     0.0008     2.5072   177.4857     0.0878     8.5903     8.4523
  263.5000     8.2955     0.0069     2.5088   177.7819     0.0871     8.7704     8.5112
  264.0000     8.2949     0.0084     2.5140   178.9844     0.0846     8.7698     8.5112
  264.5000     8.2794     0.0100     2.5170   180.7911     0.0812     8.7692     8.5731
  265.0000     8.2639     0.0055     2.5170   181.9936     0.0812     8.7686     8.6924
  265.5000     8.2634     0.0116     2.5154   178.9664     0.0815     8.7680     8.7510
  266.0000     8.2479     0.0207     2.5426   172.0118     0.0682     8.7674     8.7510
  266.5000     8.2474     0.0011     2.5667   176.2355     0.0513     8.7668     8.7510
  267.0000     8.2319    -0.0214     2.5803   179.8549     0.0420     8.7662     8.7510
  267.5000     8.2467    -0.0139     2.5750   179.8489     0.0453     8.7655     8.6904
  268.0000     8.3064     0.0028     2.5403   176.8179     0.0643     8.7649     8.6904
  268.5000     8.3212     0.0013     2.5252   173.7403     0.0748     8.7643     8.5705
  269.0000     8.3206    -0.0032     2.5200   171.6737     0.0794     8.7031     8.4523
  269.5000     8.3354    -0.0046     2.5177   174.5725     0.0815     8.7025     8.2780
  270.0000     8.3348    -0.0091     2.5117   181.0260     0.0839     8.7019     8.0511
  270.5000     8.3344    -0.0076     2.5057   184.3433     0.0872     8.7013     7.9954
  271.0000     8.3339     0.0015     2.5064   187.9627     0.0866     8.7007     7.8305
  271.5000     8.3184     0.0031     2.5094   191.8842     0.0863     8.6399     7.8305
  272.0000     8.3179     0.0031     2.5124   193.6924     0.0839     8.5795     7.7763
  272.5000     8.3024     0.0017     2.5109   187.3405     0.0839     8.2863     7.6690
  273.0000     8.3020    -0.0013     2.5087   180.3859     0.0848     7.9478     7.6159
  273.5000     8.3015    -0.0013     2.5079   179.1715     0.0863     7.4660     7.4073
  274.0000     8.3011    -0.0012     2.5072   179.4676     0.0869     6.8689     7.0557
  274.5000     8.3006     0.0064     2.5049   182.1807     0.0875     6.2758     6.4465
  275.0000     8.3002     0.0109     2.4989   189.4255     0.0926     5.6549     5.9310
  275.5000     8.2996     0.0140     2.4898   194.5555     0.0974     5.3491     5.3441
  276.0000     8.3144     0.0138     2.4785   197.2700     0.1041     5.0248     4.9510
  276.5000     8.3290     0.0049     2.4665   194.2414     0.1140     4.5277     4.4611
  277.0000     8.3284    -0.0010     2.4386   190.6100     0.1273     4.0797     3.9368
  277.5000     8.3582     0.0051     2.4152   186.3745     0.1420     3.6003     3.4984
  278.0000     8.3879     0.0050     2.3857   183.6495     0.1599     3.2217     3.0658
  278.5000     8.4328     0.0022     2.3371   179.7160     0.1817     2.7461     2.7817
  279.0000     8.4625     0.0098     2.2907   173.5955     0.2029     2.5618     2.6497
  279.5000     8.4619     0.0219     2.2456   166.5821     0.2492     2.5089     2.4892
  280.0000     8.4464     0.0250     2.1973   163.0816     0.2711     2.5087     2.4548
  280.5000     8.4460     0.0325     2.2093   163.5948     0.2714     2.5260     2.4892
  281.0000     8.4455     0.0281     2.2352   172.4339     0.2485     2.6515     2.5771
  281.5000     8.4300     0.0326     2.2969   180.8871     0.2023     2.8223     2.7244
  282.0000     8.4295     0.0432     2.3384   186.3192     0.1864     3.0672     3.0026
  282.5000     8.4291     0.0463     2.3564   190.2408     0.1752     3.4511     3.3323
  283.0000     8.4286     0.0237     2.3806   190.8405     0.1526     4.0481     3.6983
  283.5000     8.4131     0.0087     2.4431   188.7182     0.1321     4.5547     4.1908
  284.0000     8.3825     0.0072     2.4732   185.9932     0.1191     5.1605     4.8827
  284.5000     8.3217     0.0103     2.4823   188.7063     0.1002     5.6867     5.5716
  285.0000     8.2604     0.0133     2.4906   191.7215     0.0971     6.1375     6.0139
  285.5000     8.2454     0.0119     2.4951   193.5282     0.0926     6.4874     6.4465
  286.0000     8.2920     0.0059     2.4974   195.9391     0.0887     6.8099     6.4915
  286.5000     8.3048     0.0014     2.5019   198.3501     0.0875     6.8570     6.3136
  287.0000     8.2440    -0.0001     2.5026   200.4589     0.0887     6.8564     6.2699
  287.5000     8.3038     0.0015     2.5004   200.5035     0.0896     6.8559     6.2699
  288.0000     8.3788     0.0031     2.5004   198.0300     0.0893     6.8080     6.2699
  288.5000     8.3784     0.0031     2.5049   195.9093     0.0878     6.8076     6.2699
  289.0000     8.3628    -0.0029     2.5057   195.5932     0.0875     6.3949     6.2265
  289.5000     8.3624    -0.0089     2.5004   196.5076     0.0897     5.4889     6.0981
  290.0000     8.3619    -0.0133     2.4943   197.0998     0.0959     5.0150     5.2339
  290.5000     8.3615    -0.0178     2.4732   196.3866     0.1175     4.7768     4.4303
  291.0000     8.3610     0.0033     2.4371   193.3654     0.1412     4.5185     4.1330
  291.5000     8.3455     0.0215     2.3694   188.6212     0.1675     4.3641     3.9643
  292.0000     8.3451     0.0290     2.3587   186.8025     0.1746     4.2739     3.9368
  292.5000     8.3446     0.0185     2.3821   184.9839     0.1619     4.2736     4.0197
  293.0000     8.3442     0.0050     2.4062   183.1652     0.1417     4.2733     4.2200
  293.5000     8.2985     0.0036     2.4220   181.3465     0.1273     4.3933     4.4303
  294.0000     8.2528     0.0051     2.4363   185.8723     0.1237     4.5230     4.6188
  294.5000     8.2351     0.0052     2.4544   188.5868     0.1161     4.7865     4.8827
  295.0000     8.2519     0.0067     2.4793   187.3709     0.1056     5.0995     5.2704
  295.5000     8.2514     0.0098     2.4868   184.6459     0.0995     5.4522     5.5716
  296.0000     8.2510     0.0068     2.4876   185.2442     0.0983     5.6937     5.8899
  296.5000     8.2505     0.0053     2.4921   189.1657     0.0938     5.9746     6.2265
  297.0000     8.2501     0.0054     2.5026   192.7851     0.0875     6.4369     6.4915
  297.5000     8.2496     0.0054     2.5117   190.3622     0.0824     6.8465     6.9102
  298.0000     8.2492     0.0040     2.5154   188.2414     0.0803     7.0978     7.3051
  298.5000     8.2638    -0.0005     2.5117   191.5587     0.0812     7.4427     7.7763
  299.0000     8.2785    -0.0035     2.5102   195.4802     0.0839     7.7059     7.9954
  299.5000     8.2931    -0.0034     2.5117   197.6033     0.0827     8.0302     8.1638
  300.0000     8.3077    -0.0032     2.5217   194.5619     0.0793     8.1977     8.0511
  300.5000     8.2960    -0.0004     2.5260   192.9890     0.0748     8.1966     7.9936
  301.0000     8.2913     0.0011     2.5244   191.4663     0.0754     8.0823     7.6126
  301.5000     8.2757     0.0041     2.5185   191.2032     0.0784     7.8056     7.6110
  302.0000     8.2600     0.0057     2.5139   193.6053     0.0818     7.5908     7.4525
  302.5000     8.2594     0.0102     2.5079   192.9892     0.0839     7.3819     6.9994
