~VERSION INFORMATION
 VERS.                2.0:   CWLS LOG ASCII STANDARD - VERSION 2.0
 WRAP.                 NO:   ONE LINE PER DEPTH STEP
~WELL INFORMATION
#MNEM.UNIT      DATA TYPE    INFORMATION
#----------   ------------   ------------------------------
 STRT.F           14.0000:   START DEPTH
 STOP.F          449.0000:   STOP DEPTH
 STEP.F            0.5000:   STEP LENGTH
 NULL.          -999.2500:   NO VALUE
 COMP.   LAWRENCE-ALLISON:   COMPANY
 WELL. NPR 3 #51-65SX10OB2:   WELL
 FLD .             TEAPOT:   FIELD
 LOC .      S10 T38N R78W:   LOCATION
 CNTY.            NATRONA:   COUNTY
 STAT.            WYOMING:   STATE
 CTRY. UNITED STATES OF AMERICA:   COUNTRY
 SRVC.      Dresser Atlas:   SERVICE COMPANY
 DATE.        18-DEC-1984:   LOGDATE
 API .       490251100900:   API NUMBER
~CURVE INFORMATION
#MNEM.UNIT       API CODE    CURVE DESCRIPTION
#----------   ------------   ------------------------------
 DEPT.F                  :   
 PORD.DEC    45 890 12 00:   POROSITY DENSITY SANDSTONE
 CNC .DEC    42 890 03 00:   NEUTRON POROSITY SANDSTONE
 CALD.IN     45 280 60 00:   CALIPER FROM DENSITY
 CORR.G/C3   45 356 01 00:   DENSITY CORRECTION
 DEN .G/C3   45 350 01 00:   COMPENSATED BULK DENSTIY
 GRD .GAPI   45 310 01 00:   GAMMA RAY FROM DENSITY LOG
 AC  .US/F   60 520 00 00:   ACCOUSTIC
~PARAMETER INFORMATION
#MNEM.UNIT          VALUE    DESCRIPTION
#----------   ------------   ------------------------------
 PD  .                 GL:   PERMANENT DATUM
 EPD .F              5156:   ELEVATION PERMANENT DATUM
 LMF .                 GL:   LOG MEASURED FROM
 DMF .                 GL:   DRILLING MEASURED FROM
 EGL .F              5156:   GROUND LEVEL
 DATE.        18-DEC-1984:   RUN DATE
 RUN .                  1:   RUN NUMBER
 DD  .F               448:   DEPTH DRILLER
 DL  .F               451:   DEPTH LOGGER
 BLI .F               449:   BOTTOM LOG INTERVAL
 TLI .F                20:   TOP LOG INTERVAL
 CS  .IN            8.625:   CASING SIZE
 CBD .F                20:   CASING BOTTOM DRILLER
 CBL .F                20:   CASING BOTTOM LOGGER
 BS  .IN             6.25:   BIT SIZE
 BSD .F               448:   BIT SIZE AT DEPTH
 DFT .          KCL WATER:   DRILLING FLUID TYPE
 MSS .             MUDPIT:   MUD SAMPLE SOURCE
 RMS .OHMM          0.132:   RESISTIVITY MUD SAMPLE
 MST .F                95:   MUD SAMPLE TEMPERATURE
 RMF .OHMM          0.099:   RESISTIVITY MUD FILTRATE SAMPLE
 MFST.F                95:   MUD FILTRATE SAMPLE TEMPERATURE
 RMC .OHMM          0.165:   RESISTIVITY MUD CAKE
 MCST.F                95:   MUD CAKE SAMPLE TEMPERATURE
 MFSS.               CALC:   MUD FILTRATE SAMPLE SOURCE
 MCSS.               CALC:   MUD CAKE SAMPLE SOURCE
 TCS .HRS               5:   TIME CURCULATED STOPPED
 MRT .F               100:   MAXIMUM RECORDED TEMPERATURE
 LUN .               6270:   LOGGING UNIT NUMBER
 ENGI.        TOM GAUGHAN:   RECORDING ENGINEER
 WITN.             GROOMS:   WITNESSED BY
 CLNT.            A2DTECH:   CLIENT CODE
 ORIG.           5" PRINT:   ORIGIN OF DATA
 UWI .       490251100900:   UNIQUE WELL ID
 DICO. A2D Technologies, Inc.:   DIGITIZING COMPANY
~OTHER INFORMATION
~A   DEPT     PORD        CNC       CALD       CORR        DEN        GRD         AC   
# ...
  150.5000     0.1388     0.3254     6.4803     0.0197     2.4467   114.6320   108.4990
  151.0000     0.1428     0.3450     6.4775     0.0048     2.4391   112.5825   110.2881
  151.5000     0.1474     0.3585     6.4747    -0.0295     2.4311   110.3696   111.6470
  152.0000     0.1486     0.3492     6.4749    -0.0174     2.4311   112.1685   113.3068
  152.5000     0.1499     0.3308     6.4764     0.0264     2.4287   110.9964   115.0419
  153.0000     0.1578     0.3328     6.4778     0.0460     2.4194   107.7471   117.0780
  153.5000     0.1758     0.3527     6.4793     0.0372     2.3946   106.5750   120.3180
  154.0000     0.2022     0.3959     6.4808     0.0163     2.3510   105.1061   124.6867
  154.5000     0.2229     0.4210     6.4823     0.0226     2.3172   102.5987   129.8830
  155.0000     0.2554     0.4371     6.4838     0.0393     2.2549   101.5749   132.1448
  155.5000     0.2797     0.4258     6.4703     0.0454     2.2114   101.5897   133.5790
  156.0000     0.2890     0.3731     6.4719     0.0407     2.1941   101.9013   130.9499
  156.5000     0.2718     0.3415     6.4734     0.0193     2.2311   103.3998   126.6654
  157.0000     0.2285     0.3195     6.4748    -0.0007     2.3003   105.3434   123.1334
  157.5000     0.1978     0.2970     6.4763    -0.0005     2.3417   105.8033   117.3441
  158.0000     0.1782     0.2913     6.4778     0.0125     2.3696   106.4116   113.0596
  158.5000     0.1613     0.2915     6.4793     0.0284     2.4050   108.5035   111.0325
  159.0000     0.1441     0.2939     6.4807     0.0210     2.4412   111.7824   109.5321
  159.5000     0.1299     0.3015     6.4822     0.0061     2.4623   112.6875   108.2574
  160.0000     0.1323     0.3079     6.4689    -0.0089     2.4594   112.2572   108.1114
  160.5000     0.1350     0.3035     6.4703     0.0005     2.4512   112.7171   108.5723
  161.0000     0.1328     0.3002     6.4718     0.0126     2.4573   115.1058   108.9531
  161.5000     0.1274     0.3026     6.4585     0.0248     2.4679   115.8587   109.4116
  162.0000     0.1234     0.3128     6.4599     0.0205     2.4725   114.3936   109.5590
  162.5000     0.1240     0.3164     6.4614     0.0116     2.4726   112.3312   108.9239
  163.0000     0.1242     0.3281     6.4481     0.0058     2.4726   112.7911   108.2898
  163.5000     0.1239     0.3446     6.4499     0.0060     2.4727   113.3994   107.9933
  164.0000     0.1236     0.3478     6.4659     0.0093     2.4705   114.4528   108.1483
  164.5000     0.1251     0.3568     6.4681     0.0187     2.4676   118.1768   110.2596
  165.0000     0.1330     0.3793     6.4837     0.0357     2.4571   119.0781   113.1234
  165.5000     0.1422     0.3901     6.5000     0.0602     2.4369   117.0195   114.6328
  166.0000     0.1526     0.3780     6.5014     0.0744     2.4250   113.0284   115.6907
  166.5000     0.1480     0.3341     6.4881     0.0625     2.4341   108.1471   114.8675
  167.0000     0.1408     0.3238     6.4896     0.0357     2.4432   107.2717   113.8938
  167.5000     0.1401     0.3187     6.4911     0.0268     2.4425   107.4348   112.6943
  168.0000     0.1419     0.3090     6.4926     0.0225     2.4433   108.4882   111.4196
  168.5000     0.1388     0.2957     6.4941     0.0182     2.4502   111.6188   110.8974
  169.0000     0.1316     0.2954     6.4956     0.0123     2.4578   116.3814   110.6009
  169.5000     0.1313     0.3005     6.4821     0.0109     2.4586   118.0282   109.4767
  170.0000     0.1315     0.3040     6.4840     0.0096     2.4603   117.8947   107.3743
  170.5000     0.1294     0.3091     6.4855     0.0128     2.4710   116.8709   105.7234
  171.0000     0.1194     0.3101     6.4717     0.0250     2.4856   115.4020   104.5240
  171.5000     0.1085     0.3042     6.4884     0.0507     2.5014   113.9332   103.8513
  172.0000     0.1064     0.2897     6.4899     0.0673     2.5048   114.6898   103.5537
  172.5000     0.1070     0.2858     6.4914     0.0512     2.4974   117.6720   103.5592
  173.0000     0.1120     0.2899     6.4928     0.0226     2.4907   118.1282   103.7895
  173.5000     0.1156     0.2950     6.5092     0.0063     2.4848   117.4049   104.0949
  174.0000     0.1165     0.2950     6.5106     0.0004     2.4826   115.1942   104.4756
  174.5000     0.1203     0.2961     6.5121     0.0261     2.4804   113.5732   104.8563
  175.0000     0.1215     0.3039     6.5136     0.0128     2.4767   114.6303   105.2370
  175.5000     0.1203     0.3093     6.5002     0.0039     2.4798   115.8321   105.6202
  176.0000     0.1145     0.3113     6.5017     0.0146     2.4919   115.9915   105.9283
  176.5000     0.1118     0.3074     6.5032     0.0418     2.4897   112.3009   106.3115
  177.0000     0.1141     0.3001     6.4895     0.0600     2.4838   108.4581   106.7048
  177.5000     0.1215     0.3004     6.4913     0.0616     2.4739   108.4729   107.1533
  178.0000     0.1319     0.3055     6.4928     0.0543     2.4527   111.0100   107.5223
  178.5000     0.1336     0.3144     6.4943     0.0199     2.4541   116.2177   107.8278
  179.0000     0.1289     0.3198     6.4805    -0.0055     2.4630   117.1190   108.2837
  179.5000     0.1269     0.3336     6.4824     0.0052     2.4684   116.8371   108.7397
  180.0000     0.1295     0.3337     6.4839     0.0204     2.4632   118.0425   109.4214
  180.5000     0.1349     0.3260     6.4854     0.0011     2.4535   118.3504   110.1783
  181.0000     0.1394     0.3332     6.4868    -0.0138     2.4468   118.0685   111.3867
  181.5000     0.1414     0.3395     6.4883    -0.0226     2.4408   118.3837   112.9713
  182.0000     0.1483     0.3343     6.4898     0.0106     2.4296   121.9594   115.0826
  182.5000     0.1582     0.3154     6.4913     0.0678     2.4124   121.8258   115.6127
  183.0000     0.1606     0.2987     6.4927     0.0635     2.4178   119.1700   113.4362
  183.5000     0.1494     0.2833     6.4942     0.0246     2.4374   114.8821   109.6032
  184.0000     0.1301     0.2800     6.4957    -0.0069     2.4623   109.9971   106.2969
  184.5000     0.1196     0.2845     6.4972     0.0279     2.4872   112.9830   105.4737
  185.0000     0.1120     0.2910     6.4987     0.0657     2.4940   115.2233   105.0256
  185.5000     0.1114     0.2967     6.5001     0.0673     2.4933   116.1850   105.1064
  186.0000     0.1164     0.3236     6.4864     0.0434     2.4836   115.6696   105.4119
  186.5000     0.1209     0.3426     6.4731     0.0030     2.4762   116.4547   105.7926
  187.0000     0.1218     0.3363     6.4749     0.0157     2.4762   118.3983   105.8712
  187.5000     0.1202     0.3086     6.4764     0.0366     2.4793   120.4902   105.1996
  188.0000     0.1193     0.2941     6.4779     0.0361     2.4794   118.1312   104.6021
  188.5000     0.1198     0.2766     6.4641     0.0257     2.4802   116.8107   104.2304
  189.0000     0.1195     0.2776     6.4660     0.0234     2.4863   114.6000   104.0090
  189.5000     0.1156     0.2792     6.4675     0.0326     2.4947   114.6148   103.8631
  190.0000     0.1116     0.2732     6.4689     0.0283     2.4977   116.5757   103.7923
  190.5000     0.1092     0.2749     6.4853     0.0104     2.4986   118.6516   103.7968
  191.0000     0.1079     0.2923     6.4867     0.0015     2.4994   119.5566   103.8014
  191.5000     0.1073     0.3019     6.4882     0.0197     2.4980   118.3844   103.8059
  192.0000     0.1082     0.2983     6.4745     0.0259     2.4965   116.4705   103.8856
  192.5000     0.1112     0.2886     6.4763     0.0216     2.4906   118.5624   104.0532
  193.0000     0.1157     0.2919     6.4778     0.0052     2.4839   121.0995   104.7232
  193.5000     0.1190     0.3048     6.4644     0.0038     2.4802   120.9660   105.7811
  194.0000     0.1200     0.3032     6.4659     0.0176     2.4811   119.7938   106.9143
  194.5000     0.1179     0.2878     6.4674     0.0297     2.4842   117.8798   108.0474
  195.0000     0.1142     0.2848     6.4689     0.0359     2.4904   117.5942   108.9548
  195.5000     0.1121     0.2907     6.4704     0.0241     2.4948   118.6513   109.2603
