~VERSION INFORMATION
 VERS.                2.0:   CWLS LOG ASCII STANDARD - VERSION 2.0
 WRAP.                 NO:   ONE LINE PER DEPTH STEP
~WELL INFORMATION
#MNEM.UNIT      DATA TYPE    INFORMATION
#----------   ------------   ------------------------------
 STRT.F            0.0000:   START DEPTH
 STOP.F          774.0000:   STOP DEPTH
 STEP.F            0.5000:   STEP LENGTH
 NULL.          -999.2500:   NO VALUE
 COMP. LAWRENCE/ALLISON INC:   COMPANY
 WELL. SX 11 WP #37-53-11:   WELL
 FLD .             TEAPOT:   FIELD
 LOC .      S11 T38N R78W:   LOCATION
 CNTY.            NATRONA:   COUNTY
 STAT.            WYOMING:   STATE
 CTRY. UNITED STATES OF AMERICA:   COUNTRY
 SRVC.            Unknown:   SERVICE COMPANY
 DATE.        19-SEP-1984:   LOGDATE
 API .       490251098900:   API NUMBER
~CURVE INFORMATION
#MNEM.UNIT       API CODE    CURVE DESCRIPTION
#----------   ------------   ------------------------------
 DEPT.F                  :   
 GRR .GAPI   07 310 01 00:   GAMMA RAY FROM RES. LOG.
 SPR .MV     07 010 01 00:   SPONTANEOUS POTENTIAL
 RFOC.OHMM   07 220 04 00:   RESISTIVITY FOCUSED LOG
 ILD .OHMM   07 120 46 00:   INDUCTION LOG DEEP RESISTIVITY
 RILM.OHMM   07 120 44 00:   INDUCTION LOG MEDIUM RESISTIVITY
 CALD.IN     45 280 60 00:   CALIPER
 DEN .G/C3   45 350 01 00:   COMPENSATED BULK DENSTIY
 CORR.G/C3   45 356 01 00:   DENSITY CORRECTION
 PORD.DEC    45 890 12 00:   POROSITY DENSITY SANDSTONE
 AC  .US/F   60 520 00 00:   ACOUSTIC SONIC
 CNC .DEC    42 890 03 00:   NEUTRON POROSITY SANDSTONE
~PARAMETER INFORMATION
#MNEM.UNIT          VALUE    DESCRIPTION
#----------   ------------   ------------------------------
 PD  .                 GL:   PERMANENT DATUM
 EPD .F              5153:   ELEVATION PERMANENT DATUM
 LMF .                 GL:   LOG MEASURED FROM
 DMF .                 GL:   DRILLING MEASURED FROM
 EGL .F              5153:   GROUND LEVEL
 DATE.       19-SEPT-1984:   RUN DATE
 RUN .                  1:   RUN NUMBER
 DD  .F               785:   DEPTH DRILLER
 DL  .F               774:   DEPTH LOGGER
 BLI .F               772:   BOTTOM LOG INTERVAL
 CS  .IN            8.625:   CASING SIZE
 CBD .F                42:   CASING BOTTOM DRILLER
 CBL .F                41:   CASING BOTTOM LOGGER
 BS  .IN            7.875:   BIT SIZE
 BSD .F               785:   BIT SIZE AT DEPTH
 DFT .          KCL WATER:   DRILLING FLUID TYPE
 MSS .           FLOWLINE:   MUD SAMPLE SOURCE
 RMS .OHMM            .27:   RESISTIVITY MUD SAMPLE
 MST .F                82:   MUD SAMPLE TEMPERATURE
 TCS .HRS               2:   TIME CURCULATED STOPPED
 MRT .F               100:   MAXIMUM RECORDED TEMPERATURE
 LUN .               6274:   LOGGING UNIT NUMBER
 LUL .               GLTE:   LOGGING UNIT LOCATION
 ENGI.         HINDS/MACK:   RECORDING ENGINEER
 WITN.             STRONG:   WITNESSED BY
 CLNT.            A2DTECH:   CLIENT CODE
 ORIG.   1", 2", 5" PRINT:   ORIGIN OF DATA
 UWI .       490251098900:   UNIQUE WELL ID
 DICO. A2D Technologies, Inc.:   DIGITIZING COMPANY
~OTHER INFORMATION
~A    DEPT      GRR       SPR       RFOC        ILD       RILM       CALD        DEN       CORR       PORD         AC        CNC   
# ...
  366.0000    93.9234   -34.5642     9.8554     8.5286     9.0745     8.1385     2.4387     0.0026     0.1455    99.1801     0.2609
  366.5000    93.0174   -35.0907     9.7262     8.4997     9.0811     8.1382     2.4310    -0.0120     0.1498    99.3801     0.2679
  367.0000    93.2753   -35.2058     9.6631     8.4696     9.0883     8.1379     2.4284    -0.0173     0.1496    99.5797     0.2804
  367.5000    94.6700   -35.2673     9.6200     8.3985     9.0941     8.1377     2.4293    -0.0034     0.1477    99.7793     0.2858
  368.0000    95.8602   -35.3274     9.5771     8.2611     8.8329     8.1374     2.4330     0.0192     0.1446    99.8355     0.2786
  368.5000    96.5167   -35.5513     9.5344     8.1259     8.5744     8.1371     2.4391     0.0316     0.1414    99.7107     0.2771
  369.0000    97.8791   -35.8350     9.4918     7.8956     8.3236     8.1368     2.4419     0.0170     0.1422    99.5925     0.2763
  369.5000    99.6343   -36.1199     9.4495     7.6092     8.0799     8.1365     2.4392    -0.0007     0.1448    99.8840     0.2709
  370.0000    99.4482   -36.4053     9.1171     7.3331     7.8427     8.1362     2.4341    -0.0181     0.1501   100.3832     0.2637
  370.5000    99.3002   -36.6896     8.6255     7.1798     7.7021     8.1359     2.4241    -0.0245     0.1563   101.5173     0.2751
  371.0000    99.3955   -36.9374     8.1604     7.0974     7.6805     8.1356     2.4142    -0.0040     0.1583   102.6740     0.2897
  371.5000   102.1945   -36.9317     7.7204     7.0159     7.6602     8.1354     2.4132     0.0122     0.1551   102.5388     0.2958
  372.0000   105.6457   -36.9307     7.5708     6.9354     7.6405     8.1351     2.4200     0.0273     0.1511   102.0398     0.2898
  372.5000   107.1023   -36.9307     8.0628     6.8448     7.7276     8.1348     2.4267     0.0184     0.1487   101.5408     0.2814
  373.0000   107.3301   -36.9307     8.4210     6.8957     7.8113     8.1345     2.4307     0.0103     0.1467   101.3806     0.2815
  373.5000   108.5548   -36.9307     8.7664     6.9734     7.8959     8.1342     2.4335     0.0224     0.1459   101.3827     0.2887
  374.0000   109.4337   -36.9306     8.5939     7.0519     7.9815     8.1339     2.4353     0.0340     0.1488   101.3784     0.2974
  374.5000   105.9380   -36.9300     8.4508     7.1313     8.0680     8.1336     2.4270     0.0144     0.1553   101.0672     0.2898
  375.0000   102.2850   -36.9250     8.6498     7.2116     8.1467     8.1333     2.4171    -0.0098     0.1591   100.6136     0.2802
  375.5000    98.6248   -37.1525     8.9272     7.2928     8.1697     8.1330     2.4076    -0.0326     0.1610   100.4262     0.2776
  376.0000    97.7349   -37.4294     8.8804     7.3752     8.1907     8.1327     2.4084    -0.0179     0.1590   100.5036     0.2774
  376.5000   100.3751   -37.7054     8.7814     7.4609     8.2217     8.1325     2.4157    -0.0012     0.1547   100.5871     0.2787
  377.0000    99.6290   -37.8964     8.6851     7.5476     8.2050     8.1322     2.4228     0.0025     0.1504   100.3828     0.2795
  377.5000    97.7882   -37.7379     8.5903     7.6352     8.1735     8.1319     2.4299     0.0031     0.1469   100.0421     0.2714
  378.0000    95.8698   -37.5867     8.5287     7.7108     8.1467     8.1316     2.4339     0.0038     0.1471    99.5814     0.2535
  378.5000    97.8716   -37.4363     9.0052     7.7619     8.4508     8.1313     2.4297    -0.0016     0.1493    99.1208     0.2493
  379.0000   100.3490   -37.2859     9.1492     7.8554     8.4902     8.1310     2.4251    -0.0115     0.1513    98.9960     0.2616
  379.5000   100.6845   -37.1356     9.2492     7.9501     8.5316     8.1307     2.4226    -0.0214     0.1510    98.9960     0.2716
  380.0000   100.9376   -36.9852     9.3502     8.0460     8.5732     8.1304     2.4267    -0.0237     0.1487    99.0805     0.2763
  380.5000   101.2213   -36.8349     9.4333     8.1425     8.6072     8.1301     2.4302    -0.0086     0.1475    99.3296     0.2810
  381.0000   102.0290   -36.6844     9.3587     8.2212     8.5657     8.1299     2.4300     0.0067     0.1468    99.5794     0.2855
  381.5000   102.8195   -36.5345     9.2838     8.1357     8.5308     8.1296     2.4331     0.0118     0.1453    99.8290     0.2833
  382.0000   103.7067   -36.3793     9.2095     8.0645     8.4961     8.1293     2.4365     0.0081     0.1437   100.0785     0.2767
  382.5000   106.3183   -36.4809     9.1358     7.9938     8.4615     8.1290     2.4378     0.0042     0.1435   100.3280     0.2704
  383.0000   106.5557   -36.6835     9.0627     7.9257     8.4271     8.1287     2.4390     0.0088     0.1422   100.5775     0.2684
  383.5000   105.7404   -36.8899     8.9902     7.8926     8.3926     8.1284     2.4433     0.0144     0.1393   100.8289     0.2714
  384.0000   105.2263   -37.0965     8.9182     7.8605     8.3739     8.1281     2.4493     0.0094     0.1370   100.9859     0.2703
  384.5000   106.1235   -37.3045     8.8470     7.8285     8.4016     8.1278     2.4477     0.0006     0.1378   100.6441     0.2652
  385.0000   106.3505   -37.5202     8.7664     7.7967     8.4212     8.1275     2.4464    -0.0054     0.1370   100.2035     0.2652
  385.5000   105.4189   -37.2607     8.8743     7.7650     8.4408     8.1273     2.4554    -0.0021     0.1319    99.7632     0.2711
  386.0000   103.9917   -36.8935     9.0014     7.7334     8.4503     8.1270     2.4622     0.0010     0.1287    99.5652     0.2728
  386.5000   105.9228   -36.5226     9.0934     7.7108     8.4067     8.1267     2.4506     0.0020     0.1395    99.9508     0.2616
  387.0000   108.5959   -36.1477     9.0365     7.8645     8.3770     8.1264     2.4320     0.0020     0.1482   100.3364     0.2502
  387.5000   107.8946   -36.4424     8.9729     7.9987     8.3472     8.1261     2.4220     0.0020     0.1522   100.7220     0.2477
  388.0000   106.3629   -36.8533     8.9092     7.9477     8.3176     8.1258     2.4260     0.0020     0.1496   101.1076     0.2576
  388.5000   104.8355   -37.2624     8.8461     7.8914     8.2881     8.1255     2.4298     0.0020     0.1467   101.0383     0.2752
  389.0000   103.1310   -37.6254     8.7664     7.8355     8.2587     8.1252     2.4336     0.0021     0.1458   100.8200     0.2712
  389.5000   100.5725   -37.8953     8.8011     7.7800     8.2295     8.1249     2.4374    -0.0038     0.1437   100.6016     0.2688
  390.0000    98.1811   -38.1675     8.8490     7.7249     8.1801     8.1247     2.4385    -0.0128     0.1443   100.3869     0.2833
  390.5000   100.7647   -38.4391     8.8972     7.6400     8.1235     8.1244     2.4360    -0.0195     0.1453   100.5010     0.2933
  391.0000   106.2178   -38.7108     8.9286     7.5456     8.0674     8.1241     2.4339    -0.0134     0.1463   100.6398     0.3032
  391.5000   109.0326   -38.9832     8.7627     7.4523     7.9987     8.1238     2.4377    -0.0020     0.1434   100.7786     0.3062
  392.0000   109.2113   -39.2604     8.6421     7.3601     8.0068     8.1235     2.4438     0.0092     0.1400   100.8855     0.2922
  392.5000   111.5749   -39.2598     8.5232     7.2695     8.0174     8.1232     2.4497     0.0205     0.1367   100.8847     0.2787
  393.0000   112.9171   -39.2019     8.4442     7.2074     8.0280     8.1229     2.4493     0.0312     0.1373   100.8847     0.2772
  393.5000   109.1553   -39.1430     8.4089     7.1659     8.0386     8.1226     2.4471     0.0222     0.1394   100.8847     0.2761
  394.0000   103.6018   -39.1079     8.3736     7.1246     8.0488     8.1223     2.4420     0.0123     0.1415   100.8847     0.2759
  394.5000   100.4562   -39.1574     8.3385     7.0836     8.0598     8.1221     2.4373     0.0059     0.1435   101.2346     0.2831
  395.0000   102.6345   -39.2313     8.3036     7.0428     8.0723     8.1218     2.4396     0.0103     0.1427   101.2166     0.2930
  395.5000   104.8553   -39.3216     8.2688     7.0023     7.9257     8.1215     2.4420     0.0174     0.1419   101.1398     0.2990
  396.0000   103.3994   -39.7161     8.2341     6.9044     7.7099     8.1212     2.4420     0.0085     0.1410   101.1501     0.3006
