~VERSION INFORMATION
 VERS.                2.0:   CWLS LOG ASCII STANDARD - VERSION 2.0
 WRAP.                 NO:   ONE LINE PER DEPTH STEP
~WELL INFORMATION
#MNEM.UNIT      DATA TYPE    INFORMATION
#----------   ------------   ------------------------------
 STRT.F            7.0000:   START DEPTH
 STOP.F          549.0000:   STOP DEPTH
 STEP.F            0.5000:   STEP LENGTH
 NULL.          -999.2500:   NO VALUE
 COMP. LAWRENCE-ALLISON &AS:   COMPANY
 WELL. NPR 3 #51-62-SX-10-LP3:   WELL
 FLD .             TEAPOT:   FIELD
 LOC .      S10 T38N R78W:   LOCATION
 CNTY.            NATRONA:   COUNTY
 STAT.            WYOMING:   STATE
 CTRY. UNITED STATES OF AMERICA:   COUNTRY
 SRVC.      Dresser Atlas:   SERVICE COMPANY
 DATE.        10-DEC-1984:   LOGDATE
 API .       490251099500:   API NUMBER
~CURVE INFORMATION
#MNEM.UNIT       API CODE    CURVE DESCRIPTION
#----------   ------------   ------------------------------
 DEPT.F                  :   
 SPR .MV     07 010 01 00:   SPONTANEOUS POTENTIAL
 RILD.OHMM   07 120 46 00:   INDUCTION LOG DEEP RESISTIVITY
 RILM.OHMM   07 120 44 00:   INDUCTION LOG MEDIUM RESISTIVITY
 RFOC.OHMM   07 220 04 00:   RESISTIVITY FOCUSED LOG
 DT  .US/F   60 520 00 00:   INTERVAL TRANSIT TIME
 PORD.DEC    45 890 12 00:   POROSITY DENSITY SANDSTONE
 CNCF.DEC    42 890 03 00:   NEUTRON POROSITY SANDSTONE
 CALD.IN     45 280 60 00:   CALIPER FROM DENSITY LOG
 GRD .GAPI   45 310 01 00:   GAMMA RAY FROM DENSITY LOG
 CORR.G/C3   45 356 01 00:   DENSITY CORRECTION
 DEN .G/C3   45 350 01 00:   COMPENSATED BULK DENSTIY
~PARAMETER INFORMATION
#MNEM.UNIT          VALUE    DESCRIPTION
#----------   ------------   ------------------------------
 PD  .                 GL:   PERMANENT DATUM
 EPD .F              5179:   ELEVATION PERMANENT DATUM
 LMF .                 GL:   LOG MEASURED FROM
 DMF .                 GL:   DRILLING MEASURED FROM
 EGL .F              5179:   GROUND LEVEL
 DATE.        10-DEC-1984:   RUN DATE
 RUN .                  1:   RUN NUMBER
 DD  .F               554:   DEPTH DRILLER
 DL  .F               551:   DEPTH LOGGER
 BLI .F               549:   BOTTOM LOG INTERVAL
 TLI .F                20:   TOP LOG INTERVAL
 CS  .IN            8.625:   CASING SIZE
 CBD .F                20:   CASING BOTTOM DRILLER
 CBL .F                20:   CASING BOTTOM LOGGER
 BS  .IN            7.875:   BIT SIZE
 BSD .F               554:   BIT SIZE AT DEPTH
 DFT .         KCL- WATER:   DRILLING FLUID TYPE
 MSS .           MUD TANK:   MUD SAMPLE SOURCE
 RMS .OHMM           .168:   RESISTIVITY MUD SAMPLE
 MST .F                77:   MUD SAMPLE TEMPERATURE
 RMF .OHMM           .126:   RESISTIVITY MUD FILTRATE SAMPLE
 MFST.F                77:   MUD FILTRATE SAMPLE TEMPERATURE
 RMC .OHMM            .21:   RESISTIVITY MUD CAKE
 MCST.F                77:   MUD CAKE SAMPLE TEMPERATURE
 MFSS.               CALC:   MUD FILTRATE SAMPLE SOURCE
 MCSS.               CALC:   MUD CAKE SAMPLE SOURCE
 RMB .OHMM            .15:   RESISTIVITY MUD AT BHT
 BHT .F                85:   BOTTOM HOLE TEMPERATURE
 TCS .HRS             3.5:   TIME CURCULATED STOPPED
 MRT .F               100:   MAXIMUM RECORDED TEMPERATURE
 LUN .               6270:   LOGGING UNIT NUMBER
 LUL .                 FM:   LOGGING UNIT LOCATION
 ENGI.          E. GOVETT:   RECORDING ENGINEER
 WITN.             GROOMS:   WITNESSED BY
 CLNT.            A2DTECH:   CLIENT CODE
 ORIG.           5" PRINT:   ORIGIN OF DATA
 UWI .       490251099500:   UNIQUE WELL ID
 DICO. A2D Technologies, Inc.:   DIGITIZING COMPANY
~OTHER INFORMATION
~A    DEPT     SPR       RILD       RILM       RFOC         DT       PORD         CNCF     CALD        GRD       CORR        DEN   
# ...
  342.5000   -50.5331    30.2716    21.8162    28.1303    99.1981     0.1972     0.2592     8.0750    68.9845     0.0548     2.3480
  343.0000   -50.5273    30.2737    21.8206    28.5324   100.0712     0.1976     0.2605     8.0586    67.1726     0.0517     2.3457
  343.5000   -50.8183    30.2757    21.6745    28.7404   100.8656     0.1985     0.2768     8.0575    64.3081     0.0485     2.3426
  344.0000   -50.8125    30.0688    21.3807    28.7502   101.2393     0.2021     0.2843     8.0563    62.1954     0.0471     2.3320
  344.5000   -51.1034    29.4526    21.2375    28.1687   101.0851     0.2073     0.2777     8.0551    61.7369     0.0517     2.3335
  345.0000   -51.0976    28.8485    20.8061    27.7883   100.8566     0.2058     0.2686     8.0539    62.8121     0.0605     2.3380
  345.5000   -51.2403    28.0627    20.3825    27.2263   100.8536     0.1986     0.2704     8.0527    64.9007     0.0710     2.3485
  346.0000   -51.6795    27.4876    19.8296    26.8609   100.8506     0.1938     0.2816     8.0366    70.0031     0.0619     2.3560
  346.5000   -52.1187    26.7385    19.1587    26.6866   100.9979     0.1986     0.2864     7.9903    71.3313     0.0483     2.3467
  347.0000   -52.4283    26.0097    18.5104    26.6960   101.1453     0.2053     0.2849     7.9741    67.8634     0.0361     2.3375
  347.5000   -52.8475    25.4767    18.2586    25.9755   101.4431     0.2102     0.2858     7.9579    65.2996     0.0316     2.3255
  348.0000   -53.2868    24.7823    18.6467    23.7365   102.1168     0.2128     0.2861     7.9263    64.0892     0.0360     2.3197
  348.5000   -53.4294    24.8052    19.1743    22.9260   101.5874     0.2168     0.2810     7.8639    64.6851     0.0420     2.3151
  349.0000   -53.7218    25.3065    19.7169    22.7963   101.0581     0.2192     0.2715     7.8492    67.0819     0.0480     2.3143
  349.5000   -54.0113    25.6611    20.2748    24.4413   100.3033     0.2190     0.2617     7.8631    69.3301     0.0298     2.3143
  350.0000   -54.0791    25.8408    20.7046    27.8980    98.3450     0.2160     0.2512     7.9220    70.5275     0.0274     2.3180
  350.5000   -54.2953    25.7251    20.1454    34.8249    92.0060     0.2014     0.2376     7.8603    65.9145     0.0221     2.3447
  351.0000   -54.4441    25.7995    18.9334    40.8604    86.9881     0.1789     0.2251     7.8139    62.8323     0.0191     2.3752
  351.5000   -54.7257    25.8731    16.8353    41.1670    81.2765     0.1449     0.2233     7.7826    61.4670     0.0130     2.4249
  352.0000   -54.7181    25.8839    16.4925    35.3690    77.7295     0.1024     0.2264     7.7512    62.8085     0.0115     2.4957
  352.5000   -54.5623    25.5383    16.6128    24.6871    80.8075     0.1009     0.2369     7.7349    66.1049     0.0250     2.5145
  353.0000   -54.4065    25.0064    16.7329    22.4184    84.9391     0.1223     0.2532     7.7489    66.8448     0.0370     2.4760
  353.5000   -54.0747    24.3307    16.9709    22.4307    89.2729     0.1506     0.2626     7.8073    68.7878     0.0373     2.4338
  354.0000   -53.6484    23.8592    17.0935    22.5990    95.4586     0.1964     0.2635     7.8960    73.2872     0.0249     2.3584
  354.5000   -53.6410    23.7043    17.2171    23.0861    97.1922     0.1964     0.2693     7.8497    71.7514     0.0158     2.3493
  355.0000   -53.1886    23.8793    17.2218    23.2594    98.0928     0.1964     0.2792     7.8333    68.3613     0.0308     2.3493
  355.5000   -52.4394    23.8591    17.1077    23.2722    98.7636     0.1965     0.2844     7.8470    65.5823     0.0489     2.3492
  356.0000   -51.9869    23.7338    16.7594    23.2850    98.8272     0.2004     0.2919     7.8765    67.2683     0.0564     2.3432
  356.5000   -51.5344    23.5797    16.9989    23.1370    98.8233     0.1983     0.3016     7.9061    68.1148     0.0593     2.3462
  357.0000   -51.0819    23.2650    17.0036    22.9900    98.8949     0.1941     0.3034     7.9181    66.2954     0.0593     2.3552
  357.5000   -50.7778    22.9545    16.8897    22.3742    99.0407     0.1923     0.2959     7.9468    66.2835     0.0547     2.3581
  358.0000   -50.6221    22.6482    16.7788    22.0786    99.6385     0.2007     0.2883     7.9605    66.2716     0.0440     2.3420
  358.5000   -50.6147    22.3459    16.6675    21.7869    99.7108     0.2034     0.2847     7.9738    66.2597     0.0272     2.3370
  359.0000   -50.6073    21.8978    16.5571    21.4778    99.1799     0.2037     0.2847     7.9725    68.5034     0.0123     2.3399
  359.5000   -50.6000    21.3083    16.3339    21.2150    98.5747     0.2013     0.2923     7.9561    72.8524     0.0108     2.3482
  360.0000   -50.4442    21.3172    16.1138    20.9347    97.8191     0.1905     0.2980     7.9098    73.4420     0.0257     2.3708
  360.5000   -50.4369    21.1788    16.0070    20.8046    97.3642     0.1833     0.2908     7.9084    74.0316     0.0409     2.3760
  361.0000   -50.4295    21.1876    15.7911    20.9607    96.9845     0.1840     0.2835     7.9224    74.7716     0.0348     2.3699
  361.5000   -50.4221    20.7605    15.6865    20.6838    96.6801     0.1908     0.2823     7.9208    74.7597     0.0408     2.3465
  362.0000   -50.4148    20.3400    15.5825    19.9908    96.6763     0.1989     0.2763     7.9345    75.8004     0.0422     2.3420
  362.5000   -50.4074    20.0685    15.4792    19.3211    96.5974     0.1977     0.2709     7.9481    76.9945     0.0362     2.3442
  363.0000   -50.4000    19.9383    15.3766    19.0659    96.5937     0.1935     0.2724     7.9618    76.9796     0.0301     2.3547
  363.5000   -50.3927    19.8089    15.3810    19.0763    96.5148     0.1884     0.2860     7.9605    76.3662     0.0270     2.3667
  364.0000   -50.3853    19.8191    15.3853    19.0868    96.4359     0.1845     0.2938     7.9592    72.4445     0.0179     2.3727
  364.5000   -50.2296    19.5546    14.9699    18.7047    96.3570     0.1833     0.2947     7.9739    72.1318     0.0119     2.3727
  365.0000   -50.0738    19.1605    14.5649    18.0781    96.3533     0.1827     0.2881     7.9865    72.2703     0.0163     2.3734
  365.5000   -49.9181    18.7743    14.2694    17.9607    96.6503     0.1833     0.2845     8.0002    72.7098     0.0238     2.3741
  366.0000   -50.0591    18.3959    13.8834    17.7234    97.2481     0.1869     0.2848     7.9985    73.9006     0.0419     2.3696
  366.5000   -49.9033    18.0251    13.6016    17.6108    97.0940     0.1872     0.2845     7.9822    76.2947     0.0494     2.3650
  367.0000   -49.7476    17.4188    13.4173    17.6229    96.5579     0.1873     0.2833     7.9508    78.0952     0.0478     2.3657
  367.5000   -49.5919    16.4869    13.2373    17.5085    95.4826     0.1848     0.2812     7.9495    78.5265     0.0478     2.3711
  368.0000   -49.5845    15.9324    13.0588    17.5206    94.3518     0.1821     0.2746     7.9482    75.6791     0.0402     2.3739
  368.5000   -49.5771    15.7181    12.8828    16.8168    93.8238     0.1879     0.2691     7.9468    73.6243     0.0296     2.3688
  369.0000   -49.7181    15.5099    12.8863    16.5923    93.3770     0.1894     0.2676     7.9455    72.7478     0.0160     2.3625
  369.5000   -49.8591    15.5164    12.8000    16.7191    93.0857     0.1897     0.2663     7.9442    72.6112     0.0099     2.3595
  370.0000   -50.0001    15.4141    12.6283    16.8446    92.9316     0.1867     0.2625     7.9429    73.8023     0.0204     2.3632
  370.5000   -50.2895    15.4220    12.4572    16.9709    92.8527     0.1870     0.2635     7.9415    74.3949     0.0113     2.3670
  371.0000   -50.4481    15.4284    12.3746    16.7467    92.8490     0.1864     0.2658     7.9402    74.3800     0.0083     2.3677
  371.5000   -50.7199    15.3283    12.2077    16.4110    92.8453     0.1858     0.2655     7.9389    73.9170     0.0143     2.3676
  372.0000   -50.8609    15.0193    12.1268    16.3067    92.7664     0.1846     0.2637     7.9375    71.1983     0.0338     2.3684
  372.5000   -51.1502    14.8189    11.9641    16.2032    92.7627     0.1789     0.2610     7.9362    69.5322     0.0353     2.3736
