~VERSION INFORMATION
 VERS.                2.0:   CWLS LOG ASCII STANDARD - VERSION 2.0
 WRAP.                 NO:   ONE LINE PER DEPTH STEP
~WELL INFORMATION
#MNEM.UNIT      DATA TYPE    INFORMATION
#----------   ------------   ------------------------------
 STRT.F           10.0000:   START DEPTH
 STOP.F          472.5000:   STOP DEPTH
 STEP.F            0.5000:   STEP LENGTH
 NULL.          -999.2500:   NO VALUE
 COMP. FENIX & SCISSON INC:   COMPANY
 WELL. NAVAL PETROLEUM RESERVE 3 SX-1 #67-10:   WELL
 FLD .             TEAPOT:   FIELD
 LOC .      S10 T38N R78W:   LOCATION
 CNTY.            NATRONA:   COUNTY
 STAT.            WYOMING:   STATE
 CTRY. UNITED STATES OF AMERICA:   COUNTRY
 SRVC.           BIRDWELL:   SERVICE COMPANY
 DATE.        05-DEC-1978:   LOGDATE
 API .       490251075000:   API NUMBER
~CURVE INFORMATION
#MNEM.UNIT       API CODE    CURVE DESCRIPTION
#----------   ------------   ------------------------------
 DEPT.F                  :   
 SPR .MV     05 010 01 00:   SPONTANEOUS POTENTIAL FROM RES.
 SN  .OHMM   05 040 16 00:   SHORT NORMAL 16"
 IL  .OHMM   05 120 00 00:   INDUCTION LOG
 CALD.IN     45 280 60 00:   CALIPER
 GRD .GAPI   45 310 01 00:   GAMMA RAY FROM DENSITY LOG
 RHOB.G/C3   45 350 01 00:   BULK DENSITY
 DPHI.DEC    45 890 12 00:   DENSITY POROSITY SANDSTONE
 CORR.G/C3   45 356 01 00:   DENSITY CORRECTION
~PARAMETER INFORMATION
#MNEM.UNIT          VALUE    DESCRIPTION
#----------   ------------   ------------------------------
 PD  .                 GL:   PERMANENT DATUM
 EPD .F              5189:   ELEVATION PERMANENT DATUM
 LMF .                 KB:   LOG MEASURED FROM
 DAPD.F                 4:   FEET ABOVE PERMANENT DATUM
 DMF .                 KB:   DRILLING MEASURED FROM
 EKB .F              5193:   KELLING BUSHING
 EGL .F              5189:   GROUND LEVEL
 DATE.            12-5-78:   RUN DATE
 RUN .                  1:   RUN NUMBER
 DD  .F               475:   DEPTH DRILLER
 DL  .F               471:   DEPTH LOGGER
 BLI .F               465:   BOTTOM LOG INTERVAL
 TLI .F                40:   TOP LOG INTERVAL
 CS  .IN            8.625:   CASING SIZE
 CBD .F                40:   CASING BOTTOM DRILLER
 CBL .F                40:   CASING BOTTOM LOGGER
 BS  .IN            7.875:   BIT SIZE
 BSD .F               475:   BIT SIZE AT DEPTH
 DFT .                KCL:   DRILLING FLUID TYPE
 DFD .                8.8:   DRILLING FLUID DENSITY
 DFV .                 42:   DRILLING FLUID VISCOSITY
 DFPH.               12.2:   DRILLING FLUID PH
 DFL .               11.6:   DRILLING FLUID LOSS
 MSS .          FLOW LINE:   MUD SAMPLE SOURCE
 RMS .OHMM            .31:   RESISTIVITY MUD SAMPLE
 MST .F                60:   MUD SAMPLE TEMPERATURE
 RMF .OHMM            .29:   RESISTIVITY MUD FILTRATE SAMPLE
 MFST.F                61:   MUD FILTRATE SAMPLE TEMPERATURE
 RMC .OHMM            .42:   RESISTIVITY MUD CAKE
 MCST.F                63:   MUD CAKE SAMPLE TEMPERATURE
 MFSS.           MEASURED:   MUD FILTRATE SAMPLE SOURCE
 MCSS.           MEASURED:   MUD CAKE SAMPLE SOURCE
 RMB .OHMM            .33:   RESISTIVITY MUD AT BHT
 BHT .F                57:   BOTTOM HOLE TEMPERATURE
 TCS .HRS               3:   TIME CURCULATED STOPPED
 MRT .F                57:   MAXIMUM RECORDED TEMPERATURE
 LUN .               2958:   LOGGING UNIT NUMBER
 LUL .                CPR:   LOGGING UNIT LOCATION
 ENGI.            ROLLINS:   RECORDING ENGINEER
 WITN.              AMEND:   WITNESSED BY
 CLNT.            A2DTECH:   CLIENT CODE
 ORIG.       2", 5" PRINT:   ORIGIN OF DATA
 UWI .       490251075000:   UNIQUE WELL ID
 DICO. A2D Technologies, Inc.:   DIGITIZING COMPANY
~OTHER INFORMATION
~A   DEPT      SPR         SN         IL       CALD         GRD      RHOB       DPHI       CORR   
# ...
   50.5000   -44.9900     6.3190     4.8690     9.0380    96.0310     2.3750     0.1880     0.0280
   51.0000   -44.9900     6.3520     4.9320     8.9580    94.9510     2.3790     0.1910     0.0280
   51.5000   -44.9880     6.3850     4.9610     8.8670    93.6580     2.3730     0.2030     0.0280
   52.0000   -44.9880     6.4180     4.9900     8.8320    93.0780     2.3500     0.2150     0.0330
   52.5000   -45.0470     6.4510     5.0190     8.8070    91.4020     2.3310     0.2210     0.0410
   53.0000   -46.1660     6.5010     5.0480     8.8010    91.8090     2.3320     0.2150     0.0480
   53.5000   -47.2060     6.6750     5.0770     8.7920    94.1390     2.3510     0.2020     0.0410
   54.0000   -47.9920     6.8480     5.2600     8.7300    95.2800     2.3750     0.1880     0.0250
   54.5000   -48.4540     7.0210     5.7570     8.6000    96.5940     2.3980     0.1720     0.0230
   55.0000   -48.5770     7.1950     6.2530     8.6770    98.3290     2.4210     0.1570     0.0220
   55.5000   -48.7030     7.4350     6.7500     8.7540   101.8770     2.4370     0.1490     0.0210
   56.0000   -48.8290     7.6980     7.2030     8.7690   105.5770     2.4510     0.1430     0.0200
   56.5000   -48.9580     7.9610     7.4080     8.7700   107.5990     2.4560     0.1410     0.0190
   57.0000   -49.0440     8.2250     7.5930     8.7700   106.8770     2.4590     0.1400     0.0180
   57.5000   -49.1190     8.4880     7.6680     8.7700   104.8890     2.4590     0.1400     0.0180
   58.0000   -49.1940     8.7170     7.7430     8.7700   104.9510     2.4560     0.1440     0.0180
   58.5000   -49.2670     8.7680     7.8180     8.7630   100.3060     2.4500     0.1480     0.0180
   59.0000   -49.3390     8.8190     7.8920     8.7270    98.9560     2.4430     0.1490     0.0180
   59.5000   -49.3740     8.8700     7.9670     8.6920    97.8100     2.4420     0.1490     0.0200
   60.0000   -49.2430     8.9220     8.0420     8.6560   105.1540     2.4400     0.1500     0.0220
   60.5000   -49.1140     8.9500     8.1040     8.6490   109.6760     2.4380     0.1540     0.0240
   61.0000   -48.9860     8.9220     8.1470     8.6470   108.7020     2.4340     0.1570     0.0270
   61.5000   -48.8580     8.8990     8.1890     8.6450   107.2680     2.4290     0.1610     0.0310
   62.0000   -48.7310     8.8710     8.2320     8.6430   105.6620     2.4310     0.1590     0.0450
   62.5000   -48.6040     8.8920     8.2740     8.6410   103.9900     2.4390     0.1510     0.0600
   63.0000   -48.4770     8.9190     8.3170     8.6390   103.6520     2.4450     0.1470     0.0750
   63.5000   -48.4650     8.9450     8.3590     8.6380   104.4240     2.4520     0.1460     0.0780
   64.0000   -48.6430     8.9720     8.4080     8.6360   105.4950     2.4570     0.1450     0.0780
   64.5000   -48.8190     8.9990     8.4820     8.6340   106.4560     2.4580     0.1410     0.0780
   65.0000   -48.9950     9.0250     8.5560     8.6320   105.9740     2.4590     0.1400     0.0780
   65.5000   -49.1700     9.0520     8.6280     8.6310   104.6480     2.4600     0.1410     0.0780
   66.0000   -49.3460     9.0790     8.5250     8.7040   103.7160     2.4570     0.1430     0.0790
   66.5000   -49.5240     9.1200     8.4230     8.7880   105.0140     2.4550     0.1440     0.0810
   67.0000   -49.6160     9.1030     8.3210     8.8100   106.6980     2.4590     0.1420     0.0840
   67.5000   -49.6480     9.0620     8.2200     8.8130   106.9830     2.4660     0.1340     0.0980
   68.0000   -49.6800     9.0220     8.1590     8.8150   107.7410     2.4700     0.1300     0.1020
   68.5000   -49.7110     8.9810     8.1490     8.8170   109.0140     2.4690     0.1340     0.0970
   69.0000   -49.7430     8.9410     8.1400     8.8190   108.6580     2.4660     0.1390     0.0940
   69.5000   -49.7740     8.9000     8.1300     8.8210   108.0930     2.4670     0.1360     0.0930
   70.0000   -49.8050     8.8600     8.1200     8.8230   109.5810     2.4760     0.1250     0.0930
   70.5000   -49.8370     8.8190     8.1110     8.8250   111.3240     2.4810     0.1290     0.0930
   71.0000   -49.8680     8.7870     8.1010     8.8270   112.2370     2.4740     0.1350     0.0810
   71.5000   -49.8990     8.7780     8.0910     8.8290   112.4630     2.4620     0.1400     0.0670
   72.0000   -49.9310     8.7700     8.0710     8.8370   111.7100     2.4550     0.1410     0.0560
   72.5000   -49.9620     8.7610     8.0460     8.8480   110.8910     2.4540     0.1410     0.0510
   73.0000   -49.9940     8.7530     8.0210     8.8600   110.0740     2.4540     0.1400     0.0460
   73.5000   -50.0250     8.7440     7.9960     8.8690   109.2740     2.4530     0.1440     0.0460
   74.0000   -50.0560     8.7350     7.9700     8.8600   109.7250     2.4470     0.1480     0.0460
   74.5000   -50.0880     8.7270     7.9450     8.8510   114.1230     2.4420     0.1510     0.0460
   75.0000   -50.1190     8.7180     7.9200     8.8430   114.2780     2.4360     0.1550     0.0460
   75.5000   -50.1500     8.7090     7.8950     8.8340   112.8430     2.4330     0.1580     0.0490
   76.0000   -50.1820     8.8250     7.8670     8.8260   110.0780     2.4310     0.1590     0.0510
   76.5000   -50.2130     8.9550     8.0600     8.8170   106.5480     2.4370     0.1510     0.0540
   77.0000   -50.2450     9.0840     8.2720     8.8090   103.0500     2.4500     0.1400     0.0550
   77.5000   -50.2760     9.1200     8.4850     8.8000   100.0570     2.4660     0.1320     0.0560
   78.0000   -50.3070     9.1200     8.6360     8.7920    99.4290     2.4810     0.1290     0.0570
   78.5000   -50.3390     9.1200     8.6940     8.7830    99.2510     2.4820     0.1250     0.0580
   79.0000   -50.3700     9.1200     8.7530     8.7750    99.1310     2.4850     0.1200     0.0620
   79.5000   -50.4020     9.1200     8.8110     8.7720    99.8600     2.4940     0.1140     0.0680
   80.0000   -50.4330     9.1200     8.8700     8.7750   100.5910     2.4990     0.1200     0.0640
   80.5000   -50.4640     9.1200     8.9280     8.7790   101.3150     2.4760     0.1330     0.0600
   81.0000   -50.4960     9.1200     8.9870     8.7820   102.6740     2.4550     0.1450     0.0620
   81.5000   -50.5270     9.1200     9.0360     8.7850   104.7630     2.4520     0.1470     0.0670
   82.0000   -50.5590     9.1200     8.9240     8.7890   107.0020     2.4580     0.1430     0.0720
   82.5000   -50.5870     9.1200     8.8270     8.8040   105.7310     2.4690     0.1310     0.0810
   83.0000   -50.8720     9.0790     8.7290     8.8240   102.8590     2.4810     0.1220     0.0890
   83.5000   -51.2910     9.0070     8.6280     8.8440   103.4150     2.4860     0.1210     0.0910
   84.0000   -51.7100     8.9340     8.5460     8.8640   104.2840     2.4880     0.1210     0.0920
   84.5000   -52.1250     8.8620     8.4600     8.8840   106.3940     2.4870     0.1210     0.0940
   85.0000   -52.4090     8.7890     8.3740     8.9050   108.6780     2.4860     0.1220     0.0920
   85.5000   -52.6570     8.7160     8.2880     8.9120   110.7020     2.4860     0.1220     0.0890
   86.0000   -52.8060     8.6440     8.2030     8.9150   110.6520     2.4850     0.1240     0.0810
   86.5000   -52.8050     8.6140     8.1170     8.9180   109.7370     2.4830     0.1260     0.0650
   87.0000   -52.8050     8.5960     8.0310     8.9210   108.8690     2.4790     0.1270     0.0490
   87.5000   -52.8050     8.5780     7.9940     8.9240   108.3420     2.4730     0.1290     0.0390
   88.0000   -52.8060     8.5600     7.9680     8.9270   110.1440     2.4680     0.1300     0.0310
   88.5000   -52.8060     8.5420     7.9430     8.9300   111.9380     2.4680     0.1320     0.0230
   89.0000   -52.8060     8.5240     7.9170     8.9280   112.5110     2.4650     0.1380     0.0230
   89.5000   -52.8060     8.5060     7.8920     8.9260   110.7600     2.4570     0.1440     0.0230
   90.0000   -52.8060     8.4880     7.8670     8.9240   109.0460     2.4500     0.1460     0.0230
   90.5000   -52.8060     8.4710     7.9740     8.9220   108.5370     2.4540     0.1370     0.0240
