~VERSION INFORMATION
 VERS.                2.0:   CWLS LOG ASCII STANDARD - VERSION 2.0
 WRAP.                 NO:   ONE LINE PER DEPTH STEP
~WELL INFORMATION
#MNEM.UNIT      DATA TYPE    INFORMATION
#----------   ------------   ------------------------------
 STRT.F           34.0000:   START DEPTH
 STOP.F          458.0000:   STOP DEPTH
 STEP.F            0.5000:   STEP LENGTH
 NULL.          -999.2500:   NO VALUE
 COMP. FENIX & SCISSON INC:   COMPANY
 WELL.    42 SX 3FO #42-3:   WELL
 FLD .             TEAPOT:   FIELD
 LOC .       S3 T38N R78W:   LOCATION
 CNTY.            NATRONA:   COUNTY
 STAT.            WYOMING:   STATE
 CTRY. UNITED STATES OF AMERICA:   COUNTRY
 SRVC.              Welex:   SERVICE COMPANY
 DATE.        29-JUN-1980:   LOGDATE
 API .       490251081500:   API NUMBER
~CURVE INFORMATION
#MNEM.UNIT       API CODE    CURVE DESCRIPTION
#----------   ------------   ------------------------------
 DEPT.F                  :   
 RHOB.G/C3   45 350 01 00:   BULK DENSITY
 CORR.G/C3   45 356 01 00:   DENSITY CORRECTION
 DPHI.DEC    45 890 12 00:   DENSITY POROSITY SANDSTONE
 GRD .GAPI   45 310 01 00:   GAMMA RAY FROM DENSITY LOG
 CALD.IN     45 280 60 00:   CALIPER
~PARAMETER INFORMATION
#MNEM.UNIT          VALUE    DESCRIPTION
#----------   ------------   ------------------------------
 PD  .                 GL:   PERMANENT DATUM
 EPD .F              5162:   ELEVATION PERMANENT DATUM
 LMF .                 KB:   LOG MEASURED FROM
 DAPD.F                 5:   FEET ABOVE PERMANENT DATUM
 DMF .                 KB:   DRILLING MEASURED FROM
 EKB .F              5167:   KELLING BUSHING
 EGL .F              5162:   GROUND LEVEL
 DATE.            6-29-80:   RUN DATE
 RUN .                  1:   RUN NUMBER
 DD  .F               470:   DEPTH DRILLER
 DL  .F               460:   DEPTH LOGGER
 BLI .F               458:   BOTTOM LOG INTERVAL
 TLI .F                46:   TOP LOG INTERVAL
 CS  .IN                7:   CASING SIZE
 BS  .IN             6.25:   BIT SIZE
 BSD .F               470:   BIT SIZE AT DEPTH
 DFT .        AIR DRILLED:   DRILLING FLUID TYPE
 BHT .F                73:   BOTTOM HOLE TEMPERATURE
 TCS .HRS               2:   TIME CURCULATED STOPPED
 MRT .F                73:   MAXIMUM RECORDED TEMPERATURE
 ENGI.            TOTHILL:   RECORDING ENGINEER
 WITN.              AMEND:   WITNESSED BY
 CLNT.            A2DTECH:   CLIENT CODE
 ORIG.           5" PRINT:   ORIGIN OF DATA
 UWI .       490251081500:   UNIQUE WELL ID
 DICO. A2D Technologies, Inc.:   DIGITIZING COMPANY
~OTHER INFORMATION
~A   DEPT       RHOB      CORR      DPHI         GRD        CALD 
# ...
  217.0000     2.4281     0.0570     0.1529   119.0335     6.3878
  217.5000     2.4287     0.0579     0.1509   117.0374     6.4045
  218.0000     2.4336     0.0609     0.1488   116.8820     6.3938
  218.5000     2.4554     0.0755     0.1386   117.9186     6.3567
  219.0000     2.4576     0.0900     0.1336   119.4935     6.3721
  219.5000     2.4655     0.1045     0.1244   119.2130     6.3940
  220.0000     2.4784     0.1174     0.1177   117.9077     6.4159
  220.5000     2.4914     0.1291     0.1109   118.5615     6.4376
  221.0000     2.5032     0.1399     0.1084   121.1712     6.4555
  221.5000     2.5058     0.1458     0.1104   122.1632     6.4632
  222.0000     2.4967     0.1487     0.1156   119.3085     6.4711
  222.5000     2.4894     0.1372     0.1163   118.3022     6.4790
  223.0000     2.4931     0.1407     0.1151   119.1714     6.4869
  223.5000     2.4965     0.1438     0.1198   118.3636     6.4949
  224.0000     2.4767     0.1227     0.1334   115.4885     6.5027
  224.5000     2.4474     0.1013     0.1450   113.5424     6.5108
  225.0000     2.4368     0.1021     0.1477   113.1162     6.4983
  225.5000     2.4360     0.1116     0.1423   115.8036     6.4687
  226.0000     2.4495     0.1204     0.1317   118.5165     6.4392
  226.5000     2.4663     0.1384     0.1355   119.5999     6.4148
  227.0000     2.4592     0.1226     0.1420   117.1765     6.4323
  227.5000     2.4407     0.1011     0.1498   115.4288     6.4504
  228.0000     2.4293     0.0773     0.1526   116.8014     6.4683
  228.5000     2.4364     0.0724     0.1494   118.3104     6.4862
  229.0000     2.4350     0.0675     0.1505   118.3629     6.5041
  229.5000     2.4291     0.0632     0.1510   117.3669     6.5039
  230.0000     2.4337     0.0597     0.1512   117.6953     6.4857
  230.5000     2.4342     0.0622     0.1513   117.8186     6.4670
  231.0000     2.4327     0.0678     0.1428   117.0600     6.4469
  231.5000     2.4427     0.0730     0.1332   117.6515     6.4269
  232.0000     2.4729     0.1015     0.1240   118.8598     6.4137
  232.5000     2.4862     0.1038     0.1184   118.4742     6.4182
  233.0000     2.4902     0.1082     0.1159   115.5020     6.4223
  233.5000     2.4929     0.1232     0.1173   112.1925     6.4264
  234.0000     2.4874     0.1195     0.1195   111.1395     6.4305
  234.5000     2.4820     0.1158     0.1228   110.3796     6.4346
  235.0000     2.4786     0.1175     0.1169   110.1153     6.4388
  235.5000     2.4930     0.1192     0.1112   111.1405     6.4429
  236.0000     2.5098     0.1243     0.1024   112.1353     6.4470
  236.5000     2.5184     0.1320     0.1083   113.6773     6.4511
  237.0000     2.5025     0.1257     0.1174   115.3147     6.4552
  237.5000     2.4867     0.1199     0.1265   116.0161     6.4594
  238.0000     2.4613     0.1033     0.1383   118.0828     6.4635
  238.5000     2.4440     0.0874     0.1455   120.6801     6.4676
  239.0000     2.4446     0.0892     0.1453   123.3060     6.4720
  239.5000     2.4379     0.0903     0.1478   125.1113     6.4601
  240.0000     2.4329     0.1015     0.1500   125.5512     6.4420
  240.5000     2.4439     0.1117     0.1459   125.8608     6.4372
  241.0000     2.4314     0.1047     0.1483   126.2933     6.4458
  241.5000     2.4296     0.1113     0.1457   128.5536     6.4543
  242.0000     2.4497     0.1169     0.1424   132.2463     6.4629
  242.5000     2.4370     0.0991     0.1529   133.6113     6.4715
  243.0000     2.4304     0.0853     0.1504   131.9203     6.4801
  243.5000     2.4383     0.0811     0.1491   131.7672     6.4887
  244.0000     2.4317     0.0769     0.1488   132.6991     6.4742
  244.5000     2.4351     0.0800     0.1384   130.6440     6.4366
  245.0000     2.4690     0.0946     0.1270   126.3408     6.4056
  245.5000     2.4909     0.1085     0.1172   124.1164     6.3759
  246.0000     2.4884     0.1159     0.1188   121.7070     6.3804
  246.5000     2.4647     0.1029     0.1379   118.9392     6.3890
  247.0000     2.4522     0.0963     0.1400   116.7254     6.3976
  247.5000     2.4567     0.1025     0.1364   115.8612     6.4062
  248.0000     2.4609     0.1014     0.1373   116.2695     6.4149
  248.5000     2.4494     0.1091     0.1461   117.6944     6.4236
  249.0000     2.4338     0.0995     0.1425   116.4946     6.4319
  249.5000     2.4312     0.0870     0.1388   115.0238     6.4149
  250.0000     2.4723     0.0837     0.1239   117.0317     6.3947
  250.5000     2.4875     0.0899     0.1274   119.4727     6.3749
  251.0000     2.4703     0.0962     0.1319   121.6684     6.3788
  251.5000     2.4599     0.0912     0.1355   121.8724     6.3857
  252.0000     2.4560     0.0852     0.1377   122.9136     6.3925
  252.5000     2.4561     0.0788     0.1403   121.5779     6.3994
  253.0000     2.4451     0.0677     0.1467   120.2161     6.4062
  253.5000     2.4316     0.0558     0.1531   119.3157     6.4131
  254.0000     2.4172     0.0435     0.1595   119.6372     6.4200
  254.5000     2.4165     0.0381     0.1623   121.1587     6.4268
  255.0000     2.4083     0.0344     0.1629   122.8272     6.4300
  255.5000     2.4174     0.0488     0.1550   123.3811     6.4028
  256.0000     2.4271     0.0663     0.1575   122.3651     6.3757
  256.5000     2.4193     0.0778     0.1609   121.7666     6.3781
  257.0000     2.4123     0.0819     0.1560   121.5956     6.3842
  257.5000     2.4304     0.0838     0.1467   121.3259     6.3903
  258.0000     2.4506     0.0857     0.1374   120.0238     6.3964
  258.5000     2.4631     0.0856     0.1291   118.7066     6.4025
  259.0000     2.4695     0.0839     0.1229   117.3926     6.4086
  259.5000     2.4787     0.0862     0.1136   116.0792     6.4146
  260.0000     2.5052     0.0977     0.1102   114.7677     6.4207
  260.5000     2.5319     0.1090     0.0975   113.5411     6.4268
  261.0000     2.5366     0.1182     0.0888   112.5406     6.4329
  261.5000     2.5308     0.1124     0.0945   111.5476     6.4389
  262.0000     2.5177     0.1064     0.1033   112.2752     6.4450
  262.5000     2.5109     0.0891     0.1004   113.9790     6.4511
  263.0000     2.5256     0.0962     0.0955   113.7397     6.4577
  263.5000     2.5400     0.1032     0.0907   113.1714     6.4647
  264.0000     2.5504     0.1013     0.0856   114.3760     6.4716
  264.5000     2.5396     0.0969     0.0911   114.4043     6.4785
  265.0000     2.5239     0.0926     0.1009   111.3382     6.4856
  265.5000     2.5115     0.0803     0.1115   108.3415     6.4920
  266.0000     2.4989     0.0622     0.1234   106.6840     6.4480
  266.5000     2.4739     0.0442     0.1357   105.7993     6.3977
  267.0000     2.4513     0.0301     0.1444   106.4970     6.3533
  267.5000     2.4415     0.0239     0.1498   107.8980     6.3557
  268.0000     2.4264     0.0095     0.1513   110.0323     6.3588
  268.5000     2.4413     0.0251     0.1457   112.1558     6.3618
  269.0000     2.4501     0.0424     0.1400   113.6656     6.3647
  269.5000     2.4519     0.0549     0.1437   112.1961     6.3676
  270.0000     2.4512     0.0423     0.1494   111.1909     6.3705
  270.5000     2.4207     0.0339     0.1560   111.7981     6.3734
  271.0000     2.4220     0.0420     0.1545   111.0386     6.3763
  271.5000     2.4392     0.0624     0.1450   109.8925     6.3793
  272.0000     2.4532     0.0822     0.1380   108.7590     6.3822
  272.5000     2.4557     0.0931     0.1447   109.0747     6.3851
  273.0000     2.4351     0.0884     0.1532   109.5928     6.3880
  273.5000     2.4201     0.0839     0.1617   111.3103     6.3909
  274.0000     2.4130     0.0813     0.1625   115.0161     6.3939
  274.5000     2.4208     0.1081     0.1505   120.5112     6.3968
  275.0000     2.4479     0.1358     0.1301   123.0773     6.3997
  275.5000     2.4834     0.1512     0.1176   118.0860     6.4026
  276.0000     2.5018     0.1458     0.1076   111.0257     6.4055
  276.5000     2.5196     0.1224     0.0991   105.0059     6.4085
  277.0000     2.5309     0.1242     0.0968   103.1452     6.4114
  277.5000     2.5284     0.1155     0.1000   102.6339     6.4142
