~VERSION INFORMATION
 VERS.                2.0:   CWLS LOG ASCII STANDARD - VERSION 2.0
 WRAP.                 NO:   ONE LINE PER DEPTH STEP
~WELL INFORMATION
#MNEM.UNIT      DATA TYPE    INFORMATION
#----------   ------------   ------------------------------
 STRT.F            0.0000:   START DEPTH
 STOP.F          562.0000:   STOP DEPTH
 STEP.F            0.1000:   STEP LENGTH
 NULL.          -999.2500:   NO VALUE
 COMP. BROWN JOHN E&C INC:   COMPANY
 WELL.    73-1 SX-3 #73-3:   WELL
 FLD .             TEAPOT:   FIELD
 LOC .       S3 T38N R78W:   LOCATION
 CNTY.            NATRONA:   COUNTY
 STAT.            WYOMING:   STATE
 CTRY. UNITED STATES OF AMERICA:   COUNTRY
 SRVC.      Western Atlas:   SERVICE COMPANY
 DATE.        23-APR-1992:   LOGDATE
 API .       490252251200:   API NUMBER
~CURVE INFORMATION
#MNEM.UNIT       API CODE    CURVE DESCRIPTION
#----------   ------------   ------------------------------
 DEPT.F                  :   
 GRR .GAPI   07 310 01 00:   GAMMA RAY
 RILD.OHMM   07 120 46 00:   INDUCTION LOG DEEP RESISTIVITY
 RILM.OHMM   07 120 44 00:   INDUCTION LOG MEDIUM RESISTIVITY
 CILD.MMHO   07 110 46 00:   CONDUCTIVITY INDUCTION LOG DEEP
~PARAMETER INFORMATION
#MNEM.UNIT          VALUE    DESCRIPTION
#----------   ------------   ------------------------------
 PD  .                 GL:   PERMANENT DATUM
 EPD .F              5164:   ELEVATION PERMANENT DATUM
 LMF .                 KB:   LOG MEASURED FROM
 DAPD.F                 5:   FEET ABOVE PERMANENT DATUM
 DMF .                 KB:   DRILLING MEASURED FROM
 EKB .F              5169:   KELLING BUSHING
 EDF .F              5168:   DRILLING FLOOR
 EGL .F              5164:   GROUND LEVEL
 DATE.        23-APR-1992:   RUN DATE
 RUN .                  1:   RUN NUMBER
 DD  .F               561:   DEPTH DRILLER
 DL  .F               564:   DEPTH LOGGER
 BLI .F               562:   BOTTOM LOG INTERVAL
 CS  .IN            8.625:   CASING SIZE
 CBD .F                48:   CASING BOTTOM DRILLER
 CBL .F                49:   CASING BOTTOM LOGGER
 BS  .IN            7.875:   BIT SIZE
 BSD .F               561:   BIT SIZE AT DEPTH
 DFT .                AIR:   DRILLING FLUID TYPE
 TCS .HRS               2:   TIME CURCULATED STOPPED
 LUN .           HL- 6272:   LOGGING UNIT NUMBER
 LUL .             CASPER:   LOGGING UNIT LOCATION
 ENGI.            LEBSOCK:   RECORDING ENGINEER
 WITN.        GARY STRONG:   WITNESSED BY
 CLNT.            A2DTECH:   CLIENT CODE
 ORIG.       2", 5" PRINT:   ORIGIN OF DATA
 UWI .       490252251200:   UNIQUE WELL ID
 DICO. A2D Technologies, Inc.:   DIGITIZING COMPANY
~OTHER INFORMATION
~A    DEPT      GRR      RILD       RILM       CILD   
# ...
  554.8000  -999.2500  -999.2500     9.1484     0.4454
  554.9000  -999.2500  -999.2500     9.1996     0.4839
  555.0000  -999.2500  -999.2500     9.2122     0.5223
  555.1000  -999.2500  -999.2500     9.2121     0.5607
  555.2000  -999.2500  -999.2500     9.2120     0.5992
  555.3000  -999.2500  -999.2500     9.2118     0.6376
  555.4000  -999.2500  -999.2500     9.2117     0.6760
  555.5000  -999.2500  -999.2500     9.2116     0.7145
  555.6000  -999.2500  -999.2500     9.2367     0.7529
  555.7000  -999.2500  -999.2500     9.2758     0.7914
  555.8000  -999.2500  -999.2500     9.2757     0.8298
  555.9000  -999.2500  -999.2500     9.2755     0.8682
  556.0000  -999.2500  -999.2500     9.2754     0.9067
  556.1000  -999.2500  -999.2500     9.2753     0.9451
  556.2000  -999.2500  -999.2500     9.2752     0.9835
  556.3000  -999.2500  -999.2500     9.2750     1.0220
  556.4000  -999.2500  -999.2500     9.2749     1.0604
  556.5000  -999.2500  -999.2500     9.2748     1.0988
  556.6000  -999.2500  -999.2500     9.2746     1.1373
  556.7000  -999.2500  -999.2500     9.2745     1.1757
  556.8000  -999.2500  -999.2500     9.2744     1.2141
  556.9000  -999.2500  -999.2500     9.2742     1.2526
  557.0000  -999.2500  -999.2500     9.3114     1.2910
  557.1000  -999.2500  -999.2500     9.3389     1.3294
  557.2000  -999.2500  -999.2500     9.3388     1.3679
  557.3000  -999.2500  -999.2500     9.3387     1.4063
  557.4000  -999.2500  -999.2500     9.3385     1.4447
  557.5000  -999.2500  -999.2500     9.3754     1.4832
  557.6000  -999.2500  -999.2500     9.4037     1.5216
  557.7000  -999.2500  -999.2500     9.4036     1.5600
  557.8000  -999.2500  -999.2500     9.4034     1.5985
  557.9000  -999.2500  -999.2500     9.4032     1.6369
  558.0000  -999.2500  -999.2500     9.4031     1.6754
  558.1000  -999.2500  -999.2500     9.4030     1.7138
  558.2000  -999.2500  -999.2500     9.4029     1.7522
  558.3000  -999.2500  -999.2500     9.4027     1.7907
  558.4000  -999.2500  -999.2500     9.4026     1.8291
  558.5000  -999.2500  -999.2500     9.4025     1.8675
  558.6000  -999.2500  -999.2500     9.4023     1.9060
  558.7000  -999.2500  -999.2500     9.3923     1.9444
  558.8000  -999.2500  -999.2500     9.3367     1.9828
  558.9000  -999.2500  -999.2500     9.3366     2.0213
  559.0000  -999.2500  -999.2500     9.3364     2.0597
  559.1000  -999.2500  -999.2500     9.3363     2.0981
  559.2000  -999.2500  -999.2500     9.3362     2.1366
  559.3000  -999.2500  -999.2500     9.3360     2.1750
  559.4000  -999.2500  -999.2500     9.3359     2.2134
  559.5000  -999.2500  -999.2500     9.3358     2.2519
  559.6000  -999.2500  -999.2500     9.3578     2.2903
  559.7000  -999.2500  -999.2500     9.4009     2.3287
  559.8000  -999.2500  -999.2500     9.4008     2.3672
  559.9000  -999.2500  -999.2500     9.4007     2.4056
  560.0000  -999.2500  -999.2500     9.4005     2.4441
  560.1000  -999.2500  -999.2500     9.4222     2.4825
  560.2000  -999.2500  -999.2500     9.4661     2.5209
  560.3000  -999.2500  -999.2500     9.4659     2.5594
  560.4000  -999.2500  -999.2500     9.4658     2.5978
  560.5000  -999.2500  -999.2500     9.4657     2.6362
  560.6000  -999.2500  -999.2500     9.4655     2.6747
  560.7000  -999.2500  -999.2500     9.4654     2.7131
  560.8000  -999.2500  -999.2500     9.4653     2.7515
  560.9000  -999.2500  -999.2500     9.4652     2.7900
  561.0000  -999.2500  -999.2500     9.4650     2.8284
  561.1000  -999.2500  -999.2500     9.4649     2.8668
  561.2000  -999.2500  -999.2500     9.4648     2.9053
  561.3000  -999.2500  -999.2500     9.4646     2.9437
  561.4000  -999.2500  -999.2500     9.4645     2.9821
  561.5000  -999.2500  -999.2500     9.4983     3.0206
  561.6000  -999.2500  -999.2500     9.5305     3.0590
  561.7000  -999.2500  -999.2500     9.5304     3.0974
  561.8000  -999.2500  -999.2500     9.5302     3.1359
  561.9000  -999.2500  -999.2500     9.5301     3.1743
  562.0000  -999.2500  -999.2500     9.4636     3.2127
