~VERSION INFORMATION
 VERS.                2.0:   CWLS LOG ASCII STANDARD - VERSION 2.0
 WRAP.                 NO:   ONE LINE PER DEPTH STEP
~WELL INFORMATION
#MNEM.UNIT      DATA TYPE    INFORMATION
#----------   ------------   ------------------------------
 STRT.F            8.0000:   START DEPTH
 STOP.F          970.0000:   STOP DEPTH
 STEP.F            0.1000:   STEP LENGTH
 NULL.          -999.2500:   NO VALUE
 COMP.       F D SERV INC:   COMPANY
 WELL. N P R 3 STX-35 #15-35:   WELL
 FLD .             TEAPOT:   FIELD
 LOC .      S35 T39N R78W:   LOCATION
 CNTY.            NATRONA:   COUNTY
 STAT.            WYOMING:   STATE
 CTRY. UNITED STATES OF AMERICA:   COUNTRY
 SRVC.     Atlas Wireline:   SERVICE COMPANY
 DATE.        02-FEB-1992:   LOGDATE
 API .       490252250100:   API NUMBER
~CURVE INFORMATION
#MNEM.UNIT       API CODE    CURVE DESCRIPTION
#----------   ------------   ------------------------------
 DEPT.F                  :   
 GRR .GAPI   07 310 01 00:   GAMMA RAY
 RILD.OHMM   07 120 46 00:   INDUCTION LOG DEEP RESISTIVITY
 RILM.OHMM   07 120 44 00:   INDUCTION LOG MEDIUM RESISTIVITY
~PARAMETER INFORMATION
#MNEM.UNIT          VALUE    DESCRIPTION
#----------   ------------   ------------------------------
 PD  .                 GL:   PERMANENT DATUM
 EPD .F              5084:   ELEVATION PERMANENT DATUM
 LMF .                 KB:   LOG MEASURED FROM
 DAPD.F                10:   FEET ABOVE PERMANENT DATUM
 DMF .                 KB:   DRILLING MEASURED FROM
 EKB .F              5094:   KELLING BUSHING
 EDF .F              5093:   DRILLING FLOOR
 EGL .F              5084:   GROUND LEVEL
 DATE.        02-FEB-1982:   RUN DATE
 RUN .                  1:   RUN NUMBER
 DD  .F               980:   DEPTH DRILLER
 CS  .IN            8.625:   CASING SIZE
 BSD .F               980:   BIT SIZE AT DEPTH
 DFT .                AIR:   DRILLING FLUID TYPE
 LUN .            HL-6272:   LOGGING UNIT NUMBER
 LUL .             CASPER:   LOGGING UNIT LOCATION
 ENGI.       R. RASMLSSEN:   RECORDING ENGINEER
 WITN.          G. STRONG:   WITNESSED BY
 CLNT.            A2DTECH:   CLIENT CODE
 ORIG.           5" PRINT:   ORIGIN OF DATA
 UWI .       490252250100:   UNIQUE WELL ID
 DICO. A2D Technologies, Inc.:   DIGITIZING COMPANY
~OTHER INFORMATION
~A    DEPT      GRR      RILD       RILM   
# ...
  663.2000   147.6673     4.7403     4.3305
  663.3000   148.1745     4.7486     4.3690
  663.4000   148.8099     4.7731     4.4037
  663.5000   149.6479     4.7731     4.4070
  663.6000   150.6329     4.7730     4.4347
  663.7000   151.4614     4.7729     4.4827
  663.8000   152.1530     4.7729     4.5161
  663.9000   152.9125     4.7728     4.5425
  664.0000   153.5431     4.7758     4.5691
  664.1000   154.0505     4.8059     4.5995
  664.2000   154.5006     4.8059     4.6565
  664.3000   154.5026     4.8258     4.6821
  664.4000   154.5043     4.8537     4.7095
  664.5000   154.5061     4.8818     4.7522
  664.6000   154.3772     4.9101     4.7980
  664.7000   154.0462     4.9409     4.8260
  664.8000   153.5422     4.9938     4.8555
  664.9000   152.9983     5.0520     4.9098
  665.0000   152.3032     5.0953     4.9455
  665.1000   151.7288     5.1344     4.9744
  665.2000   151.2251     5.1978     5.0142
  665.3000   150.7216     5.2959     5.0677
  665.4000   150.2178     5.3528     5.0983
  665.5000   149.6759     5.4151     5.1273
  665.6000   149.6776     5.4782     5.2039
  665.7000   149.6794     5.5314     5.2776
  665.8000   149.6812     5.5635     5.3394
  665.9000   149.6830     5.5980     5.4017
  666.0000   149.6848     5.6281     5.4658
  666.1000   149.6868     5.6847     5.5289
  666.2000   149.6885     5.7509     5.6193
  666.3000   149.6903     5.8179     5.6984
  666.4000   149.6921     5.8855     5.7782
  666.5000   149.6100     5.9586     5.8729
  666.6000   149.3591     6.0233     5.9417
  666.7000   149.0916     6.0676     6.0250
  666.8000   148.6213     6.1218     6.0815
  666.9000   148.1178     6.1809     6.1526
  667.0000   147.2079     6.2217     6.2395
  667.1000   145.9458     6.2986     6.3412
  667.2000   144.7195     6.3328     6.4153
  667.3000   143.6480     6.3969     6.5042
  667.4000   142.7008     6.4511     6.5663
  667.5000   141.8789     6.5014     6.6432
  667.6000   141.3955     6.5716     6.7208
  667.7000   141.0581     6.6119     6.8084
  667.8000   140.5908     6.6480     6.9268
  667.9000   140.3256     6.6865     7.0216
  668.0000   141.0426     6.7252     7.0898
  668.1000   141.8023     6.7642     7.1464
  668.2000   142.2868     6.8034     7.2066
  668.3000   142.3665     6.8450     7.2807
  668.4000   142.1525     6.8825     7.3214
  668.5000   142.1546     6.9224     7.3218
  668.6000   141.6773     6.9625     7.2510
  668.7000   140.6067     7.0029     7.1677
  668.8000   139.6224     7.0434     7.1038
  668.9000   138.9542     7.0863     7.0630
  669.0000   138.4504     7.1253     7.0225
  669.1000   137.9231     7.1667     6.9766
  669.2000   137.4431     7.2082     6.9422
  669.3000   136.9394     7.2500     6.9289
  669.4000   136.4358     7.2919     6.9292
  669.5000   136.1121     7.3361     6.9295
  669.6000   136.1139     7.3768     6.9325
  669.7000   136.1158     7.3870     6.9783
  669.8000   136.1176     7.4109     6.9785
  669.9000   136.3109     7.4538     6.9788
  670.0000   136.7068     7.4901     6.9986
  670.1000   137.3049     7.4899     7.0280
  670.2000   138.0652     7.5317     7.0318
  670.3000   138.8540     7.5419     7.0775
  670.4000   139.3425     7.5665     7.0778
  670.5000   139.8498     7.5943     7.0781
  670.6000   140.3568     7.6014     7.0784
  670.7000   140.8638     7.6470     7.0787
  670.8000   141.3712     7.6469     7.0789
  670.9000   141.8952     7.6809     7.0793
  671.0000   142.3857     7.7000     7.0795
  671.1000   142.6989     7.6999     7.0798
  671.2000   143.0973     7.6998     7.0801
  671.3000   143.5111     7.6997     7.0804
  671.4000   143.7221     7.6995     7.0807
  671.5000   143.4213     7.6994     7.0811
  671.6000   142.9317     7.6994     7.0813
  671.7000   142.6234     7.6993     7.0816
  671.8000   142.3725     7.6992     7.0819
  671.9000   142.0268     7.6990     7.0822
  672.0000   141.5677     7.6556     7.0825
  672.1000   141.3109     7.6455     7.0828
  672.2000   141.3127     7.6454     7.0450
  672.3000   141.3145     7.6453     7.0344
  672.4000   141.3164     7.6452     7.0347
  672.5000   141.3182     7.6451     7.0350
  672.6000   141.3200     7.6450     7.0353
  672.7000   141.3219     7.6449     7.0356
  672.8000   141.3236     7.6448     6.9975
  672.9000   141.3254     7.6447     6.9875
  673.0000   141.4746     7.6446     6.9878
  673.1000   141.9236     7.6445     6.9881
  673.2000   142.7311     7.6443     6.9821
  673.3000   143.7570     7.6442     6.9404
  673.4000   144.7556     7.6442     6.9407
  673.5000   145.5700     7.6613     6.9410
  673.6000   146.1813     7.6972     6.9413
  673.7000   146.6884     7.6971     6.9416
  673.8000   147.1477     7.6970     6.9419
  673.9000   147.4043     7.6969     6.9422
  674.0000   147.1556     7.6968     6.9424
  674.1000   146.7045     7.7142     6.9427
  674.2000   145.9011     7.7502     6.9430
  674.3000   144.7926     7.7501     6.9433
  674.4000   143.5305     7.7948     6.9436
  674.5000   142.2636     7.8039     6.9439
  674.6000   141.0082     7.8308     6.9441
  674.7000   139.7453     7.8762     6.9445
  674.8000   138.4830     7.9128     6.9447
  674.9000   137.6246     7.9126     6.9611
  675.0000   137.4749     7.9585     7.0018
  675.1000   137.7298     8.0047     7.0427
  675.2000   138.6404     8.0230     7.0920
  675.3000   139.4525     8.0416     7.1254
  675.4000   140.3124     8.0882     7.1419
  675.5000   140.9704     8.1353     7.1765
  675.6000   141.4263     8.2485     7.2513
  675.7000   141.6806     8.2870     7.2936
  675.8000   141.9846     8.3351     7.3441
  675.9000   141.9861     8.3636     7.4145
  676.0000   141.9879     8.3736     7.4742
  676.1000   141.9897     8.4221     7.5179
  676.2000   141.9915     8.4802     7.5619
  676.3000   141.9933     8.4801     7.6061
  676.4000   141.9955     8.5101     7.6580
  676.5000   141.7920     8.5594     7.6954
  676.6000   141.3865     8.6198     7.7405
  676.7000   140.6740     8.7193     7.7858
  676.8000   139.5570     8.7792     7.8313
  676.9000   138.0535     8.8207     7.8771
  677.0000   137.1579     8.8718     7.9302
  677.1000   136.7469     8.9232     7.9696
  677.2000   136.2432     8.9863     7.9860
  677.3000   135.7396     9.0897     7.9864
  677.4000   135.2360     9.1520     7.9867
  677.5000   134.7323     9.1955     7.9898
  677.6000   134.1385     9.2823     8.0430
  677.7000   133.5175     9.3673     8.0433
  677.8000   132.9184     9.4215     8.0436
  677.9000   132.3079     9.4761     8.0880
  678.0000   131.6646     9.5407     8.1695
  678.1000   131.4200     9.6323     8.2173
  678.2000   132.0282     9.7091     8.2713
  678.3000   132.6561     9.7654     8.3990
  678.4000   133.4160     9.8349     8.5129
  678.5000   134.1760     9.9476     8.6124
  678.6000   134.9939    10.0152     8.7424
  678.7000   135.9985    10.0633     8.9426
  678.8000   136.8876    10.1589     9.1170
  678.9000   137.5184    10.2513     9.2122
  679.0000   138.5981    10.3246     9.3578
  679.1000   139.7548    10.4427     9.5222
  679.2000   140.8267    10.5133     9.6725
  679.3000   142.0826    10.6155     9.7915
  679.4000   143.2621    10.7391     9.9797
  679.5000   143.8971    10.8640    10.1388
  679.6000   144.1746    10.9903    10.3170
  679.7000   144.0657    11.1182    10.4670
  679.8000   143.7548    11.2686    10.6286
  679.9000   143.2513    11.3788    10.8705
  680.0000   142.6670    11.5112    11.0766
  680.1000   142.0318    11.6451    11.1959
  680.2000   140.9514    11.7975    11.3748
  680.3000   139.4657    12.0036    11.5748
  680.4000   137.6363    12.2471    11.7781
  680.5000   135.6376    12.4284    11.9847
  680.6000   133.8900    12.6939    12.2090
  680.7000   132.3967    12.9573    12.4098
  680.8000   130.6292    13.1650    12.6827
  680.9000   128.8619    13.3217    12.9397
  681.0000   126.9069    13.5908    13.1938
  681.1000   124.4057    13.7931    13.4797
  681.2000   122.0827    14.0883    13.6453
  681.3000   120.5822    14.3802    13.9501
