~VERSION INFORMATION
 VERS.                2.0:   CWLS LOG ASCII STANDARD - VERSION 2.0
 WRAP.                 NO:   ONE LINE PER DEPTH STEP
~WELL INFORMATION
#MNEM.UNIT      DATA TYPE    INFORMATION
#----------   ------------   ------------------------------
 STRT.F            5.0000:   START DEPTH
 STOP.F          640.0000:   STOP DEPTH
 STEP.F            0.5000:   STEP LENGTH
 NULL.          -999.2500:   NO VALUE
 COMP. BROWN JOHN E&C INC:   COMPANY
 WELL.     85-1 X 3 #85-3:   WELL
 FLD .             TEAPOT:   FIELD
 LOC .       S3 T38N R78W:   LOCATION
 CNTY.            NATRONA:   COUNTY
 STAT.            WYOMING:   STATE
 CTRY. UNITED STATES OF AMERICA:   COUNTRY
 SRVC.     Atlas Wireline:   SERVICE COMPANY
 DATE.        30-DEC-1991:   LOGDATE
 API .       490252249400:   API NUMBER
~CURVE INFORMATION
#MNEM.UNIT       API CODE    CURVE DESCRIPTION
#----------   ------------   ------------------------------
 DEPT.F                  :   
 GRR .GAPI   06 310 01 00:   GAMMA RAY FROM RESISTIVITY
 RFOC.OHMM   06 220 04 00:   RESISTIVITY FOCUSED LOG RES.
 RILD.OHMM   06 120 46 00:   DEEP INDUCTION RESISTIVITY
 RILM.OHMM   06 120 44 00:   INDUCTION LOG MEDIUM RESISTIVITY
 SPR .MV     06 010 01 00:   SPONTANEOUS POTENTIAL FROM RES.
 CALD.IN     45 280 60 00:   CALIPER FROM DENSITY LOG
 CORR.G/C3   45 356 01 00:   DENSITY CORRECTION
 DEN .G/C3   45 350 01 00:   COMPENSATED BULK DENSTIY
 PORD.DEC    45 890 12 00:   POROSITY DENSITY SANDSTONE
 CNC .DEC    42 890 03 00:   NEUTRON POROSITY SANDSTONE
~PARAMETER INFORMATION
#MNEM.UNIT          VALUE    DESCRIPTION
#----------   ------------   ------------------------------
 PD  .                 GL:   PERMANENT DATUM
 EPD .F              5156:   ELEVATION PERMANENT DATUM
 LMF .                 KB:   LOG MEASURED FROM
 DAPD.F                10:   FEET ABOVE PERMANENT DATUM
 DMF .                 KB:   DRILLING MEASURED FROM
 EKB .F              5166:   KELLING BUSHING
 EGL .F              5156:   GROUND LEVEL
 DATE.        30-DEC-1991:   RUN DATE
 RUN .                  1:   RUN NUMBER
 DD  .F               641:   DEPTH DRILLER
 DL  .F               642:   DEPTH LOGGER
 BLI .F               261:   BOTTOM LOG INTERVAL
 TLI .F               172:   TOP LOG INTERVAL
 CS  .IN            8.625:   CASING SIZE
 CBD .F               163:   CASING BOTTOM DRILLER
 CBL .F               172:   CASING BOTTOM LOGGER
 BS  .IN            7.875:   BIT SIZE
 BSD .F               641:   BIT SIZE AT DEPTH
 DFT .               CHEM:   DRILLING FLUID TYPE
 DFD .               17.1:   DRILLING FLUID DENSITY
 DFV .                 47:   DRILLING FLUID VISCOSITY
 DFPH.                9.0:   DRILLING FLUID PH
 DFL .                6.8:   DRILLING FLUID LOSS
 MSS .                PIT:   MUD SAMPLE SOURCE
 RMS .OHMM           1.40:   RESISTIVITY MUD SAMPLE
 MST .F               100:   MUD SAMPLE TEMPERATURE
 RMF .OHMM           1.12:   RESISTIVITY MUD FILTRATE SAMPLE
 MFST.F               100:   MUD FILTRATE SAMPLE TEMPERATURE
 RMC .OHMM           1.75:   RESISTIVITY MUD CAKE
 MCST.F               100:   MUD CAKE SAMPLE TEMPERATURE
 MFSS.               MEAS:   MUD FILTRATE SAMPLE SOURCE
 MCSS.               CALC:   MUD CAKE SAMPLE SOURCE
 RMB .OHMM           .536:   RESISTIVITY MUD AT BHT
 BHT .F               261:   BOTTOM HOLE TEMPERATURE
 TCS .HRS               4:   TIME CURCULATED STOPPED
 MRT .F               261:   MAXIMUM RECORDED TEMPERATURE
 LUN .            HL-6387:   LOGGING UNIT NUMBER
 LUL .          CASPER/WT:   LOGGING UNIT LOCATION
 ENGI.             ZIEGER:   RECORDING ENGINEER
 WITN.         LOFRENIERI:   WITNESSED BY
 CLNT.            A2DTECH:   CLIENT CODE
 ORIG.           5" PRINT:   ORIGIN OF DATA
 UWI .       490252249400:   UNIQUE WELL ID
 DICO. A2D Technologies, Inc.:   DIGITIZING COMPANY
~OTHER INFORMATION
~A    DEPT      GRR      RFOC       RILD       RILM        SPR       CALD       CORR        DEN       PORD        CNC   
# ...
  440.5000    65.6007    16.9551    14.8802    14.4430   -62.7174     9.0549    -0.0237     2.3911     0.1720     0.2367
  441.0000    64.9985    16.9563    14.8822    14.0467   -62.5649     9.0552    -0.0267     2.3820     0.1738     0.2403
  441.5000    64.0585    16.6064    14.8842    13.9498   -62.7145     9.0555    -0.0266     2.3745     0.1771     0.2415
  442.0000    62.8871    16.3773    14.7832    13.9510   -62.7190     9.0558    -0.0191     2.3700     0.1811     0.2436
  442.5000    61.6797    16.3787    14.7852    14.1478   -63.6175     9.0712    -0.0146     2.3692     0.1844     0.2455
  443.0000    60.7749    16.7307    14.8907    14.3568   -64.5224     9.0716    -0.0085     2.3723     0.1850     0.2464
  443.5000    59.8701    17.3208    14.8927    14.5501   -65.1255     9.0870    -0.0040     2.3807     0.1829     0.2466
  444.0000    61.3859    17.3220    14.8947    14.4498   -65.2751     9.0873    -0.0024     2.3828     0.1792     0.2466
  444.5000    65.6349    17.3231    14.8985    14.4510   -65.1223     9.0876    -0.0024     2.3768     0.1759     0.2466
  445.0000    68.7544    16.9657    15.0031    14.4520   -65.1208     9.1031    -0.0024     2.3715     0.1783     0.2472
  445.5000    71.3802    16.7319    15.1106    14.5540   -64.9683     9.0882    -0.0009     2.3670     0.1831     0.2505
  446.0000    69.5677    16.6167    15.1127    14.6569   -64.9665     9.0885     0.0021     2.3655     0.1862     0.2575
  446.5000    65.9398    16.6179    15.2205    14.7606   -64.9650     9.0736     0.0022     2.3708     0.1864     0.2590
  447.0000    67.4555    16.6190    15.2226    14.7616   -64.9636     9.0740     0.0022     2.3768     0.1843     0.2543
  447.5000    69.2739    16.6204    15.2246    14.7626   -64.6600     9.0591     0.0022     2.3837     0.1813     0.2505
  448.0000    67.4211    16.5060    15.1208    14.6608   -64.3564     9.0594     0.0007     2.3882     0.1783     0.2490
  448.5000    65.9514    16.5071    15.1233    14.5601   -64.0528     9.0445    -0.0038     2.3874     0.1743     0.2487
  449.0000    66.2576    16.5083    15.0197    14.3595   -63.7422     9.0449    -0.0083     2.3814     0.1731     0.2517
  449.5000    67.1683    16.2808    15.0222    14.1616   -63.2943     9.0452    -0.0098     2.3769     0.1780     0.2541
  450.0000    68.3815    15.9448    15.1293    14.1628   -62.9907     9.0455    -0.0083     2.3761     0.1816     0.2562
  450.5000    66.5761    15.7098    14.9196    13.9674   -62.6871     9.0761    -0.0007     2.3761     0.1828     0.2584
  451.0000    65.6750    15.4006    14.7128    13.7751   -62.5346     9.0916     0.0053     2.3769     0.1819     0.2616
  451.5000    66.5938    15.2946    14.5090    13.7760   -62.8353     9.1070     0.0083     2.3792     0.1803     0.2628
  452.0000    69.0232    15.4030    14.4081    13.7769   -63.1360     9.1225     0.0068     2.3807     0.1788     0.2616
  452.5000    67.8217    15.4040    14.2084    13.6821   -62.9834     9.1379    -0.0007     2.3807     0.1779     0.2589
  453.0000    66.9188    15.4050    14.2084    13.6833   -62.6795     9.1382    -0.0007     2.3800     0.1770     0.2559
  453.5000    66.3265    15.4061    14.1096    13.6910   -62.5269     9.1385    -0.0023     2.3800     0.1773     0.2568
  454.0000    67.5478    15.4071    14.0115    13.5972   -62.5255     9.1388    -0.0082     2.3778     0.1776     0.2595
  454.5000    69.6747    15.3103    13.9141    13.5046   -62.6475     9.1391    -0.0036     2.3770     0.1803     0.2591
  455.0000    72.1040    15.3129    13.7212    13.4130   -62.9463     9.1394    -0.0021     2.3801     0.1806     0.2561
  455.5000    73.3232    14.9918    13.6258    13.3216   -63.2440     9.1335    -0.0051     2.3846     0.1782     0.2534
  456.0000    72.4243    14.4866    13.3436    13.0477   -63.5408     9.1154    -0.0096     2.3846     0.1761     0.2537
  456.5000    69.4074    14.3874    13.3436    12.7797   -63.6873     9.0974    -0.0066     2.3854     0.1758     0.2555
  457.0000    66.9956    14.1906    13.4370    12.8709   -63.6828     9.0905    -0.0051     2.3884     0.1754     0.2561
  457.5000    68.5275    13.9959    13.6258    13.0534   -63.2242     9.0918    -0.0081     2.3907     0.1736     0.2561
  458.0000    69.8255    13.9978    13.6258    13.3311   -62.9177     9.0777    -0.0171     2.3869     0.1724     0.2583
  458.5000    71.2603    14.0977    13.6258    13.5201   -62.6112     9.0484    -0.0292     2.3809     0.1742     0.2612
  459.0000    71.5717    14.3976    13.6258    13.6166   -62.4558     9.0342    -0.0337     2.3748     0.1790     0.2600
  459.5000    70.3703    14.8144    13.6258    13.6184   -62.1493     9.0201    -0.0306     2.3689     0.1836     0.2567
  460.0000    67.9585    15.2281    13.5311    13.6203   -62.1449     9.0214    -0.0201     2.3742     0.1851     0.2527
  460.5000    66.4545    15.1239    13.5251    13.6226   -61.9894     9.0376    -0.0090     2.3772     0.1811     0.2497
  461.0000    66.1604    14.7104    13.3436    13.5293   -61.8338     9.0538     0.0011     2.3772     0.1796     0.2509
  461.5000    67.9850    14.4073    13.1587    13.4371   -61.6774     9.0548     0.0041     2.3803     0.1793     0.2530
  462.0000    70.7493    14.2098    12.9763    13.3456   -61.3709     9.0558     0.0072     2.3871     0.1775     0.2536
  462.5000    73.2475    14.0153    12.7075    13.0715   -61.2155     9.0569     0.0102     2.3933     0.1748     0.2494
  463.0000    74.3677    13.7271    12.5314    12.8027   -61.0600     9.0427     0.0102     2.3992     0.1717     0.2449
  463.5000    74.0718    13.5388    12.5314    12.6271   -61.2067     9.0438     0.0086     2.4037     0.1681     0.2412
  464.0000    72.8703    13.3532    12.5314    12.6288   -61.3533     9.0299    -0.0003     2.4075     0.1654     0.2388
  464.5000    71.9714    13.2622    12.1865    12.4430   -61.3489     9.0309    -0.0079     2.4098     0.1638     0.2415
  465.0000    70.1670    13.1718    12.1865    12.0305   -61.1934     9.0471    -0.0094     2.4068     0.1621     0.2418
  465.5000    69.8729    13.0821    12.1865    12.2015   -61.1880     9.0633    -0.0063     2.3999     0.1642     0.2397
  466.0000    71.6975    12.9929    12.1018    12.2032   -61.3347     9.0795    -0.0018     2.3925     0.1693     0.2379
  466.5000    73.2194    12.9048    12.0176    12.0358   -61.6324     9.0956    -0.0003     2.3857     0.1738     0.2385
  467.0000    72.6251    12.9066    11.8511    12.0374   -61.9312     9.1118    -0.0002     2.3986     0.1732     0.2397
  467.5000    71.1211    12.9084    11.6056    11.8724   -62.0779     9.1129    -0.0017     2.4099     0.1638     0.2409
  468.0000    68.7093    12.8208    11.5238    11.7095   -61.7703     9.0838    -0.0047     2.4175     0.1596     0.2415
  468.5000    68.1108    12.4699    11.3538    11.4603   -61.1616     9.0543    -0.0047     2.4213     0.1563     0.2421
  469.0000    69.9373    12.0443    11.2077    11.2328   -60.6818     9.0250    -0.0032     2.4235     0.1545     0.2427
  469.5000    71.7615    11.7965    11.0523    11.0788   -60.0944     9.0109     0.0013     2.4220     0.1535     0.2439
  470.0000    70.8626    11.6344    11.0523    11.0807   -59.9389     9.0122     0.0059     2.4190     0.1532     0.2460
  470.5000    69.0560    11.6363    11.0523    11.0822   -59.7835     9.0197     0.0089     2.4175     0.1544     0.2472
  471.0000    68.4597    11.6379    11.0523    11.0837   -59.6280     9.0294     0.0044     2.4168     0.1565     0.2487
  471.5000    68.7733    11.7303    11.0523    11.0081   -59.6236     9.0456    -0.0031     2.4176     0.1574     0.2505
  472.0000    69.3873    11.8049    10.9755    11.0096   -59.7704     9.0469    -0.0091     2.4192     0.1568     0.2523
  472.5000    70.6064    11.8065    11.0523    10.9346   -59.9219     9.0479    -0.0091     2.4221     0.1556     0.2535
  473.0000    71.5229    11.8081    11.0523    10.8601   -60.0636     9.0489    -0.0061     2.4244     0.1547     0.2541
  473.5000    71.2292    11.8097    10.9755    10.8619   -60.0581     9.0499    -0.0031     2.4267     0.1538     0.2541
