~VERSION INFORMATION
 VERS.                2.0:   CWLS LOG ASCII STANDARD - VERSION 2.0
 WRAP.                 NO:   ONE LINE PER DEPTH STEP
~WELL INFORMATION
#MNEM.UNIT      DATA TYPE    INFORMATION
#----------   ------------   ------------------------------
 STRT.F           39.5000:   START DEPTH
 STOP.F          591.0000:   STOP DEPTH
 STEP.F            0.5000:   STEP LENGTH
 NULL.          -999.2500:   NO VALUE
 COMP. FENIX & SCISSON INC:   COMPANY
 WELL.      26 SX 3 #26-3:   WELL
 FLD .             TEAPOT:   FIELD
 LOC .       S3 T38N R78W:   LOCATION
 CNTY.            NATRONA:   COUNTY
 STAT.            WYOMING:   STATE
 CTRY. UNITED STATES OF AMERICA:   COUNTRY
 SRVC.           BIRDWELL:   SERVICE COMPANY
 DATE.        01-OCT-1978:   LOGDATE
 API .       490251071500:   API NUMBER
~CURVE INFORMATION
#MNEM.UNIT       API CODE    CURVE DESCRIPTION
#----------   ------------   ------------------------------
 DEPT.F                  :   
 SPR .MV     05 010 01 00:   SPONTANEOUS POTENTIAL FROM RES.
 SN  .OHMM   05 040 16 00:   SHORT NORMAL 16"
 ILD .OHMM   05 120 46 00:   INDUCTION LOG DEEP
 RHOB.G/C3   45 350 01 00:   BULK DENSITY
 CORR.G/C3   45 356 01 00:   DENSITY CORRECTION
 DPHI.DEC    45 890 12 00:   DENSITY POROSITY SANDSTONE
 GRD .GAPI   45 310 01 00:   GAMMA RAY FROM DENSITY LOG
 CALD.IN     45 280 60 00:   CALIPER
~PARAMETER INFORMATION
#MNEM.UNIT          VALUE    DESCRIPTION
#----------   ------------   ------------------------------
 PD  .                 GL:   PERMANENT DATUM
 EPD .F              5225:   ELEVATION PERMANENT DATUM
 LMF .                 KB:   LOG MEASURED FROM
 DAPD.F                 4:   FEET ABOVE PERMANENT DATUM
 DMF .                 KB:   DRILLING MEASURED FROM
 EKB .F              5229:   KELLING BUSHING
 EGL .F              5225:   GROUND LEVEL
 DATE.            10-1-78:   RUN DATE
 RUN .                  1:   RUN NUMBER
 DD  .F               600:   DEPTH DRILLER
 DL  .F               597:   DEPTH LOGGER
 BLI .F               591:   BOTTOM LOG INTERVAL
 TLI .F                60:   TOP LOG INTERVAL
 CS  .IN            8.625:   CASING SIZE
 CBD .F                40:   CASING BOTTOM DRILLER
 BS  .IN            7.875:   BIT SIZE
 BSD .F               600:   BIT SIZE AT DEPTH
 DFT .                KCL:   DRILLING FLUID TYPE
 DFD .                8.7:   DRILLING FLUID DENSITY
 DFV .                 34:   DRILLING FLUID VISCOSITY
 DFPH.                  9:   DRILLING FLUID PH
 DFL .                 10:   DRILLING FLUID LOSS
 MSS .            MUD PIT:   MUD SAMPLE SOURCE
 RMS .OHMM            .24:   RESISTIVITY MUD SAMPLE
 MST .F                65:   MUD SAMPLE TEMPERATURE
 RMF .OHMM            .45:   RESISTIVITY MUD FILTRATE SAMPLE
 MFST.F                65:   MUD FILTRATE SAMPLE TEMPERATURE
 RMC .OHMM             .4:   RESISTIVITY MUD CAKE
 MCST.F                65:   MUD CAKE SAMPLE TEMPERATURE
 MFSS.               MEAS:   MUD FILTRATE SAMPLE SOURCE
 TCS .HRS               3:   TIME CURCULATED STOPPED
 LUN .               2958:   LOGGING UNIT NUMBER
 LUL .               CASP:   LOGGING UNIT LOCATION
 ENGI.             MILLER:   RECORDING ENGINEER
 WITN.           DINSMORE:   WITNESSED BY
 CLNT.            A2DTECH:   CLIENT CODE
 ORIG.       2", 5" PRINT:   ORIGIN OF DATA
 UWI .       490251071500:   UNIQUE WELL ID
 DICO. A2D Technologies, Inc.:   DIGITIZING COMPANY
~OTHER INFORMATION
~A   DEPT      SPR         SN        ILD       RHOB       CORR       DPHI        GRD         CALD 
# ...
  282.5000   -14.3479     3.9224     4.3010     2.3406     0.0886     0.2336   146.5270     7.6210
  283.0000   -14.3648     3.4938     3.9294     2.2998     0.0858     0.2388   143.2487     7.6563
  283.5000   -14.3816     3.3555     3.6088     2.2818     0.0583     0.2375   142.0530     7.6600
  284.0000   -14.3985     3.2178     3.3066     2.2848     0.0335     0.2356   137.1727     7.6558
  284.5000   -14.4153     3.1786     3.2967     2.2876     0.0329     0.2206   130.9255     7.6514
  285.0000   -14.4321     3.1673     3.2866     2.3143     0.0329     0.1901   130.6027     7.6470
  285.5000   -14.4490     3.1582     3.2763     2.3434     0.0327     0.1847   131.7541     7.6427
  286.0000   -14.4658     3.2582     3.4386     2.3706     0.0419     0.1838   134.3422     7.6383
  286.5000   -14.4827     3.4510     3.6137     2.3365     0.0407     0.1523   146.9438     7.6340
  287.0000   -14.4995     3.7102     3.8385     2.3951     0.0362     0.1393   159.5603     7.6296
  287.5000   -14.5163     4.0292     4.2760     2.4372     0.0421     0.1292   161.8537     7.6250
  288.0000   -14.5332     4.3753     4.7616     2.4584     0.0521     0.1211   159.9031     7.6360
  288.5000   -14.5500     4.7530     5.2372     2.4724     0.0600     0.1188   153.8993     7.6542
  289.0000   -14.5669     5.2646     5.7429     2.4793     0.0472     0.1185   151.0466     7.6726
  289.5000   -14.5837     5.7708     6.1102     2.4862     0.0274     0.1182   151.5990     7.6911
  290.0000   -14.6005     6.1195     6.3748     2.4860     0.0245     0.1248   157.5806     7.7095
  290.5000   -14.6174     6.4049     6.6455     2.4699     0.0264     0.1322   162.5587     7.7280
  291.0000   -14.6342     6.3677     6.8303     2.4623     0.0285     0.1226   163.6132     7.7464
  291.5000   -14.6509     6.3374     6.8583     2.4683     0.0305     0.1210   164.2496     7.7631
  292.0000   -14.6667     6.3072     6.8926     2.4741     0.0358     0.1220   166.9879     7.7647
  292.5000   -14.7222     6.2772     6.8029     2.4740     0.0410     0.1230   167.5860     7.7666
  293.0000   -14.7838     6.2474     6.6608     2.4738     0.0404     0.1257   166.6190     7.7686
  293.5000   -14.8456     6.1714     6.5226     2.4661     0.0400     0.1358   165.7673     7.7706
  294.0000   -14.9072     6.0400     6.3873     2.4509     0.0395     0.1458   163.6260     7.7726
  294.5000   -14.9689     5.9115     6.2341     2.4358     0.0389     0.1518   163.3129     7.7746
  295.0000   -15.0306     5.7857     6.0259     2.4260     0.0366     0.1468   165.2445     7.7766
  295.5000   -15.0922     5.6625     5.8247     2.4322     0.0343     0.1401   166.2210     7.7787
  296.0000   -15.1539     5.5413     5.6302     2.4419     0.0343     0.1378   165.9471     7.7806
  296.5000   -15.2155     5.4793     5.5297     2.4471     0.0410     0.1317   163.9432     7.7799
  297.0000   -15.2772     5.5318     5.6561     2.4521     0.0476     0.1247   161.3445     7.7680
  297.5000   -15.3393     5.5690     5.7437     2.4603     0.0541     0.1172   159.8426     7.7565
  298.0000   -15.4063     5.6592     5.8326     2.4800     0.0603     0.1097   157.0953     7.7449
  298.5000   -15.5002     5.7763     5.9577     2.4991     0.0478     0.1022   153.8060     7.7333
  299.0000   -14.9525     6.0094     6.1749     2.5107     0.0352     0.0986   151.2332     7.7230
  299.5000   -11.6856     6.2639     6.4001     2.5084     0.0226     0.0996   152.1075     7.7245
  300.0000   -11.5707     6.5309     6.6334     2.5048     0.0097     0.1006   154.1157     7.7262
  300.5000   -11.4824     6.8093     6.8752     2.5008     0.0093     0.1017   160.6107     7.7279
  301.0000   -11.4630     7.0996     7.1258     2.5034     0.0099     0.1013   165.7704     7.7296
  301.5000   -11.4476     7.4024     7.3856     2.5082     0.0105     0.0994   167.3295     7.7312
  302.0000   -11.4323     7.6313     7.6549     2.5129     0.0110     0.0978   166.5667     7.7329
  302.5000   -11.4169     7.6508     7.9111     2.5168     0.0115     0.0970   164.5743     7.7346
  303.0000   -11.4014     7.6702     7.9372     2.5170     0.0120     0.1019   161.5574     7.7362
  303.5000   -11.3860     7.6897     7.9615     2.5104     0.0125     0.1060   158.6712     7.7379
  304.0000   -11.3705     7.7093     7.9858     2.5039     0.0132     0.1099   158.7529     7.7396
  304.5000   -11.3551     7.7289     8.0101     2.4973     0.0197     0.1114   159.6481     7.7412
  305.0000   -11.3397     7.7486     8.0346     2.4912     0.0265     0.1104   159.2040     7.7426
  305.5000   -11.3242     7.7672     8.0578     2.4917     0.0329     0.1082   158.7466     7.7426
  306.0000   -11.3088     7.5644     7.8845     2.4942     0.0357     0.1075   159.6400     7.7426
  306.5000   -11.2933     7.3773     7.7239     2.4977     0.0391     0.1100   162.2188     7.7426
  307.0000   -11.2779     7.1949     7.5666     2.4934     0.0439     0.1130   162.4556     7.7426
  307.5000   -11.2624     7.0169     7.4186     2.4880     0.0487     0.1154   162.8896     7.7426
  308.0000   -11.2470     6.8434     7.1825     2.4825     0.0529     0.1138   164.0052     7.7426
  308.5000   -11.2316     6.6741     6.9626     2.4848     0.0513     0.1139   164.6047     7.7426
  309.0000   -11.2161     6.5091     6.7494     2.4888     0.0497     0.1185   164.9100     7.7426
  309.5000   -11.2007     6.3477     6.5427     2.4831     0.0498     0.1294   166.2789     7.7426
  310.0000   -11.1852     6.1994     6.3464     2.4691     0.0512     0.1393   168.1550     7.7426
  310.5000   -11.1698     6.0596     6.1640     2.4551     0.0527     0.1407   169.5012     7.7426
  311.0000   -11.1543     5.9517     6.0620     2.4480     0.0540     0.1326   170.1631     7.7426
  311.5000   -11.1389     6.0344     6.1266     2.4609     0.0513     0.1215   170.6964     7.7428
  312.0000   -11.1235     6.0803     6.1740     2.4855     0.0411     0.1137   170.4619     7.7416
  312.5000   -11.1080     6.1269     6.2214     2.5062     0.0313     0.1068   168.9475     7.6905
  313.0000   -11.0923     6.1745     6.4549     2.5072     0.0295     0.1010   159.9093     7.6474
  313.5000   -11.0793     6.4817     6.7467     2.5033     0.0282     0.1007   154.8222     7.6815
  314.0000   -11.1077     6.8075     7.0516     2.5038     0.0268     0.1012   153.9608     7.6932
  314.5000   -11.1369     7.1332     7.3703     2.5066     0.0254     0.1020   154.5048     7.6654
  315.0000   -11.1658     7.3878     7.7035     2.5057     0.0240     0.1027   159.2449     7.6382
  315.5000   -11.1946     7.6508     8.0517     2.5041     0.0236     0.1035   161.0303     7.6108
  316.0000   -11.2235     7.7710     8.1347     2.5025     0.0266     0.1042   159.5477     7.5845
  316.5000   -11.2524     7.7778     8.1382     2.5026     0.0294     0.1014   158.9802     7.5743
  317.0000   -11.2813     7.7846     8.1417     2.5034     0.0323     0.1004   160.3780     7.5649
  317.5000   -11.3101     7.7914     8.1450     2.5043     0.0351     0.1002   161.7332     7.5552
  318.0000   -11.3390     7.7982     8.1484     2.5058     0.0361     0.0999   162.5502     7.5446
  318.5000   -11.3679     7.8050     8.1518     2.5117     0.0284     0.1025   162.7067     7.5875
  319.0000   -11.3967     7.8118     8.1552     2.5130     0.0206     0.1076   162.8704     7.6377
  319.5000   -11.4255     7.8186     8.1587     2.5070     0.0193     0.1108   162.0274     7.6759
  320.0000   -11.4545     7.8254     8.1621     2.4990     0.0196     0.1119   160.2835     7.7015
  320.5000   -11.4921     7.8322     8.1655     2.4912     0.0200     0.1103   159.9055     7.6759
  321.0000   -11.5680     7.8390     8.1689     2.4910     0.0204     0.1086   157.8582     7.6453
  321.5000   -11.6428     7.8459     8.1724     2.4926     0.0207     0.1063   154.2921     7.6605
  322.0000   -11.7175     7.8527     8.1758     2.4967     0.0199     0.1040   151.2061     7.6795
  322.5000   -11.7922     7.8595     8.1792     2.4998     0.0142     0.1022   154.0322     7.6988
