~VERSION INFORMATION
 VERS.                2.0:   CWLS LOG ASCII STANDARD - VERSION 2.0
 WRAP.                 NO:   ONE LINE PER DEPTH STEP
~WELL INFORMATION
#MNEM.UNIT      DATA TYPE    INFORMATION
#----------   ------------   ------------------------------
 STRT.F           31.0000:   START DEPTH
 STOP.F          521.0000:   STOP DEPTH
 STEP.F            0.5000:   STEP LENGTH
 NULL.          -999.2500:   NO VALUE
 COMP. FENIX & SCISSON INC:   COMPANY
 WELL.      NPR-3 #52SX-3:   WELL
 FLD .             TEAPOT:   FIELD
 LOC .       S3 T38N R78W:   LOCATION
 CNTY.            NATRONA:   COUNTY
 STAT.            WYOMING:   STATE
 CTRY. UNITED STATES OF AMERICA:   COUNTRY
 SRVC.            Unknown:   SERVICE COMPANY
 DATE.        03-OCT-1978:   LOGDATE
 API .       490251071800:   API NUMBER
~CURVE INFORMATION
#MNEM.UNIT       API CODE    CURVE DESCRIPTION
#----------   ------------   ------------------------------
 DEPT.F                  :   
 SPR .MV     05 010 01 00:   SPONTANEOUS POTENTIAL FROM RES.
 GRD .GAPI   45 310 01 00:   GAMMA RAY FROM DENSITY LOG
 CALD.IN     45 280 60 00:   CALIPER
 RHOB.G/C3   45 350 01 00:   BULK DENSITY
 DPHI.DEC    45 890 12 00:   DENSITY POROSITY SANDSTONE
 CORR.G/C3   45 356 01 00:   DENSITY CORRECTION
 SN  .OHMM   05 040 16 00:   SHORT NORMAL 16"
 IL  .OHMM   05 120 00 00:   INDUCTION LOG
~PARAMETER INFORMATION
#MNEM.UNIT          VALUE    DESCRIPTION
#----------   ------------   ------------------------------
 PD  .                 GL:   PERMANENT DATUM
 EPD .F              5129:   ELEVATION PERMANENT DATUM
 LMF .                 KB:   LOG MEASURED FROM
 DAPD.F                 4:   FEET ABOVE PERMANENT DATUM
 DMF .                 KB:   DRILLING MEASURED FROM
 EKB .F              5133:   KELLING BUSHING
 EGL .F              5129:   GROUND LEVEL
 DATE.            10-3-78:   RUN DATE
 RUN .                  1:   RUN NUMBER
 DD  .F               521:   DEPTH DRILLER
 DL  .F               520:   DEPTH LOGGER
 BLI .F               514:   BOTTOM LOG INTERVAL
 TLI .F                46:   TOP LOG INTERVAL
 CS  .IN            8.625:   CASING SIZE
 CBL .F                44:   CASING BOTTOM LOGGER
 BS  .IN            7.875:   BIT SIZE
 BSD .F               521:   BIT SIZE AT DEPTH
 DFT .                KCL:   DRILLING FLUID TYPE
 DFD .                8.7:   DRILLING FLUID DENSITY
 DFV .                 34:   DRILLING FLUID VISCOSITY
 DFPH.                  9:   DRILLING FLUID PH
 DFL .               10.8:   DRILLING FLUID LOSS
 MSS .            MUD PIT:   MUD SAMPLE SOURCE
 RMS .OHMM            .24:   RESISTIVITY MUD SAMPLE
 MST .F                54:   MUD SAMPLE TEMPERATURE
 RMF .OHMM            .22:   RESISTIVITY MUD FILTRATE SAMPLE
 MFST.F                60:   MUD FILTRATE SAMPLE TEMPERATURE
 RMC .OHMM             .3:   RESISTIVITY MUD CAKE
 MCST.F                64:   MUD CAKE SAMPLE TEMPERATURE
 MFSS.               MEAS:   MUD FILTRATE SAMPLE SOURCE
 MCSS.               MEAS:   MUD CAKE SAMPLE SOURCE
 BHT .F                60:   BOTTOM HOLE TEMPERATURE
 TCS .HRS               3:   TIME CURCULATED STOPPED
 MRT .F                60:   MAXIMUM RECORDED TEMPERATURE
 LUN .               2958:   LOGGING UNIT NUMBER
 LUL .               CASP:   LOGGING UNIT LOCATION
 ENGI.             MILLER:   RECORDING ENGINEER
 WITN.           DINSMORE:   WITNESSED BY
 CLNT.            A2DTECH:   CLIENT CODE
 ORIG.       2", 5" PRINT:   ORIGIN OF DATA
 UWI .       490251071800:   UNIQUE WELL ID
 DICO. A2D Technologies, Inc.:   DIGITIZING COMPANY
~OTHER INFORMATION
~A   DEPT      SPR         GRD      CALD       RHOB       DPHI       CORR         SN         IL   
# ...
  436.0000   -17.8037    80.3478     7.8656     2.4897     0.1143     0.0120     9.4171    12.4634
  436.5000   -17.9704    80.7093     7.8634     2.4936     0.1124     0.0114     9.4076    12.4739
  437.0000   -18.1370    81.0688     7.8612     2.4935     0.1126     0.0108     9.3980    12.4846
  437.5000   -18.3113    81.4280     7.8590     2.4933     0.1136     0.0103     9.3884    12.4975
  438.0000   -18.1973    81.7905     7.8568     2.4893     0.1153     0.0096     9.3788    12.4442
  438.5000   -17.8870    81.7898     7.8545     2.4853     0.1192     0.0119     9.3693    12.3736
  439.0000   -17.5770    81.2456     7.8523     2.4867     0.1160     0.0153     9.3597    12.3033
  439.5000   -17.7862    80.2268     7.8501     2.4963     0.1103     0.0175     9.3502    12.2334
  440.0000   -18.0812    80.2554     7.8479     2.4992     0.1083     0.0170     9.3407    12.1639
  440.5000   -18.4709    80.3525     7.8457     2.5002     0.1080     0.0167     9.3312    12.0948
  441.0000   -18.4961    80.4452     7.8434     2.5011     0.1085     0.0163     9.3217    12.0262
  441.5000   -18.4247    80.5358     7.8415     2.5010     0.1100     0.0159     9.3121    11.9579
  442.0000   -18.3506    80.6239     7.8416     2.4962     0.1115     0.0156     9.3045    11.8900
  442.5000   -18.2772    80.7290     7.8416     2.4886     0.1168     0.0165     9.3046    11.8224
  443.0000   -18.2040    80.9325     7.8416     2.4829     0.1205     0.0175     9.3046    11.7553
  443.5000   -18.1307    84.4702     7.8416     2.4783     0.1235     0.0185     9.3046    11.7094
  444.0000   -18.0579    88.7052     7.8417     2.4805     0.1202     0.0198     9.3046    11.6924
  444.5000   -17.9826    91.2159     7.8413     2.4902     0.1129     0.0263     9.3046    11.6755
  445.0000   -18.0571    90.7922     7.8426     2.5087     0.1055     0.0315     9.3046    11.6586
  445.5000   -18.2166    87.9697     7.7297     2.5207     0.1011     0.0302     9.3046    11.6417
  446.0000   -18.3780    85.6467     7.6680     2.5257     0.0979     0.0261     9.3046    11.6249
  446.5000   -18.5391    85.4799     7.7202     2.5164     0.1005     0.0180     9.3046    11.6076
  447.0000   -18.7006    85.0430     7.7983     2.5038     0.1065     0.0135     9.3046    11.5618
  447.5000   -18.8663    83.6766     7.8147     2.4958     0.1126     0.0135     9.3049    11.5170
  448.0000   -19.1798    83.0622     7.7554     2.4904     0.1182     0.0135     9.2862    11.4726
  448.5000   -19.6785    83.2799     7.7694     2.4898     0.1156     0.0135     9.2595    11.4284
  449.0000   -19.7910    84.8825     7.8408     2.4954     0.1126     0.0135     9.2327    11.3843
  449.5000   -19.4756    86.6298     7.8281     2.4983     0.1107     0.0135     9.2060    11.3404
  450.0000   -19.1738    87.3320     7.8177     2.4930     0.1142     0.0137     9.1793    11.2923
  450.5000   -19.1411    86.9432     7.8071     2.4889     0.1170     0.0143     9.1527    11.2006
  451.0000   -19.7596    86.9229     7.8061     2.4941     0.1144     0.0148     9.1068    11.0996
  451.5000   -19.7444    86.9239     7.8140     2.4993     0.1118     0.0154     9.0198    10.9996
  452.0000   -19.7421    86.9263     7.8220     2.4990     0.1111     0.0160     8.9335    10.9005
  452.5000   -19.7420    86.9309     7.8299     2.4960     0.1120     0.0165     8.8481    10.8022
  453.0000   -19.7417    86.8882     7.8379     2.4957     0.1120     0.0171     8.7635    10.7049
  453.5000   -19.7390    85.4178     7.8459     2.5001     0.1100     0.0180     8.6797    10.6084
  454.0000   -19.8757    85.7773     7.8538     2.5015     0.1081     0.0209     8.5967    10.5409
  454.5000   -20.0514    86.5340     7.8618     2.5029     0.1062     0.0238     8.5145    10.4822
  455.0000   -20.2315    88.2394     7.8698     2.5042     0.1042     0.0257     8.4331    10.4238
  455.5000   -20.5893    89.9435     7.8780     2.5054     0.1051     0.0260     8.3525    10.3658
  456.0000   -21.2655    89.9139     7.8759     2.5045     0.1068     0.0263     8.2726    10.3080
  456.5000   -21.5233    89.0624     7.8655     2.5045     0.1055     0.0266     8.1935    10.0581
  457.0000   -21.5290    87.6197     7.7820     2.5045     0.1041     0.0269     8.1152     9.7740
  457.5000   -21.5236    86.5044     7.7022     2.5045     0.1049     0.0272     7.8836     9.5644
  458.0000   -21.8717    86.9183     7.8572     2.5034     0.1057     0.0275     7.6308     9.5657
  458.5000   -22.4127    88.5119     7.8622     2.5025     0.1063     0.0279     7.5265     9.5651
  459.0000   -22.9590    91.0378     7.8616     2.5028     0.1065     0.0281     7.4460     9.5644
  459.5000   -23.5032    92.4474     7.8614     2.5031     0.1061     0.0285     7.3400     9.3897
  460.0000   -23.9309    92.5063     7.8614     2.5034     0.1049     0.0288     7.1711     9.1381
  460.5000   -23.9836    93.4283     7.8614     2.4942     0.1129     0.0291     6.9409     8.6607
  461.0000   -24.0402    94.9046     7.8614     2.4757     0.1246     0.0294     6.5778     7.7310
  461.5000   -24.0778    95.6550     7.8614     2.4573     0.1363     0.0290     6.2338     6.9050
  462.0000   -24.8866   102.3675     7.8614     2.4392     0.1427     0.0269     5.9072     6.2139
  462.5000   -24.6439   112.3011     7.8614     2.4536     0.1455     0.0249     5.5988     5.9727
  463.0000   -24.1196   113.7789     7.8614     2.4814     0.1229     0.0228     5.3513     5.9419
  463.5000   -23.5985   110.2423     7.8614     2.5062     0.1046     0.0208     5.4483     5.8681
  464.0000   -23.0731    99.5057     7.8614     2.5269     0.0943     0.0197     5.6368     6.0853
  464.5000   -22.5421    88.1964     7.8614     2.5279     0.0902     0.0203     6.0134     6.2741
  465.0000   -22.3832    85.1457     7.8614     2.5280     0.0903     0.0208     6.4151     6.7793
  465.5000   -22.2432    85.0756     7.8614     2.5281     0.0904     0.0214     6.8436     7.4103
  466.0000   -22.1009    84.9963     7.8614     2.5283     0.0905     0.0214     7.5852     8.1016
  466.5000   -21.9580    84.9267     7.8614     2.5285     0.0907     0.0212     7.9010     8.8556
  467.0000   -21.8151    84.8573     7.8613     2.5269     0.0914     0.0209     8.1042     9.4778
  467.5000   -21.6717    84.7913     7.8603     2.5244     0.0923     0.0207     8.2517     9.4848
  468.0000   -21.5308    84.8548     7.8593     2.5231     0.0936     0.0204     8.3678     9.5006
  468.5000   -21.4690    85.2538     7.8582     2.5224     0.0948     0.0202     8.4855     9.5164
  469.0000   -21.4108    85.1575     7.8572     2.5217     0.0948     0.0199     8.6049     9.5321
  469.5000   -21.3512    84.8057     7.8562     2.5245     0.0947     0.0197     8.7418     9.5477
  470.0000   -21.3556    83.8017     7.8552     2.5286     0.0921     0.0191     8.8883     9.5649
  470.5000   -21.3966    82.8013     7.8542     2.5312     0.0889     0.0180     9.0508     9.8807
  471.0000   -21.4384    83.0363     7.8531     2.5298     0.0892     0.0170     9.1796    10.2253
  471.5000   -21.4829    85.0944     7.8521     2.5285     0.0907     0.0160     9.3232    10.3812
  472.0000   -21.5407    88.4243     7.8511     2.5272     0.0922     0.0150     9.4690    10.5443
  472.5000   -20.8443    89.8629     7.8501     2.5259     0.0938     0.0140     9.6171    10.7092
  473.0000   -20.0477    89.9150     7.8491     2.5246     0.0929     0.0130     9.7675    10.8767
  473.5000   -19.8459    89.9011     7.8481     2.5227     0.0928     0.0119     9.9203    11.0742
  474.0000   -19.7389    89.7593     7.8471     2.5208     0.0962     0.0174    10.0755    11.3236
  474.5000   -19.6328    89.3805     7.8460     2.5210     0.0990     0.0274    10.1342    11.5785
  475.0000   -19.5257    89.0053     7.8450     2.5249     0.0917     0.0330    10.1658    11.8392
  475.5000   -19.4200    88.7012     7.8440     2.5274     0.0924     0.0313    10.1973    12.1058
  476.0000   -19.3465    88.9709     7.8430     2.5252     0.0942     0.0295    10.2290    12.1650
