~VERSION INFORMATION
 VERS.                2.0:   CWLS LOG ASCII STANDARD - VERSION 2.0
 WRAP.                 NO:   ONE LINE PER DEPTH STEP
~WELL INFORMATION
#MNEM.UNIT      DATA TYPE    INFORMATION
#----------   ------------   ------------------------------
 STRT.F            0.0000:   START DEPTH
 STOP.F          890.0000:   STOP DEPTH
 STEP.F            0.1000:   STEP LENGTH
 NULL.          -999.2500:   NO VALUE
 COMP.   FLUOR DANIEL INC:   COMPANY
 WELL.   35-1 X 14 #35-14:   WELL
 FLD .             TEAPOT:   FIELD
 LOC .      S14 T38N R78W:   LOCATION
 CNTY.            NATRONA:   COUNTY
 STAT.            WYOMING:   STATE
 CTRY. UNITED STATES OF AMERICA:   COUNTRY
 SRVC.      Western Atlas:   SERVICE COMPANY
 DATE.        23-JUL-1995:   LOGDATE
 API .       490252273300:   API NUMBER
~CURVE INFORMATION
#MNEM.UNIT       API CODE    CURVE DESCRIPTION
#----------   ------------   ------------------------------
 DEPT.F                  :   
 RILM.OHMM   07 120 44 00:   RESITIVITY LONG MEDIUM
 RILD.OHMM   07 120 46 00:   INDUCTION LOG DEEP RESISTIVITY
 GRR .GAPI   07 310 01 00:   GAMMA RAY
~PARAMETER INFORMATION
#MNEM.UNIT          VALUE    DESCRIPTION
#----------   ------------   ------------------------------
 PD  .                 GL:   PERMANENT DATUM
 EPD .F              5238:   ELEVATION PERMANENT DATUM
 LMF .                 KB:   LOG MEASURED FROM
 DAPD.F                10:   FEET ABOVE PERMANENT DATUM
 DMF .                 KB:   DRILLING MEASURED FROM
 EKB .F              5248:   KELLING BUSHING
 EDF .F              5247:   DRILLING FLOOR
 EGL .F              5238:   GROUND LEVEL
 DATE.        23-JUL-1995:   RUN DATE
 RUN .                  1:   RUN NUMBER
 DD  .F               898:   DEPTH DRILLER
 DL  .F               898:   DEPTH LOGGER
 BLI .F               890:   BOTTOM LOG INTERVAL
 CS  .IN            9.625:   CASING SIZE
 CBD .F                78:   CASING BOTTOM DRILLER
 CBL .F                80:   CASING BOTTOM LOGGER
 BS  .IN             8.75:   BIT SIZE
 BSD .F               898:   BIT SIZE AT DEPTH
 DFT .                AIR:   DRILLING FLUID TYPE
 MRT .F                94:   MAXIMUM RECORDED TEMPERATURE
 LUN .            HL 6530:   LOGGING UNIT NUMBER
 LUL .             CASPER:   LOGGING UNIT LOCATION
 ENGI.       VERRN RAUTIO:   RECORDING ENGINEER
 WITN.        GARY STRONG:   WITNESSED BY
 CLNT.            A2DTECH:   CLIENT CODE
 ORIG.           5" PRINT:   ORIGIN OF DATA
 UWI .       490252273300:   UNIQUE WELL ID
 DICO. A2D Technologies, Inc.:   DIGITIZING COMPANY
~OTHER INFORMATION
~A    DEPT    RILM       RILD         GRR  
# ...
  709.8000    17.7571    16.0111    82.6653
  709.9000    18.0178    16.4458    81.6547
  710.0000    18.2784    16.7975    80.9264
  710.1000    18.5270    17.0334    80.3306
  710.2000    18.7459    17.2692    79.6166
  710.3000    18.9881    17.5050    79.1010
  710.4000    19.1921    17.6525    78.6086
  710.5000    19.4192    17.8088    78.3032
  710.6000    19.6488    17.9882    78.0524
  710.7000    19.8415    18.1073    77.9021
  710.8000    19.9591    18.3384    77.9045
  710.9000    20.0822    18.4395    77.9069
  711.0000    20.1966    18.5495    77.9098
  711.1000    20.3164    18.6601    77.7049
  711.2000    20.3676    18.7714    77.7700
  711.3000    20.3690    18.8833    77.9166
  711.4000    20.3945    18.9975    77.9190
  711.5000    20.5139    19.1092    77.9326
  711.6000    20.5156    19.2232    78.2263
  711.7000    20.6157    19.2688    78.4437
  711.8000    20.6613    19.3185    78.6993
  711.9000    20.6628    19.4069    79.0722
  712.0000    20.6642    19.4088    79.5810
  712.1000    20.6656    19.4109    80.0898
  712.2000    20.6673    19.4126    80.6577
  712.3000    20.6685    19.4144    80.8835
  712.4000    20.6700    19.3615    81.3140
  712.5000    20.6117    19.2838    81.6969
  712.6000    20.5296    19.2734    81.7987
  712.7000    20.5171    19.1542    81.5479
  712.8000    20.3903    19.1559    81.2763
  712.9000    20.3917    19.0758    80.8141
  713.0000    20.3931    19.0270    79.9436
  713.1000    20.3294    18.9891    79.2020
  713.2000    20.2124    18.8802    78.6980
  713.3000    20.0762    18.7700    78.2667
  713.4000    19.8394    18.7718    78.2696
  713.5000    19.7276    18.7737    78.0312
  713.6000    19.6141    18.7089    77.9722
  713.7000    19.5012    18.6016    77.9746
  713.8000    19.3889    18.5201    77.9770
  713.9000    19.2772    18.5219    78.0244
  714.0000    19.1661    18.5239    78.2840
  714.1000    19.0384    18.4329    78.2864
  714.2000    18.9462    18.3990    78.8894
  714.3000    18.8371    18.3491    79.8026
  714.4000    18.7793    18.2752    80.9197
  714.5000    18.7507    18.2656    82.1348
  714.6000    18.6426    18.1524    83.1505
  714.7000    18.5240    18.1540    84.3436
  714.8000    18.4286    18.0784    84.7629
  714.9000    18.3226    18.0319    85.2717
  715.0000    18.2719    18.0336    85.8913
  715.1000    18.2385    18.0176    86.5295
  715.2000    18.1477    17.9123    86.7722
  715.3000    18.1492    17.8116    86.7750
  715.4000    18.0503    17.7917    86.7770
  715.5000    17.9464    17.7307    86.6113
  715.6000    17.8431    17.6289    85.8837
  715.7000    17.7795    17.5278    84.5499
  715.8000    17.7612    17.4315    83.0546
  715.9000    17.6588    17.4336    81.6534
  716.0000    17.5380    17.3481    80.5277
  716.1000    17.4563    17.2487    79.6176
  716.2000    17.3558    17.1497    78.8607
  716.3000    17.2558    17.0804    78.3396
  716.4000    17.1565    17.0717    78.3420
  716.5000    17.0576    16.9656    78.3446
  716.6000    16.9459    16.8765    78.3468
  716.7000    16.8618    16.7797    78.5343
  716.8000    16.6993    16.6835    78.7899
  716.9000    16.5528    16.5878    79.0455
  717.0000    16.4574    16.4926    79.3010
  717.1000    16.3626    16.3960    79.5675
  717.2000    16.2604    16.3976    80.0547
  717.3000    16.0888    16.3236    80.5635
  717.4000    15.9703    16.2300    81.0723
  717.5000    15.9280    16.1369    81.5810
  717.6000    15.8971    16.0443    82.0431
  717.7000    15.8197    15.9523    82.3009
  717.8000    15.8210    15.8473    82.8053
  717.9000    15.7330    15.7699    83.1119
  718.0000    15.6425    15.7405    83.3675
  718.1000    15.5524    15.6982    83.6232
  718.2000    15.4988    15.6082    83.8236
  718.3000    15.4810    15.5186    83.8322
  718.4000    15.3936    15.4220    84.1309
  718.5000    15.3948    15.3411    84.1329
  718.6000    15.3214    15.2532    84.2969
  718.7000    15.2901    15.2136    84.4399
  718.8000    15.2511    15.2150    84.5697
  718.9000    15.1633    15.2020    85.0489
  719.0000    15.0821    15.1127    85.0517
  719.1000    15.0833    15.1141    85.2728
  719.2000    15.0843    15.0461    85.3583
  719.3000    15.0853    14.9598    85.3607
  719.4000    15.0422    14.8741    85.3631
  719.5000    14.9829    14.8082    85.3424
  719.6000    14.9839    14.8096    85.0661
  719.7000    14.9851    14.8113    85.0683
  719.8000    14.9860    14.8125    85.0707
  719.9000    14.9871    14.8140    84.9436
  720.0000    14.9881    14.7744    84.8539
  720.1000    14.9892    14.7143    85.0779
  720.2000    14.9749    14.7157    85.0805
  720.3000    14.8874    14.7173    85.0828
  720.4000    14.8884    14.6403    85.2721
  720.5000    14.8895    14.6181    85.5277
  720.6000    14.8905    14.6195    85.6943
  720.7000    14.8915    14.6509    85.8171
  720.8000    14.8926    14.7243    86.6055
  720.9000    14.8936    14.7258    87.3410
  721.0000    14.8948    14.6436    88.4935
  721.1000    14.8957    14.6266    89.4688
  721.2000    14.8395    14.6281    90.3283
  721.3000    14.7945    14.6295    91.2464
  721.4000    14.7956    14.6309    91.7559
  721.5000    14.7966    14.6323    92.6651
  721.6000    14.7977    14.6340    92.8709
  721.7000    14.7987    14.6352    93.2814
  721.8000    14.7997    14.6366    93.5782
  721.9000    14.7557    14.6786    93.5807
  722.0000    14.6992    14.7415    93.5831
  722.1000    14.7002    14.7429    93.5859
  722.2000    14.7013    14.7445    93.5879
  722.3000    14.7023    14.7458    93.5903
  722.4000    14.7033    14.7472    93.5928
  722.5000    14.7043    14.7487    93.4642
  722.6000    14.7053    14.7501    92.9276
  722.7000    14.7064    14.7515    91.7876
  722.8000    14.7074    14.7530    90.6860
  722.9000    14.7084    14.7544    89.4227
  723.0000    14.7094    14.7558    88.2820
  723.1000    14.7105    14.7573    87.4195
  723.2000    14.7115    14.7587    86.9406
  723.3000    14.7125    14.7601    86.6661
  723.4000    14.7135    14.7616    86.6683
  723.5000    14.7145    14.7632    86.4904
  723.6000    14.7156    14.7644    86.3710
  723.7000    14.7166    14.7659    86.4558
  723.8000    14.7176    14.7673    86.7115
  723.9000    14.7187    14.7687    86.9826
  724.0000    14.7197    14.7702    87.2226
  724.1000    14.7207    14.7718    87.8557
  724.2000    14.7217    14.7731    88.7575
  724.3000    14.7186    14.7645    89.6816
  724.4000    14.7074    14.7520    90.4433
  724.5000    14.6962    14.7395    91.2266
  724.6000    14.6850    14.7270    91.4751
  724.7000    14.6739    14.7145    91.7307
  724.8000    14.6627    14.7020    91.8381
  724.9000    14.6515    14.6895    91.5426
  725.0000    14.6403    14.6770    90.7855
  725.1000    14.6291    14.6645    90.0300
  725.2000    14.6179    14.6520    89.4313
  725.3000    14.6067    14.6395    89.0220
  725.4000    14.5955    14.6270    88.5182
  725.5000    14.5843    14.6145    88.2296
  725.6000    14.5731    14.6020    88.1731
  725.7000    14.5619    14.5904    87.9225
  725.8000    14.5507    14.5921    87.6330
  725.9000    14.5395    14.5934    87.6350
  726.0000    14.5366    14.5948    87.6375
  726.1000    14.4959    14.5962    87.7561
  726.2000    14.4125    14.5703    88.1461
  726.3000    14.3294    14.4978    88.9636
  726.4000    14.2407    14.4995    90.6686
  726.5000    14.1650    14.4208    92.0059
  726.6000    14.0834    14.4018    93.1802
  726.7000    14.0024    14.3553    93.8214
  726.8000    13.9506    14.2730    94.0769
  726.9000    13.9381    14.1911    94.3057
  727.0000    13.8559    14.1097    94.3084
  727.1000    13.8568    14.0143    94.5415
  727.2000    13.7943    13.9484    94.4331
  727.3000    13.7628    13.8684    93.7828
  727.4000    13.7311    13.7889    92.7723
  727.5000    13.6693    13.7097    91.7976
  727.6000    13.6680    13.6365    90.9995
  727.7000    13.5767    13.6381    90.7623
  727.8000    13.5775    13.5692    90.1304
  727.9000    13.5271    13.4914    89.0903
