~VERSION INFORMATION
 VERS.                2.0:   CWLS LOG ASCII STANDARD - VERSION 2.0
 WRAP.                 NO:   ONE LINE PER DEPTH STEP
~WELL INFORMATION
#MNEM.UNIT      DATA TYPE    INFORMATION
#----------   ------------   ------------------------------
 STRT.F           34.0000:   START DEPTH
 STOP.F          460.0000:   STOP DEPTH
 STEP.F            0.5000:   STEP LENGTH
 NULL.          -999.2500:   NO VALUE
 COMP. FENIX & SCISSON INC:   COMPANY
 WELL.     SX 3 FO #46--3:   WELL
 FLD .              NPR 3:   FIELD
 LOC .       S3 T38N R78W:   LOCATION
 CNTY.            NATRONA:   COUNTY
 STAT.            WYOMING:   STATE
 CTRY. UNITED STATES OF AMERICA:   COUNTRY
 SRVC.              Welex:   SERVICE COMPANY
 DATE.        10-JUL-1981:   LOGDATE
 API .       490251086000:   API NUMBER
~CURVE INFORMATION
#MNEM.UNIT       API CODE    CURVE DESCRIPTION
#----------   ------------   ------------------------------
 DEPT.F                  :   
 GRD .GAPI   45 310 01 00:   GAMMA RAY FROM DENSITY LOG
 CALD.IN     45 280 60 00:   CALIPER
 RHOB.G/C3   45 350 01 00:   BULK DENSITY
 DPHI.DEC    45 890 12 00:   DENSITY POROSITY SANDSTONE
 CORR.G/C3   45 356 01 00:   DENSITY CORRECTION
~PARAMETER INFORMATION
#MNEM.UNIT          VALUE    DESCRIPTION
#----------   ------------   ------------------------------
 PD  .                 GL:   PERMANENT DATUM
 EPD .F              5168:   ELEVATION PERMANENT DATUM
 LMF .                 KB:   LOG MEASURED FROM
 DAPD.F                 5:   FEET ABOVE PERMANENT DATUM
 DMF .                 KB:   DRILLING MEASURED FROM
 EKB .F              5173:   KELLING BUSHING
 EGL .F              5168:   GROUND LEVEL
 DATE.            7-10-80:   RUN DATE
 RUN .                  1:   RUN NUMBER
 DD  .F               470:   DEPTH DRILLER
 DL  .F               468:   DEPTH LOGGER
 BLI .F               460:   BOTTOM LOG INTERVAL
 TLI .F                46:   TOP LOG INTERVAL
 CS  .IN                7:   CASING SIZE
 CBD .F                46:   CASING BOTTOM DRILLER
 BS  .IN             6.25:   BIT SIZE
 BSD .F               470:   BIT SIZE AT DEPTH
 DFT .        AIR DRILLED:   DRILLING FLUID TYPE
 BHT .F                75:   BOTTOM HOLE TEMPERATURE
 TCS .HRS               2:   TIME CURCULATED STOPPED
 MRT .F                75:   MAXIMUM RECORDED TEMPERATURE
 ENGI.    JOYNER/PFRIMMER:   RECORDING ENGINEER
 WITN.              AMEND:   WITNESSED BY
 CLNT.            A2DTECH:   CLIENT CODE
 ORIG.           5" PRINT:   ORIGIN OF DATA
 UWI .       490251086000:   UNIQUE WELL ID
 DICO. A2D Technologies, Inc.:   DIGITIZING COMPANY
~OTHER INFORMATION
~A   DEPT       GRD      CALD       RHOB       DPHI       CORR   
# ...
  278.0000    65.9403     6.3247     2.3911     0.1732     0.1290
  278.5000    65.6611     6.3247     2.3896     0.1738     0.1181
  279.0000    66.9255     6.3247     2.3895     0.1719     0.1164
  279.5000    68.5517     6.3247     2.3967     0.1647     0.1268
  280.0000    70.1824     6.3247     2.4113     0.1575     0.1363
  280.5000    72.1371     6.3247     2.4253     0.1504     0.1457
  281.0000    70.5767     6.3247     2.4385     0.1438     0.1548
  281.5000    68.5683     6.3247     2.4447     0.1386     0.1626
  282.0000    66.4523     6.3248     2.4422     0.1434     0.1665
  282.5000    66.4911     6.3199     2.4378     0.1439     0.1520
  283.0000    65.7328     6.3137     2.4407     0.1428     0.1368
  283.5000    64.4255     6.3075     2.4406     0.1448     0.1216
  284.0000    64.9820     6.3048     2.4317     0.1474     0.1064
  284.5000    67.0789     6.3048     2.4390     0.1420     0.0910
  285.0000    69.1673     6.3048     2.4506     0.1370     0.0955
  285.5000    71.2546     6.3048     2.4526     0.1381     0.1064
  286.0000    73.3477     6.3047     2.4462     0.1408     0.1091
  286.5000    75.4934     6.3019     2.4376     0.1471     0.1012
  287.0000    75.6817     6.2989     2.4289     0.1535     0.0935
  287.5000    73.9550     6.2959     2.4202     0.1590     0.0857
  288.0000    73.2072     6.2928     2.4179     0.1555     0.0791
  288.5000    74.4245     6.2900     2.4267     0.1510     0.0745
  289.0000    72.7036     6.2874     2.4278     0.1516     0.0781
  289.5000    70.5123     6.3092     2.4301     0.1467     0.0859
  290.0000    70.3203     6.3312     2.4452     0.1362     0.0937
  290.5000    71.4708     6.3540     2.4533     0.1411     0.0976
  291.0000    73.5245     6.3558     2.4339     0.1497     0.0911
  291.5000    75.5491     6.3401     2.4183     0.1583     0.0847
  292.0000    77.2263     6.3242     2.4132     0.1626     0.0805
  292.5000    78.0563     6.3083     2.4282     0.1562     0.0806
  293.0000    78.9165     6.2925     2.4364     0.1469     0.0830
  293.5000    79.5061     6.2856     2.4348     0.1464     0.0873
  294.0000    79.0956     6.3069     2.4367     0.1462     0.0916
  294.5000    77.7486     6.3126     2.4434     0.1422     0.0886
  295.0000    76.4004     6.3189     2.4373     0.1458     0.0766
  295.5000    76.2978     6.3252     2.4289     0.1496     0.0684
  296.0000    77.7646     6.3046     2.4272     0.1510     0.0690
  296.5000    79.7346     6.2845     2.4268     0.1478     0.0742
  297.0000    81.4607     6.2963     2.4397     0.1446     0.0792
  297.5000    80.7631     6.3193     2.4375     0.1457     0.0842
  298.0000    80.0953     6.3246     2.4274     0.1493     0.0892
  298.5000    79.4320     6.3183     2.4264     0.1523     0.0942
  299.0000    79.1212     6.3111     2.4339     0.1486     0.0988
  299.5000    79.5982     6.3052     2.4373     0.1468     0.0986
  300.0000    81.2786     6.3112     2.4214     0.1516     0.0955
  300.5000    82.6886     6.3171     2.4083     0.1576     0.0847
  301.0000    81.9900     6.3232     2.4086     0.1636     0.0739
  301.5000    81.4203     6.3247     2.4041     0.1673     0.0677
  302.0000    79.8789     6.3215     2.3980     0.1712     0.0637
  302.5000    78.0072     6.3170     2.3919     0.1750     0.0599
  303.0000    79.9790     6.3125     2.3865     0.1760     0.0564
  303.5000    79.6805     6.3081     2.3893     0.1729     0.0574
  304.0000    79.7147     6.3046     2.3963     0.1688     0.0613
  304.5000    81.4562     6.2949     2.4030     0.1647     0.0640
  305.0000    82.0022     6.2827     2.4097     0.1606     0.0666
  305.5000    81.8439     6.2799     2.4146     0.1577     0.0693
  306.0000    83.0226     6.2774     2.4164     0.1553     0.0719
  306.5000    83.8710     6.2749     2.4216     0.1526     0.0745
  307.0000    83.3976     6.2723     2.4272     0.1499     0.0772
  307.5000    83.3083     6.2698     2.4330     0.1461     0.0799
  308.0000    83.4385     6.2673     2.4390     0.1434     0.0842
  308.5000    82.5129     6.2648     2.4406     0.1438     0.0884
  309.0000    80.5954     6.2626     2.4363     0.1447     0.0831
  309.5000    78.6171     6.2604     2.4305     0.1481     0.0781
  310.0000    77.9089     6.2582     2.4247     0.1515     0.0731
  310.5000    78.3914     6.2561     2.4203     0.1542     0.0678
  311.0000    78.9269     6.2539     2.4271     0.1526     0.0666
  311.5000    79.4613     6.2517     2.4254     0.1488     0.0682
  312.0000    79.5705     6.2495     2.4256     0.1454     0.0716
  312.5000    78.9878     6.2470     2.4463     0.1426     0.0746
  313.0000    78.4372     6.2470     2.4464     0.1424     0.0730
  313.5000    77.8588     6.2653     2.4434     0.1423     0.0668
  314.0000    77.6993     6.2680     2.4553     0.1354     0.0624
  314.5000    78.5606     6.2702     2.4716     0.1257     0.0638
  315.0000    79.4980     6.2722     2.4868     0.1170     0.0647
  315.5000    80.4196     6.2743     2.4990     0.1032     0.0604
  316.0000    81.1240     6.2764     2.5110     0.0945     0.0559
  316.5000    80.0194     6.2784     2.5275     0.0850     0.0543
  317.0000    78.5561     6.2805     2.5590     0.0713     0.0616
  317.5000    75.0664     6.2826     2.5885     0.0558     0.0685
  318.0000    70.8678     6.2845     2.6076     0.0418     0.0755
  318.5000    67.1735     6.2959     2.6091     0.0430     0.0824
  319.0000    64.9780     6.3030     2.5998     0.0470     0.0887
  319.5000    64.8327     6.2948     2.5868     0.0535     0.0842
  320.0000    64.8547     6.2872     2.5691     0.0630     0.0754
  320.5000    68.2300     6.2795     2.5532     0.0727     0.0668
  321.0000    71.2877     6.2718     2.5540     0.0823     0.0604
  321.5000    73.0843     6.2649     2.5217     0.0918     0.0606
  322.0000    74.4717     6.2672     2.5049     0.1008     0.0629
  322.5000    75.8678     6.2693     2.4952     0.1082     0.0677
  323.0000    77.5409     6.2714     2.4857     0.1154     0.0725
  323.5000    79.6041     6.2734     2.4850     0.1178     0.0772
  324.0000    81.6380     6.2755     2.4891     0.1186     0.0806
  324.5000    83.5579     6.2776     2.4777     0.1222     0.0785
  325.0000    83.5317     6.2797     2.4692     0.1258     0.0703
  325.5000    81.0107     6.2817     2.4717     0.1260     0.0644
  326.0000    78.5431     6.2838     2.4644     0.1294     0.0648
  326.5000    77.3899     6.2856     2.4545     0.1356     0.0555
  327.0000    78.1516     6.2871     2.4445     0.1418     0.0429
  327.5000    76.8105     6.2886     2.4352     0.1464     0.0366
  328.0000    75.4507     6.2901     2.4363     0.1462     0.0389
  328.5000    77.5090     6.2916     2.4451     0.1394     0.0486
  329.0000    79.5058     6.2930     2.4546     0.1332     0.0580
  329.5000    81.4664     6.2945     2.4609     0.1296     0.0581
  330.0000    83.0781     6.2960     2.4599     0.1276     0.0558
  330.5000    83.0698     6.2975     2.4652     0.1300     0.0536
  331.0000    83.0662     6.2990     2.4602     0.1326     0.0534
  331.5000    83.3282     6.3005     2.4589     0.1307     0.0590
  332.0000    83.6775     6.3020     2.4661     0.1300     0.0627
  332.5000    83.5658     6.3035     2.4555     0.1354     0.0582
  333.0000    82.3756     6.3044     2.4510     0.1394     0.0486
  333.5000    81.1864     6.2961     2.4582     0.1348     0.0389
  334.0000    81.9812     6.2881     2.4652     0.1297     0.0366
  334.5000    83.7632     6.2800     2.4717     0.1250     0.0383
  335.0000    84.6319     6.2719     2.4699     0.1270     0.0420
  335.5000    84.6330     6.2660     2.4709     0.1278     0.0455
  336.0000    85.3697     6.2905     2.4780     0.1224     0.0496
  336.5000    86.2143     6.3141     2.4850     0.1202     0.0591
  337.0000    84.9716     6.3388     2.4920     0.1129     0.0723
  337.5000    83.1722     6.3367     2.4990     0.1068     0.0852
  338.0000    83.1674     6.3259     2.5006     0.1070     0.0948
  338.5000    83.6257     6.3147     2.4976     0.1096     0.0943
