~VERSION INFORMATION
 VERS.                2.0:   CWLS LOG ASCII STANDARD - VERSION 2.0
 WRAP.                 NO:   ONE LINE PER DEPTH STEP
~WELL INFORMATION
#MNEM.UNIT      DATA TYPE    INFORMATION
#----------   ------------   ------------------------------
 STRT.F            9.0000:   START DEPTH
 STOP.F          512.0000:   STOP DEPTH
 STEP.F            0.5000:   STEP LENGTH
 NULL.          -999.2500:   NO VALUE
 COMP. LAWRENCE-ALLISON &AS:   COMPANY
 WELL. NPR 3 #61-21SX10UP2:   WELL
 FLD .             TEAPOT:   FIELD
 LOC .      S10 T38N R78W:   LOCATION
 CNTY.            NATRONA:   COUNTY
 STAT.            WYOMING:   STATE
 CTRY. UNITED STATES OF AMERICA:   COUNTRY
 SRVC.      Dresser Atlas:   SERVICE COMPANY
 DATE.        13-DEC-1984:   LOGDATE
 API .       490251100500:   API NUMBER
~CURVE INFORMATION
#MNEM.UNIT       API CODE    CURVE DESCRIPTION
#----------   ------------   ------------------------------
 DEPT.F                  :   
 PORD.DEC    45 890 12 00:   POROSITY DENSITY SANDSTONE
 CNCF.DEC    42 890 03 00:   NEUTRON POROSITY SANDSTONE
 GRD .GAPI   45 310 01 00:   GAMMA RAY FROM DENSITY LOG
 CALD.IN     45 280 60 00:   CALIPER FROM DENSITY LOG
 CORR.G/C3   45 356 01 00:   DENSITY CORRECTION
 DEN .G/C3   45 350 01 00:   COMPENSATED BULK DENSTIY
 AC  .US/F   60 520 00 00:   ACCOUSTIC
 RILD.OHMM   07 120 46 00:   INDUCTION LOG DEEP RESISTIVITY
 RILM.OHMM   07 120 44 00:   INDUCTION LOG MEDIUM RESISTIVITY
 RFOC.OHMM   07 220 04 00:   RESISTIVITY FOCUSED LOG
 SPR .MV     11 010 01 00:   SPONTANEOUS POTENTIAL FROM RES.
 RS  .OHMM   11 220 09 00:   RESISTIVITY SHALLOW
 RD  .OHMM   11 220 10 00:   RESISTIVITY DEEP
~PARAMETER INFORMATION
#MNEM.UNIT          VALUE    DESCRIPTION
#----------   ------------   ------------------------------
 PD  .                 GL:   PERMANENT DATUM
 EPD .F              5157:   ELEVATION PERMANENT DATUM
 LMF .                 GL:   LOG MEASURED FROM
 DMF .                 GL:   DRILLING MEASURED FROM
 EGL .F              5157:   GROUND LEVEL
 DATE.         12-13-1984:   RUN DATE
 RUN .                  1:   RUN NUMBER
 DD  .F               514:   DEPTH DRILLER
 DL  .F               513:   DEPTH LOGGER
 BLI .F               512:   BOTTOM LOG INTERVAL
 TLI .F                20:   TOP LOG INTERVAL
 CS  .IN            8.625:   CASING SIZE
 CBD .F                20:   CASING BOTTOM DRILLER
 CBL .F                20:   CASING BOTTOM LOGGER
 BS  .IN            7.875:   BIT SIZE
 BSD .F               514:   BIT SIZE AT DEPTH
 DFT .          KCL WATER:   DRILLING FLUID TYPE
 MSS .           FLOWLINE:   MUD SAMPLE SOURCE
 RMS .OHMM            .17:   RESISTIVITY MUD SAMPLE
 MST .F                95:   MUD SAMPLE TEMPERATURE
 RMF .OHMM            .08:   RESISTIVITY MUD FILTRATE SAMPLE
 MFST.F                95:   MUD FILTRATE SAMPLE TEMPERATURE
 RMC .OHMM            .14:   RESISTIVITY MUD CAKE
 MCST.F                95:   MUD CAKE SAMPLE TEMPERATURE
 MFSS.               CALC:   MUD FILTRATE SAMPLE SOURCE
 MCSS.               CALC:   MUD CAKE SAMPLE SOURCE
 TCS .HRS              10:   TIME CURCULATED STOPPED
 MRT .F               100:   MAXIMUM RECORDED TEMPERATURE
 LUN .               6270:   LOGGING UNIT NUMBER
 LUL .                 FM:   LOGGING UNIT LOCATION
 ENGI.            LEBSOCK:   RECORDING ENGINEER
 WITN.        GREG GROOMS:   WITNESSED BY
 CLNT.            A2DTECH:   CLIENT CODE
 ORIG.           5" PRINT:   ORIGIN OF DATA
 UWI .       490251100500:   UNIQUE WELL ID
 DICO. A2D Technologies, Inc.:   DIGITIZING COMPANY
~OTHER INFORMATION
~A    DEPT    PORD       CNCF        GRD       CALD       CORR        DEN          AC      RILD       RILM       RFOC        SPR         RS         RD   
# ...
  425.0000     0.1128     0.2491   100.9942     7.6742     0.0238     2.4947    93.0550    12.9254    10.9727    13.0341   -68.8902    13.8440    13.9843
  425.5000     0.1108     0.2507   102.9551     7.6890     0.0190     2.4947    93.6636    12.7402    10.7529    12.8486   -68.8995    13.5522    13.5946
  426.0000     0.1123     0.2640   104.1629     7.6887     0.0097     2.4940    94.1968    12.4707    10.6738    12.6656   -68.7551    13.2666    13.3078
  426.5000     0.1120     0.2673   103.7141     7.6884     0.0134     2.4962    94.4283    12.2920    10.6694    12.5725   -68.7644    13.1685    13.2094
  427.0000     0.1102     0.2628   102.2111     7.6730     0.0209     2.4970    94.6598    12.1159    10.6649    12.4801   -68.7718    13.0711    13.2030
  427.5000     0.1103     0.2653    97.9973     7.6576     0.0254     2.4955    94.7405    11.9423    10.5865    12.4750   -68.7793    12.9744    13.1967
  428.0000     0.1106     0.2738    99.8075     7.6563     0.0345     2.4940    94.8213    11.8457    10.4357    12.3833   -68.7867    12.8784    13.0990
  428.5000     0.1106     0.2750   100.4129     7.6419     0.0403     2.4932    94.9020    11.6723    10.2870    12.3781   -68.7941    12.8600    12.8227
  429.0000     0.1103     0.2634   100.8678     7.6416     0.0372     2.4924    95.1335    11.5016    10.1405    12.2019   -68.9514    12.6727    12.6398
  429.5000     0.1098     0.2574   101.9250     7.6413     0.0275     2.4932    95.5159    11.1930    10.1363    12.1121   -69.1088    12.4199    12.4594
  430.0000     0.1089     0.2604   103.4340     7.6410     0.0066     2.4940    95.8982    11.1097    10.1321    12.0176   -69.4160    12.1581    12.2816
  430.5000     0.1080     0.2725   104.4905     7.6407    -0.0007     2.4956    96.2052    10.9505    10.1279    11.8445   -69.4234    11.9847    12.1063
  431.0000     0.1077     0.2737   101.9340     7.6555    -0.0036     2.4988    96.4367    10.7188    10.1237    11.6740   -69.8806    11.8138    12.0168
  431.5000     0.1065     0.2731    98.6238     7.6703    -0.0017     2.5040    96.5174    10.4920    10.1195    11.4261   -70.0380    11.8081    11.8453
  432.0000     0.1041     0.2756    97.5719     7.6700     0.0262     2.5106    96.4473    10.3417    10.1153    11.3402   -70.3452    11.8025    11.8396
  432.5000     0.1021     0.2798    98.7804     7.6697     0.0356     2.5105    96.3759    10.1936    10.1111    11.2696   -70.6525    11.7968    11.8339
  433.0000     0.1027     0.2783   101.0425     7.6694     0.0324     2.5090    96.2303    10.1177     9.9671    11.4217   -70.6599    11.7911    11.9107
  433.5000     0.1039     0.2684   103.1539     7.6691     0.0232     2.5067    96.0107    10.2555     9.6891    11.4979   -70.8173    11.7855    11.9983
  434.0000     0.1064     0.2617   103.7586     7.6688     0.0096     2.5036    95.9392    10.3217     9.4848    11.6542   -71.1245    11.7798    12.0657
  434.5000     0.1097     0.2608   102.1058     7.6685    -0.0040     2.4976    95.8691    10.4596     9.2203    11.8115   -71.2819    11.8571    12.0584
  435.0000     0.1110     0.2624   102.7112     7.6531    -0.0097     2.4947    96.1020    10.5285     8.9632    11.6433   -71.2894    11.9339    11.8864
  435.5000     0.1077     0.2663   104.6720     7.6528    -0.0064     2.4994    96.4843    10.5218     8.7742    11.3980   -71.3083    11.7624    11.7167
  436.0000     0.0968     0.2636   104.8257     7.6525     0.0136     2.5153    96.7913    10.5911     8.5295    11.1577   -71.4540    11.4348    11.5496
  436.5000     0.0914     0.2588   104.9793     7.6673     0.0435     2.5272    97.0983    10.4380     8.2910    10.9226   -71.3115    11.1164    11.3059
  437.0000     0.0960     0.2594   105.8859     7.6670     0.0396     2.5211    97.4052    10.3603     8.0577    10.7671   -71.3208    10.8068    11.0675
  437.5000     0.0996     0.2594   109.6540     7.6666     0.0325     2.5136    97.7122    10.2119     7.8310    10.6880   -71.3282    10.5058    10.7590
  438.0000     0.1018     0.2591   115.3799     7.6663     0.0400     2.5098    98.0191    10.1359     7.6639    10.6835   -71.3356    10.3560    10.6055
  438.5000     0.1033     0.2531   123.9673     7.6661     0.0367     2.5045    98.3260    10.0602     7.4483    10.6050   -71.3431    10.2083    10.4542
  439.0000     0.1051     0.2652   126.5305     7.6658     0.0215     2.5023    98.6330     9.9162     7.2478    10.5271   -71.3505    10.2034    10.3050
  439.5000     0.1067     0.2818   125.4793     7.6655     0.0081     2.5000    98.9400     9.7741     7.1945    10.3772   -71.2080    10.1280    10.2287
  440.0000     0.1079     0.2903   120.2112     7.6652     0.0052     2.4992    99.1101     9.6340     7.2924    10.3009   -71.2154     9.9836    10.2238
  440.5000     0.1104     0.2958   115.8468     7.6648     0.0159     2.4977    99.3265     9.4960     7.4954    10.2252   -71.0710     9.9788    10.1482
  441.0000     0.1131     0.3002   115.2466     7.6645     0.0095     2.4940    99.5581     9.2297     7.5455    10.0796   -70.7804     9.9050    10.0731
  441.5000     0.1149     0.3070   117.2083     7.6642     0.0037     2.4909    99.6516     9.0344     7.0340    10.0755   -70.7879     9.9002     9.9986
  442.0000     0.1159     0.3061   118.1141     7.6639     0.0129     2.4887    99.7194     8.6606     6.3777    10.0713   -70.6435     9.8955     9.9246
  442.5000     0.1171     0.2828   116.4613     7.6636     0.0157     2.4856    99.8001     8.1875     5.8638    10.0671   -70.3529     9.8212     9.8511
  443.0000     0.1190     0.2765   110.8920     7.6633     0.0081     2.4819   100.1387     7.7403     5.5436    10.0629   -70.2104     9.6152     9.7782
  443.5000     0.1226     0.2789   107.1300     7.6630     0.0021     2.4751   101.8499     7.3176     5.3144     9.9889   -70.2178     9.3341     9.4939
  444.0000     0.1347     0.2971   106.8310     7.6476     0.0021     2.4622   103.9516     7.0638     5.2023     8.7477   -70.2252     8.7506     8.7220
  444.5000     0.1523     0.2989   107.4364     7.6322     0.0112     2.4388   105.7369     7.0112     5.3100     7.0960   -70.2327     7.8643     7.6089
  445.0000     0.1559     0.2862   105.6330     7.6319     0.0248     2.4177   106.0104     7.0076     5.6513     6.8982   -70.2401     7.1693     7.0404
  445.5000     0.1499     0.2932   104.1292     7.6316     0.0292     2.4237   104.6862     7.1030     6.1415     7.6012   -70.2475     7.0670     7.3876
  446.0000     0.1345     0.2908   104.7354     7.6313     0.0246     2.4502   102.3651     7.2987     6.7679     9.2334   -70.5547     8.1155     8.8455
  446.5000     0.1210     0.2700   106.3950     7.6310     0.0186     2.4713   100.4894     7.5531     7.2533    10.1038   -70.8665     9.7834    10.0886
  447.0000     0.1195     0.2648   105.9463     7.6307     0.0095     2.4766    99.1553     7.9813     7.9376    10.4573   -71.0194    10.4816    10.6599
  447.5000     0.1183     0.2724   105.6473     7.6304    -0.0011     2.4811    98.2617     8.4337     8.5663    10.8989   -70.8768    10.8465    11.1857
  448.0000     0.1147     0.2972   105.3499     7.6301     0.0020     2.4879    97.5867     8.8500     9.1168    11.2802   -70.8846    11.3023    11.5754
  448.5000     0.1120     0.2854   104.2987     7.6298     0.0186     2.4932    96.9178     9.4169     9.5685    11.5136   -70.8935    11.6149    11.8958
  449.0000     0.1111     0.2706   102.1933     7.6295     0.0366     2.4924    96.3198     9.8132     9.9728    11.5892   -70.9009    11.8536    12.1405
  449.5000     0.1136     0.2640   100.8401     7.6292     0.0306     2.4894    95.7246    10.1553    10.3942    11.8288   -70.7584    12.0135    12.3044
  450.0000     0.1196     0.2625   101.2221     7.6289     0.0170     2.4839    95.2790    10.5093    10.6094    11.9897   -70.9199    12.1956    12.5915
  450.5000     0.1145     0.2627   102.1958     7.6424     0.0154     2.4819    94.9084    10.7286    11.0681    12.0698   -70.9928    12.3086    12.7890
