~VERSION INFORMATION
 VERS.                2.0:   CWLS LOG ASCII STANDARD - VERSION 2.0
 WRAP.                 NO:   ONE LINE PER DEPTH STEP
~WELL INFORMATION
#MNEM.UNIT      DATA TYPE    INFORMATION
#----------   ------------   ------------------------------
 STRT.F           10.0000:   START DEPTH
 STOP.F          580.0000:   STOP DEPTH
 STEP.F            0.5000:   STEP LENGTH
 NULL.          -999.2500:   NO VALUE
 COMP. FENIX & SCISSON INC:   COMPANY
 WELL.     NPR 3 #28-S-34:   WELL
 FLD .        TEAPOT DOME:   FIELD
 LOC .      S34 T39N R78W:   LOCATION
 CNTY.            NATRONA:   COUNTY
 STAT.            WYOMING:   STATE
 CTRY. UNITED STATES OF AMERICA:   COUNTRY
 SRVC.           BIRDWELL:   SERVICE COMPANY
 DATE.        05-AUG-1978:   LOGDATE
 API .       490251068200:   API NUMBER
~CURVE INFORMATION
#MNEM.UNIT       API CODE    CURVE DESCRIPTION
#----------   ------------   ------------------------------
 DEPT.F                  :   
 SPR .MV     05 010 01 00:   SPONTANEOUS POTENTIAL FROM RES.
 IL  .OHMM   05 120 00 00:   INDUCTION LOG
 SN  .OHMM   05 040 16 00:   SHORT NORMAL 16"
 GRD .GAPI   45 310 01 00:   GAMMA RAY FROM DENSITY LOG
 CALD.IN     45 280 60 00:   CALIPER
 RHOB.G/C3   45 350 01 00:   BULK DENSITY
 DPHI.DEC    45 890 12 00:   DENSITY POROSITY SANDSTONE
 CORR.G/C3   45 356 01 00:   DENSITY CORRECTION
~PARAMETER INFORMATION
#MNEM.UNIT          VALUE    DESCRIPTION
#----------   ------------   ------------------------------
 PD  .                 GL:   PERMANENT DATUM
 EPD .F              5191:   ELEVATION PERMANENT DATUM
 LMF .                 KB:   LOG MEASURED FROM
 DAPD.F                 4:   FEET ABOVE PERMANENT DATUM
 DMF .                 KB:   DRILLING MEASURED FROM
 EKB .F              5195:   KELLING BUSHING
 EGL .F              5191:   GROUND LEVEL
 DATE.             8-5-78:   RUN DATE
 RUN .                  1:   RUN NUMBER
 DD  .F               570:   DEPTH DRILLER
 DL  .F               586:   DEPTH LOGGER
 BLI .F               580:   BOTTOM LOG INTERVAL
 TLI .F                30:   TOP LOG INTERVAL
 CS  .IN            8.625:   CASING SIZE
 BS  .IN            7.875:   BIT SIZE
 BSD .F               570:   BIT SIZE AT DEPTH
 DFT .                KCL:   DRILLING FLUID TYPE
 DFD .                8.6:   DRILLING FLUID DENSITY
 DFV .                 32:   DRILLING FLUID VISCOSITY
 DFPH.                9.5:   DRILLING FLUID PH
 MSS .          FLOW LINE:   MUD SAMPLE SOURCE
 RMS .OHMM             .9:   RESISTIVITY MUD SAMPLE
 MST .F                74:   MUD SAMPLE TEMPERATURE
 RMF .OHMM            .17:   RESISTIVITY MUD FILTRATE SAMPLE
 MFST.F                79:   MUD FILTRATE SAMPLE TEMPERATURE
 RMC .OHMM            .42:   RESISTIVITY MUD CAKE
 MCST.F                80:   MUD CAKE SAMPLE TEMPERATURE
 MFSS.               MEAS:   MUD FILTRATE SAMPLE SOURCE
 TCS .HRS               3:   TIME CURCULATED STOPPED
 LUN .               3006:   LOGGING UNIT NUMBER
 LUL .               CASP:   LOGGING UNIT LOCATION
 ENGI.             MILLER:   RECORDING ENGINEER
 WITN.           MCGINLEY:   WITNESSED BY
 CLNT.            A2DTECH:   CLIENT CODE
 ORIG.           5" PRINT:   ORIGIN OF DATA
 UWI .       490251068200:   UNIQUE WELL ID
 DICO. A2D Technologies, Inc.:   DIGITIZING COMPANY
~OTHER INFORMATION
~A   DEPT      SPR         IL         SN         GRD      CALD       RHOB       DPHI       CORR   
# ...
  374.5000   -15.7260     5.4860     5.3020   108.0880     7.6440     2.4280     0.1360     0.0200
  375.0000   -15.7180     5.3300     5.2230   108.8130     7.6450     2.4380     0.1410     0.0130
  375.5000   -15.7060     5.2380     5.1780   108.2940     7.6500     2.4470     0.1380    -0.0060
  376.0000   -15.6850     5.2190     5.1330   103.3540     7.6560     2.4490     0.1370    -0.0140
  376.5000   -15.9050     5.1990     5.0880    97.5200     7.6610     2.4490     0.1420    -0.0150
  377.0000   -15.8810     5.1790     5.0430    97.7880     7.6670     2.4390     0.1470    -0.0160
  377.5000   -15.8400     5.1590     4.9980   100.0450     7.6730     2.4280     0.1520    -0.0180
  378.0000   -15.7990     5.1390     4.9530   101.2570     7.6780     2.4170     0.1570    -0.0190
  378.5000   -15.7580     5.1190     4.9080   101.2730     7.6840     2.4050     0.1590    -0.0140
  379.0000   -15.7160     5.0960     4.8630   100.2450     7.6730     2.4040     0.1570    -0.0050
  379.5000   -15.6740     5.0410     4.8180    99.2450     7.6610     2.4210     0.1460     0.0010
  380.0000   -15.6330     4.9860     4.7730    98.3420     7.6480     2.4390     0.1350     0.0010
  380.5000   -15.5910     4.9320     4.7020    98.4050     7.6360     2.4560     0.1250     0.0000
  381.0000   -15.5490     4.8780     4.7250    99.3520     7.6240     2.4730     0.1230     0.0000
  381.5000   -15.5050     4.9520     4.7800   100.2790     7.6110     2.4740     0.1260    -0.0010
  382.0000   -15.5840     5.1270     4.9630   100.9660     7.6030     2.4700     0.1240     0.0000
  382.5000   -15.6830     5.3010     5.1370   100.3660     7.5990     2.4720     0.1220     0.0020
  383.0000   -15.7830     5.4750     5.3120    99.5530     7.5940     2.4760     0.1230     0.0050
  383.5000   -15.8830     5.6500     5.4860    99.2080     7.5900     2.4790     0.1220     0.0080
  384.0000   -15.9840     5.8240     5.6600   103.4280     7.5860     2.4830     0.1200     0.0100
  384.5000   -16.0830     6.0270     5.8630   101.5290     7.5820     2.4850     0.1190     0.0090
  385.0000   -16.1790     5.9400     5.7180    99.3020     7.5780     2.4850     0.1230     0.0050
  385.5000   -16.2650     5.7440     5.4920   100.0520     7.5740     2.4700     0.1330     0.0000
  386.0000   -16.5080     5.5480     5.2660   100.4170     7.5690     2.4490     0.1420    -0.0040
  386.5000   -16.2550     5.3520     5.0400    97.7640     7.5650     2.4290     0.1550    -0.0070
  387.0000   -15.8870     5.1550     4.8140    95.4560     7.5780     2.4070     0.1670    -0.0020
  387.5000   -15.5180     4.9590     4.5880    95.7640     7.5980     2.4000     0.1580     0.0160
  388.0000   -15.1470     4.7630     4.3620   105.9970     7.6170     2.4220     0.1500     0.0210
  388.5000   -14.7760     4.5740     4.3290   107.1850     7.6360     2.4350     0.1410     0.0020
  389.0000   -14.4050     4.4500     4.3290   102.4180     7.6550     2.4400     0.1360    -0.0010
  389.5000   -14.0340     4.4500     4.3290    99.2980     7.6630     2.4610     0.1310     0.0010
  390.0000   -13.6630     4.6160     4.4800   102.3580     7.6360     2.4620     0.1240     0.0030
  390.5000   -13.2920     4.9980     4.7100   102.8740     7.6110     2.4930     0.1160     0.0050
  391.0000   -12.9210     5.3590     4.9400   100.8130     7.5850     2.4990     0.1110     0.0070
  391.5000   -12.5520     5.7190     5.1700    98.6860     7.5590     2.5020     0.1090     0.0090
  392.0000   -12.5320     6.0790     5.4000    96.5670     7.5340     2.5050     0.1080     0.0080
  392.5000   -12.5960     6.4400     5.6300    94.4520     7.5080     2.4980     0.1170     0.0060
  393.0000   -12.6600     6.5460     5.8600    93.3960     7.4850     2.4910     0.1130     0.0030
  393.5000   -12.7240     6.6070     6.0270    95.8240     7.4950     2.4890     0.1160     0.0010
  394.0000   -12.7890     6.6010     6.0500    96.9460     7.5150     2.4810     0.1210    -0.0010
  394.5000   -12.8530     6.5960     6.0770    95.8960     7.4980     2.4780     0.1210    -0.0030
  395.0000   -12.9180     6.5900     6.1040    93.8110     7.4460     2.4790     0.1210    -0.0050
  395.5000   -12.9830     6.5850     6.1300    91.8860     7.3940     2.4800     0.1200    -0.0040
  396.0000   -13.0470     6.5800     6.1570    91.9710     7.3400     2.4820     0.1190    -0.0040
  396.5000   -13.1120     6.5750     6.1840    96.4740     7.3390     2.4830     0.1180    -0.0030
  397.0000   -13.1770     6.5690     6.2110    97.3930     7.3900     2.4850     0.1170    -0.0020
  397.5000   -13.2410     6.5640     6.2380    95.2780     7.4400     2.4860     0.1160    -0.0020
  398.0000   -13.2980     6.5590     6.2640    92.8140     7.4650     2.4880     0.1150    -0.0010
  398.5000   -13.2720     6.5530     6.2910    90.8100     7.4410     2.4890     0.1150     0.0000
  399.0000   -13.2460     6.5460     6.3100    91.9660     7.4080     2.4900     0.1170     0.0000
  399.5000   -13.2210     6.5470     6.2870    94.3550     7.3750     2.4860     0.1180     0.0010
  400.0000   -13.1950     6.4990     6.2700    96.8130     7.3420     2.4820     0.1200     0.0000
  400.5000   -13.1690     6.4470     6.2520    96.9410     7.3070     2.4780     0.1220    -0.0010
  401.0000   -13.1440     6.3680     6.2350    96.9270     7.3110     2.4740     0.1240    -0.0030
  401.5000   -13.1180     6.5280     6.2180    96.1540     7.3190     2.4700     0.1260    -0.0050
  402.0000   -13.1010     6.8420     6.2000    94.0170     7.3270     2.4690     0.1250    -0.0070
  402.5000   -13.1360     7.1550     6.1820    92.5300     7.3350     2.4690     0.1290    -0.0090
  403.0000   -13.1700     7.3100     6.1420    92.6300     7.3440     2.4630     0.1380    -0.0130
  403.5000   -13.2030     7.2030     6.1010    89.8030     7.2950     2.4490     0.1550    -0.0170
  404.0000   -13.2360     6.8930     6.0540    87.5870     7.2260     2.3810     0.1730    -0.0200
  404.5000   -13.2670     6.5830     5.8430    87.9530     7.1650     2.3830     0.1850    -0.0230
  405.0000   -13.2910     6.2720     5.6310    92.1210     7.1930     2.3710     0.1930    -0.0170
  405.5000   -13.1390     5.9620     5.4200    99.0130     7.2510     2.3350     0.1890     0.0100
  406.0000   -12.4890     5.6510     5.2080   108.4540     7.4730     2.3690     0.1640     0.0430
  406.5000   -11.8520     5.3410     5.0150   110.6590     8.2310     2.4310     0.1290     0.0230
  407.0000   -11.2180     5.1080     4.9690    97.2340     7.2890     2.4770     0.1090    -0.0040
  407.5000   -10.5840     5.0610     4.9690    86.2490     7.2960     2.4990     0.1020    -0.0070
  408.0000    -9.9450     5.0610     5.1080    86.3920     7.3550     2.5000     0.1050    -0.0060
  408.5000    -9.2790     5.5140     5.3750    88.2550     7.4090     2.5000     0.1100    -0.0050
  409.0000    -8.9530     6.2320     5.8470    87.5350     7.4590     2.4980     0.1110    -0.0010
  409.5000    -8.9180     6.9510     6.3190    88.5960     7.4590     2.4960     0.1100     0.0050
  410.0000    -8.9500     7.6690     6.7910    91.2190     7.3660     2.5010     0.1090     0.0080
  410.5000    -8.9850     8.3870     7.1950    93.7680     7.3530     2.5040     0.1100     0.0050
  411.0000    -9.0180     9.1140     7.2930    92.6770     7.3790     2.4950     0.1160     0.0020
  411.5000    -9.0540     8.9350     7.3910    91.9140     7.4060     2.4800     0.1210    -0.0010
  412.0000    -9.0860     8.7080     7.4890    93.0900     7.3490     2.4810     0.1280    -0.0040
  412.5000    -8.8470     8.4810     7.5870    94.1590     7.2850     2.4620     0.1370    -0.0070
  413.0000    -6.7340     8.3900     7.6860    92.2400     7.3430     2.4430     0.1470    -0.0100
  413.5000    -5.7530     8.9810     7.8960    88.8160     7.4000     2.4180     0.1610    -0.0130
  414.0000    -5.0410     9.5700     8.1790    81.6330     7.3000     2.3800     0.1760    -0.0160
  414.5000    -3.9140    10.1580     8.4610    71.5830     7.1950     2.3440     0.1910    -0.0140
