~VERSION INFORMATION
 VERS.                2.0:   CWLS LOG ASCII STANDARD - VERSION 2.0
 WRAP.                 NO:   ONE LINE PER DEPTH STEP
~WELL INFORMATION
#MNEM.UNIT      DATA TYPE    INFORMATION
#----------   ------------   ------------------------------
 STRT.F         1596.0000:   START DEPTH
 STOP.F         3210.0000:   STOP DEPTH
 STEP.F            0.5000:   STEP LENGTH
 NULL.          -999.2500:   NO VALUE
 COMP.   FLUOR DANIEL INC:   COMPANY
 WELL. NAVAL PETROLEUM RESERVE 3 X-23 #73-23:   WELL
 FLD .             TEAPOT:   FIELD
 LOC .      S23 T38N R78W:   LOCATION
 CNTY.            NATRONA:   COUNTY
 STAT.            WYOMING:   STATE
 CTRY. UNITED STATES OF AMERICA:   COUNTRY
 SRVC.            Unknown:   SERVICE COMPANY
 DATE.        29-JAN-1995:   LOGDATE
 API .       490252265000:   API NUMBER
~CURVE INFORMATION
#MNEM.UNIT       API CODE    CURVE DESCRIPTION
#----------   ------------   ------------------------------
 DEPT.F                  :   
 TGAS.TC/CC  91 830 01 00:   TOTAL GAS UNIT
 ROP .FT/HR  91 810 01 00:   RAT OF DRILLING PENETRATION
~PARAMETER INFORMATION
#MNEM.UNIT          VALUE    DESCRIPTION
#----------   ------------   ------------------------------
 EKB .F              5433:   KELLING BUSHING
 EGL .F              5423:   GROUND LEVEL
 DATE.        29-JAN-1995:   RUN DATE
 RUN .                  1:   RUN NUMBER
 BLI .F              3210:   BOTTOM LOG INTERVAL
 TLI .F              1600:   TOP LOG INTERVAL
 WITN.     C.TOWER/R.HUSK:   WITNESSED BY
 CLNT.            A2DTECH:   CLIENT CODE
 ORIG.           5" PRINT:   ORIGIN OF DATA
 UWI .       490252265000:   UNIQUE WELL ID
 DICO. A2D Technologies, Inc.:   DIGITIZING COMPANY
~OTHER INFORMATION
~A  DEPT        TGAS        ROP 
# ...
 2082.0000     2.4528     0.5396
 2082.5000     2.4528     0.5401
 2083.0000     2.4528     0.5406
 2083.5000     2.4528     0.5411
 2084.0000     2.4528     0.5416
 2084.5000     2.4528     0.5421
 2085.0000     2.4528     0.5425
 2085.5000     2.4656     0.5430
 2086.0000     2.6415     0.5434
 2086.5000     2.5923     0.5438
 2087.0000     2.5013     0.5393
 2087.5000     2.4104     0.5355
 2088.0000     2.5669     0.5316
 2088.5000     2.5611     0.5277
 2089.0000     2.5565     0.5239
 2089.5000     2.5643     0.5200
 2090.0000     2.5472     0.5161
 2090.5000     2.5425     0.5123
 2091.0000     2.5377     0.5084
 2091.5000     2.5321     0.5054
 2092.0000     2.5275     0.5057
 2092.5000     2.5228     0.5059
 2093.0000     2.7080     0.5156
 2093.5000     2.5135     0.5158
 2094.0000     2.5089     0.4311
 2094.5000     2.5043     0.4219
 2095.0000     2.4996     0.4212
 2095.5000     2.4950     0.4205
 2096.0000     2.4903     0.4198
 2096.5000     2.4857     0.4191
 2097.0000     2.4811     0.4184
 2097.5000     2.2877     0.4178
 2098.0000     2.0943     0.4171
 2098.5000     2.0896     0.4164
 2099.0000     1.8953     0.4157
 2099.5000     1.8907     0.4149
 2100.0000     1.8860     0.4151
 2100.5000     2.0712     0.4154
 2101.0000     2.0654     0.4156
 2101.5000     2.2506     0.4158
 2102.0000     2.2453     0.4161
 2102.5000     2.2402     0.4163
 2103.0000     2.0469     0.4165
 2103.5000     2.0422     0.4168
 2104.0000     2.0376     0.4170
 2104.5000     2.0329     0.4172
 2105.0000     2.0283     0.4166
 2105.5000     2.0236     0.4133
 2106.0000     2.0189     0.4101
 2106.5000     2.0132     0.4087
 2107.0000     1.8199     0.4090
 2107.5000     1.8317     0.4092
 2108.0000     1.8544     0.4189
 2108.5000     1.8770     0.4197
 2109.0000     1.8997     0.4254
 2109.5000     1.9223     0.4311
 2110.0000     1.9450     0.4369
 2110.5000     1.9676     0.4426
 2111.0000     1.9717     0.4483
 2111.5000     1.7780     0.4528
 2112.0000     1.7734     0.4528
 2112.5000     1.7687     0.4434
 2113.0000     1.7640     0.4528
 2113.5000     1.9480     0.4434
 2114.0000     1.9433     0.4434
 2114.5000     1.9386     0.4428
 2115.0000     1.9340     0.4340
 2115.5000     1.9292     0.4151
 2116.0000     2.1133     0.4245
 2116.5000     2.1085     0.4057
 2117.0000     2.1039     0.4057
 2117.5000     2.2877     0.4057
 2118.0000     2.2830     0.4057
 2118.5000     2.2774     0.4057
 2119.0000     2.2727     0.4057
 2119.5000     2.2681     0.4057
 2120.0000     2.2634     0.4057
 2120.5000     2.2587     0.4057
 2121.0000     2.2540     0.4057
 2121.5000     2.2493     0.4057
 2122.0000     2.2447     0.4057
 2122.5000     2.2400     0.4057
 2123.0000     2.2353     0.4057
 2123.5000     2.2306     0.4151
 2124.0000     2.4158     0.4151
 2124.5000     2.4104     0.4151
 2125.0000     2.4053     0.4245
 2125.5000     2.5904     0.4340
 2126.0000     2.3959     0.5566
 2126.5000     2.2026     0.5566
 2127.0000     1.6318     0.5566
 2127.5000     1.6272     0.5566
 2128.0000     1.4338     0.5660
 2128.5000     1.4292     0.5755
 2129.0000     1.4245     0.5849
 2129.5000     1.6085     0.5849
 2130.0000     1.6038     0.5840
 2130.5000     1.7878     0.5782
 2131.0000     1.7956     0.5724
 2131.5000     1.9859     0.5666
 2132.0000     2.1511     0.5608
 2132.5000     2.1462     0.5550
 2133.0000     2.1406     0.5492
 2133.5000     2.1359     0.5434
 2134.0000     2.1312     0.5406
 2134.5000     2.1265     0.5403
 2135.0000     2.1219     0.5401
 2135.5000     2.1164     0.5398
 2136.0000     2.0951     0.5396
 2136.5000     2.0738     0.5394
 2137.0000     2.0511     0.5391
 2137.5000     2.0395     0.5389
 2138.0000     2.0280     0.5387
 2138.5000     1.8937     0.5384
 2139.0000     1.8160     0.5382
 2139.5000     1.8042     0.5379
 2140.0000     1.7925     0.5377
 2140.5000     1.7807     0.5375
 2141.0000     1.7689     0.5373
 2141.5000     1.7553     0.5370
 2142.0000     1.5550     0.5368
 2142.5000     1.7350     0.5366
 2143.0000     1.5318     0.5457
 2143.5000     1.5203     0.5455
 2144.0000     1.5087     0.5453
 2144.5000     1.3084     0.5450
 2145.0000     1.4855     0.5448
 2145.5000     1.4739     0.5446
 2146.0000     1.4623     0.5443
 2146.5000     1.4505     0.5420
 2147.0000     1.4387     0.5410
 2147.5000     1.4247     0.5413
 2148.0000     1.4131     0.5415
 2148.5000     1.4015     0.5512
 2149.0000     1.3899     0.5514
 2149.5000     1.5684     0.5611
 2150.0000     1.5566     0.5613
 2150.5000     1.5438     0.5521
 2151.0000     1.5322     0.5524
 2151.5000     1.5212     0.5432
 2152.0000     1.5090     0.5434
 2152.5000     1.4975     0.5436
 2153.0000     1.4858     0.5439
 2153.5000     1.4741     0.5441
 2154.0000     1.4623     0.5538
 2154.5000     1.4505     0.5540
 2155.0000     1.4366     0.5637
 2155.5000     1.4250     0.5734
 2156.0000     1.4135     0.5736
 2156.5000     1.4019     0.5833
 2157.0000     1.2016     0.5835
 2157.5000     1.1900     0.5837
 2158.0000     1.1784     0.5934
 2158.5000     0.9788     0.5936
 2159.0000     0.7779     0.5939
 2159.5000     0.7663     0.5847
 2160.0000     0.7547     0.5849
 2160.5000     0.7429     0.5852
 2161.0000     0.9202     0.5854
 2161.5000     0.9057     0.5856
 2162.0000     1.0857     0.5859
 2162.5000     1.0712     0.5861
 2163.0000     1.0597     0.5863
 2163.5000     1.2396     0.5866
 2164.0000     1.2252     0.5868
 2164.5000     1.2159     0.5862
 2165.0000     1.2124     0.5684
 2165.5000     1.2089     0.5687
 2166.0000     1.2054     0.5689
 2166.5000     1.2019     0.5691
 2167.0000     1.1983     0.5694
 2167.5000     1.2030     0.5696
 2168.0000     1.2077     0.5698
 2168.5000     1.2124     0.5701
 2169.0000     1.2170     0.5703
 2169.5000     1.2218     0.5705
 2170.0000     1.2265     0.5802
 2170.5000     1.2312     0.5899
 2171.0000     1.2358     0.5901
 2171.5000     1.2406     0.5904
 2172.0000     1.2453     0.6000
 2172.5000     1.2500     0.6003
 2173.0000     1.0660     0.6005
 2173.5000     1.0708     0.6007
 2174.0000     1.0755     0.6010
 2174.5000     1.0802     0.6012
 2175.0000     1.0849     0.5872
 2175.5000     1.2783     0.5965
 2176.0000     1.2830     0.5962
 2176.5000     1.4764     0.6055
 2177.0000     1.4811     0.5957
 2177.5000     1.4858     0.5955
 2178.0000     1.4906     0.5953
 2178.5000     1.4953     0.5856
 2179.0000     1.5000     0.5759
 2179.5000     1.3159     0.5662
 2180.0000     1.5094     0.5660
 2180.5000     1.5142     0.5753
 2181.0000     1.4826     0.5750
 2181.5000     1.3347     0.5747
 2182.0000     1.5283     0.5745
 2182.5000     1.5339     0.5743
 2183.0000     1.5386     0.5835
 2183.5000     1.5433     0.5930
 2184.0000     1.5480     0.5925
 2184.5000     1.5527     0.6017
 2185.0000     1.5574     0.6014
 2185.5000     1.5613     0.6011
 2186.0000     1.7555     0.6009
 2186.5000     1.9489     0.6102
 2187.0000     1.9536     0.6099
 2187.5000     2.1470     0.6097
 2188.0000     2.3396     0.4774
 2188.5000     2.3451     0.4771
 2189.0000     2.3498     0.4769
 2189.5000     2.3545     0.4766
 2190.0000     2.3585     0.4669
 2190.5000     2.3639     0.4667
 2191.0000     2.3686     0.4665
 2191.5000     2.3733     0.4667
 2192.0000     2.3780     0.4670
 2192.5000     2.1934     0.4673
 2193.0000     2.1981     0.4676
 2193.5000     2.2034     0.4679
 2194.0000     2.2081     0.4682
 2194.5000     2.2128     0.4685
 2195.0000     2.2175     0.4688
 2195.5000     2.2222     0.4691
 2196.0000     2.4156     0.4694
 2196.5000     2.2316     0.4697
 2197.0000     2.2363     0.4699
 2197.5000     2.1836     0.4702
 2198.0000     2.0559     0.4705
 2198.5000     2.0613     0.4708
 2199.0000     2.0660     0.4711
 2199.5000     2.0708     0.4714
 2200.0000     2.2645     0.4717
 2200.5000     2.2692     0.4712
 2201.0000     2.2739     0.4708
 2201.5000     2.2786     0.4703
 2202.0000     2.2834     0.4698
 2202.5000     2.2315     0.4693
 2203.0000     2.1758     0.4689
