~VERSION INFORMATION
 VERS.                2.0:   CWLS LOG ASCII STANDARD - VERSION 2.0
 WRAP.                 NO:   ONE LINE PER DEPTH STEP
~WELL INFORMATION
#MNEM.UNIT      DATA TYPE    INFORMATION
#----------   ------------   ------------------------------
 STRT.F           27.0000:   START DEPTH
 STOP.F          538.0000:   STOP DEPTH
 STEP.F            0.5000:   STEP LENGTH
 NULL.          -999.2500:   NO VALUE
 COMP. FENIX & SCISSON INC:   COMPANY
 WELL.        NPR 3 #24-3:   WELL
 FLD .             TEAPOT:   FIELD
 LOC .       S3 T38N R78W:   LOCATION
 CNTY.            NATRONA:   COUNTY
 STAT.            WYOMING:   STATE
 CTRY. UNITED STATES OF AMERICA:   COUNTRY
 SRVC.            Unknown:   SERVICE COMPANY
 DATE.        26-SEP-1978:   LOGDATE
 API .       490251068800:   API NUMBER
~CURVE INFORMATION
#MNEM.UNIT       API CODE    CURVE DESCRIPTION
#----------   ------------   ------------------------------
 DEPT.F                  :   
 SPR .MV     05 010 01 00:   SPONTANEOUS POTENTIAL FROM RES.
 ILD .OHMM   05 120 46 00:   INDUCTION LOG DEEP
 SN  .OHMM   05 040 16 00:   SHORT NORMAL 16"
 CALD.IN     45 280 60 00:   CALIPER
 GRD .GAPI   45 310 01 00:   GAMMA RAY FROM DENSITY LOG
 DEN .G/C3   45 350 01 00:   COMPENSATED BULK DENSTIY
 DPHI.DEC    45 890 12 00:   DENSITY POROSITY SANDSTONE
 CORR.G/C3   45 356 01 00:   DENSITY CORRECTION
~PARAMETER INFORMATION
#MNEM.UNIT          VALUE    DESCRIPTION
#----------   ------------   ------------------------------
 PD  .                 GL:   PERMANENT DATUM
 EPD .F              5200:   ELEVATION PERMANENT DATUM
 LMF .                 KB:   LOG MEASURED FROM
 DAPD.F                 4:   FEET ABOVE PERMANENT DATUM
 DMF .                 KB:   DRILLING MEASURED FROM
 EKB .F              5204:   KELLING BUSHING
 EGL .F              5200:   GROUND LEVEL
 DATE.            9-26-78:   RUN DATE
 RUN .                  1:   RUN NUMBER
 DD  .F               537:   DEPTH DRILLER
 DL  .F               538:   DEPTH LOGGER
 BLI .F               532:   BOTTOM LOG INTERVAL
 TLI .F                40:   TOP LOG INTERVAL
 CS  .IN            8.625:   CASING SIZE
 CBD .F                40:   CASING BOTTOM DRILLER
 CBL .F                46:   CASING BOTTOM LOGGER
 BS  .IN            7.875:   BIT SIZE
 BSD .F               537:   BIT SIZE AT DEPTH
 DFT .                KCL:   DRILLING FLUID TYPE
 DFD .                8.7:   DRILLING FLUID DENSITY
 DFV .                 37:   DRILLING FLUID VISCOSITY
 DFPH.                  9:   DRILLING FLUID PH
 DFL .                 10:   DRILLING FLUID LOSS
 MSS .          FLOW LINE:   MUD SAMPLE SOURCE
 RMS .OHMM            .18:   RESISTIVITY MUD SAMPLE
 MST .F                72:   MUD SAMPLE TEMPERATURE
 RMF .OHMM            .16:   RESISTIVITY MUD FILTRATE SAMPLE
 MFST.F                76:   MUD FILTRATE SAMPLE TEMPERATURE
 RMC .OHMM            .26:   RESISTIVITY MUD CAKE
 MCST.F                76:   MUD CAKE SAMPLE TEMPERATURE
 MFSS.               MEAS:   MUD FILTRATE SAMPLE SOURCE
 RMB .OHMM            .18:   RESISTIVITY MUD AT BHT
 BHT .F                71:   BOTTOM HOLE TEMPERATURE
 TCS .HRS               3:   TIME CURCULATED STOPPED
 MRT .F                71:   MAXIMUM RECORDED TEMPERATURE
 LUN .               2958:   LOGGING UNIT NUMBER
 LUL .               CASP:   LOGGING UNIT LOCATION
 ENGI.           REYNOLDS:   RECORDING ENGINEER
 WITN.              AMEND:   WITNESSED BY
 CLNT.            A2DTECH:   CLIENT CODE
 ORIG.           5" PRINT:   ORIGIN OF DATA
 UWI .       490251068800:   UNIQUE WELL ID
 DICO. A2D Technologies, Inc.:   DIGITIZING COMPANY
~OTHER INFORMATION
~A   DEPT      SPR        ILD         SN       CALD         GRD       DEN       DPHI       CORR   
# ...
  472.5000   -60.4332    13.3393     9.0103     7.7261   107.0973     2.5062     0.0997     0.0450
  473.0000   -60.2658    13.5154     8.9094     7.7098   106.2218     2.5076     0.1007     0.0474
  473.5000   -60.0938    13.6552     8.8099     7.6935   105.3534     2.5031     0.1043     0.0519
  474.0000   -59.9609    13.7963     8.7086     7.6771   106.1642     2.4981     0.1079     0.0644
  474.5000   -60.3671    13.9390     8.6179     7.6701   107.1173     2.4945     0.1072     0.0765
  475.0000   -60.7749    14.0831     8.5249     7.6698   107.3594     2.5000     0.1037     0.0873
  475.5000   -61.1806    14.2287     8.4329     7.6590   107.1389     2.5113     0.0958     0.0814
  476.0000   -61.5840    14.3416     8.3419     7.6319   106.9074     2.5225     0.0854     0.0628
  476.5000   -61.9366    13.7554     8.2518     7.6052   106.7276     2.5344     0.0926     0.0438
  477.0000   -61.9294    13.1317     8.0912     7.5773   107.3609     2.5234     0.1063     0.0422
  477.5000   -62.0382    12.2374     7.8722     7.5878   109.4604     2.5021     0.1201     0.0700
  478.0000   -62.7165    11.9425     7.7231     7.6144   111.6942     2.4809     0.1341     0.1365
  478.5000   -63.2062    11.7039     7.7687     7.7385   112.4610     2.4596     0.1416     0.2281
  479.0000   -63.4048    11.0615     7.7322     8.0643   109.3910     2.4377     0.1462     0.3194
  479.5000   -63.6075    10.2391     7.6218     8.3887   107.2486     2.4342     0.1303     0.4006
  480.0000   -63.7520     9.4642     7.4886     8.6016   105.0785     2.4610     0.1139     0.4154
  480.5000   -63.8264     8.7235     7.3577     8.7898   104.2828     2.4896     0.1020     0.4003
  481.0000   -63.9011     8.3179     7.2291     8.9668   104.5451     2.5132     0.0974     0.3862
  481.5000   -63.9749     8.8826     7.1070     8.9195   105.7269     2.5089     0.0998     0.3659
  482.0000   -64.0499     9.1240     6.9915     8.9948   109.3480     2.5050     0.1030     0.3285
  482.5000   -64.1993     9.2980     6.8144     9.2845   112.4648     2.5106     0.0996     0.2197
  483.0000   -64.8335     8.5903     6.4400     9.4529   113.0306     2.5292     0.0941     0.1126
  483.5000   -65.1100     7.8685     6.0931     8.5323   113.7467     2.5253     0.0910     0.0299
  484.0000   -65.4244     7.0409     5.7983     7.7108   116.6605     2.5126     0.1081     0.0152
  484.5000   -66.2050     6.1304     5.7078     7.7282   119.6200     2.4896     0.1264     0.0154
  485.0000   -66.6582     6.2437     5.4475     7.7544   126.9683     2.4669     0.1383     0.0266
  485.5000   -67.0927     6.4059     5.1420     7.7791   135.0802     2.4440     0.1483     0.0391
  486.0000   -66.9391     6.5399     5.1422     7.8038   142.4834     2.4217     0.1586     0.0514
  486.5000   -66.7449     6.4004     5.3406     7.8286   143.7767     2.4044     0.1472     0.0485
  487.0000   -66.5514     6.2857     5.5977     7.8079   134.4967     2.4274     0.1312     0.0390
  487.5000   -66.3519     6.2447     5.8334     7.7830   123.9595     2.4624     0.1185     0.0297
  488.0000   -66.2312     7.1803     6.3785     7.7583   115.2421     2.4981     0.1086     0.0229
  488.5000   -66.1296     7.9102     6.9132     7.7335   113.5361     2.5138     0.1008     0.0230
  489.0000   -66.0290     8.7232     7.1516     7.7089   117.0081     2.5094     0.0975     0.0230
  489.5000   -65.9274     9.7115     7.3944     7.6902   118.6366     2.5049     0.0943     0.0230
  490.0000   -65.8194    10.9600     7.6126     7.6936   120.2269     2.5144     0.0910     0.0230
  490.5000   -65.7022    10.7949     7.8059     7.6967   128.0794     2.5238     0.0885     0.0230
  491.0000   -65.4534    10.4529     8.0041     7.6997   136.0919     2.5248     0.0863     0.0230
  491.5000   -65.1268    10.1867     8.2075     7.7027   135.9270     2.5260     0.0840     0.0231
  492.0000   -64.6925    10.1857     8.4161     7.7057   134.6730     2.5352     0.0811     0.0269
  492.5000   -64.2560    10.1895     8.6297     7.7087   129.7675     2.5422     0.0791     0.0260
  493.0000   -64.1213    10.5138     8.7472     7.7117   124.5444     2.5399     0.0806     0.0251
  493.5000   -63.9674    10.7420     8.8070     7.7147   124.0649     2.5377     0.0822     0.0243
  494.0000   -63.7995    10.9750     8.8675     7.7178   126.6877     2.5357     0.0807     0.0234
  494.5000   -63.6309    11.2132     8.9285     7.7208   130.7477     2.5386     0.0794     0.0225
  495.0000   -63.4626    11.4565     8.9899     7.7238   131.3042     2.5404     0.0786     0.0217
  495.5000   -63.2844    11.7051     9.0518     7.7268   131.3123     2.5379     0.0815     0.0210
  496.0000   -63.0670    11.9592     9.1139     7.7299   131.6392     2.5354     0.0862     0.0212
  496.5000   -62.8471    12.2194     9.1765     7.7300   132.7658     2.5329     0.0898     0.0214
  497.0000   -62.6282    12.4852     9.2399     7.7300   133.8633     2.5304     0.0877     0.0215
  497.5000   -62.4037    12.5701     9.3809     7.7300   133.9087     2.5285     0.0857     0.0217
  498.0000   -62.5102    12.6542     9.5413     7.7300   133.8188     2.5291     0.0837     0.0219
  498.5000   -62.7966    12.7393     9.6377     7.7300   131.2872     2.5305     0.0826     0.0220
  499.0000   -63.0897    12.8251     9.7351     7.7301   129.3168     2.5318     0.0842     0.0222
  499.5000   -62.9342    12.8500     9.8334     7.7274   129.1811     2.5331     0.0857     0.0224
  500.0000   -62.7183    12.8699     9.9328     7.7242   128.9334     2.5310     0.0873     0.0225
  500.5000   -62.5303    12.8898    10.0029     7.7211   128.5326     2.5258     0.0865     0.0227
  501.0000   -62.6395    12.9097    10.0029     7.7181   126.4239     2.5273     0.0846     0.0228
  501.5000   -62.7461    12.9295    10.0029     7.7150   120.8677     2.5328     0.0827     0.0232
  502.0000   -62.8488    12.9558    10.0031     7.7119   115.7732     2.5343     0.0854     0.0248
  502.5000   -62.8488    12.8681     9.9942     7.7088   115.9555     2.5240     0.0917     0.0265
  503.0000   -62.5916    12.6945     9.9052     7.7057   121.8188     2.5138     0.0981     0.0282
  503.5000   -62.0732    12.5232     9.8169     7.7026   125.4525     2.5082     0.0948     0.0299
  504.0000   -61.5459    12.3710     9.7295     7.6995   123.5638     2.5146     0.0906     0.0316
  504.5000   -61.8079    12.3710     9.6429     7.6964   121.2026     2.5212     0.0864     0.0327
  505.0000   -62.0604    12.3708     9.5571     7.6932   121.2516     2.5278     0.0822     0.0295
  505.5000   -62.3101    12.3709     9.4720     7.6903   121.4693     2.5337     0.0795     0.0263
  506.0000   -62.5566    12.3734     9.4417     7.6990   124.0900     2.5335     0.0802     0.0231
  506.5000   -62.7263    12.3982     9.4175     7.7086   128.8089     2.5335     0.0834     0.0232
  507.0000   -62.7231    12.4234     9.3934     7.7182   133.5311     2.5324     0.0865     0.0250
  507.5000   -62.7243    12.4482     9.3693     7.7279   134.0117     2.5278     0.0896     0.0268
  508.0000   -62.7634    12.4833     9.3453     7.7325   131.5639     2.5228     0.0925     0.0286
  508.5000   -62.8819    12.3598     9.3214     7.7357   130.6171     2.5178     0.0954     0.0304
  509.0000   -62.9992    12.1117     9.2975     7.7389   129.7363     2.5155     0.0954     0.0322
  509.5000   -63.1165    11.8686     9.2293     7.7422   127.1649     2.5154     0.0948     0.0340
  510.0000   -63.2340    11.6303     9.1429     7.7454   124.0847     2.5186     0.0937     0.0358
  510.5000   -63.3508    11.3969     9.0573     7.7487   123.8958     2.5198     0.0927     0.0370
  511.0000   -63.4701    11.1681     8.9725     7.7500   124.5652     2.5180     0.0921     0.0370
  511.5000   -63.3904    10.9439     8.8884     7.7500   124.7131     2.5165     0.0919     0.0370
  512.0000   -63.1652    10.7242     8.8052     7.7500   124.2920     2.5187     0.0895     0.0370
  512.5000   -63.1208    10.5528     8.7227     7.7500   123.4575     2.5251     0.0861     0.0370
