~VERSION INFORMATION
 VERS.                2.0:   CWLS LOG ASCII STANDARD - VERSION 2.0
 WRAP.                 NO:   ONE LINE PER DEPTH STEP
~WELL INFORMATION
#MNEM.UNIT      DATA TYPE    INFORMATION
#----------   ------------   ------------------------------
 STRT.F            0.0000:   START DEPTH
 STOP.F          625.0000:   STOP DEPTH
 STEP.F            0.5000:   STEP LENGTH
 NULL.          -999.2500:   NO VALUE
 COMP.       F D SERV INC:   COMPANY
 WELL.    75-3 SX-3 #72-3:   WELL
 FLD .             TEAPOT:   FIELD
 LOC .       S3 T38N R78W:   LOCATION
 CNTY.            NATRONA:   COUNTY
 STAT.            WYOMING:   STATE
 CTRY. UNITED STATES OF AMERICA:   COUNTRY
 SRVC.     Atlas Wireline:   SERVICE COMPANY
 DATE.        05-MAY-1992:   LOGDATE
 API .       490252251800:   API NUMBER
~CURVE INFORMATION
#MNEM.UNIT       API CODE    CURVE DESCRIPTION
#----------   ------------   ------------------------------
 DEPT.F                  :   
 CALD.IN     45 280 60 00:   CALIPER FROM DENSITY
 CORR.G/C3   45 356 01 00:   DENSITY CORRECTION
 DEN .G/C3   45 350 01 00:   COMPENSATED BULK DENSTIY
 GRD .GAPI   45 310 01 00:   GAMMA RAY FROM DENSITY LOG
 RILD.OHMM   07 120 46 00:   INDUCTION LOG DEEP RESISTIVITY
 RILM.OHMM   07 120 44 00:   INDUCTION LOG MEDIUM RESISTIVITY
 PORD.DEC    45 890 12 00:   POROSITY DENSITY SANDSTONE
~PARAMETER INFORMATION
#MNEM.UNIT          VALUE    DESCRIPTION
#----------   ------------   ------------------------------
 PD  .                 GL:   PERMANENT DATUM
 EPD .F              5148:   ELEVATION PERMANENT DATUM
 LMF .                 KB:   LOG MEASURED FROM
 DAPD.F                 5:   FEET ABOVE PERMANENT DATUM
 DMF .                 KB:   DRILLING MEASURED FROM
 EKB .F              5153:   KELLING BUSHING
 EDF .F              5152:   DRILLING FLOOR
 EGL .F              5148:   GROUND LEVEL
 DATE.        05-MAY-1992:   RUN DATE
 RUN .                  1:   RUN NUMBER
 DD  .F               630:   DEPTH DRILLER
 DL  .F               633:   DEPTH LOGGER
 BLI .F               625:   BOTTOM LOG INTERVAL
 CS  .IN            8.625:   CASING SIZE
 CBD .F                44:   CASING BOTTOM DRILLER
 CBL .F                49:   CASING BOTTOM LOGGER
 BS  .IN            7.875:   BIT SIZE
 BSD .F               630:   BIT SIZE AT DEPTH
 DFT .        AIR DRILLED:   DRILLING FLUID TYPE
 MRT .F                88:   MAXIMUM RECORDED TEMPERATURE
 LUN .           HL- 6274:   LOGGING UNIT NUMBER
 LUL .             CASPER:   LOGGING UNIT LOCATION
 ENGI.       P. RASHUSSEN:   RECORDING ENGINEER
 WITN.          G. STRONG:   WITNESSED BY
 CLNT.            A2DTECH:   CLIENT CODE
 ORIG.           5" PRINT:   ORIGIN OF DATA
 UWI .       490252251800:   UNIQUE WELL ID
 DICO. A2D Technologies, Inc.:   DIGITIZING COMPANY
~OTHER INFORMATION
~A    DEPT    CALD       CORR        DEN         GRD      RILD       RILM       PORD   
# ...
  500.5000     8.2159    -0.0028     2.4924   140.7583    11.6530    12.7065     0.1000
  501.0000     8.2036    -0.0066     2.4847   143.7718    12.7375    13.6238     0.1058
  501.5000     8.2035    -0.0065     2.4525   144.3778    14.1422    14.8126     0.1182
  502.0000     8.2033    -0.0064     2.4072   139.8740    15.8120    16.3315     0.1396
  502.5000     8.2181    -0.0063     2.3665   130.2559    17.4335    18.3870     0.1919
  503.0000     8.2180    -0.0062     2.3258   123.3445    18.9545    20.8462     0.2179
  503.5000     8.2178    -0.0061     2.2775   117.3355    20.8983    23.3068     0.2260
  504.0000     8.2177    -0.0061     2.2609   116.7399    24.7092    25.6966     0.2385
  504.5000     8.2175    -0.0060     2.2489   116.7459    28.8096    28.7297     0.2447
  505.0000     8.2174    -0.0029     2.2383   113.7245    31.7635    31.4554     0.2497
  505.5000     8.2172    -0.0028     2.2217   110.6796    34.0555    33.9624     0.2544
  506.0000     8.2171    -0.0027     2.2097   107.4404    36.7689    35.1657     0.2666
  506.5000     8.2169    -0.0026     2.2066   109.6383    38.0684    36.1586     0.2602
  507.0000     8.2168    -0.0025     2.2252   112.4271    36.2435    36.1561     0.2479
  507.5000     8.2166    -0.0024     2.2489   117.3846    33.7903    35.1585     0.2340
  508.0000     8.2165    -0.0023     2.2851   120.3981    31.7240    34.1758     0.2183
  508.5000     8.2163    -0.0022     2.3122   123.1108    29.3706    32.2985     0.2059
  509.0000     8.2162    -0.0021     2.3228   126.4251    27.5746    29.8459     0.2005
  509.5000     8.2160     0.0070     2.3258   129.1378    26.2527    27.2524     0.1956
  510.0000     8.2009     0.0101     2.3288   130.3453    24.9943    24.7946     0.1935
  510.5000     8.2007     0.0102     2.3333   129.1497    23.6304    23.4469     0.1917
  511.0000     8.1706     0.0073     2.3379   127.9527    22.9743    22.7999     0.1899
  511.5000     8.1705     0.0013     2.3424   124.0489    22.8095    22.6398     0.1875
  512.0000     8.1703    -0.0076     2.3469   121.3480    22.6460    22.7972     0.1854
  512.5000     8.1702    -0.0166     2.3499   121.9555    22.4704    22.9552     0.1836
  513.0000     8.1700    -0.0195     2.3499   124.0667    22.1668    22.9532     0.1809
  513.5000     8.1699    -0.0164     2.3499   128.5840    22.0079    22.9517     0.1785
  514.0000     8.1697    -0.0133     2.3560   131.2967    22.0023    22.9501     0.1755
  514.5000     8.1696    -0.0102     2.3650   129.1974    21.8446    22.7889     0.1716
  515.0000     8.1694    -0.0041     2.3680   127.6996    21.8401    22.6289     0.1725
  515.5000     8.1693    -0.0043     2.3650   126.2018    21.6835    22.1586     0.1755
  516.0000     8.1841    -0.0069     2.3605   126.8093    21.5280    21.8500     0.1776
  516.5000     8.1840    -0.0038     2.3529   128.0182    21.3737    21.5457     0.1785
  517.0000     8.1838    -0.0067     2.3484   127.7234    21.2204    21.2457     0.1798
  517.5000     8.1837    -0.0036     2.3454   128.0302    21.0683    21.0965     0.1810
  518.0000     8.1835    -0.0035     2.3424   129.2391    21.0639    21.0951     0.1879
  518.5000     8.1983    -0.0034     2.3500   128.9301    21.0595    21.0936     0.1872
  519.0000     8.1982    -0.0033     2.3595   126.7913    21.0552    21.0921     0.1810
  519.5000     8.1980    -0.0032     2.3680   125.0175    20.9042    20.9440     0.1737
  520.0000     8.1679    -0.0092     2.3725   123.5487    20.8999    20.6524     0.1695
  520.5000     8.1677    -0.0091     2.3710   123.5549    20.4620    20.2232     0.1687
  521.0000     8.1526    -0.0090     2.3665   124.7651    20.3153    19.9415     0.1702
  521.5000     8.1675    -0.0089     2.3635   128.0793    20.3111    19.9401     0.1738
  522.0000     8.1673    -0.0028     2.3665   128.6853    20.3069    20.0780     0.1756
  522.5000     8.1822     0.0003     2.3725   123.8807    20.3027    20.0767     0.1732
  523.0000     8.1970     0.0034     2.3816   124.7889    20.4408    20.0753     0.1690
  523.5000     8.1968     0.0125     2.3922   128.1032    20.4366    20.0739     0.1633
  524.0000     8.2117     0.0217     2.4072   128.7091    20.5871    20.0725     0.1524
  524.5000     8.2115     0.0034     2.4335   125.4083    20.7156    20.0711     0.1337
  525.0000     8.2114    -0.0088     2.4676   124.8113    20.4237    19.9302     0.1053
  525.5000     8.2112    -0.0173     2.4917   129.3300    19.8557    19.7902     0.1029
  526.0000     8.2111    -0.0111     2.4525   132.0427    19.4398    19.6513     0.1162
  526.5000     8.2109     0.0010     2.4178   131.1465    19.0325    19.6499     0.1366
  527.0000     8.2108     0.0041     2.4087   131.7539    18.5041    19.1077     0.1485
  527.5000     8.2106    -0.0048     2.4072   133.5644    18.2435    18.5805     0.1503
  528.0000     8.2255    -0.0138     2.4057   135.3749    17.7369    18.0679     0.1516
  528.5000     8.2253    -0.0107     2.3891   134.4786    17.4871    17.8163     0.1600
  529.0000     8.2252     0.0015     2.3590   132.0785    17.3617    17.5681     0.1727
  529.5000     8.2250     0.0046     2.3559   129.9792    17.1172    17.3235     0.1806
  530.0000     8.2099     0.0016     2.3741   129.9450    16.9945    17.0822     0.1715
  530.5000     8.2097    -0.0073     2.3954   130.5926    16.7551    16.7272     0.1570
  531.0000     8.2096    -0.0132     2.4074   131.8016    16.5192    16.6098     0.1489
  531.5000     8.2094    -0.0192     2.4148   131.8076    16.1731    16.4858     0.1441
  532.0000     8.2093    -0.0161     2.4193   134.2311    16.0571    16.2634     0.1405
  532.5000     8.2092    -0.0009     2.4133   137.8346    15.7208    16.1492     0.1432
  533.0000     8.2090     0.0024     2.4072   137.4361    15.3914    15.9241     0.1453
  533.5000     8.2088     0.0057     2.4057   134.1260    15.1747    15.7023     0.1474
  534.0000     8.2087     0.0084     2.4148   129.6843    14.8568    15.3760     0.1450
  534.5000     8.2085     0.0055     2.4268   129.4373    14.5455    15.0564     0.1381
  535.0000     8.2084     0.0026     2.4329   128.2417    14.3407    14.6410     0.1324
  535.5000     8.2233     0.0027     2.4398   126.7425    14.0401    14.2370     0.1284
  536.0000     8.2531    -0.0003     2.4459   128.5544    13.7346    13.8442     0.1248
  536.5000     8.2679    -0.0002     2.4494   129.7619    13.5217    13.5565     0.1221
  537.0000     8.2378    -0.0001     2.4608   128.2641    13.0838    13.2748     0.1164
  537.5000     8.1627     0.0000     2.4774   126.7678    12.8995    12.9085     0.1080
  538.0000     8.1175     0.0001     2.4894   125.5707    12.6293    12.6402     0.0983
  538.5000     8.1024     0.0032     2.4909   124.6744    12.5387    12.5515     0.0959
  539.0000     8.1323     0.0033     2.4878   124.6804    12.4488    12.4633     0.1001
  539.5000     8.1471     0.0064     2.4727   127.0924    12.3596    12.4625     0.1056
  540.0000     8.1919     0.0155     2.4591   129.5043    12.2710    12.4616     0.1119
  540.5000     8.2068     0.0277     2.4651   130.4126    12.2684    12.4607     0.1161
  541.0000     8.1616     0.0278     2.4666   130.4185    12.3519    12.4599     0.1113
  541.5000     8.1315     0.0187     2.4712   130.4245    12.2633    12.4590     0.1032
  542.0000     8.1163     0.0035     2.4932   131.0320    12.2608    12.5454     0.0920
  542.5000     8.1012    -0.0056     2.5087   133.1432    12.3448    12.4573     0.0869
  543.0000     8.1160    -0.0081     2.5027   133.4499    12.4288    12.5437     0.0887
  543.5000     8.1309    -0.0049     2.4951   132.8544    12.5134    12.5337     0.0926
  544.0000     8.1307     0.0012     2.4936   132.2588    12.5979    12.4547     0.0954
  544.5000     8.1456     0.0043     2.4981   131.0618    12.5953    12.4538     0.0951
  545.0000     8.1454     0.0074     2.5056   129.8647    12.6810    12.4528     0.0924
  545.5000     8.1453     0.0045     2.5086   129.5699    12.5900    12.4519     0.0890
