~VERSION INFORMATION
 VERS.                2.0:   CWLS LOG ASCII STANDARD - VERSION 2.0
 WRAP.                 NO:   ONE LINE PER DEPTH STEP
~WELL INFORMATION
#MNEM.UNIT      DATA TYPE    INFORMATION
#----------   ------------   ------------------------------
 STRT.F           44.0000:   START DEPTH
 STOP.F          462.0000:   STOP DEPTH
 STEP.F            0.5000:   STEP LENGTH
 NULL.          -999.2500:   NO VALUE
 COMP. FENIX & SCISSON INC:   COMPANY
 WELL.    35-SX-3F0 #55-3:   WELL
 FLD .             TEAPOT:   FIELD
 LOC .       S3 T38N R78W:   LOCATION
 CNTY.            NATRONA:   COUNTY
 STAT.            WYOMING:   STATE
 CTRY. UNITED STATES OF AMERICA:   COUNTRY
 SRVC.              Welex:   SERVICE COMPANY
 DATE.        11-JUL-1980:   LOGDATE
 API .       490251083300:   API NUMBER
~CURVE INFORMATION
#MNEM.UNIT       API CODE    CURVE DESCRIPTION
#----------   ------------   ------------------------------
 DEPT.F                  :   
 GRD .GAPI   45 310 01 00:   GAMMA RAY FROM DENSITY LOG
 CALD.IN     45 280 60 00:   CALIPER
 RHOB.G/C3   45 350 01 00:   BULK DENSITY
 CORR.G/C3   45 356 01 00:   DENSITY CORRECTION
 DPHI.DEC    45 890 12 00:   DENSITY POROSITY SANDSTONE
~PARAMETER INFORMATION
#MNEM.UNIT          VALUE    DESCRIPTION
#----------   ------------   ------------------------------
 PD  .                 GL:   PERMANENT DATUM
 EPD .F              5171:   ELEVATION PERMANENT DATUM
 LMF .                 KB:   LOG MEASURED FROM
 DAPD.F                 5:   FEET ABOVE PERMANENT DATUM
 DMF .                 KB:   DRILLING MEASURED FROM
 EKB .F              5176:   KELLING BUSHING
 EGL .F              5171:   GROUND LEVEL
 DATE.            7-11-80:   RUN DATE
 RUN .                  1:   RUN NUMBER
 DD  .F               470:   DEPTH DRILLER
 DL  .F               470:   DEPTH LOGGER
 BLI .F               462:   BOTTOM LOG INTERVAL
 TLI .F                48:   TOP LOG INTERVAL
 CS  .IN                7:   CASING SIZE
 CBD .F                48:   CASING BOTTOM DRILLER
 BS  .IN             6.25:   BIT SIZE
 BSD .F               470:   BIT SIZE AT DEPTH
 DFT .        AIR DRILLED:   DRILLING FLUID TYPE
 BHT .F                75:   BOTTOM HOLE TEMPERATURE
 TCS .HRS               2:   TIME CURCULATED STOPPED
 MRT .F                75:   MAXIMUM RECORDED TEMPERATURE
 ENGI.           PFRIMMER:   RECORDING ENGINEER
 WITN.              AMEND:   WITNESSED BY
 CLNT.            A2DTECH:   CLIENT CODE
 ORIG.           5" PRINT:   ORIGIN OF DATA
 UWI .       490251083300:   UNIQUE WELL ID
 DICO. A2D Technologies, Inc.:   DIGITIZING COMPANY
~OTHER INFORMATION
~A   DEPT       GRD        CALD     RHOB       CORR       DPHI   
   44.0000    81.1000     6.9422  -999.2500  -999.2500  -999.2500
   44.5000    82.5300     6.9422  -999.2500  -999.2500  -999.2500
   45.0000    84.1052     6.9422  -999.2500  -999.2500  -999.2500
   45.5000    86.0741     6.9422  -999.2500  -999.2500  -999.2500
   46.0000    88.5497     6.9422  -999.2500  -999.2500  -999.2500
   46.5000    91.0513     6.9422  -999.2500  -999.2500  -999.2500
   47.0000    93.1714     6.9423  -999.2500  -999.2500  -999.2500
   47.5000    95.3079     6.9430  -999.2500  -999.2500  -999.2500
   48.0000    97.4299     6.9126     2.5030     0.0570     0.1076
   48.5000    99.4765     6.8764     2.5010     0.0570     0.1072
   49.0000   101.2598     6.8398     2.4990     0.0530     0.1074
   49.5000   103.0942     6.8045     2.5029     0.0487     0.1076
   50.0000   104.2993     6.8229     2.5103     0.0477     0.1034
   50.5000   105.3646     6.8444     2.5178     0.0560     0.0984
   51.0000   106.4097     6.8634     2.5252     0.0641     0.0933
   51.5000   107.1485     6.8650     2.5325     0.0722     0.0882
   52.0000   107.6424     6.8670     2.5348     0.0762     0.0893
   52.5000   108.0972     6.8691     2.5292     0.0714     0.0929
   53.0000   108.5519     6.8712     2.5237     0.0669     0.0954
   53.5000   108.4746     6.8733     2.5209     0.0621     0.0974
   54.0000   108.1564     6.8753     2.5214     0.0627     0.0984
   54.5000   107.5035     6.8774     2.5231     0.0659     0.0970
   55.0000   106.1745     6.8795     2.5292     0.0692     0.0935
   55.5000   104.7039     6.8817     2.5358     0.0725     0.0912
   56.0000   105.3052     6.8714     2.5320     0.0718     0.0928
   56.5000   106.4381     6.8524     2.5241     0.0700     0.0944
   57.0000   107.0080     6.8333     2.5251     0.0682     0.0956
   57.5000   106.1548     6.8223     2.5261     0.0664     0.0960
   58.0000   106.7524     6.8328     2.5267     0.0646     0.0948
   58.5000   107.7268     6.8446     2.5261     0.0628     0.0928
   59.0000   108.6978     6.8564     2.5324     0.0608     0.0907
   59.5000   109.6629     6.8682     2.5322     0.0557     0.0931
   60.0000   109.7097     6.8805     2.5238     0.0505     0.0979
   60.5000   109.8531     6.8718     2.5155     0.0453     0.1028
   61.0000   110.2534     6.8582     2.5099     0.0421     0.1040
   61.5000   110.2377     6.8444     2.5100     0.0393     0.1032
   62.0000   108.6385     6.8456     2.5090     0.0367     0.1039
   62.5000   107.0389     6.8492     2.5060     0.0340     0.1066
   63.0000   105.4416     6.8528     2.5038     0.0313     0.1093
   63.5000   104.5257     6.8564     2.5015     0.0286     0.1092
   64.0000   103.9546     6.8600     2.5000     0.0258     0.1088
   64.5000   103.5205     6.8636     2.5009     0.0232     0.1083
   65.0000   103.0741     6.8672     2.5033     0.0223     0.1070
   65.5000   101.9893     6.8707     2.5117     0.0300     0.1016
   66.0000   100.8828     6.8743     2.5213     0.0375     0.0963
   66.5000    99.8453     6.8779     2.5310     0.0451     0.0910
   67.0000   101.8304     6.8817     2.5405     0.0526     0.0857
   67.5000   104.0145     6.8797     2.5478     0.0602     0.0832
   68.0000   106.2643     6.8760     2.5474     0.0677     0.0832
   68.5000   106.1309     6.8722     2.5470     0.0752     0.0832
   69.0000   108.0278     6.8684     2.5495     0.0805     0.0824
   69.5000   109.8547     6.8646     2.5521     0.0771     0.0815
   70.0000   110.1445     6.8590     2.5547     0.0738     0.0810
   70.5000   110.4241     6.8512     2.5569     0.0706     0.0790
   71.0000   110.7955     6.8433     2.5560     0.0674     0.0770
   71.5000   111.5529     6.8355     2.5551     0.0642     0.0751
   72.0000   111.4273     6.8276     2.5558     0.0610     0.0731
   72.5000   110.5862     6.8198     2.5568     0.0578     0.0728
   73.0000   109.7576     6.8119     2.5578     0.0546     0.0731
   73.5000   109.3772     6.8038     2.5577     0.0535     0.0736
   74.0000   108.5782     6.8100     2.5554     0.0553     0.0740
   74.5000   107.4244     6.8186     2.5519     0.0569     0.0765
   75.0000   107.6803     6.8274     2.5483     0.0546     0.0792
   75.5000   107.7856     6.8361     2.5470     0.0520     0.0813
   76.0000   108.0955     6.8447     2.5456     0.0495     0.0826
   76.5000   108.8244     6.8534     2.5436     0.0470     0.0838
   77.0000   109.5914     6.8621     2.5417     0.0445     0.0853
   77.5000   108.8680     6.8707     2.5399     0.0420     0.0867
   78.0000   109.0684     6.8798     2.5380     0.0394     0.0876
   78.5000   109.9350     6.8668     2.5379     0.0369     0.0876
   79.0000   110.8466     6.8435     2.5380     0.0353     0.0876
   79.5000   109.4974     6.8221     2.5399     0.0368     0.0874
   80.0000   107.9409     6.8273     2.5417     0.0382     0.0867
   80.5000   107.2388     6.8362     2.5414     0.0396     0.0860
   81.0000   108.3059     6.8451     2.5361     0.0410     0.0892
   81.5000   107.6577     6.8541     2.5310     0.0425     0.0913
   82.0000   105.9614     6.8625     2.5277     0.0439     0.0930
   82.5000   105.4967     6.8583     2.5316     0.0464     0.0898
   83.0000   105.1907     6.8532     2.5400     0.0529     0.0857
   83.5000   104.8848     6.8481     2.5486     0.0595     0.0842
   84.0000   104.5739     6.8430     2.5489     0.0578     0.0854
   84.5000   104.9262     6.8379     2.5383     0.0535     0.0884
   85.0000   106.2004     6.8328     2.5269     0.0487     0.0951
   85.5000   107.5058     6.8277     2.5155     0.0353     0.1018
   86.0000   106.6583     6.8226     2.5042     0.0214     0.1084
   86.5000   106.6215     6.8175     2.4956     0.0195     0.1128
   87.0000   108.2611     6.8124     2.4990     0.0230     0.1083
   87.5000   108.9619     6.8073     2.5044     0.0267     0.1052
   88.0000   108.6862     6.8026     2.5071     0.0290     0.1083
   88.5000   108.4986     6.8028     2.5004     0.0285     0.1115
   89.0000   108.6400     6.8028     2.4937     0.0257     0.1147
   89.5000   108.8504     6.8028     2.4901     0.0229     0.1164
   90.0000   109.7917     6.8028     2.4921     0.0202     0.1153
   90.5000   108.4947     6.8028     2.4941     0.0174     0.1138
   91.0000   106.0106     6.8028     2.4962     0.0147     0.1124
   91.5000   104.4041     6.8028     2.4985     0.0129     0.1112
   92.0000   104.4072     6.8028     2.5010     0.0134     0.1092
   92.5000   105.0029     6.8028     2.5036     0.0208     0.1071
   93.0000   105.4938     6.8028     2.5060     0.0297     0.1052
   93.5000   104.6272     6.8028     2.5140     0.0382     0.0998
   94.0000   103.8737     6.8028     2.5222     0.0468     0.0949
   94.5000   103.8396     6.8028     2.5311     0.0554     0.0899
   95.0000   103.7926     6.8028     2.5441     0.0641     0.0849
   95.5000   103.7448     6.8023     2.5502     0.0726     0.0816
   96.0000   103.6620     6.8185     2.5522     0.0764     0.0812
   96.5000   103.3246     6.8120     2.5462     0.0634     0.0852
   97.0000   102.9807     6.7918     2.5314     0.0508     0.0927
   97.5000   102.6402     6.7713     2.5283     0.0436     0.0947
   98.0000   101.8056     6.7674     2.5321     0.0406     0.0912
   98.5000   100.9914     6.7790     2.5360     0.0377     0.0876
   99.0000   101.5303     6.7956     2.5380     0.0348     0.0869
   99.5000   100.8190     6.8250     2.5326     0.0318     0.0926
  100.0000    96.9317     6.8554     2.5270     0.0350     0.0950
  100.5000    93.5250     6.8582     2.5259     0.0408     0.0929
  101.0000    93.8829     6.8522     2.5304     0.0467     0.0908
  101.5000    94.9916     6.8461     2.5328     0.0466     0.0896
  102.0000    96.1006     6.8440     2.5241     0.0428     0.0963
  102.5000    96.5558     6.8507     2.5152     0.0389     0.1038
  103.0000    96.4870     6.8571     2.5063     0.0349     0.1049
  103.5000    98.0488     6.8636     2.5061     0.0310     0.1052
  104.0000    99.1484     6.8701     2.5127     0.0358     0.1022
  104.5000    98.0624     6.8767     2.5197     0.0418     0.0984
