~VERSION INFORMATION
 VERS.                2.0:   CWLS LOG ASCII STANDARD - VERSION 2.0
 WRAP.                 NO:   ONE LINE PER DEPTH STEP
~WELL INFORMATION
#MNEM.UNIT      DATA TYPE    INFORMATION
#----------   ------------   ------------------------------
 STRT.F            4.0000:   START DEPTH
 STOP.F          528.0000:   STOP DEPTH
 STEP.F            0.1000:   STEP LENGTH
 NULL.          -999.2500:   NO VALUE
 COMP. BROWN JOHN E&C INC:   COMPANY
 WELL.    84-1 SHX- #84-3:   WELL
 FLD .        TEAPOT DOME:   FIELD
 LOC .       S3 T38N R78W:   LOCATION
 CNTY.            NATRONA:   COUNTY
 STAT.            WYOMING:   STATE
 CTRY. UNITED STATES OF AMERICA:   COUNTRY
 SRVC.     Atlas Wireline:   SERVICE COMPANY
 DATE.        18-JAN-1992:   LOGDATE
 API .       490252249900:   API NUMBER
~CURVE INFORMATION
#MNEM.UNIT       API CODE    CURVE DESCRIPTION
#----------   ------------   ------------------------------
 DEPT.F                  :   
 GRR .GAPI   07 310 01 00:   GAMMA RAY
 RILD.OHMM   07 120 46 00:   INDUCTION LOG DEEP RESISTIVITY
 RILM.OHMM   07 120 44 00:   INDUCTION LOG MEDIUM RESISTIVITY
~PARAMETER INFORMATION
#MNEM.UNIT          VALUE    DESCRIPTION
#----------   ------------   ------------------------------
 PD  .                 GL:   PERMANENT DATUM
 EPD .F              5147:   ELEVATION PERMANENT DATUM
 LMF .                 KB:   LOG MEASURED FROM
 DAPD.F                10:   FEET ABOVE PERMANENT DATUM
 DMF .                 KB:   DRILLING MEASURED FROM
 EKB .F              5157:   KELLING BUSHING
 EDF .F              5156:   DRILLING FLOOR
 EGL .F              5147:   GROUND LEVEL
 DATE.        18-JAN-1992:   RUN DATE
 RUN .                  1:   RUN NUMBER
 DD  .F               842:   DEPTH DRILLER
 DL  .F               837:   DEPTH LOGGER
 BLI .F               835:   BOTTOM LOG INTERVAL
 TLI .F                 4:   TOP LOG INTERVAL
 CS  .IN            8.625:   CASING SIZE
 CBD .F                39:   CASING BOTTOM DRILLER
 CBL .F                56:   CASING BOTTOM LOGGER
 BS  .IN             8.75:   BIT SIZE
 BSD .F               842:   BIT SIZE AT DEPTH
 DFT .                AIR:   DRILLING FLUID TYPE
 LUN .           HL- 6272:   LOGGING UNIT NUMBER
 LUL .             CASPER:   LOGGING UNIT LOCATION
 ENGI.       P. RASMUSSEN:   RECORDING ENGINEER
 WITN.          G. STRONG:   WITNESSED BY
 CLNT.            A2DTECH:   CLIENT CODE
 ORIG.           5" PRINT:   ORIGIN OF DATA
 UWI .       490252249900:   UNIQUE WELL ID
 DICO. A2D Technologies, Inc.:   DIGITIZING COMPANY
~OTHER INFORMATION
~A    DEPT      GRR      RILD       RILM   
# ...
  277.0000   126.7494     2.5570     2.6258
  277.1000   126.5034     2.5132     2.6032
  277.2000   126.2255     2.4977     2.5921
  277.3000   126.2261     2.4657     2.5921
  277.4000   125.9116     2.4657     2.5921
  277.5000   125.4193     2.4658     2.5921
  277.6000   124.9269     2.4601     2.5921
  277.7000   124.4103     2.4487     2.5921
  277.8000   123.7081     2.4488     2.5934
  277.9000   122.7914     2.4488     2.6102
  278.0000   121.9273     2.4488     2.6102
  278.1000   121.1240     2.4557     2.6194
  278.2000   120.1464     2.4660     2.6342
  278.3000   119.2625     2.4660     2.6468
  278.4000   118.4710     2.4661     2.6468
  278.5000   117.4859     2.4661     2.6607
  278.6000   116.5856     2.4742     2.6758
  278.7000   115.9032     2.4884     2.6981
  278.8000   115.6292     2.5008     2.7216
  278.9000   115.8479     2.5009     2.7217
  279.0000   116.2565     2.5136     2.7526
  279.1000   116.8551     2.5279     2.7718
  279.2000   117.6438     2.5550     2.7875
  279.3000   118.6624     2.6211     2.8033
  279.4000   119.6166     2.7765     2.8216
  279.5000   120.6030     2.8710     2.8774
  279.6000   121.4643     2.9451     2.9331
  279.7000   122.4107     3.0128     3.0321
  279.8000   123.9618     3.0766     3.1405
  279.9000   127.4540     3.1282     3.2304
  280.0000   129.4750     3.1698     3.3304
  280.1000   131.3583     3.2154     3.3828
  280.2000   132.6599     3.2706     3.4542
  280.3000   133.7429     3.3268     3.5240
  280.4000   135.6388     3.3839     3.5934
  280.5000   135.8615     3.4464     3.6970
  280.6000   135.9430     3.5011     3.8024
  280.7000   135.8345     3.5755     3.8946
  280.8000   135.5361     3.6478     4.0081
  280.9000   135.0358     3.7104     4.1319
  281.0000   134.7940     3.7739     4.2262
  281.1000   134.1767     3.8389     4.3390
  281.2000   133.6962     3.9049     4.4220
  281.3000   133.4503     3.9719     4.5388
  281.4000   133.2044     4.0477     4.6588
  281.5000   132.9183     4.1381     4.7651
  281.6000   132.7127     4.2187     4.8841
  281.7000   132.6163     4.3242     4.9092
  281.8000   132.5241     4.3843     4.9752
  281.9000   132.3145     4.4300     5.0603
  282.0000   132.3152     4.5106     5.1404
  282.1000   132.3157     4.6190     5.1999
  282.2000   132.3163     4.6946     5.2875
  282.3000   132.4302     4.8151     5.3780
  282.4000   132.6773     4.9395     5.4537
  282.5000   132.9243     5.0606     5.5248
  282.6000   133.1712     5.2047     5.6156
  282.7000   133.4183     5.3472     5.6530
  282.8000   133.6654     5.4468     5.7060
  282.9000   133.9892     5.5349     5.7515
  283.0000   134.4627     5.6094     5.7841
  283.1000   134.7462     5.7056     5.8212
  283.2000   135.3772     5.8138     5.8941
  283.3000   135.9634     5.8435     5.9242
  283.4000   136.6507     5.8992     5.9577
  283.5000   137.6776     5.9516     6.0063
  283.6000   138.9915     5.9856     6.0675
  283.7000   140.1436     6.0203     6.1029
  283.8000   141.2033     6.0540     6.1365
  283.9000   142.1898     6.0885     6.1713
  284.0000   143.1758     6.1233     6.2063
  284.1000   144.1619     6.1791     6.2415
  284.2000   145.1486     6.2802     6.2752
  284.3000   145.3594     6.3217     6.2752
  284.4000   145.3600     6.3218     6.2752
  284.5000   145.2797     6.3439     6.2752
  284.6000   145.0581     6.3662     6.2752
  284.7000   145.0589     6.3719     6.2752
  284.8000   144.8453     6.4109     6.2752
  284.9000   144.7570     6.4110     6.2752
  285.0000   144.6566     6.4364     6.2752
  285.1000   144.3663     6.4559     6.2752
  285.2000   143.8497     6.4560     6.2752
  285.3000   143.3817     6.4562     6.2752
  285.4000   142.8893     6.4563     6.2752
  285.5000   142.3970     6.4564     6.2752
  285.6000   141.9693     6.4564     6.2576
  285.7000   141.7152     6.4565     6.2223
  285.8000   141.1262     6.4531     6.1871
  285.9000   140.7307     6.4119     6.1455
  286.0000   140.2384     6.3805     6.1177
  286.1000   139.7462     6.3676     6.0442
  286.2000   139.2253     6.3528     5.9425
  286.3000   138.4019     6.3040     5.8389
  286.4000   137.5295     6.1928     5.6925
  286.5000   136.3828     6.1595     5.6364
  286.6000   135.3613     6.0748     5.5730
  286.7000   134.7194     5.9559     5.5103
  286.8000   134.4655     5.8309     5.4427
  286.9000   134.7045     5.7324     5.3467
  287.0000   134.9515     5.6178     5.2332
  287.1000   135.5744     5.5411     5.1163
  287.2000   136.6299     5.4477     4.9884
  287.3000   137.8501     5.3452     4.8560
  287.4000   139.0146     5.2289     4.7479
  287.5000   139.8233     5.1317     4.6682
  287.6000   140.5188     5.0287     4.6103
  287.7000   141.1902     4.9161     4.5585
  287.8000   142.1764     4.8177     4.5072
  287.9000   143.2601     4.7364     4.4565
  288.0000   144.1491     4.6551     4.3998
  288.1000   145.4675     4.5781     4.3783
  288.2000   146.8379     4.5202     4.3380
  288.3000   148.0181     4.4692     4.2990
  288.4000   149.0206     4.4263     4.2748
  288.5000   149.9909     4.4013     4.2493
  288.6000   150.7912     4.3725     4.2493
  288.7000   151.4020     4.3311     4.2493
  288.8000   151.9685     4.3122     4.2493
  288.9000   152.6763     4.3029     4.2493
  289.0000   152.9637     4.2823     4.2493
  289.1000   152.9642     4.2824     4.2493
  289.2000   152.9648     4.2600     4.2493
  289.3000   152.8725     4.2360     4.2493
  289.4000   152.6629     4.2121     4.2649
  289.5000   152.6637     4.1883     4.3133
  289.6000   152.4379     4.1650     4.3693
  289.7000   152.0223     4.1651     4.4120
  289.8000   151.6432     4.1651     4.4463
  289.9000   151.3407     4.1651     4.4715
  290.0000   150.8485     4.1652     4.4969
  290.1000   150.3563     4.1653     4.5240
  290.2000   149.8639     4.1653     4.5240
  290.3000   149.3716     4.1654     4.5421
  290.4000   148.8793     4.1655     4.5678
  290.5000   148.3868     4.1655     4.5875
  290.6000   147.8219     4.1700     4.5875
  290.7000   147.1920     4.1948     4.5875
  290.8000   146.6069     4.1948     4.6076
  290.9000   146.0177     4.2122     4.6337
  291.0000   145.3192     4.2484     4.6683
  291.1000   144.7946     4.2902     4.7192
  291.2000   144.3346     4.3168     4.7500
  291.3000   143.8420     4.4048     4.7729
  291.4000   143.2324     4.4458     4.8338
  291.5000   142.4333     4.5117     4.8841
  291.6000   141.4483     4.5797     4.8927
  291.7000   140.4629     4.6286     4.9526
  291.8000   139.0901     4.6576     5.0046
  291.9000   137.7490     4.7055     5.0417
  292.0000   136.8403     4.7593     5.0836
  292.1000   136.6187     4.8015     5.1413
  292.2000   136.6195     4.8347     5.1999
  292.3000   136.8341     4.8907     5.2589
  292.4000   137.0811     4.9182     5.3187
  292.5000   137.5302     4.9676     5.3792
  292.6000   138.3589     5.0243     5.4403
  292.7000   139.6528     5.0993     5.4999
  292.8000   140.5904     5.2118     5.5361
  292.9000   141.5771     5.2807     5.5891
  293.0000   142.8061     5.3573     5.6526
  293.1000   144.2207     5.4303     5.7168
  293.2000   145.4460     5.4923     5.7770
  293.3000   146.6262     5.5600     5.8126
  293.4000   147.2207     5.6621     5.8427
  293.5000   147.8192     5.7223     5.8986
  293.6000   148.2278     5.7877     5.9504
  293.7000   148.4750     5.8538     5.9915
  293.8000   148.7504     5.9206     6.0605
  293.9000   148.3145     5.9886     6.0945
  294.0000   147.6606     6.0917     6.1553
  294.1000   147.1319     6.1686     6.2068
  294.2000   146.7889     6.2591     6.2525
  294.3000   146.0261     6.3544     6.3235
  294.4000   145.5499     6.4270     6.4077
  294.5000   144.8758     6.5096     6.4681
  294.6000   144.1369     6.6074     6.5417
  294.7000   143.3980     6.6717     6.6161
  294.8000   142.6716     6.7257     6.6913
  294.9000   142.0904     6.8024     6.7746
  295.0000   141.6868     6.8832     6.8094
  295.1000   141.3400     6.9209     6.9005
