~VERSION INFORMATION
 VERS.                2.0:   CWLS LOG ASCII STANDARD - VERSION 2.0
 WRAP.                 NO:   ONE LINE PER DEPTH STEP
~WELL INFORMATION
#MNEM.UNIT      DATA TYPE    INFORMATION
#----------   ------------   ------------------------------
 STRT.F          372.0000:   START DEPTH
 STOP.F         1845.0000:   STOP DEPTH
 STEP.F            0.5000:   STEP LENGTH
 NULL.          -999.2500:   NO VALUE
 COMP.             T.H.E.:   COMPANY
 WELL. 63-1-STX-29 #63-29:   WELL
 FLD .             TEAPOT:   FIELD
 LOC .      S29 T39N R78W:   LOCATION
 CNTY.            NATRONA:   COUNTY
 STAT.            WYOMING:   STATE
 CTRY. UNITED STATES OF AMERICA:   COUNTRY
 SRVC.            Unknown:   SERVICE COMPANY
 DATE.        20-MAY-1996:   LOGDATE
 API .       490252279200:   API NUMBER
~CURVE INFORMATION
#MNEM.UNIT       API CODE    CURVE DESCRIPTION
#----------   ------------   ------------------------------
 DEPT.F                  :   
 ROP .MIN/FT 91 810 01 00:   RATE OF DRILLING PENETRATION
 TGAS.UNITS  91 830 01 00:   TOTAL GAS FROM HOTWIRE
~PARAMETER INFORMATION
#MNEM.UNIT          VALUE    DESCRIPTION
#----------   ------------   ------------------------------
 EKB .F              4983:   KELLING BUSHING
 EGL .F              4973:   GROUND LEVEL
 DATE.          5-20-1996:   RUN DATE
 RUN .                  1:   RUN NUMBER
 BLI .F              1845:   BOTTOM LOG INTERVAL
 TLI .F               372:   TOP LOG INTERVAL
 CS  .IN                7:   CASING SIZE
 CBD .F               354:   CASING BOTTOM DRILLER
 ENGI.   C. TOWER/R. HUSK:   RECORDING ENGINEER
 CLNT.            A2DTECH:   CLIENT CODE
 ORIG.           5" PRINT:   ORIGIN OF DATA
 UWI .       490252279200:   UNIQUE WELL ID
 DICO. A2D Technologies, Inc.:   DIGITIZING COMPANY
~OTHER INFORMATION
~A   DEPT        ROP     TGAS   
# ...
 1465.5000     0.8236     1.7989
 1466.0000     0.8240     1.8127
 1466.5000     0.8245     1.8269
 1467.0000     0.8248     1.8425
 1467.5000     0.8253     1.8539
 1468.0000     0.8257     1.8676
 1468.5000     0.8262     1.8815
 1469.0000     0.8265     1.8971
 1469.5000     0.8269     1.9088
 1470.0000     0.8274     1.9225
 1470.5000     0.8279     1.9363
 1471.0000     0.8177     1.9517
 1471.5000     0.8181     1.9637
 1472.0000     0.8185     1.9775
 1472.5000     0.5242     1.9912
 1473.0000     0.5352     1.7951
 1473.5000     0.5566     1.6855
 1474.0000     0.5573     1.3274
 1474.5000     0.5681     1.2003
 1475.0000     0.5684     1.2159
 1475.5000     0.5688     1.3589
 1476.0000     0.5693     1.6648
 1476.5000     0.5697     1.6785
 1477.0000     0.5701     1.9043
 1477.5000     0.5705     1.9199
 1478.0000     0.5709     1.9310
 1478.5000     0.5714     1.9447
 1479.0000     0.5718     2.1702
 1479.5000     0.5760     2.6084
 1480.0000     0.5726     2.7163
 1480.5000     0.5731     2.8906
 1481.0000     0.5735     3.0699
 1481.5000     0.5698     3.0855
 1482.0000     0.5638     3.4135
 1482.5000     0.5642     3.5878
 1483.0000     0.5752     3.7585
 1483.5000     0.5756     3.9852
 1484.0000     0.5760     3.7859
 1484.5000     0.5764     3.7996
 1485.0000     0.5769     3.8134
 1485.5000     0.5773     3.8285
 1486.0000     0.5913     3.8408
 1486.5000     0.6834     3.9258
 1487.0000     0.6839     4.1206
 1487.5000     0.6737     4.9395
 1488.0000     0.6741     6.3187
 1488.5000     0.6745     7.8199
 1489.0000     0.6750     9.1095
 1489.5000     0.6700    10.4871
 1490.0000     0.6652    11.3477
 1490.5000     0.7815    11.6582
 1491.0000     0.7819    12.2550
 1491.5000     0.7881    12.8656
 1492.0000     0.7933    13.3038
 1492.5000     1.0463    13.7195
 1493.0000     1.0468    14.2199
 1493.5000     1.0472    15.0329
 1494.0000     0.9913    16.5274
 1494.5000     0.6786    18.4358
 1495.0000     0.6695    22.5053
 1495.5000     0.6635    47.8814
 1496.0000     0.6598    51.6524
 1496.5000     0.6707    52.8500
 1497.0000     0.6712    53.8536
 1497.5000     0.6716    54.4505
 1498.0000     0.6762    54.8761
 1498.5000     0.6829    55.4328
 1499.0000     0.6834    55.8897
 1499.5000     0.6733    56.4152
 1500.0000     0.6842    57.0434
 1500.5000     0.7051    57.5280
 1501.0000     0.7155    58.2058
 1501.5000     0.7153    58.8315
 1502.0000     0.7029    59.8445
 1502.5000     0.5571    60.9164
 1503.0000     0.5399    63.1112
 1503.5000     0.5357    66.2126
 1504.0000     0.5338    88.1923
 1504.5000     0.5249    90.7407
 1505.0000     0.5247    90.6610
 1505.5000     0.5246    87.6586
 1506.0000     0.5244    81.9002
 1506.5000     0.5241    75.3641
 1507.0000     0.5136    73.1492
 1507.5000     0.5134    71.1391
 1508.0000     0.5133    69.6542
 1508.5000     0.5131    68.2269
 1509.0000     0.5129    67.2314
 1509.5000     0.5128    66.1208
 1510.0000     0.5126    65.0373
 1510.5000     0.5230    64.2588
 1511.0000     0.5228    63.8493
 1511.5000     0.5227    63.6475
 1512.0000     0.5225    63.4465
 1512.5000     0.5224    63.2484
 1513.0000     0.5222    63.0502
 1513.5000     0.5220    63.0602
 1514.0000     0.5219    62.7985
 1514.5000     0.5217    62.2246
 1515.0000     0.5216    61.6173
 1515.5000     0.5214    61.1604
 1516.0000     0.5212    60.6351
 1516.5000     0.5211    60.1409
 1517.0000     0.5209    59.7618
 1517.5000     0.5208    59.5637
 1518.0000     0.5206    59.4761
 1518.5000     0.6889    59.3249
 1519.0000     0.6887    58.9627
 1519.5000     0.6886    58.7645
 1520.0000     0.6884    58.3521
 1520.5000     0.6777    58.1504
 1521.0000     0.6776    58.1641
 1521.5000     0.6789    58.1767
 1522.0000     0.6878    57.9761
 1522.5000     0.6771    57.9877
 1523.0000     0.6769    57.9993
 1523.5000     0.6663    57.8001
 1524.0000     0.6661    57.8132
 1524.5000     0.6659    57.8229
 1525.0000     0.6658    57.8345
 1525.5000     0.6689    57.8505
 1526.0000     0.6760    58.0704
 1526.5000     0.6758    58.0806
 1527.0000     0.6822    58.3035
 1527.5000     0.6755    58.3151
 1528.0000     0.6859    58.3276
 1528.5000     0.6857    58.5496
 1529.0000     0.6750    58.7725
 1529.5000     0.6644    59.0349
 1530.0000     0.6642    59.0073
 1530.5000     1.0219    58.3866
 1531.0000     1.0218    57.5520
 1531.5000     1.0322    56.5472
 1532.0000     1.0320    55.8675
 1532.5000     1.3171    55.4736
 1533.0000     1.3264    55.4852
 1533.5000     1.3263    55.7081
 1534.0000     1.3261    55.7197
 1534.5000     0.5575    55.7320
 1535.0000     0.5468    55.7452
 1535.5000     0.5467    55.7546
 1536.0000     0.5360    55.7662
 1536.5000     0.5358    55.7780
 1537.0000     0.5357    56.1760
 1537.5000     0.5355    55.9598
 1538.0000     0.5354    55.9557
 1538.5000     0.5247    55.7408
 1539.0000     0.5245    55.7360
 1539.5000     0.5244    55.7319
 1540.0000     0.5347    55.7278
 1540.5000     0.5241    55.9351
 1541.0000     0.5239    55.9304
 1541.5000     0.5237    56.1377
 1542.0000     0.5236    56.1322
 1542.5000     0.5234    56.1281
 1543.0000     0.5233    56.3348
 1543.5000     0.5231    56.3307
 1544.0000     0.5229    56.3266
 1544.5000     0.5228    56.5333
 1545.0000     0.5226    56.5285
 1545.5000     0.5225    56.7365
 1546.0000     0.5223    56.7311
 1546.5000     0.5221    56.7270
 1547.0000     0.5115    56.9336
 1547.5000     0.5113    57.3511
 1548.0000     0.5112    58.1894
 1548.5000     0.5110    59.4499
 1549.0000     0.5108    61.1320
 1549.5000     0.5212    62.1817
 1550.0000     0.5338    62.8106
 1550.5000     0.6998    62.8059
 1551.0000     0.6892    62.1688
 1551.5000     0.6890    61.7431
 1552.0000     0.6888    61.1067
 1552.5000     0.6887    60.6810
 1553.0000     0.6885    60.2554
 1553.5000     0.6884    60.0405
 1554.0000     0.6882    59.6142
 1554.5000     0.6881    59.3993
 1555.0000     0.6879    58.9737
 1555.5000     0.6772    58.5480
 1556.0000     0.7175    58.3331
 1556.5000     0.8032    57.9075
 1557.0000     0.7820    57.6919
 1557.5000     0.7752    57.4771
 1558.0000     0.7712    57.4729
 1558.5000     0.7710    57.2581
 1559.0000     0.7603    57.2540
 1559.5000     0.7601    57.2499
 1560.0000     0.7600    57.2451
 1560.5000     0.7598    56.8194
 1561.0000     0.7492    56.6046
 1561.5000     0.7490    56.6005
 1562.0000     0.7548    56.3856
 1562.5000     0.9908    56.5929
 1563.0000     0.9918    56.5875
 1563.5000     1.0115    56.5834
 1564.0000     1.2745    56.5793
 1564.5000     1.2849    56.5752
 1565.0000     1.2847    56.5711
 1565.5000     1.2846    56.5669
 1566.0000     1.2844    56.5622
 1566.5000     0.5264    56.3473
 1567.0000     0.5262    56.1324
 1567.5000     0.5471    56.1283
 1568.0000     0.5575    55.9134
 1568.5000     0.5573    55.9090
 1569.0000     0.5572    55.9049
 1569.5000     0.5570    55.9004
 1570.0000     0.5568    55.8963
 1570.5000     0.5567    55.8922
 1571.0000     0.5565    55.8878
 1571.5000     0.5564    55.8837
 1572.0000     0.5562    55.8799
 1572.5000     0.5560    55.8751
 1573.0000     0.5559    55.8710
 1573.5000     0.5557    55.6562
 1574.0000     0.5549    55.6521
 1574.5000     0.5449    55.6480
 1575.0000     0.5447    55.6439
 1575.5000     0.5446    55.4283
 1576.0000     0.5788    55.2134
 1576.5000     0.7758    54.9985
 1577.0000     0.7757    54.9944
 1577.5000     0.7755    54.9903
 1578.0000     0.7754    54.9862
 1578.5000     0.7752    54.9815
 1579.0000     0.7750    54.9773
 1579.5000     0.7749    54.9732
 1580.0000     0.9402    54.7584
 1580.5000     1.3009    54.7543
 1581.0000     1.3007    54.5394
 1581.5000     1.3006    54.3238
 1582.0000     1.3088    54.1090
 1582.5000     1.5213    53.8941
 1583.0000     1.5212    53.6792
 1583.5000     1.5210    53.6751
 1584.0000     1.5259    53.6710
 1584.5000     1.2944    53.6662
 1585.0000     1.2677    53.6621
 1585.5000     1.2572    53.6580
 1586.0000     1.2511    53.6539
 1586.5000     1.2429    53.6498
