~VERSION INFORMATION
 VERS.                2.0:   CWLS LOG ASCII STANDARD - VERSION 2.0
 WRAP.                 NO:   ONE LINE PER DEPTH STEP
~WELL INFORMATION
#MNEM.UNIT      DATA TYPE    INFORMATION
#----------   ------------   ------------------------------
 STRT.F           10.0000:   START DEPTH
 STOP.F          756.0000:   STOP DEPTH
 STEP.F            0.1000:   STEP LENGTH
 NULL.          -999.2500:   NO VALUE
 COMP. BROWN JOHN E&C INC:   COMPANY
 WELL. N P R 3 SHX- #31-1-X-14:   WELL
 FLD .             TEAPOT:   FIELD
 LOC .      S14 T38N R78W:   LOCATION
 CNTY.            NATRONA:   COUNTY
 STAT.            WYOMING:   STATE
 CTRY. UNITED STATES OF AMERICA:   COUNTRY
 SRVC.     Atlas Wireline:   SERVICE COMPANY
 DATE.        07-JAN-1992:   LOGDATE
 API .       490252249700:   API NUMBER
~CURVE INFORMATION
#MNEM.UNIT       API CODE    CURVE DESCRIPTION
#----------   ------------   ------------------------------
 DEPT.F                  :   
 GRR .GAPI   07 310 01 00:   GAMMA RAY
 RFOC.OHMM   07 220 04 00:   RESISTIVITY FOCUSED LOG RES.
 RILD.OHMM   07 120 46 00:   INDUCTION LOG DEEP RESISTIVITY
 RILM.OHMM   07 120 44 00:   INDUCTION LOG MEDIUM  RESISTIVITY
~PARAMETER INFORMATION
#MNEM.UNIT          VALUE    DESCRIPTION
#----------   ------------   ------------------------------
 PD  .                 GL:   PERMANENT DATUM
 EPD .F              5210:   ELEVATION PERMANENT DATUM
 LMF .                 KB:   LOG MEASURED FROM
 DAPD.F                10:   FEET ABOVE PERMANENT DATUM
 DMF .                 KB:   DRILLING MEASURED FROM
 EKB .F              5220:   KELLING BUSHING
 EDF .F              5219:   DRILLING FLOOR
 EGL .F              5210:   GROUND LEVEL
 DATE.        07-JAN-1992:   RUN DATE
 RUN .                  1:   RUN NUMBER
 DD  .F               762:   DEPTH DRILLER
 DL  .F               760:   DEPTH LOGGER
 BLI .F               758:   BOTTOM LOG INTERVAL
 CS  .IN            9.625:   CASING SIZE
 CBD .F                48:   CASING BOTTOM DRILLER
 CBL .F                50:   CASING BOTTOM LOGGER
 BS  .IN             8.75:   BIT SIZE
 BSD .F               762:   BIT SIZE AT DEPTH
 DFT .    FORMATION FLUID:   DRILLING FLUID TYPE
 MRT .F                90:   MAXIMUM RECORDED TEMPERATURE
 LUN .            HL-6274:   LOGGING UNIT NUMBER
 LUL .             CASPER:   LOGGING UNIT LOCATION
 ENGI.             RAUTIC:   RECORDING ENGINEER
 WITN.        GARY STRONG:   WITNESSED BY
 CLNT.            A2DTECH:   CLIENT CODE
 ORIG.           5" PRINT:   ORIGIN OF DATA
 UWI .       490252249700:   UNIQUE WELL ID
 DICO. A2D Technologies, Inc.:   DIGITIZING COMPANY
~OTHER INFORMATION
~A   DEPT       GRR      RFOC       RILD       RILM   
# ...
  608.6000    85.9630    11.6675    11.8901    11.8252
  608.7000    85.4637    11.6686    11.8907    11.8309
  608.8000    84.9644    11.6698    11.8913    11.9083
  608.9000    84.4686    11.7244    11.8920    11.9086
  609.0000    84.1762    11.7537    11.8927    11.9089
  609.1000    83.9746    11.7548    11.8933    11.9432
  609.2000    83.8840    11.7683    11.8941    11.9926
  609.3000    83.8894    11.8394    11.8946    11.9997
  609.4000    83.8949    11.8406    11.8953    12.0769
  609.5000    83.9074    11.8950    11.8960    12.0772
  609.6000    84.2088    11.9654    11.8966    12.1271
  609.7000    84.4229    12.0103    11.8973    12.1981
  609.8000    84.6807    12.0231    11.8981    12.2694
  609.9000    84.9385    12.0968    11.9565    12.3412
  610.0000    85.2567    12.0979    11.9823    12.4192
  610.1000    85.7777    12.1525    12.0138    12.4861
  610.2000    86.6582    12.2244    12.0672    12.5064
  610.3000    87.0894    12.2966    12.0712    12.5452
  610.4000    87.5996    12.3693    12.1528    12.6186
  610.5000    88.2236    12.4462    12.2136    12.6924
  610.6000    88.9860    12.5160    12.2389    12.7712
  610.7000    89.7343    12.5357    12.2720    12.8415
  610.8000    90.3162    12.5764    12.3442    12.9166
  610.9000    90.7548    12.6508    12.4167    12.9509
  611.0000    91.2650    12.7255    12.4996    12.9777
  611.1000    91.6576    12.8057    12.5632    13.0536
  611.2000    91.9155    12.8069    12.6371    13.1332
  611.3000    92.1553    12.8626    12.7464    13.1335
  611.4000    92.1614    12.8990    12.8753    13.1339
  611.5000    92.3867    12.9246    12.9509    13.1776
  611.6000    92.3030    13.0102    13.0363    13.2262
  611.7000    92.0560    13.1756    13.1037    13.2265
  611.8000    91.7379    13.6069    13.1808    13.2269
  611.9000    91.2166    14.3319    13.2583    13.3026
  612.0000    90.3813    15.0034    13.3139    13.3198
  612.1000    89.9377    15.4778    13.3146    13.2751
  612.2000    89.4385    15.8216    13.3155    13.2284
  612.3000    88.9392    16.0254    13.3161    13.2287
  612.4000    88.5148    16.1112    13.3169    13.2291
  612.5000    88.2428    16.2065    13.3176    13.1380
  612.6000    87.6948    16.3022    13.3183    13.1383
  612.7000    87.4719    16.3986    13.3111    13.0927
  612.8000    87.2249    16.4864    13.2276    13.0481
  612.9000    86.9780    16.3738    13.2283    13.0324
  613.0000    86.8097    16.2075    13.2290    12.9573
  613.1000    86.8151    15.9590    13.1905    12.8692
  613.2000    86.8210    15.4717    13.1389    12.8695
  613.3000    86.8260    14.7477    13.1305    12.8234
  613.4000    86.8314    14.0084    13.0493    12.7811
  613.5000    86.8369    13.3842    13.0500    12.7644
  613.6000    86.9245    13.0514    12.9960    12.6908
  613.7000    87.1823    12.7290    12.9611    12.6059
  613.8000    87.4578    12.4719    12.9370    12.5450
  613.9000    87.9330    12.2767    12.8628    12.5193
  614.0000    88.6285    12.1407    12.7843    12.4873
  614.1000    89.6621    12.0622    12.7157    12.4153
  614.2000    91.0150    12.0632    12.6971    12.3437
  614.3000    92.3726    12.0185    12.6580    12.2625
  614.4000    92.7566    11.9817    12.5854    12.2628
  614.5000    93.1407    11.9829    12.5238    12.2161
  614.6000    93.2411    11.9806    12.5246    12.1786
  614.7000    93.1073    11.9022    12.4564    12.1599
  614.8000    92.9499    11.9031    12.3850    12.0949
  614.9000    92.9553    11.9043    12.3140    12.0953
  615.0000    92.9609    11.9055    12.2434    12.0343
  615.1000    92.9662    11.8902    12.1731    12.0122
  615.2000    92.7791    11.8250    12.1008    11.9789
  615.3000    92.5322    11.8264    12.1015    11.9298
  615.4000    92.2852    11.8274    12.0484    11.9301
  615.5000    91.9947    11.8285    12.0190    11.9305
  615.6000    91.4829    11.8297    11.9937    11.9308
  615.7000    90.9962    11.8308    11.9249    11.8828
  615.8000    90.4970    11.8320    11.8550    11.8488
  615.9000    89.8513    11.8333    11.8557    11.8492
  616.0000    89.2930    11.8343    11.8563    11.8495
  616.1000    88.9993    11.8778    11.8169    11.8498
  616.2000    88.4943    11.9194    11.7755    11.8501
  616.3000    88.2501    11.9206    11.7762    11.8011
  616.4000    87.8032    11.9217    11.7768    11.7688
  616.5000    87.4541    11.9231    11.7775    11.7691
  616.6000    87.2072    11.8687    11.7781    11.7694
  616.7000    86.9603    11.8424    11.7379    11.7698
  616.8000    86.7134    11.8435    11.6979    11.7701
  616.9000    86.4186    11.8447    11.6985    11.7704
  617.0000    86.0162    11.8459    11.6992    11.7707
  617.1000    85.6706    11.8470    11.6999    11.7711
  617.2000    85.5275    11.8482    11.6456    11.7714
  617.3000    85.4787    11.8092    11.6201    11.7717
  617.4000    85.2318    11.7681    11.5927    11.7720
  617.5000    84.9406    11.7693    11.5262    11.7724
  617.6000    84.9450    11.7705    11.4615    11.7727
  617.7000    84.9505    11.7716    11.4623    11.7730
  617.8000    84.9559    11.7727    11.4081    11.7734
  617.9000    85.0190    11.7739    11.3840    11.7737
  618.0000    85.2689    11.7499    11.3563    11.7740
  618.1000    85.2752    11.6942    11.2911    11.7743
  618.2000    85.4904    11.6955    11.2264    11.7747
  618.3000    85.5873    11.6966    11.1517    11.7488
  618.4000    85.7039    11.6978    11.1522    11.6811
  618.5000    85.9617    11.6989    11.1114    11.6132
  618.6000    86.2195    11.7001    11.0476    11.6135
  618.7000    86.5162    11.7012    11.0001    11.5604
  618.8000    86.7351    11.7024    10.9974    11.4937
  618.9000    86.9929    11.7035    10.9252    11.4275
  619.0000    87.3655    11.6542    10.9257    11.3481
  619.1000    87.8107    11.6244    10.9263    11.2179
  619.2000    88.0685    11.6256    10.8978    11.1414
  619.3000    88.3615    11.6267    10.8518    11.0891
  619.4000    88.8020    11.6279    10.8566    11.0648
  619.5000    89.3121    11.6290    10.9288    11.0651
  619.6000    89.9406    11.6301    10.9293    11.0800
  619.7000    90.7719    11.6313    10.9299    11.1429
  619.8000    91.7300    11.6324    10.9608    11.1432
  619.9000    92.0194    11.6335    11.0074    11.1976
  620.0000    92.2457    11.6348    11.0131    11.2215
  620.1000    92.3317    11.5740    11.0855    11.2507
  620.2000    92.3372    11.5561    11.1431    11.3003
  620.3000    92.3426    11.5572    11.1640    11.3006
  620.4000    92.3255    11.5583    11.1646    11.3010
  620.5000    92.0519    11.5595    11.1652    11.3574
  620.6000    92.0568    11.5607    11.1720    11.3803
  620.7000    91.8869    11.5617    11.2444    11.3807
  620.8000    91.6399    11.5628    11.2450    11.3810
  620.9000    91.3169    11.5640    11.2456    11.3813
  621.0000    90.8177    11.5651    11.2792    11.3816
  621.1000    90.2718    11.5662    11.3253    11.3819
  621.2000    89.3616    11.5675    11.3259    11.3822
  621.3000    88.3575    11.5685    11.3266    11.3826
  621.4000    87.4828    11.5696    11.3272    11.3829
  621.5000    86.7313    11.5708    11.3278    11.3832
  621.6000    86.0391    11.5719    11.3285    11.3835
  621.7000    85.7726    11.5730    11.3291    11.3838
  621.8000    85.5452    11.5743    11.3297    11.3841
  621.9000    85.4810    11.5753    11.3304    11.3844
  622.0000    85.4864    11.5764    11.3310    11.3848
  622.1000    85.4918    11.5775    11.3316    11.3851
  622.2000    85.4973    11.5787    11.3673    11.3854
  622.3000    85.5031    11.5798    11.4119    11.3857
  622.4000    85.5082    11.5811    11.4126    11.3860
  622.5000    85.5136    11.5821    11.4132    11.3863
  622.6000    85.5190    11.5832    11.4138    11.3867
  622.7000    85.5245    11.6150    11.4145    11.3870
  622.8000    85.5299    11.6665    11.4151    11.3873
  622.9000    85.5356    11.6676    11.4157    11.3876
  623.0000    85.5408    11.6690    11.4164    11.3879
  623.1000    85.5462    11.6699    11.4170    11.3882
