~VERSION INFORMATION
 VERS.                2.0:   CWLS LOG ASCII STANDARD - VERSION 2.0
 WRAP.                 NO:   ONE LINE PER DEPTH STEP
~WELL INFORMATION
#MNEM.UNIT      DATA TYPE    INFORMATION
#----------   ------------   ------------------------------
 STRT.F           19.5000:   START DEPTH
 STOP.F          635.0000:   STOP DEPTH
 STEP.F            0.5000:   STEP LENGTH
 NULL.          -999.2500:   NO VALUE
 COMP. FENIX & SCISSON INC:   COMPANY
 WELL. NPR-3 68-S-34 #3-34:   WELL
 FLD .  TEAPOT DOME NPR-3:   FIELD
 LOC .      S34 T39N R78W:   LOCATION
 CNTY.            NATRONA:   COUNTY
 STAT.            WYOMING:   STATE
 CTRY. UNITED STATES OF AMERICA:   COUNTRY
 SRVC.           BIRDWELL:   SERVICE COMPANY
 DATE.        01-AUG-1978:   LOGDATE
 API .       490251070600:   API NUMBER
~CURVE INFORMATION
#MNEM.UNIT       API CODE    CURVE DESCRIPTION
#----------   ------------   ------------------------------
 DEPT.F                  :   
 SPR .MV     05 010 01 00:   SPONTANEOUS POTENTIAL
 SN  .OHMM   05 040 16 00:   SHORT NORMAL 16'
 ILD .OHMM   05 120 46 00:   INDUCTION LOG DEEP RESISTIVITY
 GRD .GAPI   45 310 01 00:   GAMMA RAY FROM DENSITY LOG
 CALD.IN     45 280 60 00:   CALIPER
 RHOB.G/C3   45 350 01 00:   BULK DENSITY
 DPHI.DEC    45 890 12 00:   DENSITY POROSITY SANDSTONE
 CORR.G/C3   45 356 01 00:   DENSITY CORRECTION
~PARAMETER INFORMATION
#MNEM.UNIT          VALUE    DESCRIPTION
#----------   ------------   ------------------------------
 PD  .                 GL:   PERMANENT DATUM
 EPD .F              5100:   ELEVATION PERMANENT DATUM
 LMF .                 KB:   LOG MEASURED FROM
 DAPD.F                 4:   FEET ABOVE PERMANENT DATUM
 DMF .                 KB:   DRILLING MEASURED FROM
 EKB .F              5104:   KELLING BUSHING
 EGL .F              5100:   GROUND LEVEL
 DATE.           9-1-1978:   RUN DATE
 RUN .                  1:   RUN NUMBER
 DD  .F               635:   DEPTH DRILLER
 DL  .F               635:   DEPTH LOGGER
 BLI .F               629:   BOTTOM LOG INTERVAL
 TLI .F                40:   TOP LOG INTERVAL
 CS  .IN            8.625:   CASING SIZE
 CBD .F                40:   CASING BOTTOM DRILLER
 CBL .F                40:   CASING BOTTOM LOGGER
 BS  .IN            7.875:   BIT SIZE
 BSD .F               635:   BIT SIZE AT DEPTH
 DFT .                KCL:   DRILLING FLUID TYPE
 DFD .                8.6:   DRILLING FLUID DENSITY
 DFV .                 32:   DRILLING FLUID VISCOSITY
 DFPH.                  9:   DRILLING FLUID PH
 DFL .                  7:   DRILLING FLUID LOSS
 MSS .          FLOW LINE:   MUD SAMPLE SOURCE
 RMS .OHMM             .4:   RESISTIVITY MUD SAMPLE
 MST .F                76:   MUD SAMPLE TEMPERATURE
 RMF .OHMM             .3:   RESISTIVITY MUD FILTRATE SAMPLE
 MFST.F                80:   MUD FILTRATE SAMPLE TEMPERATURE
 RMC .OHMM             .4:   RESISTIVITY MUD CAKE
 MCST.F                80:   MUD CAKE SAMPLE TEMPERATURE
 MFSS.               MEAS:   MUD FILTRATE SAMPLE SOURCE
 MCSS.               MEAS:   MUD CAKE SAMPLE SOURCE
 RMB .OHMM            .43:   RESISTIVITY MUD AT BHT
 BHT .F                70:   BOTTOM HOLE TEMPERATURE
 TCS .HRS               3:   TIME CURCULATED STOPPED
 MRT .F                70:   MAXIMUM RECORDED TEMPERATURE
 LUN .               2958:   LOGGING UNIT NUMBER
 LUL .               CASP:   LOGGING UNIT LOCATION
 ENGI.            POINTER:   RECORDING ENGINEER
 WITN.           MCGINLEY:   WITNESSED BY
 CLNT.            A2DTECH:   CLIENT CODE
 ORIG.           5" PRINT:   ORIGIN OF DATA
 UWI .       490251070600:   UNIQUE WELL ID
 DICO. A2D Technologies, Inc.:   DIGITIZING COMPANY
~OTHER INFORMATION
~A   DEPT      SPR         SN        ILD         GRD      CALD       RHOB       DPHI       CORR   
# ...
  424.5000   -21.4410     7.2421     7.1122   125.0863     7.4575     2.4865     0.1126     0.0234
  425.0000   -21.3446     7.1985     7.0421   126.0584     7.4591     2.4921     0.1111     0.0231
  425.5000   -21.2544     7.1551     6.9385   128.0055     7.4607     2.4974     0.1134     0.0228
  426.0000   -21.1637     7.1110     6.8003   135.8927     7.4623     2.4961     0.1157     0.0225
  426.5000   -21.0663     7.0641     6.4841   141.8510     7.4639     2.4927     0.1180     0.0223
  427.0000   -21.3048     7.0162     6.1826   136.6211     7.4655     2.4864     0.1304     0.0220
  427.5000   -21.6082     6.8922     5.8951   131.4365     7.4672     2.4736     0.1424     0.0216
  428.0000   -21.9139     6.5717     5.7032   126.1429     7.4688     2.4552     0.1499     0.0217
  428.5000   -22.0960     6.1384     5.7171   129.2486     7.4696     2.4360     0.1439     0.0317
  429.0000   -22.1787     6.1550     5.7291   133.2663     7.4672     2.4430     0.1364     0.0348
  429.5000   -22.2538     6.1844     5.7408   137.3929     7.4649     2.4538     0.1288     0.0289
  430.0000   -22.2558     6.2139     5.7521   139.4459     7.4626     2.4646     0.1232     0.0231
  430.5000   -22.2520     6.2436     5.7559   139.2846     7.4604     2.4749     0.1233     0.0176
  431.0000   -22.4387     6.2734     5.6754   138.5010     7.4581     2.4771     0.1234     0.0186
  431.5000   -22.6959     6.3100     5.5389   133.6770     7.4558     2.4778     0.1236     0.0198
  432.0000   -22.9572     6.1782     5.3390   131.7803     7.4535     2.4706     0.1389     0.0210
  432.5000   -23.0541     6.0122     5.1553   135.4235     7.4513     2.4517     0.1529     0.0222
  433.0000   -23.0532     5.8621     5.1222   138.1830     7.4490     2.4331     0.1567     0.0233
  433.5000   -22.8615     5.8621     5.0855   138.4565     7.4467     2.4187     0.1582     0.0245
  434.0000   -22.1831     5.8627     5.0609   138.8018     7.4444     2.4200     0.1531     0.0255
  434.5000   -21.5112     5.8627     5.0609   138.0040     7.4422     2.4276     0.1355     0.0255
  435.0000   -20.8710     6.0131     5.0609   137.3251     7.4399     2.4478     0.1270     0.0255
  435.5000   -20.7794     6.2730     5.1767   132.9609     7.4376     2.4683     0.1202     0.0255
  436.0000   -20.7086     6.5442     5.4499   128.1593     7.4353     2.4832     0.1168     0.0255
  436.5000   -20.6351     6.8542     5.7375   123.8139     7.4330     2.4862     0.1153     0.0255
  437.0000   -20.5616     6.8136     6.0402   121.9305     7.4307     2.4894     0.1134     0.0255
  437.5000   -20.4862     6.7682     6.3590   122.0692     7.4300     2.4925     0.1116     0.0255
  438.0000   -20.5417     6.7236     6.4886   126.2598     7.4300     2.4957     0.1131     0.0255
  438.5000   -20.6726     6.6796     6.4880   129.2139     7.4288     2.4951     0.1148     0.0255
  439.0000   -20.8054     6.6359     6.4856   130.4227     7.4266     2.4918     0.1148     0.0255
  439.5000   -20.9381     6.5739     6.4894   128.6888     7.4244     2.4907     0.1148     0.0259
  440.0000   -21.0707     6.4758     6.0165   125.3957     7.4222     2.4920     0.1161     0.0266
  440.5000   -21.2036     6.3792     5.6776   122.2087     7.4200     2.4883     0.1277     0.0273
  441.0000   -21.3373     6.2840     5.3579   118.9866     7.4178     2.4757     0.1451     0.0279
  441.5000   -21.4512     6.0057     5.0562   118.5832     7.4157     2.4466     0.1624     0.0286
  442.0000   -21.3435     5.6525     4.8335   121.1174     7.4135     2.4065     0.1655     0.0291
  442.5000   -21.2361     5.4470     4.8069   124.7372     7.4112     2.4139     0.1517     0.0412
  443.0000   -21.1299     5.6246     4.7784   128.2986     7.4002     2.4271     0.1416     0.0520
  443.5000   -21.0239     5.7559     4.7455   130.1165     7.3757     2.4411     0.1364     0.0428
  444.0000   -20.9179     6.0336     4.9168   125.4996     7.3510     2.4548     0.1313     0.0341
  444.5000   -20.8118     6.3158     5.1547   122.2118     7.3521     2.4690     0.1228     0.0250
  445.0000   -20.7058     6.6112     5.5215   118.9078     7.3553     2.4838     0.1131     0.0280
  445.5000   -20.5997     6.9204     5.9560   115.6055     7.3584     2.4985     0.1106     0.0333
  446.0000   -20.4937     7.2000     6.4247   112.2805     7.3615     2.5047     0.1117     0.0330
  446.5000   -20.3876     7.3152     6.9303   109.0436     7.3646     2.4999     0.1086     0.0325
  447.0000   -20.2816     7.4322     7.1245   111.3909     7.3677     2.4993     0.1101     0.0320
  447.5000   -20.1755     7.5511     7.1451   111.7454     7.3677     2.4997     0.1123     0.0315
  448.0000   -20.0699     7.6536     7.1658   112.4340     7.3565     2.5007     0.1068     0.0311
  448.5000   -19.9661     7.6318     7.1865   114.6013     7.3457     2.5038     0.1095     0.0306
  449.0000   -19.8472     7.6091     7.2072   115.9758     7.3349     2.5034     0.1104     0.0301
  449.5000   -19.3975     7.5864     7.2281   116.0739     7.3240     2.5009     0.1096     0.0296
  450.0000   -18.9386     7.5639     7.2427   115.5560     7.3140     2.4990     0.1087     0.0292
  450.5000   -18.4791     7.5414     7.2334   115.0913     7.2454     2.5022     0.1078     0.0288
  451.0000   -18.5565     7.5189     7.2261   115.5089     7.1547     2.5059     0.1030     0.0283
  451.5000   -18.7117     7.4966     7.2188   115.9565     7.0644     2.5095     0.1039     0.0279
  452.0000   -18.9673     7.4743     7.2114   116.4957     7.0153     2.5127     0.1078     0.0274
  452.5000   -19.2191     7.4468     7.2041   114.6247     7.0310     2.5049     0.1116     0.0239
  453.0000   -19.4708     7.4550     7.1967   112.2445     7.0444     2.4967     0.1147     0.0221
  453.5000   -19.7225     7.4687     7.1892   110.4267     7.1221     2.4882     0.1176     0.0228
  454.0000   -19.9747     7.4824     7.1790   108.9098     7.2238     2.4870     0.1190     0.0237
  454.5000   -20.2254     7.4961     7.1757   109.4077     7.3292     2.4870     0.1146     0.0245
  455.0000   -20.3100     7.5099     7.4783   109.9663     7.3687     2.4890     0.1075     0.0252
  455.5000   -20.3674     7.5237     7.7323   111.4967     7.3926     2.4920     0.0985     0.0299
  456.0000   -20.4247     7.5375     7.9949   113.0356     7.4096     2.5091     0.0895     0.0355
  456.5000   -20.4824     7.5514     8.3137   113.4208     7.3904     2.5283     0.0848     0.0396
  457.0000   -20.5397     7.5652     8.3137   111.7475     7.3714     2.5366     0.1009     0.0394
  457.5000   -20.5956     7.5791     7.5038   108.7239     7.3525     2.5214     0.1162     0.0297
  458.0000   -20.6630     7.5835     6.7141   105.2254     7.3313     2.4952     0.1315     0.0266
  458.5000   -21.1096     7.3773     6.0016   103.5573     7.4288     2.4636     0.1467     0.0256
  459.0000   -21.5938     6.8229     5.6000   106.9165     7.4620     2.4245     0.1737     0.0285
  459.5000   -21.8234     6.2833     5.5957   113.1774     7.4783     2.3856     0.1896     0.0374
  460.0000   -20.9706     6.1384     5.5806   116.5091     7.4942     2.3596     0.1767     0.0524
  460.5000   -20.1176     6.2081     5.5720   119.1903     7.5030     2.3903     0.1545     0.0682
  461.0000   -19.2814     6.2565     5.5634   118.8041     7.3584     2.4501     0.1324     0.0718
  461.5000   -18.9660     6.3100     5.5549   117.2761     7.2291     2.5025     0.1104     0.0346
  462.0000   -18.6739     6.9749     5.5481   107.7665     7.2303     2.5138     0.1015     0.0337
  462.5000   -18.4408     7.7297     6.3007   100.7083     7.2299     2.5137     0.1019     0.0324
  463.0000   -18.3672     8.3318     7.0027    98.5081     7.2295     2.5127     0.1012     0.0318
  463.5000   -18.2946     8.7042     7.6651   100.6032     7.2193     2.5126     0.0996     0.0336
  464.0000   -18.0715     9.0307     8.2666   102.2753     7.2093     2.5147     0.0983     0.0354
  464.5000   -17.7544     9.0627     8.8662   101.7181     7.1993     2.5167     0.0984     0.0371
