~VERSION INFORMATION
 VERS.                2.0:   CWLS LOG ASCII STANDARD - VERSION 2.0
 WRAP.                 NO:   ONE LINE PER DEPTH STEP
~WELL INFORMATION
#MNEM.UNIT      DATA TYPE    INFORMATION
#----------   ------------   ------------------------------
 STRT.F            0.0000:   START DEPTH
 STOP.F          546.0000:   STOP DEPTH
 STEP.F            0.5000:   STEP LENGTH
 NULL.          -999.2500:   NO VALUE
 COMP. LAWRENCE/ALLISON INC:   COMPANY
 WELL.   NPR 3 #76-21SX10:   WELL
 FLD .             TEAPOT:   FIELD
 LOC .      S10 T38N R78W:   LOCATION
 CNTY.            NATRONA:   COUNTY
 STAT.            WYOMING:   STATE
 CTRY. UNITED STATES OF AMERICA:   COUNTRY
 SRVC.      Dresser Atlas:   SERVICE COMPANY
 DATE.        22-JUL-1984:   LOGDATE
 API .       490251097000:   API NUMBER
~CURVE INFORMATION
#MNEM.UNIT       API CODE    CURVE DESCRIPTION
#----------   ------------   ------------------------------
 DEPT.F                  :   
 CALD.IN     45 280 60 00:   CALIPER FROM DENSITY LOG
 DEN .G/C3   45 350 01 00:   COMPENSATED BULK DENSTIY
 CORR.G/C3   45 356 01 00:   DENSITY CORRECTION
 DPHI.DEC    45 890 12 00:   POROSITY DENSITY SANDSTONE
 CNC .DEC    42 890 03 00:   NEUTRON POROSITY SANDSTONE
 GRR .GAPI   07 310 01 00:   GAMMA RAY
 SPR .MV     07 010 01 00:   SPONTANEOUS POTENTIAL
 RILD.OHMM   07 120 46 00:   INDUCTION LOG DEEP RESISTIVITY
 RILM.OHMM   07 120 44 00:   INDUCTION LOG MEDIUM RESISTIVITY
 RFOC.OHMM   07 220 04 00:   RESISTIVITY FOCUSED LOG
 AC  .US/F   60 520 00 00:   ACCOUSTIC
~PARAMETER INFORMATION
#MNEM.UNIT          VALUE    DESCRIPTION
#----------   ------------   ------------------------------
 PD  .                 GL:   PERMANENT DATUM
 EPD .F              5167:   ELEVATION PERMANENT DATUM
 LMF .                 GL:   LOG MEASURED FROM
 DMF .                 GL:   DRILLING MEASURED FROM
 EGL .F              5167:   GROUND LEVEL
 DATE.        22-JUL-1984:   RUN DATE
 RUN .                  1:   RUN NUMBER
 DD  .F               551:   DEPTH DRILLER
 DL  .F               547:   DEPTH LOGGER
 BLI .F               544:   BOTTOM LOG INTERVAL
 CS  .IN            9.625:   CASING SIZE
 CBD .F                40:   CASING BOTTOM DRILLER
 CBL .F                42:   CASING BOTTOM LOGGER
 BS  .IN            7.875:   BIT SIZE
 BSD .F               551:   BIT SIZE AT DEPTH
 DFT .        KCL POLYMER:   DRILLING FLUID TYPE
 MSS .           FLOWLINE:   MUD SAMPLE SOURCE
 RMS .OHMM           .193:   RESISTIVITY MUD SAMPLE
 MST .F                75:   MUD SAMPLE TEMPERATURE
 RMF .OHMM           .144:   RESISTIVITY MUD FILTRATE SAMPLE
 MFST.F                75:   MUD FILTRATE SAMPLE TEMPERATURE
 RMC .OHMM            .24:   RESISTIVITY MUD CAKE
 MCST.F                74:   MUD CAKE SAMPLE TEMPERATURE
 MFSS.               CALC:   MUD FILTRATE SAMPLE SOURCE
 MCSS.               CALC:   MUD CAKE SAMPLE SOURCE
 TCS .HRS               5:   TIME CURCULATED STOPPED
 MRT .F                90:   MAXIMUM RECORDED TEMPERATURE
 LUN .               6274:   LOGGING UNIT NUMBER
 LUL .               GLTE:   LOGGING UNIT LOCATION
 ENGI.             RAUTIO:   RECORDING ENGINEER
 WITN.              FIVAS:   WITNESSED BY
 CLNT.            A2DTECH:   CLIENT CODE
 ORIG.       2", 5" PRINT:   ORIGIN OF DATA
 UWI .       490251097000:   UNIQUE WELL ID
 DICO. A2D Technologies, Inc.:   DIGITIZING COMPANY
~OTHER INFORMATION
~A    DEPT    CALD        DEN       CORR       DPHI        CNC         GRR       SPR       RILD       RILM       RFOC         AC   
# ...
  152.5000     8.3880     2.4320     0.0250     0.1310     0.2775   117.2390   -15.4810     7.7460     7.5100  -999.2500  -999.2500
  153.0000     8.3890     2.4390     0.0240     0.1280     0.2756   116.1090   -19.2210     7.8130     7.5930  -999.2500  -999.2500
  153.5000     8.3890     2.4420     0.0230     0.1250     0.2750   117.7440   -26.1170     7.8810     7.6760  -999.2500  -999.2500
  154.0000     8.3900     2.4370     0.0170     0.1290     0.2786   121.3010   -33.6690     7.9260     7.7820  -999.2500  -999.2500
  154.5000     8.3910     2.4280     0.0120     0.1340     0.2910   121.2340   -40.7710     7.8300     7.7300  -999.2500  -999.2500
  155.0000     8.3920     2.4270     0.0150     0.1350     0.2983   120.5240   -45.4740     7.7590     7.6600  -999.2500  -999.2500
  155.5000     8.3930     2.4280     0.0160     0.1350     0.2984   120.3360   -48.2230     7.6870     7.5900  -999.2500  -999.2500
  156.0000     8.3930     2.4280     0.0070     0.1350     0.2982   120.6190   -50.1310     7.6290     7.5190  -999.2500  -999.2500
  156.5000     8.3940     2.4300     0.0090     0.1340     0.2994   121.7650   -51.4510     7.5490     7.4430  -999.2500  -999.2500
  157.0000     8.3950     2.4330     0.0260     0.1310     0.3002   123.2400   -52.5230     7.4690     7.3640  -999.2500  -999.2500
  157.5000     8.3960     2.4360     0.0410     0.1290     0.2968   124.5930   -53.5180     7.3910     7.2830  -999.2500  -999.2500
  158.0000     8.3970     2.4390     0.0440     0.1270     0.2819   126.3900   -53.9480     7.3160     7.1890  -999.2500  -999.2500
  158.5000     8.3970     2.4450     0.0460     0.1230     0.2751   130.0130   -54.3610     7.1940     7.0950  -999.2500  -999.2500
  159.0000     8.3980     2.4460     0.0480     0.1230     0.2788   131.9310   -54.6410     7.0570     6.9840  -999.2500  -999.2500
  159.5000     8.3990     2.4460     0.0490     0.1230     0.2821   129.8520   -54.8260     6.9320     6.8450  -999.2500  -999.2500
  160.0000     8.4000     2.4490     0.0460     0.1210     0.2907   126.8490   -55.0100     6.8270     6.7070  -999.2500  -999.2500
  160.5000     8.4010     2.4540     0.0430     0.1190     0.2928   122.3960   -55.0600     6.7200     6.5380  -999.2500  -999.2500
  161.0000     8.4020     2.4520     0.0410     0.1190     0.2965   118.7750   -54.8780     6.8400     6.6410  -999.2500  -999.2500
  161.5000     8.4020     2.4420     0.0350     0.1230     0.2979   115.7890   -54.6410     6.9620     6.8160  -999.2500  -999.2500
  162.0000     8.4030     2.4150     0.0280     0.1410     0.2993   113.8570   -54.0340     7.0820     6.9910  -999.2500  -999.2500
  162.5000     8.4040     2.3880     0.0250     0.1610     0.3065   111.9440   -50.4920     7.1990     7.1660  -999.2500  -999.2500
  163.0000     8.4050     2.3730     0.0460     0.1680     0.3040   112.0000   -46.8540     7.3170     7.1940  -999.2500  -999.2500
  163.5000     8.4060     2.3890     0.0660     0.1600     0.2749   115.2160   -43.9010     7.4330     7.2290  -999.2500  -999.2500
  164.0000     8.4030     2.4200     0.0850     0.1410     0.2693   115.2070   -44.7840     8.0720     7.2640  -999.2500  -999.2500
  164.5000     8.3980     2.4390     0.0770     0.1300     0.2751   113.7160   -46.0700     8.0220     7.2980  -999.2500  -999.2500
  165.0000     8.3920     2.4500     0.0620     0.1210     0.2840   114.5780   -47.3320     7.9080     7.2980  -999.2500  -999.2500
  165.5000     8.3870     2.4560     0.0520     0.1170     0.2982   117.9510   -48.5690     7.8250     7.2980  -999.2500  -999.2500
  166.0000     8.3820     2.4660     0.0540     0.1120     0.3014   120.5060   -49.7930     7.7420     7.1170  -999.2500  -999.2500
  166.5000     8.3770     2.4700     0.0570     0.1070     0.3046   124.0560   -50.9630     7.4950     6.7600  1621.8611  -999.2500
  167.0000     8.3720     2.4690     0.0590     0.1080     0.2877   128.0910   -52.1340     7.1660     6.3220  1553.0442  -999.2500
  167.5000     8.3670     2.4690     0.0650     0.1080     0.2841   129.2730   -53.5920     6.4630     5.8050  1598.9457  -999.2500
  168.0000     8.3660     2.4670     0.0740     0.1090     0.2931   128.1900   -55.1960     5.7840     5.1860  1230.1986  -999.2500
  168.5000     8.3660     2.4560     0.0770     0.1150     0.3011   125.4880   -56.8010     4.8660     4.6130   458.7168  -999.2500
  169.0000     8.3660     2.4410     0.0700     0.1270     0.3117   124.6780   -58.2420     4.1810     4.0640   249.2116  -999.2500
  169.5000     8.3660     2.4150     0.0620     0.1400     0.3265   123.8240   -59.4490     3.7200     3.5160   113.3681  -999.2500
  170.0000     8.3660     2.3910     0.0500     0.1580     0.3770   124.0470   -60.3890     3.4110     3.0000    72.7964  -999.2500
  170.5000     8.3660     2.3450     0.0360     0.1860     0.4069   124.0950   -60.9080     3.0240     2.9060    49.1305  -999.2500
  171.0000     8.3660     2.2950     0.0270     0.2170     0.4260   119.1280   -61.0500     2.8400     2.7880    27.0589  -999.2500
  171.5000     8.3660     2.2470     0.0190     0.2440     0.4229   111.5730   -61.2150     2.8590     2.8590    22.9947  -999.2500
  172.0000     8.3660     2.2120     0.0150     0.2650     0.3768   102.5340   -60.5480     2.9000     2.9660    20.3915  -999.2500
  172.5000     8.3660     2.2200     0.0210     0.2570     0.3375   102.1250   -58.2090     2.9410     3.1630    20.2589  -999.2500
  173.0000     8.3660     2.2590     0.0190     0.2320     0.3224   108.6770   -56.4080     3.1990     3.4860    19.2904  -999.2500
  173.5000     8.3660     2.3100     0.0230     0.2060     0.3156   115.7300   -54.7750     3.6040     3.8950    15.2693  -999.2500
  174.0000     8.3660     2.3480     0.0360     0.1820     0.2888   119.9260   -52.9320     4.0100     4.3890    13.8303  -999.2500
  174.5000     8.3660     2.3720     0.0480     0.1680     0.2877   120.6510   -50.8490     4.6220     4.7540    13.8403  -999.2500
  175.0000     8.3660     2.3930     0.0400     0.1540     0.2898   119.9700   -49.3710     5.3940     4.9670    13.8483  -999.2500
  175.5000     8.3660     2.4240     0.0330     0.1310     0.2891   120.6950   -48.4710     5.7030     5.5910    12.6362  -999.2500
  176.0000     8.3660     2.4520     0.0330     0.1190     0.2897   121.7270   -48.0440     6.1020     5.9080    12.7030  -999.2500
  176.5000     8.3660     2.4630     0.0320     0.1120     0.2900   124.6250   -48.2190     6.4960     6.2450    11.4350  -999.2500
  177.0000     8.3660     2.4700     0.0310     0.1070     0.2936   127.9650   -48.3960     6.6480     6.4790    10.8230  -999.2500
  177.5000     8.3660     2.4760     0.0290     0.1050     0.3001   130.7750   -48.5680     6.7700     6.4590    10.4370  -999.2500
  178.0000     8.3660     2.4750     0.0280     0.1080     0.3049   131.2580   -48.9810     6.6590     6.4320    10.1140  -999.2500
  178.5000     8.3660     2.4700     0.0400     0.1110     0.3083   131.2800   -49.5270     6.4470     6.2730     9.9660  -999.2500
  179.0000     8.3660     2.4670     0.0530     0.1110     0.3082   131.3030   -50.4140     6.2190     5.9950    10.0070  -999.2500
  179.5000     8.3660     2.4680     0.0670     0.1100     0.3088   131.9220   -51.4160     5.9860     5.7160    10.0840  -999.2500
  180.0000     8.3660     2.4650     0.0580     0.1130     0.3270   132.9570   -52.8720     5.7320     5.4380    10.1420  -999.2500
  180.5000     8.3660     2.4460     0.0370     0.1260     0.3235   136.2950   -54.2940     5.4780     5.1800     9.1740  -999.2500
  181.0000     8.3660     2.4250     0.0400     0.1380     0.3179   139.8170   -55.4800     5.2240     5.0450     8.1650  -999.2500
  181.5000     8.3660     2.4100     0.0490     0.1460     0.3151   142.2430   -55.6660     5.0310     4.9100     7.5020  -999.2500
  182.0000     8.3660     2.4160     0.0390     0.1410     0.3203   140.8880   -55.4680     4.9640     4.8520     7.6400  -999.2500
  182.5000     8.3660     2.4300     0.0310     0.1330     0.3267   135.9670   -55.2780     4.9500     4.8320     7.4600   174.7549
