~VERSION INFORMATION
 VERS.                2.0:   CWLS LOG ASCII STANDARD - VERSION 2.0
 WRAP.                 NO:   ONE LINE PER DEPTH STEP
~WELL INFORMATION
#MNEM.UNIT      DATA TYPE    INFORMATION
#----------   ------------   ------------------------------
 STRT.F           20.0000:   START DEPTH
 STOP.F         2420.0000:   STOP DEPTH
 STEP.F            0.5000:   STEP LENGTH
 NULL.          -999.2500:   NO VALUE
 COMP. FENIX & SCISSON INC:   COMPANY
 WELL.    SHX 15 #71-1-15:   WELL
 FLD .             TEAPOT:   FIELD
 LOC .      S15 T38N R78W:   LOCATION
 CNTY.            NATRONA:   COUNTY
 STAT.            WYOMING:   STATE
 CTRY. UNITED STATES OF AMERICA:   COUNTRY
 SRVC.           BIRDWELL:   SERVICE COMPANY
 DATE.        03-SEP-1978:   LOGDATE
 API .       490251081800:   API NUMBER
~CURVE INFORMATION
#MNEM.UNIT       API CODE    CURVE DESCRIPTION
#----------   ------------   ------------------------------
 DEPT.F                  :   
 CALD.IN     45 280 60 00:   CALIPER
 GRD .GAPI   45 310 01 00:   GAMMA RAY FROM DENSITY LOG
 RHOB.G/C3   45 350 01 00:   BULK DENSITY
 DPHI.DEC    45 890 12 00:   DENSITY POROSITY SANDSTONE
 CORR.G/C3   45 356 01 00:   DENSITY CORRECTION
 NPHI.DEC    42 890 03 00:   NEUTRON POROSITY
~PARAMETER INFORMATION
#MNEM.UNIT          VALUE    DESCRIPTION
#----------   ------------   ------------------------------
 PD  .                 GL:   PERMANENT DATUM
 EPD .F              5249:   ELEVATION PERMANENT DATUM
 LMF .                 KB:   LOG MEASURED FROM
 DAPD.F                10:   FEET ABOVE PERMANENT DATUM
 DMF .                 KB:   DRILLING MEASURED FROM
 EKB .F              5259:   KELLING BUSHING
 EGL .F              5249:   GROUND LEVEL
 DATE.             9-3-78:   RUN DATE
 RUN .                  1:   RUN NUMBER
 DD  .F              2450:   DEPTH DRILLER
 DL  .F              2422:   DEPTH LOGGER
 BLI .F              2420:   BOTTOM LOG INTERVAL
 TLI .F                50:   TOP LOG INTERVAL
 CS  .IN            9.625:   CASING SIZE
 CBD .F               650:   CASING BOTTOM DRILLER
 CBL .F               676:   CASING BOTTOM LOGGER
 BS  .IN             8.75:   BIT SIZE
 BSD .F              2450:   BIT SIZE AT DEPTH
 DFT .           AIR MIST:   DRILLING FLUID TYPE
 LUN .               2958:   LOGGING UNIT NUMBER
 LUL .               CASP:   LOGGING UNIT LOCATION
 ENGI.             MILLER:   RECORDING ENGINEER
 WITN.           MCGINLEY:   WITNESSED BY
 CLNT.            A2DTECH:   CLIENT CODE
 ORIG.         2.5" PRINT:   ORIGIN OF DATA
 UWI .       490251081800:   UNIQUE WELL ID
 DICO. A2D Technologies, Inc.:   DIGITIZING COMPANY
~OTHER INFORMATION
~A   DEPT     CALD        GRD       RHOB       DPHI       CORR         NPHI 
# ...
 1892.0000    11.7292   142.4875     2.4650     0.1210     0.0721  -999.2500
 1892.5000    11.7235   143.1480     2.4592     0.1207     0.0823  -999.2500
 1893.0000    11.7176   143.9458     2.4657     0.1171     0.0925  -999.2500
 1893.5000    11.7117   146.7392     2.4677     0.1128     0.0954  -999.2500
 1894.0000    11.7059   150.0672     2.4921     0.0821     0.0859  -999.2500
 1894.5000    11.7000   155.6860     2.5135     0.0908     0.0789  -999.2500
 1895.0000    11.6941   162.6924     2.5038     0.0980     0.0794  -999.2500
 1895.5000    11.6883   165.4487     2.4878     0.1053     0.0839  -999.2500
 1896.0000    11.6825   174.5706     2.4720     0.1139     0.0981  -999.2500
 1896.5000    11.6763   180.5619     2.5010     0.1092     0.1448  -999.2500
 1897.0000    11.6711   179.6943     2.4859     0.1044     0.1216  -999.2500
 1897.5000    11.6643   197.3313     2.4704     0.1259     0.1087  -999.2500
 1898.0000    11.6573   207.1498     2.4595     0.1104     0.1175  -999.2500
 1898.5000    11.6232   235.0094     2.4964     0.0845     0.2191  -999.2500
 1899.0000    11.5944   232.0112     2.5236     0.0741     0.2035  -999.2500
 1899.5000    11.5635   226.5099     2.4527     0.1195     0.1506  -999.2500
 1900.0000    11.5405   223.6451     2.4581     0.1119     0.1636  -999.2500
 1900.5000    11.5424   223.3851     2.5896     0.1012     0.1643  -999.2500
 1901.0000    11.5444   220.4907     2.5207     0.1204     0.1121  -999.2500
 1901.5000    11.5473   215.4935     2.4332     0.1323     0.0220  -999.2500
 1902.0000    11.5499   215.0935     2.4419     0.1386     0.0068  -999.2500
 1902.5000    11.5525   211.0558     2.4307     0.1450     0.0081  -999.2500
 1903.0000    11.5551   200.9921     2.4177     0.1465     0.0099  -999.2500
 1903.5000    11.5577   194.7002     2.4057     0.1481     0.0094  -999.2500
 1904.0000    11.5604   194.7267     2.4081     0.1497     0.0086  -999.2500
 1904.5000    11.5630   197.4183     2.4066     0.1514     0.0078  -999.2500
 1905.0000    11.5655   206.9100     2.4024     0.1530     0.0071  -999.2500
 1905.5000    11.5682   215.2228     2.4012     0.1548     0.0063  -999.2500
 1906.0000    11.5707   218.9896     2.3999     0.1566     0.0056  -999.2500
 1906.5000    11.5734   222.9716     2.3967     0.1586     0.0041  -999.2500
 1907.0000    11.5762   226.4540     2.3923     0.1562     0.0033  -999.2500
 1907.5000    11.5779   227.8006     2.3956     0.1536     0.0030  -999.2500
 1908.0000    11.5890   222.8947     2.4092     0.1522     0.0055  -999.2500
 1908.5000    11.6094   216.6719     2.4240     0.1528     0.0145  -999.2500
 1909.0000    11.6289   213.4536     2.4235     0.1534     0.0218  -999.2500
 1909.5000    11.6503   216.4402     2.4213     0.1535     0.0188  -999.2500
 1910.0000    11.6576   220.8963     2.4189     0.1525     0.0165  -999.2500
 1910.5000    11.6478   224.0477     2.4063     0.1522     0.0135  -999.2500
 1911.0000    11.6398   220.6969     2.4056     0.1522     0.0096  -999.2500
 1911.5000    11.6318   215.4383     2.4030     0.1522     0.0102  -999.2500
 1912.0000    11.6230   216.2652     2.3945     0.1503     0.0094  -999.2500
 1912.5000    11.6198   188.3443     2.4056     0.1480     0.0160  -999.2500
 1913.0000    11.6200   175.9727     2.4106     0.1466     0.0226  -999.2500
 1913.5000    11.6200   172.5224     2.4076     0.1471     0.0219  -999.2500
 1914.0000    11.6200   172.1410     2.4038     0.1479     0.0220  -999.2500
 1914.5000    11.6200   172.9664     2.4096     0.1474     0.0220  -999.2500
 1915.0000    11.6200   174.6444     2.4159     0.1460     0.0221  -999.2500
 1915.5000    11.6200   176.5686     2.4189     0.1446     0.0222  -999.2500
 1916.0000    11.6200   180.9333     2.4319     0.1417     0.0259  -999.2500
 1916.5000    11.6200   182.3001     2.4465     0.1382     0.0300  -999.2500
 1917.0000    11.6200   178.5942     2.4422     0.1348     0.0322  -999.2500
 1917.5000    11.6200   171.4467     2.4377     0.1314     0.0246  -999.2500
 1918.0000    11.6200   165.0191     2.4385     0.1305     0.0178  -999.2500
 1918.5000    11.6200   154.5317     2.4391     0.1349     0.0109  -999.2500
 1919.0000    11.6199   149.2958     2.4264     0.1363     0.0062  -999.2500
 1919.5000    11.6200   148.7093     2.4415     0.1318     0.0122  -999.2500
 1920.0000    11.6202   146.9005     2.4490     0.1264     0.0192  -999.2500
 1920.5000    11.6193   140.1098     2.4513     0.1203     0.0259  -999.2500
 1921.0000    11.6265   128.5201     2.4545     0.1205     0.0334  -999.2500
 1921.5000    11.6385   125.8931     2.4581     0.1208     0.0335  -999.2500
 1922.0000    11.6495   125.8438     2.4797     0.1211     0.0331  -999.2500
 1922.5000    11.6597   127.4325     2.4862     0.1190     0.0325  -999.2500
 1923.0000    11.6654   143.0888     2.4763     0.1164     0.0320  -999.2500
 1923.5000    11.6707   145.6602     2.4678     0.1169     0.0315  -999.2500
 1924.0000    11.6758   149.1628     2.4623     0.1181     0.0310  -999.2500
 1924.5000    11.6811   154.1573     2.4661     0.1196     0.0305  -999.2500
 1925.0000    11.6863   160.6118     2.4701     0.1203     0.0288  -999.2500
 1925.5000    11.6916   165.0502     2.4741     0.1197     0.0235  -999.2500
 1926.0000    11.6964   166.5463     2.4781     0.1188     0.0181  -999.2500
 1926.5000    11.7082   161.7213     2.4757     0.1179     0.0128  -999.2500
 1927.0000    11.7306   155.6809     2.4718     0.1179     0.0073  -999.2500
 1927.5000    11.7522   154.8222     2.4683     0.1179     0.0125  -999.2500
 1928.0000    11.7744   153.8204     2.4940     0.1133     0.0208  -999.2500
 1928.5000    11.7864   151.6002     2.5111     0.1085     0.0292  -999.2500
 1929.0000    11.7945   149.3917     2.5108     0.1044     0.0236  -999.2500
 1929.5000    11.8027   148.8460     2.5116     0.1038     0.0174  -999.2500
 1930.0000    11.8111   148.6898     2.5143     0.1030     0.0099  -999.2500
 1930.5000    11.8200   150.1158     2.5045     0.1043     0.0057  -999.2500
 1931.0000    11.8350   150.3032     2.4911     0.1066     0.0058  -999.2500
 1931.5000    11.8515   150.3379     2.4808     0.1092     0.0050  -999.2500
 1932.0000    11.8683   150.3056     2.4801     0.1100     0.0044  -999.2500
 1932.5000    11.8846   150.2992     2.4832     0.1084     0.0038  -999.2500
 1933.0000    11.8994   150.3345     2.4751     0.1107     0.0032  -999.2500
 1933.5000    11.8999   150.3432     2.4750     0.1102     0.0026  -999.2500
 1934.0000    11.9002   150.4675     2.4801     0.1084     0.0022  -999.2500
 1934.5000    11.9000   154.4520     2.4844     0.1116     0.0039  -999.2500
 1935.0000    11.9000   160.1361     2.4558     0.1165     0.0057  -999.2500
 1935.5000    11.9000   160.6138     2.4603     0.1195     0.0076  -999.2500
 1936.0000    11.9000   159.4622     2.4634     0.1191     0.0089  -999.2500
 1936.5000    11.9000   157.0254     2.4688     0.1185     0.0139  -999.2500
 1937.0000    11.9000   153.7633     2.4661     0.1179     0.0207  -999.2500
 1937.5000    11.9000   152.7000     2.4633     0.1199     0.0259  -999.2500
 1938.0000    11.9000   151.8822     2.4643     0.1219     0.0271  -999.2500
 1938.5000    11.9000   149.1740     2.4669     0.1171     0.0439  -999.2500
 1939.0000    11.9000   148.7698     2.4780     0.1075     0.0601  -999.2500
 1939.5000    11.9000   152.5880     2.4792     0.0979     0.0677  -999.2500
 1940.0000    11.9000   157.1384     2.5129     0.0948     0.0580  -999.2500
 1940.5000    11.9000   157.8204     2.4805     0.1268     0.0192  -999.2500
 1941.0000    11.9000   156.6407     2.4425     0.1238     0.0168  -999.2500
 1941.5000    11.9000   153.3313     2.4549     0.1179     0.0275  -999.2500
 1942.0000    11.9000   148.1289     2.4652     0.1142     0.0374  -999.2500
 1942.5000    11.9000   140.0568     2.4670     0.1150     0.0456  -999.2500
 1943.0000    11.9000   140.9440     2.4612     0.1163     0.0472  -999.2500
 1943.5000    11.9000   145.2768     2.4651     0.1156     0.0497  -999.2500
