~VERSION INFORMATION
 VERS.                2.0:   CWLS LOG ASCII STANDARD - VERSION 2.0
 WRAP.                 NO:   ONE LINE PER DEPTH STEP
~WELL INFORMATION
#MNEM.UNIT      DATA TYPE    INFORMATION
#----------   ------------   ------------------------------
 STRT.F           22.0000:   START DEPTH
 STOP.F          654.0000:   STOP DEPTH
 STEP.F            0.5000:   STEP LENGTH
 NULL.          -999.2500:   NO VALUE
 COMP. FENIX & SCISSON INC:   COMPANY
 WELL.     54 S 34 #54-34:   WELL
 FLD .             TEAPOT:   FIELD
 LOC .      S34 T39N R78W:   LOCATION
 CNTY.            NATRONA:   COUNTY
 STAT.            WYOMING:   STATE
 CTRY. UNITED STATES OF AMERICA:   COUNTRY
 SRVC.           BIRDWELL:   SERVICE COMPANY
 DATE.        22-AUG-1978:   LOGDATE
 API .       490251070100:   API NUMBER
~CURVE INFORMATION
#MNEM.UNIT       API CODE    CURVE DESCRIPTION
#----------   ------------   ------------------------------
 DEPT.F                  :   
 SPR .MV     05 010 01 00:   SPONTANEOUS POTENTIAL FROM RES.
 SN  .OHMM   05 040 16 00:   SHORT NORMAL 16"
 ILD .OHMM   05 120 46 00:   INDUCTION LOG DEEP
 CALD.IN     45 280 60 00:   CALIPER
 GRD .GAPI   45 310 01 00:   GAMMA RAY FROM DENSITY LOG
 DPHI.DEC    45 890 12 00:   DENSITY POROSITY SANDSTONE
 RHOB.G/C3   45 350 01 00:   BULK DENSITY
 CORR.G/C3   45 356 01 00:   DENSITY CORRECTION
~PARAMETER INFORMATION
#MNEM.UNIT          VALUE    DESCRIPTION
#----------   ------------   ------------------------------
 PD  .                 GL:   PERMANENT DATUM
 EPD .F              5085:   ELEVATION PERMANENT DATUM
 LMF .                 KB:   LOG MEASURED FROM
 DAPD.F                 4:   FEET ABOVE PERMANENT DATUM
 DMF .                 KB:   DRILLING MEASURED FROM
 EKB .F              5089:   KELLING BUSHING
 EGL .F              5085:   GROUND LEVEL
 DATE.            8-22-78:   RUN DATE
 RUN .                  1:   RUN NUMBER
 DD  .F               685:   DEPTH DRILLER
 DL  .F               653:   DEPTH LOGGER
 BLI .F               646:   BOTTOM LOG INTERVAL
 TLI .F                30:   TOP LOG INTERVAL
 CS  .IN            8.625:   CASING SIZE
 CBD .F                46:   CASING BOTTOM DRILLER
 CBL .F                46:   CASING BOTTOM LOGGER
 BS  .IN            7.875:   BIT SIZE
 BSD .F               685:   BIT SIZE AT DEPTH
 DFT .                KCL:   DRILLING FLUID TYPE
 DFD .                8.7:   DRILLING FLUID DENSITY
 DFV .                 33:   DRILLING FLUID VISCOSITY
 DFPH.                  9:   DRILLING FLUID PH
 MSS .           FLOWLINE:   MUD SAMPLE SOURCE
 RMS .OHMM            .18:   RESISTIVITY MUD SAMPLE
 MST .F                86:   MUD SAMPLE TEMPERATURE
 RMF .OHMM            .16:   RESISTIVITY MUD FILTRATE SAMPLE
 MFST.F                86:   MUD FILTRATE SAMPLE TEMPERATURE
 RMC .OHMM            .52:   RESISTIVITY MUD CAKE
 MCST.F                86:   MUD CAKE SAMPLE TEMPERATURE
 MFSS.               MEAS:   MUD FILTRATE SAMPLE SOURCE
 MCSS.               MEAS:   MUD CAKE SAMPLE SOURCE
 BHT .F                70:   BOTTOM HOLE TEMPERATURE
 TCS .HRS               2:   TIME CURCULATED STOPPED
 MRT .F                70:   MAXIMUM RECORDED TEMPERATURE
 LUN .               2958:   LOGGING UNIT NUMBER
 LUL .               CASP:   LOGGING UNIT LOCATION
 ENGI.           REYNOLDS:   RECORDING ENGINEER
 WITN.              AMEND:   WITNESSED BY
 CLNT.            A2DTECH:   CLIENT CODE
 ORIG.           5" PRINT:   ORIGIN OF DATA
 UWI .       490251070100:   UNIQUE WELL ID
 DICO. A2D Technologies, Inc.:   DIGITIZING COMPANY
~OTHER INFORMATION
~A   DEPT      SPR         SN        ILD       CALD         GRD      DPHI       RHOB       CORR   
# ...
  589.0000   -32.5778    10.8648    11.9357     7.4461    75.6629     0.1449     2.4439     0.0699
  589.5000   -32.7437    10.8679    11.8446     7.4307    71.6437     0.1505     2.4350     0.0781
  590.0000   -32.8169    10.8711    11.7415     7.4152    71.7052     0.1468     2.4345     0.0847
  590.5000   -32.7336    10.8742    11.7500     7.3998    72.6020     0.1387     2.4501     0.0795
  591.0000   -32.6536    10.8774    11.7597     7.3844    73.2349     0.1306     2.4656     0.0685
  591.5000   -32.5732    10.8805    11.7696     7.3690    73.8948     0.1249     2.4731     0.0607
  592.0000   -32.4939    10.8836    11.7795     7.3536    77.8948     0.1338     2.4633     0.0668
  592.5000   -32.4549    10.8868    11.7893     7.3382    83.1852     0.1380     2.4509     0.0719
  593.0000   -32.5503    10.8899    11.7992     7.3227    83.8733     0.1380     2.4505     0.0694
  593.5000   -32.6415    10.8931    11.8091     7.3073    81.2114     0.1326     2.4650     0.0656
  594.0000   -32.7349    10.8963    11.8190     7.2919    78.0673     0.1276     2.4799     0.0619
  594.5000   -32.8342    10.8994    11.8289     7.2765    74.9654     0.1227     2.4831     0.0582
  595.0000   -32.4515    10.9024    11.8387     7.2611    72.7601     0.1266     2.4752     0.0545
  595.5000   -31.8151    10.9072    11.8505     7.2464    73.8549     0.1319     2.4663     0.0523
  596.0000   -30.9498    10.9031    11.8490     7.2331    76.2536     0.1372     2.4574     0.0517
  596.5000   -30.4447    11.0105    11.8428     7.2199    78.6231     0.1424     2.4485     0.0510
  597.0000   -30.0026    11.1121    11.9646     7.2067    78.8955     0.1449     2.4441     0.0504
  597.5000   -29.5553    11.3549    12.5031     7.1936    77.2212     0.1397     2.4478     0.0498
  598.0000   -29.0083    11.5827    13.0151     7.1803    75.3137     0.1433     2.4510     0.0492
  598.5000   -28.0692    11.8151    13.5303     7.1673    75.1434     0.1506     2.4408     0.0491
  599.0000   -26.1325    12.0522    14.6818     7.1535    76.0203     0.1580     2.4275     0.0467
  599.5000   -16.5117    12.2940    15.9791     7.1476    73.7095     0.1653     2.4010     0.0413
  600.0000    -7.2773    12.5407    17.3987     7.2029    68.2960     0.1880     2.3610     0.0369
  600.5000    -2.1144    12.7924    19.1025     7.3303    62.8519     0.2125     2.3209     0.0452
  601.0000    -1.3132    13.0514    19.4629     7.4589    57.2492     0.2445     2.2814     0.0523
  601.5000    -0.6909    13.2624    19.7281     7.4904    55.4219     0.2355     2.2771     0.0564
  602.0000    -0.5018    13.3758    19.9970     7.5085    55.4859     0.2225     2.2974     0.0613
  602.5000    -0.4856    13.4755    20.2694     7.5009    57.0977     0.2101     2.3191     0.0770
  603.0000    -0.4739    13.4755    20.5456     7.4947    60.8774     0.2127     2.3312     0.0927
  603.5000    -0.4624    13.4479    20.8255     7.4881    64.5264     0.2180     2.3257     0.1374
  604.0000    -0.4506    13.4093    21.1329     7.4814    67.1709     0.2234     2.3156     0.1884
  604.5000    -0.4388    13.3711    21.1329     7.4745    67.0688     0.2249     2.3116     0.2032
  605.0000    -0.4270    13.3056    20.9397     7.4611    65.8838     0.2020     2.3403     0.1688
  605.5000    -0.4151    13.2165    20.5624     7.4274    63.3900     0.1728     2.3986     0.1418
  606.0000    -0.4033    13.1280    20.1609     7.3946    60.8347     0.1805     2.3911     0.1416
  606.5000    -0.3915    13.0401    19.7270     7.3618    58.2080     0.1925     2.3736     0.1409
  607.0000    -0.3797    12.9527    19.0380     7.3290    57.3102     0.1884     2.3629     0.1260
  607.5000    -0.3679    12.8660    18.3707     7.2962    57.3003     0.1817     2.3832     0.0977
  608.0000    -0.3561    12.7798    17.7276     7.2634    57.5314     0.1847     2.3819     0.0694
  608.5000    -0.3443    12.6942    17.1067     7.2307    60.6431     0.1881     2.3695     0.0407
  609.0000    -0.3325    12.6091    16.5084     7.1979    64.6321     0.1785     2.3860     0.0290
  609.5000    -0.3207    12.5247    15.8975     7.1650    65.5873     0.1847     2.3803     0.0267
  610.0000    -0.3088    12.4408    15.8570     7.1322    62.3861     0.1922     2.3673     0.0250
  610.5000    -0.2970    12.3574    15.8142     7.0997    61.1636     0.1997     2.3544     0.0233
  611.0000    -0.2852    12.2747    15.7714     7.0701    61.9171     0.2013     2.3487     0.0216
  611.5000    -0.2734    12.1924    15.5546     7.0928    64.3003     0.2020     2.3473     0.0199
  612.0000    -0.2616    12.1108    15.2008     7.1059    66.6540     0.2018     2.3484     0.0192
  612.5000    -0.2498    12.0296    14.8551     7.1291    67.1968     0.2025     2.3477     0.0228
  613.0000    -0.2380    11.9491    14.5027     7.1554    66.1053     0.2039     2.3458     0.0264
  613.5000    -0.2262    11.8690    14.4353     7.1828    64.9780     0.2053     2.3439     0.0285
  614.0000    -0.2144    11.8248    14.3680     7.1873    65.8615     0.2059     2.3438     0.0274
  614.5000    -0.2025    11.7918    14.3000     7.1840    67.7364     0.2055     2.3441     0.0255
  615.0000    -0.1907    11.7590    14.2321     7.1804    69.6322     0.2045     2.3455     0.0235
  615.5000    -0.1789    11.7262    14.1645     7.1768    71.5912     0.2030     2.3468     0.0216
  616.0000    -0.1671    11.6936    14.0952     7.1732    72.0987     0.2016     2.3482     0.0197
  616.5000    -0.1553    11.6610    14.0164     7.1696    71.7855     0.2001     2.3496     0.0177
  617.0000    -0.1435    11.6285    13.9379     7.1661    71.3274     0.2001     2.3509     0.0165
  617.5000    -0.1315    11.5962    13.8599     7.1625    70.4422     0.2005     2.3484     0.0165
  618.0000    -0.1189    11.5639    13.7824     7.1589    69.1208     0.2059     2.3382     0.0181
  618.5000    -0.1092    11.5317    13.7053     7.1552    67.7543     0.2124     2.3283     0.0208
  619.0000    -0.1845    11.4996    13.6285     7.1512    67.6915     0.2157     2.3198     0.0236
  619.5000    -0.5318    11.4675    13.5523     7.1535    67.8674     0.2148     2.3293     0.0264
  620.0000    -0.8615    11.4356    13.4755     7.1695    70.0118     0.2052     2.3428     0.0268
  620.5000    -1.1634    11.4050    13.4607     7.2149    73.0342     0.1949     2.3535     0.0271
  621.0000    -1.4084    11.3753    13.4459     7.2649    76.1875     0.1937     2.3586     0.0273
  621.5000    -1.6490    11.3457    13.4309     7.3165    76.2191     0.1937     2.3616     0.0276
  622.0000    -1.8879    11.3162    13.4160     7.3333    72.7534     0.1933     2.3629     0.0279
  622.5000    -2.1254    11.2868    13.4012     7.3387    70.2165     0.1924     2.3639     0.0282
  623.0000    -2.3592    11.2574    13.3863     7.3436    70.3137     0.1887     2.3700     0.0285
  623.5000    -2.6037    11.2281    13.3715     7.3485    69.9628     0.1850     2.3773     0.0288
  624.0000    -2.8421    11.1989    13.3567     7.3535    68.4609     0.1821     2.3816     0.0290
  624.5000    -3.0796    11.1698    13.3419     7.3585    66.9283     0.1817     2.3819     0.0293
  625.0000    -3.3172    11.1407    13.3271     7.3635    67.6072     0.1817     2.3828     0.0296
  625.5000    -3.5547    11.1123    13.3123     7.3677    70.4115     0.1787     2.3893     0.0299
  626.0000    -3.7926    11.1038    13.2976     7.4096    70.8858     0.1735     2.3965     0.0302
  626.5000    -4.0326    11.0958    13.2828     7.4677    70.1335     0.1689     2.4039     0.0304
  627.0000    -4.2806    11.0877    13.2681     7.4962    69.4756     0.1688     2.4048     0.0313
  627.5000    -4.2217    11.0796    13.2531     7.5244    69.8139     0.1714     2.3994     0.0325
  628.0000    -4.1404    11.0715    13.2385     7.5499    72.8241     0.1711     2.3976     0.0337
  628.5000    -4.0598    11.0634    13.1694     7.5528    74.7518     0.1693     2.4005     0.0339
  629.0000    -3.9773    11.0553    13.0322     7.5552    74.3291     0.1721     2.3980     0.0314
