~VERSION INFORMATION
 VERS.                2.0:   CWLS LOG ASCII STANDARD - VERSION 2.0
 WRAP.                 NO:   ONE LINE PER DEPTH STEP
~WELL INFORMATION
#MNEM.UNIT      DATA TYPE    INFORMATION
#----------   ------------   ------------------------------
 STRT.F            0.0000:   START DEPTH
 STOP.F         2240.0000:   STOP DEPTH
 STEP.F            0.5000:   STEP LENGTH
 NULL.          -999.2500:   NO VALUE
 COMP.   FLUOR DANIEL INC:   COMPANY
 WELL. NAVAL PETROLEUM RESERVE 3 SX 62 #16-3:   WELL
 FLD .             TEAPOT:   FIELD
 LOC .       S3 T38N R78W:   LOCATION
 CNTY.            NATRONA:   COUNTY
 STAT.            WYOMING:   STATE
 CTRY. UNITED STATES OF AMERICA:   COUNTRY
 SRVC.            Unknown:   SERVICE COMPANY
 DATE.        19-SEP-1992:   LOGDATE
 API .       490251127300:   API NUMBER
~CURVE INFORMATION
#MNEM.UNIT       API CODE    CURVE DESCRIPTION
#----------   ------------   ------------------------------
 DEPT.F                  :   
 GR  .GAPI   81 310 01 00:   GAMMA RAY
 ROP .MIN/FT 91 810 01 00:   RATE OF DRILLING PENETRATION
 TGAS.UNITS  91 830 01 00:   TOTAL GAS FROM HOTWIRE
~PARAMETER INFORMATION
#MNEM.UNIT          VALUE    DESCRIPTION
#----------   ------------   ------------------------------
 PD  .                 GL:   PERMANENT DATUM
 EPD .F              5144:   ELEVATION PERMANENT DATUM
 LMF .                 KB:   LOG MEASURED FROM
 DAPD.F                10:   FEET ABOVE PERMANENT DATUM
 DMF .                 KB:   DRILLING MEASURED FROM
 EKB .F              5154:   KELLING BUSHING
 EDF .F              5152:   DRILLING FLOOR
 EGL .F              5144:   GROUND LEVEL
 DATE.            9-19-92:   RUN DATE
 RUN .                  1:   RUN NUMBER
 DD  .F               560:   DEPTH DRILLER
 DL  .F               520:   DEPTH LOGGER
 BLI .F               520:   BOTTOM LOG INTERVAL
 BS  .IN             8.75:   BIT SIZE
 BSD .F               560:   BIT SIZE AT DEPTH
 DFT . OIL WATER (TENSLEEP CRUDE):   DRILLING FLUID TYPE
 TCS .HRS            1200:   TIME CURCULATED STOPPED
 LUL .           GILLETTE:   LOGGING UNIT LOCATION
 ENGI.          L. GOENES:   RECORDING ENGINEER
 WITN.              HARDY:   WITNESSED BY
 CLNT.            A2DTECH:   CLIENT CODE
 ORIG.           5" PRINT:   ORIGIN OF DATA
 UWI .       490251127300:   UNIQUE WELL ID
 DICO. A2D Technologies, Inc.:   DIGITIZING COMPANY
~OTHER INFORMATION
~A    DEPT       GR       ROP       TGAS   
# ...
 2184.0000  -999.2500     1.5218    52.3914
 2184.5000  -999.2500     1.6287    52.3520
 2185.0000  -999.2500     1.6681    52.3125
 2185.5000  -999.2500     1.7021    52.2730
 2186.0000  -999.2500     1.7234    52.2336
 2186.5000  -999.2500     1.5341    52.1941
 2187.0000  -999.2500     1.3282    52.1547
 2187.5000  -999.2500     1.1224    52.1152
 2188.0000  -999.2500     0.9922    52.0758
 2188.5000  -999.2500     0.9375    52.0363
 2189.0000  -999.2500     0.8827    51.9968
 2189.5000  -999.2500     0.8280    51.9571
 2190.0000  -999.2500     0.7710    51.9181
 2190.5000  -999.2500     0.7486    51.8779
 2191.0000  -999.2500     0.7271    52.0294
 2191.5000  -999.2500     0.7051    52.3235
 2192.0000  -999.2500     0.6822    52.6175
 2192.5000  -999.2500     0.6810    52.9259
 2193.0000  -999.2500     0.6812    53.5244
 2193.5000  -999.2500     0.6812    54.2547
 2194.0000  -999.2500     0.6812    54.9763
 2194.5000  -999.2500     0.6812    55.7009
 2195.0000  -999.2500     0.6813    56.4259
 2195.5000  -999.2500     0.6812    57.1507
 2196.0000  -999.2500     0.6807    57.8755
 2196.5000  -999.2500     0.7044    58.6003
 2197.0000  -999.2500     0.7371    59.3251
 2197.5000  -999.2500     0.7704    60.0509
 2198.0000  -999.2500     0.8048    60.7748
 2198.5000  -999.2500     0.8066    61.2059
 2199.0000  -999.2500     0.8062    61.5902
 2199.5000  -999.2500     0.8043    61.9736
 2200.0000  -999.2500     0.8025    62.3546
 2200.5000  -999.2500     0.8006    62.6321
 2201.0000  -999.2500     0.7988    62.6604
 2201.5000  -999.2500     0.7970    62.7962
 2202.0000  -999.2500     0.7952    62.9277
 2202.5000  -999.2500     0.7934    63.0586
 2203.0000  -999.2500     0.7916    63.1245
 2203.5000  -999.2500     0.7898    63.1248
 2204.0000  -999.2500     0.7879    63.1251
 2204.5000  -999.2500     0.7861    63.1251
 2205.0000  -999.2500     0.7842    63.1249
 2205.5000  -999.2500     0.7822    63.1134
 2206.0000  -999.2500     0.7840    63.1005
 2206.5000  -999.2500     0.8225    63.0876
 2207.0000  -999.2500     0.8814    63.0747
 2207.5000  -999.2500     0.9409    63.0619
 2208.0000  -999.2500     0.9443    63.0490
 2208.5000  -999.2500     0.9434    63.0361
 2209.0000  -999.2500     0.8870    63.0232
 2209.5000  -999.2500     0.8216    63.0103
 2210.0000  -999.2500     0.8182    62.9974
 2210.5000  -999.2500     0.8186    62.9845
 2211.0000  -999.2500     0.8187    62.9716
 2211.5000  -999.2500     0.8188    62.9588
 2212.0000  -999.2500     0.8189    62.9459
 2212.5000  -999.2500     0.8387    62.9330
 2213.0000  -999.2500     0.8780    62.9201
 2213.5000  -999.2500     0.9174    62.9072
 2214.0000  -999.2500     0.9581    62.8943
 2214.5000  -999.2500     0.9676    62.8814
 2215.0000  -999.2500     0.9641    62.8682
 2215.5000  -999.2500     0.9603    62.8545
 2216.0000  -999.2500     0.9573    62.8408
 2216.5000  -999.2500     0.9195    62.8272
 2217.0000  -999.2500     0.8678    62.8135
 2217.5000  -999.2500     0.8159    62.7999
 2218.0000  -999.2500     0.7667    62.7862
 2218.5000  -999.2500     0.7566    62.7725
 2219.0000  -999.2500     0.7561    62.7589
 2219.5000  -999.2500     0.7562    62.7452
 2220.0000  -999.2500     0.7563    62.7315
 2220.5000  -999.2500     0.7563    62.7179
 2221.0000  -999.2500     0.7563    62.7042
 2221.5000  -999.2500     0.7563    62.6905
 2222.0000  -999.2500     0.7563    62.6769
 2222.5000  -999.2500     0.7562    62.6632
 2223.0000  -999.2500     0.7563    62.6495
 2223.5000  -999.2500     0.7562    62.6359
 2224.0000  -999.2500     0.7557    62.6222
 2224.5000  -999.2500     0.7715    62.6085
 2225.0000  -999.2500     0.7899    62.5949
 2225.5000  -999.2500     0.8086    62.5812
 2226.0000  -999.2500     0.8274    62.5676
 2226.5000  -999.2500     0.8341    62.5539
 2227.0000  -999.2500     0.8378    62.5402
 2227.5000  -999.2500     0.8407    62.5266
 2228.0000  -999.2500     0.8340    62.5129
 2228.5000  -999.2500     0.8570    62.4992
 2229.0000  -999.2500     0.8850    62.4856
 2229.5000  -999.2500     0.9129    62.4719
 2230.0000  -999.2500     0.9431    62.4582
 2230.5000  -999.2500     0.9558    62.4446
 2231.0000  -999.2500     0.9564    62.4309
 2231.5000  -999.2500     0.9563    62.4172
 2232.0000  -999.2500     0.9563    62.4035
 2232.5000  -999.2500     0.9563    62.3896
 2233.0000  -999.2500     0.9563    62.3759
 2233.5000  -999.2500     0.9563    62.4103
 2234.0000  -999.2500     0.9563    62.4495
 2234.5000  -999.2500     0.9563    62.4887
 2235.0000  -999.2500     0.9564    62.5278
 2235.5000  -999.2500     0.9562    62.5669
 2236.0000  -999.2500     0.9493    62.6059
 2236.5000  -999.2500     0.9088    62.6450
 2237.0000  -999.2500     0.8684    62.6841
 2237.5000  -999.2500     0.8282    62.7232
 2238.0000  -999.2500     0.7937    62.7623
 2238.5000  -999.2500     0.7936    62.8015
 2239.0000  -999.2500     0.7937    62.8406
 2239.5000  -999.2500     0.7937    62.8749
 2240.0000  -999.2500     0.7937    62.8752
