~VERSION INFORMATION
 VERS.                2.0:   CWLS LOG ASCII STANDARD - VERSION 2.0
 WRAP.                 NO:   ONE LINE PER DEPTH STEP
~WELL INFORMATION
#MNEM.UNIT      DATA TYPE    INFORMATION
#----------   ------------   ------------------------------
 STRT.F            0.0000:   START DEPTH
 STOP.F          774.0000:   STOP DEPTH
 STEP.F            0.5000:   STEP LENGTH
 NULL.          -999.2500:   NO VALUE
 COMP. LAWRENCE/ALLISON INC:   COMPANY
 WELL. SX 11 WP #37-53-11:   WELL
 FLD .             TEAPOT:   FIELD
 LOC .      S11 T38N R78W:   LOCATION
 CNTY.            NATRONA:   COUNTY
 STAT.            WYOMING:   STATE
 CTRY. UNITED STATES OF AMERICA:   COUNTRY
 SRVC.            Unknown:   SERVICE COMPANY
 DATE.        19-SEP-1984:   LOGDATE
 API .       490251098900:   API NUMBER
~CURVE INFORMATION
#MNEM.UNIT       API CODE    CURVE DESCRIPTION
#----------   ------------   ------------------------------
 DEPT.F                  :   
 GRR .GAPI   07 310 01 00:   GAMMA RAY FROM RES. LOG.
 SPR .MV     07 010 01 00:   SPONTANEOUS POTENTIAL
 RFOC.OHMM   07 220 04 00:   RESISTIVITY FOCUSED LOG
 ILD .OHMM   07 120 46 00:   INDUCTION LOG DEEP RESISTIVITY
 RILM.OHMM   07 120 44 00:   INDUCTION LOG MEDIUM RESISTIVITY
 CALD.IN     45 280 60 00:   CALIPER
 DEN .G/C3   45 350 01 00:   COMPENSATED BULK DENSTIY
 CORR.G/C3   45 356 01 00:   DENSITY CORRECTION
 PORD.DEC    45 890 12 00:   POROSITY DENSITY SANDSTONE
 AC  .US/F   60 520 00 00:   ACOUSTIC SONIC
 CNC .DEC    42 890 03 00:   NEUTRON POROSITY SANDSTONE
~PARAMETER INFORMATION
#MNEM.UNIT          VALUE    DESCRIPTION
#----------   ------------   ------------------------------
 PD  .                 GL:   PERMANENT DATUM
 EPD .F              5153:   ELEVATION PERMANENT DATUM
 LMF .                 GL:   LOG MEASURED FROM
 DMF .                 GL:   DRILLING MEASURED FROM
 EGL .F              5153:   GROUND LEVEL
 DATE.       19-SEPT-1984:   RUN DATE
 RUN .                  1:   RUN NUMBER
 DD  .F               785:   DEPTH DRILLER
 DL  .F               774:   DEPTH LOGGER
 BLI .F               772:   BOTTOM LOG INTERVAL
 CS  .IN            8.625:   CASING SIZE
 CBD .F                42:   CASING BOTTOM DRILLER
 CBL .F                41:   CASING BOTTOM LOGGER
 BS  .IN            7.875:   BIT SIZE
 BSD .F               785:   BIT SIZE AT DEPTH
 DFT .          KCL WATER:   DRILLING FLUID TYPE
 MSS .           FLOWLINE:   MUD SAMPLE SOURCE
 RMS .OHMM            .27:   RESISTIVITY MUD SAMPLE
 MST .F                82:   MUD SAMPLE TEMPERATURE
 TCS .HRS               2:   TIME CURCULATED STOPPED
 MRT .F               100:   MAXIMUM RECORDED TEMPERATURE
 LUN .               6274:   LOGGING UNIT NUMBER
 LUL .               GLTE:   LOGGING UNIT LOCATION
 ENGI.         HINDS/MACK:   RECORDING ENGINEER
 WITN.             STRONG:   WITNESSED BY
 CLNT.            A2DTECH:   CLIENT CODE
 ORIG.   1", 2", 5" PRINT:   ORIGIN OF DATA
 UWI .       490251098900:   UNIQUE WELL ID
 DICO. A2D Technologies, Inc.:   DIGITIZING COMPANY
~OTHER INFORMATION
~A    DEPT      GRR       SPR       RFOC        ILD       RILM       CALD        DEN       CORR       PORD         AC        CNC   
# ...
  457.5000   119.0203   -42.6495     7.9288     6.8281     6.9652     8.1358     2.4598    -0.0151     0.1286   102.0258     0.2636
  458.0000   121.8386   -42.4259     7.9713     6.9487     7.0608     8.1358     2.4616    -0.0135     0.1295   102.2341     0.2668
  458.5000   121.2540   -42.3972     7.9987     7.0998     7.1577     8.1358     2.4576    -0.0120     0.1304   102.6617     0.2824
  459.0000   117.6571   -42.7446     7.8646     7.0424     7.2983     8.1358     2.4520    -0.0130     0.1330   103.1450     0.2862
  459.5000   113.4062   -43.0857     7.7516     6.9682     7.2707     8.1358     2.4504    -0.0145     0.1352   103.6283     0.2828
  460.0000   111.4543   -43.4276     7.6401     6.8803     7.2205     8.1358     2.4497    -0.0154     0.1355   104.1117     0.2764
  460.5000   116.3907   -43.7700     7.5302     6.7292     7.1714     8.1358     2.4490    -0.0137     0.1358   104.5950     0.2752
  461.0000   121.1992   -44.1145     7.4219     6.5814     7.1226     8.1358     2.4528    -0.0094     0.1347   105.0777     0.2894
  461.5000   123.7488   -44.4389     7.3152     6.4368     7.0743     8.1358     2.4602    -0.0015     0.1313   105.4791     0.2979
  462.0000   118.6131   -44.2512     7.2100     6.2955     7.0356     8.1358     2.4677     0.0093     0.1269   105.8618     0.2974
  462.5000   113.5676   -44.0384     7.1064     6.1572     6.9954     8.1358     2.4690     0.0145     0.1242   106.2450     0.2822
  463.0000   115.7510   -43.8275     7.0042     5.9830     6.8965     8.1358     2.4654     0.0106     0.1255   106.6276     0.2839
  463.5000   118.6811   -43.6676     6.9035     5.7362     6.7139     8.1358     2.4659     0.0069     0.1263   107.0141     0.2933
  464.0000   119.3782   -43.9357     6.8282     5.4204     6.5382     8.1358     2.4660     0.0039     0.1263   107.3950     0.3058
  464.5000   117.1919   -44.2075     6.7501     5.1220     6.0888     8.1358     2.4620     0.0050     0.1282   109.0091     0.3182
  465.0000   115.0241   -44.5829     6.6729     4.8400     5.6751     8.1358     2.4581     0.0064     0.1305   110.8092     0.3307
  465.5000   114.4513   -45.1005     6.3521     4.5736     5.2896     8.1358     2.4534     0.0078     0.1327   113.4258     0.3376
  466.0000   115.7832   -45.6205     5.8717     4.3287     5.1026     8.1356     2.4403     0.0111     0.1406   116.1533     0.3138
  466.5000   117.3424   -46.1371     5.0510     4.3528     5.1060     8.1353     2.4022     0.0190     0.1593   116.7603     0.3014
  467.0000   116.1357   -46.2678     4.3685     4.3764     5.1015     8.1350     2.3659     0.0199     0.1781   114.5175     0.2996
  467.5000   114.8536   -45.8539     4.5095     4.4002     5.6263     8.1347     2.3817     0.0012     0.1853   111.1077     0.3050
  468.0000   114.2358   -44.9838     5.1635     4.5632     6.0210     8.1344     2.4151    -0.0248     0.1690   107.6702     0.2998
  468.5000   114.0188   -43.4768     6.0308     4.8148     6.4434     8.1341     2.4481    -0.0336     0.1466   103.9662     0.2988
  469.0000   114.8011   -43.3215     7.0438     5.1097     6.7144     8.1338     2.4546    -0.0286     0.1349   103.5686     0.2990
  469.5000   119.8837   -43.3864     7.5458     5.5169     6.8970     8.1335     2.4530    -0.0140     0.1331   103.7852     0.2993
  470.0000   123.7175   -43.4557     7.7214     5.9565     7.0846     8.1332     2.4507     0.0003     0.1345   104.0186     0.3001
  470.5000   123.9273   -43.5225     7.7818     6.4312     7.2773     8.1328     2.4502     0.0099     0.1359   104.2643     0.3025
  471.0000   121.0917   -43.5908     7.7818     6.9078     7.4753     8.1325     2.4505     0.0135     0.1357   104.0898     0.3049
  471.5000   119.3986   -43.6676     7.7818     6.9808     7.5198     8.1322     2.4509     0.0140     0.1356   103.8536     0.3072
  472.0000   118.2014   -43.2311     7.8716     7.0163     7.5871     8.1319     2.4501     0.0078     0.1367   103.6161     0.3091
  472.5000   117.0080   -42.7343     7.9757     7.0510     7.6549     8.1316     2.4455    -0.0012     0.1385   103.4910     0.3057
  473.0000   115.9520   -42.2358     8.0812     7.0863     7.7234     8.1313     2.4421    -0.0101     0.1403   103.5443     0.3004
  473.5000   115.6652   -41.7385     8.1882     7.1219     7.7925     8.1310     2.4469    -0.0189     0.1395   103.4977     0.2894
  474.0000   116.6078   -41.2407     8.2217     7.1576     7.8622     8.1307     2.4528    -0.0182     0.1355   103.3678     0.2742
  474.5000   117.5134   -40.7432     8.1728     7.1935     7.9257     8.1304     2.4603    -0.0110     0.1313   102.9491     0.2688
  475.0000   118.4293   -40.2976     8.1402     7.2295     7.9383     8.1300     2.4678    -0.0042     0.1272   102.9225     0.2750
  475.5000   119.3517   -40.2599     8.1077     7.2658     7.9497     8.1297     2.4688     0.0033     0.1243   103.1725     0.2928
  476.0000   118.3923   -40.2294     8.0723     7.2983     7.9611     8.1294     2.4614     0.0131     0.1275   103.4225     0.2992
  476.5000   117.2482   -40.1976     8.1527     7.5575     7.9726     8.1291     2.4529     0.0232     0.1337   102.8131     0.2998
  477.0000   115.8612   -40.1654     8.2429     7.8501     7.9841     8.1288     2.4526     0.0136     0.1351   101.7273     0.3003
  477.5000   112.7865   -40.1324     8.3340     7.9964     7.9956     8.1285     2.4580    -0.0212     0.1319   100.6787     0.3009
  478.0000   110.7416   -40.1024     8.4519     7.9248     8.0446     8.1282     2.4629    -0.0559     0.1289   100.6858     0.3058
  478.5000   112.0757   -40.2621     8.2989     7.8762     8.1087     8.1278     2.4593    -0.0540     0.1287   102.4179     0.3001
  479.0000   115.9664   -40.4402     8.0185     7.8280     8.1732     8.1275     2.4484    -0.0424     0.1356   103.5686     0.2990
  479.5000   119.5559   -40.6180     7.7791     7.7802     8.2383     8.1272     2.4443    -0.0388     0.1411   103.8668     0.2916
  480.0000   119.9099   -40.7953     7.9298     7.7330     8.3039     8.1269     2.4664    -0.0367     0.1325   103.4919     0.2835
  480.5000   120.3283   -40.9734     8.0911     7.6631     8.3738     8.1266     2.5029    -0.0340     0.1137   103.1156     0.2783
  481.0000   120.7636   -41.2413     8.2974     7.4684     8.0760     8.1263     2.5198    -0.0135     0.0936   103.7972     0.2815
  481.5000   121.1904   -41.6915     8.1276     7.2423     7.7723     8.1260     2.5032     0.0082     0.0986   104.6620     0.2901
  482.0000   122.4677   -42.1390     7.9063     7.0235     7.4799     8.1257     2.4806     0.0124     0.1104   105.1335     0.2991
  482.5000   123.4343   -42.5832     7.8534     6.7801     7.1986     8.1253     2.4621    -0.0032     0.1262   105.4021     0.3082
  483.0000   122.4033   -42.9414     7.9756     6.3882     6.9279     8.1250     2.4532    -0.0121     0.1324   105.4930     0.3193
  483.5000   121.4211   -43.1250     8.0189     6.0190     6.6591     8.1247     2.4543    -0.0155     0.1337   106.2610     0.3149
  484.0000   120.5507   -43.3118     8.0723     5.6711     6.3408     8.1244     2.4560    -0.0182     0.1325   108.6071     0.3090
  484.5000   122.8958   -43.4860     7.3639     5.4912     6.0279     8.1241     2.4494    -0.0179     0.1355   110.9876     0.3030
  485.0000   126.8879   -43.5865     6.5387     5.3598     5.7304     8.1238     2.4313     0.0016     0.1447   112.0045     0.3003
  485.5000   130.7576   -43.6890     6.0206     5.2316     5.4432     8.1235     2.4120     0.0221     0.1551   111.7447     0.2917
  486.0000   130.0745   -43.7917     6.0206     5.1050     5.3936     8.1232     2.4128     0.0263     0.1595   110.0000     0.2790
  486.5000   124.9957   -43.8945     6.4828     5.0941     6.1267     8.1229     2.4369     0.0050     0.1456   107.8125     0.2903
  487.0000   121.0506   -43.9991     6.9567     5.0803     6.5382     8.1225     2.4544    -0.0020     0.1347   107.5902     0.3034
  487.5000   117.8436   -44.2016     7.5753     5.0666     6.2568     8.1222     2.4677    -0.0002     0.1266   107.6184     0.3115
