~VERSION INFORMATION
 VERS.                2.0:   CWLS LOG ASCII STANDARD - VERSION 2.0
 WRAP.                 NO:   ONE LINE PER DEPTH STEP
~WELL INFORMATION
#MNEM.UNIT      DATA TYPE    INFORMATION
#----------   ------------   ------------------------------
 STRT.F          390.0000:   START DEPTH
 STOP.F         2628.0000:   STOP DEPTH
 STEP.F            0.5000:   STEP LENGTH
 NULL.          -999.2500:   NO VALUE
 COMP. FENIX & SCISSON INC:   COMPANY
 WELL.    25 SHX 11 #3-11:   WELL
 FLD .             TEAPOT:   FIELD
 LOC .      S11 T38N R78W:   LOCATION
 CNTY.            NATRONA:   COUNTY
 STAT.            WYOMING:   STATE
 CTRY. UNITED STATES OF AMERICA:   COUNTRY
 SRVC.              Welex:   SERVICE COMPANY
 DATE.        15-MAY-1980:   LOGDATE
 API .       490251081900:   API NUMBER
~CURVE INFORMATION
#MNEM.UNIT       API CODE    CURVE DESCRIPTION
#----------   ------------   ------------------------------
 DEPT.F                  :   
 CALD.IN     45 280 60 00:   CALIPER
 GRD .GAPI   45 310 01 00:   GAMMA RAY FROM DENSITY LOG
 RHOB.G/C3   45 350 01 00:   BULK DENSITY
 DPHI.DEC    45 890 12 00:   DENSITY POROSITY SANDSTONE
 CORR.G/C3   45 356 01 00:   DENSITY CORRECTION
~PARAMETER INFORMATION
#MNEM.UNIT          VALUE    DESCRIPTION
#----------   ------------   ------------------------------
 PD  .                 GL:   PERMANENT DATUM
 EPD .F              5163:   ELEVATION PERMANENT DATUM
 LMF .                 KB:   LOG MEASURED FROM
 DAPD.F                10:   FEET ABOVE PERMANENT DATUM
 DMF .                 KB:   DRILLING MEASURED FROM
 EKB .F              5173:   KELLING BUSHING
 EGL .F              5163:   GROUND LEVEL
 DATE.            5-15-80:   RUN DATE
 RUN .                  1:   RUN NUMBER
 DD  .F              2625:   DEPTH DRILLER
 DL  .F              2630:   DEPTH LOGGER
 BLI .F              2628:   BOTTOM LOG INTERVAL
 TLI .F               400:   TOP LOG INTERVAL
 CS  .IN            9.625:   CASING SIZE
 CBD .F               645:   CASING BOTTOM DRILLER
 BS  .IN             8.75:   BIT SIZE
 BSD .F              2625:   BIT SIZE AT DEPTH
 DFT .        AIR DRILLED:   DRILLING FLUID TYPE
 TCS .HRS               2:   TIME CURCULATED STOPPED
 MRT .F               116:   MAXIMUM RECORDED TEMPERATURE
 ENGI.            BENTSEN:   RECORDING ENGINEER
 WITN.           DINSMORE:   WITNESSED BY
 CLNT.            A2DTECH:   CLIENT CODE
 ORIG.           5" PRINT:   ORIGIN OF DATA
 UWI .       490251081900:   UNIQUE WELL ID
 DICO. A2D Technologies, Inc.:   DIGITIZING COMPANY
~OTHER INFORMATION
~A   DEPT     CALD         GRD      RHOB       DPHI       CORR   
# ...
 1427.0000     8.8689    84.9570     2.4528     0.0603     0.0089
 1427.5000     8.8325    85.3205     2.4582     0.0565     0.0046
 1428.0000     8.8212    84.7527     2.4511     0.0630     0.0046
 1428.5000     8.8294    84.1223     2.4455     0.0653     0.0015
 1429.0000     8.8387    83.4924     2.4462     0.0649    -0.0028
 1429.5000     8.8480    83.2142     2.4500     0.0633     0.0021
 1430.0000     8.8573    82.8191     2.4567     0.0592     0.0072
 1430.5000     8.8599    82.2986     2.4633     0.0552     0.0133
 1431.0000     8.8573    81.9069     2.4602     0.0554     0.0148
 1431.5000     8.8546    81.7570     2.4684     0.0508     0.0182
 1432.0000     8.8519    82.3491     2.4540     0.0588     0.0105
 1432.5000     8.8493    82.5715     2.4923     0.0346     0.0318
 1433.0000     8.8466    82.5731     2.5252     0.0172     0.0534
 1433.5000     8.8438    82.5772     2.5276     0.0100     0.0564
 1434.0000     8.8417    82.8232     2.5052     0.0263     0.0505
 1434.5000     8.8494    84.0347     2.4845     0.0395     0.0365
 1435.0000     8.8571    84.6206     2.4641     0.0527     0.0181
 1435.5000     8.8648    84.5358     2.4541     0.0572     0.0152
 1436.0000     8.8725    84.2909     2.4774     0.0472     0.0294
 1436.5000     8.8802    84.0446     2.4679     0.0510     0.0304
 1437.0000     8.8879    83.7964     2.4517     0.0595     0.0230
 1437.5000     8.8955    83.6677     2.4457     0.0648     0.0163
 1438.0000     8.9032    83.5369     2.4553     0.0604     0.0263
 1438.5000     8.9109    83.9898     2.4678     0.0520     0.0369
 1439.0000     8.9187    84.7162     2.4657     0.0516     0.0290
 1439.5000     8.9183    84.6890     2.4761     0.0484     0.0360
 1440.0000     8.9129    85.4691     2.4900     0.0406     0.0478
 1440.5000     8.9074    86.7059     2.4990     0.0334     0.0573
 1441.0000     8.9019    87.9620     2.4905     0.0359     0.0491
 1441.5000     8.8964    88.8710     2.4827     0.0398     0.0366
 1442.0000     8.8908    88.9605     2.4877     0.0407     0.0410
 1442.5000     8.8855    88.4001     2.4956     0.0306     0.0463
 1443.0000     8.8898    87.7595     2.4870     0.0380     0.0344
 1443.5000     8.9193    87.3963     2.4766     0.0466     0.0226
 1444.0000     8.9485    87.0389     2.4664     0.0527     0.0109
 1444.5000     8.9617    86.6740     2.4561     0.0600     0.0085
 1445.0000     8.9528    86.4192     2.4458     0.0650     0.0051
 1445.5000     8.9366    86.2174     2.4341     0.0713     0.0017
 1446.0000     8.9203    85.6664     2.4382     0.0701     0.0005
 1446.5000     8.9040    85.2786     2.4339     0.0725     0.0006
 1447.0000     8.8874    85.2945     2.4298     0.0762    -0.0046
 1447.5000     8.8908    85.8233     2.4328     0.0734    -0.0052
 1448.0000     8.9051    85.5437     2.4350     0.0701    -0.0035
 1448.5000     8.9197    85.1070     2.4269     0.0768    -0.0121
 1449.0000     8.9217    84.6656     2.4259     0.0789    -0.0102
 1449.5000     8.9217    84.2198     2.4311     0.0766     0.0006
 1450.0000     8.9205    84.0933     2.4468     0.0636     0.0134
 1450.5000     8.9180    84.3375     2.4571     0.0608     0.0251
 1451.0000     8.9156    84.6271     2.4501     0.0604     0.0249
 1451.5000     8.9132    84.8180     2.4430     0.0641     0.0200
 1452.0000     8.9108    84.9274     2.4414     0.0665     0.0134
 1452.5000     8.9083    84.8383     2.4458     0.0646     0.0069
 1453.0000     8.9059    84.7405     2.4517     0.0613     0.0108
 1453.5000     8.9035    84.7016     2.4569     0.0577     0.0154
 1454.0000     8.9010    84.8714     2.4630     0.0542     0.0199
 1454.5000     8.8986    84.8097     2.4700     0.0506     0.0232
 1455.0000     8.8961    84.2402     2.4737     0.0479     0.0233
 1455.5000     8.8937    83.6798     2.4664     0.0508     0.0158
 1456.0000     8.8913    83.1118     2.4583     0.0544     0.0083
 1456.5000     8.8888    82.8947     2.4501     0.0596     0.0024
 1457.0000     8.8864    83.3844     2.4420     0.0647     0.0016
 1457.5000     8.8836    83.4940     2.4377     0.0701     0.0002
 1458.0000     8.8834    84.0652     2.4502     0.0627     0.0112
 1458.5000     8.9010    84.9807     2.4685     0.0510     0.0246
 1459.0000     8.9016    84.8854     2.4727     0.0487     0.0288
 1459.5000     8.9016    84.8083     2.4566     0.0547     0.0261
 1460.0000     8.9016    84.7252     2.4527     0.0608     0.0229
 1460.5000     8.9016    84.6876     2.4598     0.0564     0.0258
 1461.0000     8.9016    85.0791     2.4679     0.0521     0.0322
 1461.5000     8.9016    85.5601     2.4760     0.0462     0.0386
 1462.0000     8.9016    84.6506     2.4829     0.0434     0.0382
 1462.5000     8.9016    83.7667     2.4761     0.0456     0.0331
 1463.0000     8.9016    83.9993     2.4759     0.0479     0.0380
 1463.5000     8.9017    83.7727     2.4847     0.0407     0.0438
 1464.0000     8.9022    83.0787     2.4923     0.0370     0.0456
 1464.5000     8.8814    82.3859     2.4771     0.0358     0.0409
 1465.0000     8.8582    81.6898     2.4520     0.0587     0.0188
 1465.5000     8.8408    81.0820     2.4281     0.0707    -0.0028
 1466.0000     8.8526    81.3597     2.4282     0.0746    -0.0187
 1466.5000     8.8686    81.1479     2.4715     0.0476     0.0061
 1467.0000     8.8848    80.8298     2.4975     0.0294     0.0378
 1467.5000     8.9010    80.7655     2.4918     0.0357     0.0454
 1468.0000     8.9178    81.7556     2.4920     0.0360     0.0412
 1468.5000     8.9179    82.5859     2.4932     0.0350     0.0489
 1469.0000     8.9108    82.9264     2.4774     0.0411     0.0409
 1469.5000     8.9032    83.4672     2.4736     0.0475     0.0334
 1470.0000     8.9025    83.1942     2.4878     0.0382     0.0485
 1470.5000     8.9093    83.6506     2.5025     0.0291     0.0592
 1471.0000     8.9160    84.4897     2.5024     0.0318     0.0556
 1471.5000     8.9219    84.5330     2.4927     0.0366     0.0494
 1472.0000     8.9236    84.2693     2.5020     0.0300     0.0569
 1472.5000     8.9256    84.2596     2.5039     0.0253     0.0617
 1473.0000     8.9276    85.3361     2.4893     0.0344     0.0514
 1473.5000     8.9295    86.2162     2.4797     0.0417     0.0412
 1474.0000     8.9315    85.6705     2.4714     0.0478     0.0309
 1474.5000     8.9335    85.5869     2.4643     0.0528     0.0271
 1475.0000     8.9355    85.9021     2.4786     0.0459     0.0357
 1475.5000     8.9375    85.6277     2.4873     0.0386     0.0432
 1476.0000     8.9394    84.9583     2.4838     0.0399     0.0344
 1476.5000     8.9414    84.9966     2.4903     0.0378     0.0392
 1477.0000     8.9418    84.9917     2.4917     0.0331     0.0458
 1477.5000     8.9418    85.3599     2.4922     0.0385     0.0406
 1478.0000     8.9418    85.6048     2.4987     0.0297     0.0468
 1478.5000     8.9411    85.3926     2.4933     0.0345     0.0410
 1479.0000     8.9394    84.3539     2.4816     0.0417     0.0293
 1479.5000     8.9378    84.2332     2.4702     0.0488     0.0172
 1480.0000     8.9362    84.1923     2.4588     0.0560     0.0053
 1480.5000     8.9345    84.1639     2.4474     0.0632     0.0109
 1481.0000     8.9329    84.9973     2.4362     0.0703     0.0000
 1481.5000     8.9313    85.8176     2.4315     0.0758    -0.0115
 1482.0000     8.9297    85.8602     2.4404     0.0691    -0.0043
 1482.5000     8.9280    84.8192     2.4491     0.0657     0.0030
 1483.0000     8.9264    83.7735     2.4520     0.0600     0.0043
 1483.5000     8.9248    83.8954     2.4648     0.0520     0.0057
 1484.0000     8.9232    84.4070     2.4788     0.0439     0.0091
 1484.5000     8.9215    84.1723     2.4975     0.0330     0.0246
 1485.0000     8.9085    83.7357     2.5163     0.0218     0.0403
 1485.5000     8.8941    83.2821     2.5131     0.0214     0.0387
 1486.0000     8.8796    83.5865     2.5246     0.0156     0.0504
 1486.5000     8.8648    84.3467     2.5179     0.0182     0.0460
 1487.0000     8.8707    85.1140     2.5186     0.0205     0.0412
 1487.5000     8.8984    85.8805     2.5044     0.0272     0.0353
