~VERSION INFORMATION
 VERS.                2.0:   CWLS LOG ASCII STANDARD - VERSION 2.0
 WRAP.                 NO:   ONE LINE PER DEPTH STEP
~WELL INFORMATION
#MNEM.UNIT      DATA TYPE    INFORMATION
#----------   ------------   ------------------------------
 STRT.F           21.0000:   START DEPTH
 STOP.F          543.0000:   STOP DEPTH
 STEP.F            0.5000:   STEP LENGTH
 NULL.          -999.2500:   NO VALUE
 COMP. FENIX & SCISSON INC:   COMPANY
 WELL.      NPR #3 #46-10:   WELL
 FLD .             TEAPOT:   FIELD
 LOC .      S10 T38N R78W:   LOCATION
 CNTY.            NATRONA:   COUNTY
 STAT.            WYOMING:   STATE
 CTRY. UNITED STATES OF AMERICA:   COUNTRY
 SRVC.              Welex:   SERVICE COMPANY
 DATE.        08-MAY-1980:   LOGDATE
 API .       490251081100:   API NUMBER
~CURVE INFORMATION
#MNEM.UNIT       API CODE    CURVE DESCRIPTION
#----------   ------------   ------------------------------
 DEPT.F                  :   
 SGRD.OHMM   07 220 05 00:   SHALLOW GUARD RESISTIVITY
 ILD .OHMM   07 120 46 00:   INDUCTION LOG DEEP RESISTIVITY
 ILM .OHMM   07 120 44 00:   INDUCTION LOG MEDIUM
 SPR .MV     07 010 01 00:   SPONTANEOUS POTENTIAL
 CALD.IN     45 280 60 00:   CALIPER
 GRD .GAPI   45 310 01 00:   GAMMA RAY FROM DENSITY LOG
 CORR.G/C3   45 356 01 00:   DENSITY CORRECTION
 RHOB.G/C3   45 350 01 00:   BULK DENSITY
 DPHI.DEC    45 890 12 00:   DENSITY POROSITY SANDSTONE
~PARAMETER INFORMATION
#MNEM.UNIT          VALUE    DESCRIPTION
#----------   ------------   ------------------------------
 PD  .                 GL:   PERMANENT DATUM
 EPD .F              5206:   ELEVATION PERMANENT DATUM
 LMF .                 KB:   LOG MEASURED FROM
 DAPD.F                 5:   FEET ABOVE PERMANENT DATUM
 DMF .                 KB:   DRILLING MEASURED FROM
 EKB .F              5211:   KELLING BUSHING
 EGL .F              5206:   GROUND LEVEL
 DATE.             5-8-80:   RUN DATE
 RUN .                  1:   RUN NUMBER
 DD  .F               530:   DEPTH DRILLER
 DL  .F               543:   DEPTH LOGGER
 BLI .F               541:   BOTTOM LOG INTERVAL
 TLI .F                30:   TOP LOG INTERVAL
 BS  .IN            7.875:   BIT SIZE
 BSD .F               530:   BIT SIZE AT DEPTH
 DFT .            KCL MUD:   DRILLING FLUID TYPE
 DFD .                9.1:   DRILLING FLUID DENSITY
 DFV .                 43:   DRILLING FLUID VISCOSITY
 MSS .                PIT:   MUD SAMPLE SOURCE
 RMS .OHMM            .89:   RESISTIVITY MUD SAMPLE
 MST .F                75:   MUD SAMPLE TEMPERATURE
 RMF .OHMM            .71:   RESISTIVITY MUD FILTRATE SAMPLE
 MFST.F                75:   MUD FILTRATE SAMPLE TEMPERATURE
 RMC .OHMM           1.08:   RESISTIVITY MUD CAKE
 MCST.F                75:   MUD CAKE SAMPLE TEMPERATURE
 MFSS.           MEASURED:   MUD FILTRATE SAMPLE SOURCE
 MCSS.           MEASURED:   MUD CAKE SAMPLE SOURCE
 BHT .F               100:   BOTTOM HOLE TEMPERATURE
 TCS .HRS               2:   TIME CURCULATED STOPPED
 MRT .F               100:   MAXIMUM RECORDED TEMPERATURE
 LUN .               9685:   LOGGING UNIT NUMBER
 LUL .             CASPER:   LOGGING UNIT LOCATION
 ENGI.            TOTHILL:   RECORDING ENGINEER
 WITN.              AMEND:   WITNESSED BY
 CLNT.            A2DTECH:   CLIENT CODE
 ORIG.           5" PRINT:   ORIGIN OF DATA
 UWI .       490251081100:   UNIQUE WELL ID
 DICO. A2D Technologies, Inc.:   DIGITIZING COMPANY
~OTHER INFORMATION
~A   DEPT     SGRD        ILD        ILM        SPR        CALD        GRD        CORR       RHOB     DPHI   
# ...
  276.5000     7.7513     3.6774     6.5891   -31.0026     7.7640   112.2383     0.0393     2.4102     0.1610
  277.0000     8.1860     3.8355     6.9121   -30.8924     7.7545   112.5830     0.0356     2.4105     0.1590
  277.5000     8.1751     3.9500     7.1876   -30.7708     7.7450   112.9264     0.0332     2.4105     0.1591
  278.0000     8.1745     4.2240     7.3892   -30.6466     7.7395   113.2714     0.0372     2.4215     0.1567
  278.5000     8.5690     4.5229     7.5267   -30.5230     7.7396   113.3238     0.0449     2.4358     0.1443
  279.0000     9.0593     4.8168     7.7378   -30.3993     7.7396   113.3241     0.0501     2.4428     0.1403
  279.5000     9.5827     5.0634     7.9507   -30.2757     7.7397   113.3230     0.0509     2.4374     0.1384
  280.0000    10.1131     5.3226     8.1920   -30.1519     7.7389   113.3200     0.0483     2.4267     0.1457
  280.5000     9.9502     5.5951     8.4407   -30.0287     7.7245   113.4409     0.0434     2.4188     0.1523
  281.0000     9.8338     5.8816     8.5637   -29.9022     7.7101   113.5773     0.0378     2.4128     0.1540
  281.5000    10.0614     6.0344     8.5637   -29.9600     7.6958   113.7150     0.0322     2.3976     0.1630
  282.0000    10.2032     6.1671     8.5637   -30.0990     7.6815   113.8568     0.0242     2.3828     0.1734
  282.5000     9.9096     6.2018     8.4851   -30.2409     7.6821   114.1919     0.0266     2.3815     0.1767
  283.0000     9.3966     6.2018     8.3251   -30.3824     7.6847   114.7483     0.0308     2.3977     0.1681
  283.5000     8.9100     6.2018     8.1199   -30.5238     7.6873   115.3019     0.0346     2.3988     0.1659
  284.0000     8.4851     6.2018     7.9197   -30.6651     7.6899   115.8745     0.0358     2.4049     0.1631
  284.5000     8.4072     6.0615     7.7247   -30.8065     7.6925   116.3231     0.0369     2.4086     0.1597
  285.0000     8.6430     5.9074     7.5265   -30.9478     7.6950   116.7543     0.0318     2.3957     0.1669
  285.5000     8.3312     5.7016     7.3886   -31.0882     7.6976   117.1834     0.0301     2.4000     0.1668
  286.0000     7.8095     5.4179     7.3892   -31.2319     7.6993   117.6132     0.0291     2.3953     0.1667
  286.5000     7.8095     5.1483     7.3214   -31.4858     7.6949   118.2617     0.0302     2.3966     0.1679
  287.0000     7.9548     4.9690     7.2640   -31.7395     7.6905   119.1254     0.0331     2.4051     0.1630
  287.5000     8.0285     4.8130     7.0509   -31.9922     7.6862   119.1665     0.0359     2.4066     0.1604
  288.0000     7.4094     4.6618     6.6605   -32.2429     7.6817   118.7152     0.0380     2.4079     0.1608
  288.5000     6.9435     4.5155     6.2917   -32.3942     7.6998   117.8380     0.0402     2.4112     0.1588
  289.0000     6.6044     4.3737     5.9433   -32.3930     7.7350   116.9202     0.0382     2.4000     0.1619
  289.5000     7.0276     4.2364     5.6556   -32.3941     7.7702   116.0029     0.0352     2.3899     0.1703
  290.0000     7.6858     4.1720     6.2083   -32.3887     7.7991   115.0860     0.0328     2.3815     0.1768
  290.5000     8.3826     4.1720     7.3892   -32.2087     7.7934   114.0736     0.0305     2.3839     0.1799
  291.0000     9.2192     4.1720     7.3196   -32.2094     7.7882   112.9001     0.0277     2.3844     0.1736
  291.5000     9.1576     4.3771     7.2542   -31.8442     7.7833   111.7259     0.0229     2.3851     0.1747
  292.0000     9.0609     4.6561     7.4101   -31.4509     7.7842   110.5352     0.0259     2.3968     0.1701
  292.5000     9.0507     4.9689     7.7501   -31.0654     7.8122   110.3289     0.0299     2.4000     0.1655
  293.0000     9.1486     5.1647     8.1056   -30.6839     7.8383   110.3271     0.0367     2.4047     0.1611
  293.5000     9.2830     5.3782     8.3301   -30.4435     7.8391   110.3317     0.0433     2.4297     0.1515
  294.0000     9.4192     5.6019     8.4072   -30.4522     7.8390   110.3142     0.0465     2.4450     0.1376
  294.5000     9.5574     5.8350     8.4072   -30.5961     7.8390   109.9072     0.0356     2.4288     0.1376
  295.0000     9.7469     6.0777     8.4073   -30.6232     7.8390   109.4858     0.0284     2.4159     0.1518
  295.5000     9.7108     6.2206     8.4073   -30.4173     7.8390   109.4705     0.0222     2.4079     0.1589
  296.0000     9.6769     6.3256     8.4052   -30.2488     7.8390   110.4465     0.0168     2.3952     0.1659
  296.5000     9.6422     6.4324     8.3932   -30.2631     7.8390   111.4342     0.0120     2.3852     0.1729
  297.0000     9.6077     6.5411     8.3814   -30.2887     7.8390   112.4167     0.0195     2.3934     0.1751
  297.5000     9.5734     6.6153     8.3696   -30.3139     7.8390   113.3115     0.0317     2.4142     0.1628
  298.0000     9.5392     6.5760     8.3578   -30.3392     7.8390   113.3282     0.0378     2.4231     0.1532
  298.5000     9.5051     6.5335     8.3460   -30.3645     7.8387   113.3247     0.0367     2.4140     0.1516
  299.0000     9.4712     6.4910     8.3343   -30.3897     7.8227   113.3233     0.0370     2.4171     0.1580
  299.5000     9.4373     6.4479     8.3295   -30.4149     7.7891   113.3188     0.0390     2.4184     0.1536
  300.0000     9.4036     6.3662     8.3569   -30.4396     7.7619   113.0744     0.0381     2.4168     0.1559
  300.5000     9.3701     6.2639     8.4077   -30.5313     7.7968   112.5731     0.0361     2.4103     0.1592
  301.0000     9.3383     6.1640     8.4068   -30.6484     7.7625   112.0503     0.0364     2.4173     0.1592
  301.5000     9.3046     6.0657     8.4071   -30.7658     7.7214   111.4852     0.0431     2.4299     0.1472
  302.0000     9.2192     5.9773     8.4058   -30.8831     7.6801   110.9046     0.0391     2.4299     0.1478
  302.5000     9.3908     5.9773     8.4152   -30.9984     7.6731   110.3236     0.0345     2.4238     0.1508
  303.0000     9.5130     5.9772     8.3301   -31.3248     7.6975   109.7433     0.0357     2.4306     0.1492
  303.5000     9.7120     6.0629     8.4072   -31.7190     7.7249   109.1619     0.0397     2.4444     0.1398
  304.0000    10.0168     6.1361     8.7862   -32.1193     7.7647   108.5529     0.0384     2.4573     0.1323
  304.5000    10.4539     6.2289     9.1688   -32.5461     7.8151   107.6165     0.0320     2.4528     0.1325
  305.0000    10.9771     6.4476     9.5681   -32.5919     7.8047   106.5623     0.0345     2.4710     0.1246
  305.5000    11.4947     6.7729     9.9249   -32.7092     7.7802   105.3383     0.0398     2.4855     0.1160
  306.0000    11.6090     7.1425     9.4778   -32.9862     7.7933   104.0898     0.0452     2.4916     0.1102
  306.5000    12.0540     7.5330     9.3908   -32.9742     7.8051   102.8379     0.0425     2.4827     0.1132
  307.0000    12.3829     7.9521     9.8026   -32.9767     7.8193   101.3556     0.0391     2.4738     0.1187
  307.5000    12.4976     8.2561    10.2524   -32.9912     7.8191    99.6429     0.0357     2.4660     0.1242
  308.0000    12.7302     8.7323    10.7228   -33.0749     7.8191    97.9380     0.0335     2.4640     0.1269
  308.5000    13.0872     9.5688    10.8834   -33.1468     7.8191    96.2364     0.0337     2.4574     0.1312
  309.0000    13.4003     9.5621    11.0860   -33.3586     7.8191    94.4113     0.0280     2.4349     0.1419
  309.5000    13.9499     9.9249    11.2923   -33.3685     7.8191    92.0669     0.0221     2.4181     0.1532
  310.0000    14.2305    10.7530    11.7165   -33.2419     7.8191    88.5111     0.0275     2.4199     0.1540
  310.5000    15.0696    11.6396    12.8034   -33.0825     7.8191    84.5141     0.0286     2.4057     0.1596
  311.0000    17.1666    12.5993    13.9240   -32.9232     7.8189    80.5116     0.0272     2.3915     0.1671
  311.5000    19.5244    13.6381    15.1428   -32.7642     7.8096    76.5099     0.0254     2.3773     0.1755
  312.0000    22.2083    14.6182    16.5726   -32.6026     7.7997    72.5439     0.0235     2.3617     0.1889
  312.5000    25.2618    15.7662    18.2890   -32.4553     7.8036    69.3595     0.0228     2.3432     0.1983
