~VERSION INFORMATION
 VERS.                2.0:   CWLS LOG ASCII STANDARD - VERSION 2.0
 WRAP.                 NO:   ONE LINE PER DEPTH STEP
~WELL INFORMATION
#MNEM.UNIT      DATA TYPE    INFORMATION
#----------   ------------   ------------------------------
 STRT.F            0.0000:   START DEPTH
 STOP.F          534.0000:   STOP DEPTH
 STEP.F            0.1000:   STEP LENGTH
 NULL.          -999.2500:   NO VALUE
 COMP.       F D SERV INC:   COMPANY
 WELL. NAVAL PETROLEUM RESERVE 3 SX-1 #71-2-10:   WELL
 FLD .            N.P.R 3:   FIELD
 LOC .      S10 T38N R78W:   LOCATION
 CNTY.            NATRONA:   COUNTY
 STAT.            WYOMING:   STATE
 CTRY. UNITED STATES OF AMERICA:   COUNTRY
 SRVC.     Atlas Wireline:   SERVICE COMPANY
 DATE.        07-DEC-1992:   LOGDATE
 API .       490252257200:   API NUMBER
~CURVE INFORMATION
#MNEM.UNIT       API CODE    CURVE DESCRIPTION
#----------   ------------   ------------------------------
 DEPT.F                  :   
 GRR .GAPI   07 310 01 00:   GAMMA RAY
 RILD.OHMM   07 120 46 00:   INDUCTION LOG DEEP RESISTIVITY
 RILM.OHMM   07 120 44 00:   RESITIVITY LONG MEDIUM
~PARAMETER INFORMATION
#MNEM.UNIT          VALUE    DESCRIPTION
#----------   ------------   ------------------------------
 PD  .                 GL:   PERMANENT DATUM
 EPD .F              5165:   ELEVATION PERMANENT DATUM
 LMF .                 KB:   LOG MEASURED FROM
 DAPD.F                10:   FEET ABOVE PERMANENT DATUM
 DMF .                 KB:   DRILLING MEASURED FROM
 EKB .F              5175:   KELLING BUSHING
 EDF .F              5174:   DRILLING FLOOR
 EGL .F              5165:   GROUND LEVEL
 DATE.        07-DEC-1992:   RUN DATE
 RUN .                  1:   RUN NUMBER
 DD  .F               540:   DEPTH DRILLER
 DL  .F               542:   DEPTH LOGGER
 BLI .F               534:   BOTTOM LOG INTERVAL
 CS  .IN            8.625:   CASING SIZE
 CBD .F                78:   CASING BOTTOM DRILLER
 CBL .F                82:   CASING BOTTOM LOGGER
 BS  .IN            7.875:   BIT SIZE
 BSD .F               540:   BIT SIZE AT DEPTH
 DFT .           AIR FOAM:   DRILLING FLUID TYPE
 BHT .F                70:   BOTTOM HOLE TEMPERATURE
 MRT .F                70:   MAXIMUM RECORDED TEMPERATURE
 LUN .           HL- 6345:   LOGGING UNIT NUMBER
 LUL .         FT. MORGAN:   LOGGING UNIT LOCATION
 ENGI.             BURLEY:   RECORDING ENGINEER
 WITN.        GARY STRONG:   WITNESSED BY
 CLNT.            A2DTECH:   CLIENT CODE
 ORIG.           5" PRINT:   ORIGIN OF DATA
 UWI .       490252257200:   UNIQUE WELL ID
 DICO. A2D Technologies, Inc.:   DIGITIZING COMPANY
~OTHER INFORMATION
~A    DEPT      GRR      RILD       RILM   
# ...
  418.6000    90.9341    16.3504    16.1701
  418.7000    90.9335    16.3500    16.1699
  418.8000    90.4555    16.2597    16.1327
  418.9000    90.3253    16.2349    16.0567
  419.0000    90.3247    16.2344    16.0565
  419.1000    90.3241    16.2340    15.9671
  419.2000    90.3235    16.2335    15.9440
  419.3000    90.3228    16.2330    15.9438
  419.4000    90.3223    16.1502    15.9436
  419.5000    90.3217    16.0568    15.9337
  419.6000    90.3211    16.0057    15.8319
  419.7000    90.3802    16.0053    15.7509
  419.8000    90.6355    16.0026    15.7211
  419.9000    91.2296    15.8925    15.7209
  420.0000    91.4314    15.8181    15.6987
  420.1000    92.1269    15.7807    15.6108
  420.2000    92.7454    15.7802    15.6105
  420.3000    92.8278    15.7647    15.5376
  420.4000    93.3511    15.6691    15.5013
  420.5000    93.3505    15.5830    15.5011
  420.6000    93.3499    15.5588    15.4715
  420.7000    93.2188    15.5584    15.2852
  420.8000    92.8914    15.5579    15.2850
  420.9000    92.3678    15.5492    15.2847
  421.0000    91.5265    15.4484    15.2390
  421.1000    90.8674    15.4480    15.1777
  421.2000    90.1172    15.4475    15.1699
  421.3000    89.4792    15.4072    15.0714
  421.4000    88.9789    15.3388    15.0712
  421.5000    88.4886    15.3384    15.0710
  421.6000    88.4879    15.3378    15.0708
  421.7000    88.0847    15.3375    15.0511
  421.8000    87.7321    15.2849    14.9645
  421.9000    87.5757    15.2295    14.8784
  422.0000    87.6155    15.2149    14.8605
  422.1000    87.8780    15.1223    14.8603
  422.2000    87.8774    15.1219    14.8601
  422.3000    88.2430    15.1214    14.8599
  422.4000    88.7421    15.1210    14.8596
  422.5000    89.1654    15.1206    14.8594
  422.6000    89.4147    15.1124    14.8592
  422.7000    89.6952    15.0141    14.8590
  422.8000    89.9132    15.0137    14.8345
  422.9000    90.1625    14.9563    14.7491
  423.0000    90.6342    14.9080    14.6518
  423.1000    91.2103    14.9076    14.6517
  423.2000    91.2057    14.9072    14.6515
  423.3000    90.9055    14.9067    14.6157
  423.4000    90.9050    14.8376    14.5316
  423.5000    90.7577    14.7518    14.4472
  423.6000    90.5073    14.6980    14.4470
  423.7000    90.2173    14.6976    14.4468
  423.8000    89.6886    14.6972    14.4001
  423.9000    88.9809    14.6170    14.3456
  424.0000    88.5948    14.5937    14.3348
  424.1000    88.4728    14.5933    14.2452
  424.2000    88.4722    14.5677    14.2450
  424.3000    88.4716    14.4905    14.2448
  424.4000    88.4709    14.4901    14.2051
  424.5000    88.4704    14.4897    14.1451
  424.6000    88.4698    14.4893    14.1406
  424.7000    88.4692    14.4889    14.0460
  424.8000    88.4686    14.4885    14.0458
  424.9000    88.4680    14.4881    14.0456
  425.0000    88.4674    14.4877    14.0454
  425.1000    88.0682    14.4873    14.0452
  425.2000    87.7135    14.4869    14.0450
  425.3000    87.4630    14.4558    14.0448
  425.4000    87.1741    14.3849    14.0446
  425.5000    86.6434    14.3845    14.0007
  425.6000    86.6428    14.3064    13.9463
  425.7000    86.6422    14.2832    13.9461
  425.8000    86.6416    14.2828    13.9459
  425.9000    86.5671    14.2824    13.9457
  426.0000    86.3369    14.2754    13.9455
  426.1000    86.3362    14.1818    13.9453
  426.2000    86.3357    14.1815    13.9451
  426.3000    86.3351    14.1811    13.9449
  426.4000    86.4437    14.1450    13.9447
  426.5000    86.6373    14.0812    13.8790
  426.6000    86.6367    14.0808    13.8471
  426.7000    86.6361    14.0804    13.8161
  426.8000    86.6355    14.0158    13.7366
  426.9000    86.9242    13.9347    13.6540
  427.0000    87.2413    13.8833    13.6538
  427.1000    87.3155    13.8829    13.5956
  427.2000    87.8470    13.8824    13.5174
  427.3000    88.0801    13.8074    13.4635
  427.4000    88.3294    13.7276    13.4560
  427.5000    88.5787    13.6881    13.3692
  427.6000    88.9008    13.6877    13.3017
  427.7000    89.4192    13.6873    13.2756
  427.8000    90.2712    13.6869    13.2754
  427.9000    90.7017    13.6187    13.2752
  428.0000    91.2009    13.5399    13.2750
  428.1000    91.4835    13.4952    13.2748
  428.2000    91.4829    13.4949    13.2137
  428.3000    91.4822    13.4942    13.1377
  428.4000    91.4816    13.4162    13.0898
  428.5000    91.4810    13.3386    13.0780
  428.6000    91.1931    13.3055    12.9981
  428.7000    90.6028    13.2776    12.9280
  428.8000    89.9254    13.2008    12.9071
  428.9000    89.6576    13.1192    12.8694
  429.0000    89.1918    13.1188    12.8167
  429.1000    88.8704    13.0644    12.8110
  429.2000    88.6199    12.9888    12.7270
  429.3000    88.2976    12.9351    12.7268
  429.4000    87.7974    12.9347    12.6327
  429.5000    87.2260    12.9343    12.5496
  429.6000    86.7965    12.8702    12.5494
  429.7000    86.2962    12.7958    12.5492
  429.8000    85.9031    12.7532    12.5490
  429.9000    85.6526    12.7372    12.5489
  430.0000    85.4021    12.6635    12.5078
  430.1000    85.4015    12.5903    12.4610
  430.2000    85.4009    12.5743    12.4608
  430.3000    85.4003    12.5327    12.4606
  430.4000    85.3997    12.4602    12.4605
  430.5000    85.3991    12.3982    12.4099
  430.6000    85.3984    12.3978    12.3732
  430.7000    85.6296    12.3314    12.3731
  430.8000    85.8788    12.2601    12.3729
  430.9000    86.2525    12.2242    12.3727
  431.0000    86.8931    12.2239    12.3127
  431.1000    87.8578    12.2236    12.2861
  431.2000    88.4296    12.2232    12.2569
  431.3000    88.6426    12.2229    12.2000
  431.4000    89.0517    12.2225    12.1999
  431.5000    89.4446    12.2222    12.1997
  431.6000    89.6413    12.2218    12.1995
  431.7000    89.6407    12.2215    12.2381
  431.8000    89.6401    12.2212    12.2849
  431.9000    89.6395    12.2208    12.2764
  432.0000    89.6388    12.2205    12.1988
  432.1000    89.6382    12.1954    12.1987
  432.2000    89.5689    12.1344    12.1985
  432.3000    89.0300    12.1341    12.1983
  432.4000    89.0294    12.1337    12.1982
  432.5000    89.0288    12.1334    12.1980
  432.6000    89.0282    12.1331    12.1978
  432.7000    89.0276    12.1327    12.1977
  432.8000    89.0270    12.1324    12.1975
  432.9000    89.0263    12.1320    12.1973
  433.0000    89.0258    12.1317    12.1971
  433.1000    89.0252    12.1314    12.1970
  433.2000    89.0246    12.1310    12.1968
  433.3000    89.0240    12.1307    12.1966
  433.4000    89.0234    12.1303    12.2339
  433.5000    89.2706    12.1997    12.2819
  433.6000    89.5199    12.2150    12.2889
  433.7000    89.6285    12.2146    12.3678
  433.8000    89.8020    12.2057    12.3677
  433.9000    90.3345    12.1807    12.3675
  434.0000    91.1441    12.1556    12.3673
  434.1000    91.8324    12.1306    12.3672
  434.2000    92.4054    12.1055    12.3670
  434.3000    92.9046    12.0805    12.3668
  434.4000    93.4037    12.0554    12.3666
  434.5000    93.9332    12.0419    12.3665
  434.6000    95.0858    12.0416    12.3663
  434.7000    95.5081    12.0412    12.3661
  434.8000    96.3229    12.0408    12.3659
  434.9000    97.1134    12.0406    12.3658
  435.0000    97.6126    12.0402    12.3656
  435.1000    98.1177    12.0399    12.3290
  435.2000    98.3639    12.0395    12.2580
  435.3000    98.6133    12.0392    12.1932
  435.4000    99.0022    12.0389    12.1930
  435.5000    99.5013    12.0385    12.1929
  435.6000   100.0004    12.0382    12.1927
  435.7000   100.5420    12.0379    12.1925
  435.8000   100.5414    12.0375    12.1924
  435.9000   100.5408    12.0371    12.1922
  436.0000   100.5402    12.0368    12.1920
  436.1000   100.5396    12.0365    12.1918
  436.2000   100.5390    12.0362    12.1917
  436.3000   100.5383    12.0358    12.1915
  436.4000   100.1170    12.0355    12.1913
  436.5000    99.9302    12.0351    12.1912
  436.6000    99.7232    12.0348    12.1910
  436.7000    99.1734    12.0345    12.1411
