~VERSION INFORMATION
 VERS.                2.0:   CWLS LOG ASCII STANDARD - VERSION 2.0
 WRAP.                 NO:   ONE LINE PER DEPTH STEP
~WELL INFORMATION
#MNEM.UNIT      DATA TYPE    INFORMATION
#----------   ------------   ------------------------------
 STRT.F           23.0000:   START DEPTH
 STOP.F         2536.0000:   STOP DEPTH
 STEP.F            0.5000:   STEP LENGTH
 NULL.          -999.2500:   NO VALUE
 COMP. FENIX & SCISSON INC:   COMPANY
 WELL.     14 SHX 3 #14-3:   WELL
 FLD .             TEAPOT:   FIELD
 LOC .       S3 T38N R78W:   LOCATION
 CNTY.            NATRONA:   COUNTY
 STAT.            WYOMING:   STATE
 CTRY. UNITED STATES OF AMERICA:   COUNTRY
 SRVC.           BIRDWELL:   SERVICE COMPANY
 DATE.        20-MAR-1979:   LOGDATE
 API .       490251073900:   API NUMBER
~CURVE INFORMATION
#MNEM.UNIT       API CODE    CURVE DESCRIPTION
#----------   ------------   ------------------------------
 DEPT.F                  :   
 SPR .MV     07 010 01 00:   SPONTANEOUS POTENTIAL
 SN  .OHMM   07 040 16 00:   SHORT NORMAL 16'
 IL  .OHMM   07 120 00 00:   INDUCTION LOG
 GRD .GAPI   45 310 01 00:   GAMMA RAY FROM DENSITY LOG
 CALD.IN     45 280 60 00:   CALIPER
 CORR.G/C3   45 356 01 00:   DENSITY CORRECTION
 DEN .G/C3   45 350 01 00:   
 DPHI.DEC    45 890 12 00:   DENSITY POROSITY SANDSTONE
~PARAMETER INFORMATION
#MNEM.UNIT          VALUE    DESCRIPTION
#----------   ------------   ------------------------------
 PD  .                 GL:   PERMANENT DATUM
 EPD .F              5208:   ELEVATION PERMANENT DATUM
 LMF .                 KB:   LOG MEASURED FROM
 DAPD.F                10:   FEET ABOVE PERMANENT DATUM
 DMF .                 KB:   DRILLING MEASURED FROM
 EKB .F              5218:   KELLING BUSHING
 EGL .F              5208:   GROUND LEVEL
 DATE.            3-20-79:   RUN DATE
 RUN .                  1:   RUN NUMBER
 DD  .F              2580:   DEPTH DRILLER
 DL  .F              2536:   DEPTH LOGGER
 BLI .F              2536:   BOTTOM LOG INTERVAL
 TLI .F               400:   TOP LOG INTERVAL
 CS  .IN            9.625:   CASING SIZE
 CBL .F               680:   CASING BOTTOM LOGGER
 BS  .IN             8.75:   BIT SIZE
 BSD .F              2580:   BIT SIZE AT DEPTH
 DFT .                AIR:   DRILLING FLUID TYPE
 TCS .HRS               6:   TIME CURCULATED STOPPED
 LUN .               2959:   LOGGING UNIT NUMBER
 LUL .             CASPER:   LOGGING UNIT LOCATION
 ENGI.            ROLLINS:   RECORDING ENGINEER
 WITN.           DINSMORE:   WITNESSED BY
 CLNT.            A2DTECH:   CLIENT CODE
 ORIG. 1", 2", 2.5", 5" PRINT:   ORIGIN OF DATA
 UWI .       490251073900:   UNIQUE WELL ID
 DICO. A2D Technologies, Inc.:   DIGITIZING COMPANY
~OTHER INFORMATION
~A   DEPT      SPR         SN         IL        GRD       CALD       CORR        DEN       DPHI   
# ...
 2007.5000  -999.2500  -999.2500  -999.2500   185.1620     9.4839     0.0208     2.4903     0.0258
 2008.0000  -999.2500  -999.2500  -999.2500   185.4605     9.4844     0.0175     2.4866     0.0282
 2008.5000  -999.2500  -999.2500  -999.2500   186.6291     9.4849     0.0115     2.4814     0.0297
 2009.0000  -999.2500  -999.2500  -999.2500   183.3253     9.4854     0.0305     2.4848     0.0265
 2009.5000  -999.2500  -999.2500  -999.2500   181.9903     9.4858     0.0607     2.5015     0.0100
 2010.0000  -999.2500  -999.2500  -999.2500   182.3662     9.4863     0.0861     2.5458    -0.0010
 2010.5000  -999.2500  -999.2500  -999.2500   185.1304     9.4868     0.0606     2.5154     0.0299
 2011.0000  -999.2500  -999.2500  -999.2500   182.8248     9.4873     0.0062     2.4646     0.0402
 2011.5000  -999.2500  -999.2500  -999.2500   181.3218     9.4877    -0.0024     2.4602     0.0353
 2012.0000  -999.2500  -999.2500  -999.2500   180.2388     9.4882     0.0003     2.4693     0.0313
 2012.5000  -999.2500  -999.2500  -999.2500   183.2789     9.4887     0.0047     2.4800     0.0265
 2013.0000  -999.2500  -999.2500  -999.2500   183.8961     9.4892     0.0085     2.4874     0.0308
 2013.5000  -999.2500  -999.2500  -999.2500   182.1639     9.4896     0.0050     2.4757     0.0380
 2014.0000  -999.2500  -999.2500  -999.2500   182.7426     9.4901     0.0002     2.4606     0.0467
 2014.5000  -999.2500  -999.2500  -999.2500   183.2611     9.4906    -0.0056     2.4459     0.0475
 2015.0000  -999.2500  -999.2500  -999.2500   183.2333     9.4910    -0.0039     2.4446     0.0423
 2015.5000  -999.2500  -999.2500  -999.2500   183.5732     9.4915     0.0030     2.4590     0.0370
 2016.0000  -999.2500  -999.2500  -999.2500   186.3789     9.4920     0.0091     2.4718     0.0318
 2016.5000  -999.2500  -999.2500  -999.2500   192.5911     9.4925     0.0151     2.4843     0.0266
 2017.0000  -999.2500  -999.2500  -999.2500   191.3305     9.4930     0.0221     2.4984     0.0224
 2017.5000  -999.2500  -999.2500  -999.2500   190.4232     9.4934     0.0255     2.5023     0.0216
 2018.0000  -999.2500  -999.2500  -999.2500   191.5044     9.4939     0.0242     2.4945     0.0251
 2018.5000  -999.2500  -999.2500  -999.2500   188.8268     9.4944     0.0129     2.4788     0.0309
 2019.0000  -999.2500  -999.2500  -999.2500   184.3030     9.4949     0.0031     2.4677     0.0378
 2019.5000  -999.2500  -999.2500  -999.2500   179.7413     9.4953    -0.0072     2.4613     0.0398
 2020.0000  -999.2500  -999.2500  -999.2500   176.9049     9.4958    -0.0144     2.4507     0.0418
 2020.5000  -999.2500  -999.2500  -999.2500   175.4033     9.4960    -0.0071     2.4602     0.0395
 2021.0000  -999.2500  -999.2500  -999.2500   176.1469     9.4960    -0.0011     2.4659     0.0366
 2021.5000  -999.2500  -999.2500  -999.2500   180.2346     9.4960     0.0053     2.4623     0.0337
 2022.0000  -999.2500  -999.2500  -999.2500   185.1949     9.4960     0.0127     2.4742     0.0309
 2022.5000  -999.2500  -999.2500  -999.2500   190.8244     9.4960     0.0157     2.4873     0.0280
 2023.0000  -999.2500  -999.2500  -999.2500   186.4195     9.4960     0.0173     2.4883     0.0257
 2023.5000  -999.2500  -999.2500  -999.2500   180.0720     9.4960     0.0100     2.4799     0.0301
 2024.0000  -999.2500  -999.2500  -999.2500   177.4463     9.4960     0.0006     2.4789     0.0339
 2024.5000  -999.2500  -999.2500  -999.2500   180.6461     9.4960    -0.0079     2.4732     0.0376
 2025.0000  -999.2500  -999.2500  -999.2500   183.2384     9.4960    -0.0185     2.4611     0.0413
 2025.5000  -999.2500  -999.2500  -999.2500   185.1305     9.4960    -0.0191     2.4504     0.0459
 2026.0000  -999.2500  -999.2500  -999.2500   185.1238     9.4960    -0.0184     2.4484     0.0431
 2026.5000  -999.2500  -999.2500  -999.2500   180.1257     9.4960    -0.0090     2.4574     0.0385
 2027.0000  -999.2500  -999.2500  -999.2500   181.3530     9.4960     0.0001     2.4723     0.0329
 2027.5000  -999.2500  -999.2500  -999.2500   185.0233     9.4960     0.0010     2.4733     0.0345
 2028.0000  -999.2500  -999.2500  -999.2500   188.4861     9.4960     0.0011     2.4681     0.0335
 2028.5000  -999.2500  -999.2500  -999.2500   192.2164     9.4960     0.0010     2.4756     0.0305
 2029.0000  -999.2500  -999.2500  -999.2500   192.5298     9.4960     0.0009     2.4848     0.0306
 2029.5000  -999.2500  -999.2500  -999.2500   190.3383     9.4960     0.0006     2.4819     0.0348
 2030.0000  -999.2500  -999.2500  -999.2500   182.2564     9.4960    -0.0078     2.4650     0.0400
 2030.5000  -999.2500  -999.2500  -999.2500   174.5456     9.4960    -0.0162     2.4446     0.0453
 2031.0000  -999.2500  -999.2500  -999.2500   177.1290     9.4960    -0.0229     2.4381     0.0474
 2031.5000  -999.2500  -999.2500  -999.2500   181.3520     9.4960    -0.0116     2.4550     0.0377
 2032.0000  -999.2500  -999.2500  -999.2500   180.5355     9.4960     0.0068     2.4748     0.0296
 2032.5000  -999.2500  -999.2500  -999.2500   179.3137     9.4960     0.0263     2.4945     0.0216
 2033.0000  -999.2500  -999.2500  -999.2500   178.0760     9.4960     0.0340     2.5079     0.0184
 2033.5000  -999.2500  -999.2500  -999.2500   176.7244     9.4960     0.0299     2.5033     0.0184
 2034.0000  -999.2500  -999.2500  -999.2500   180.3853     9.4960     0.0180     2.4946     0.0257
 2034.5000  -999.2500  -999.2500  -999.2500   183.0949     9.4960     0.0199     2.4901     0.0257
 2035.0000  -999.2500  -999.2500  -999.2500   182.8990     9.4960     0.0237     2.4917     0.0260
 2035.5000  -999.2500  -999.2500  -999.2500   184.1900     9.4960     0.0211     2.4874     0.0310
 2036.0000  -999.2500  -999.2500  -999.2500   186.2447     9.4960     0.0074     2.4730     0.0378
 2036.5000  -999.2500  -999.2500  -999.2500   185.1790     9.4960     0.0002     2.4645     0.0386
 2037.0000  -999.2500  -999.2500  -999.2500   181.8371     9.4960     0.0035     2.4642     0.0378
 2037.5000  -999.2500  -999.2500  -999.2500   180.0551     9.4960     0.0077     2.4699     0.0352
 2038.0000  -999.2500  -999.2500  -999.2500   182.9525     9.4960     0.0120     2.4746     0.0326
 2038.5000  -999.2500  -999.2500  -999.2500   184.1456     9.4960     0.0160     2.4799     0.0299
 2039.0000  -999.2500  -999.2500  -999.2500   181.3992     9.4960     0.0208     2.4840     0.0289
 2039.5000  -999.2500  -999.2500  -999.2500   183.9733     9.4960     0.0190     2.4857     0.0281
 2040.0000  -999.2500  -999.2500  -999.2500   188.2407     9.4960     0.0164     2.4877     0.0281
 2040.5000  -999.2500  -999.2500  -999.2500   195.1856     9.4960     0.0134     2.4807     0.0319
 2041.0000  -999.2500  -999.2500  -999.2500   190.4135     9.4960     0.0107     2.4728     0.0351
 2041.5000  -999.2500  -999.2500  -999.2500   185.7432     9.4960     0.0102     2.4642     0.0370
 2042.0000  -999.2500  -999.2500  -999.2500   184.4124     9.4960     0.0122     2.4741     0.0380
 2042.5000  -999.2500  -999.2500  -999.2500   185.5244     9.4960     0.0006     2.4693     0.0397
 2043.0000  -999.2500  -999.2500  -999.2500   185.6686     9.4960    -0.0067     2.4606     0.0410
 2043.5000  -999.2500  -999.2500  -999.2500   183.8942     9.4960    -0.0039     2.4667     0.0353
 2044.0000  -999.2500  -999.2500  -999.2500   182.2695     9.4960     0.0002     2.4674     0.0353
 2044.5000  -999.2500  -999.2500  -999.2500   180.5350     9.4960     0.0042     2.4685     0.0344
 2045.0000  -999.2500  -999.2500  -999.2500   178.8583     9.4960     0.0086     2.4775     0.0320
 2045.5000  -999.2500  -999.2500  -999.2500   177.2556     9.4960     0.0075     2.4815     0.0305
 2046.0000  -999.2500  -999.2500  -999.2500   179.7292     9.4960     0.0055     2.4803     0.0305
 2046.5000  -999.2500  -999.2500  -999.2500   185.6229     9.4960     0.0043     2.4859     0.0297
 2047.0000  -999.2500  -999.2500  -999.2500   192.0162     9.4960     0.0119     2.4814     0.0285
 2047.5000  -999.2500  -999.2500  -999.2500   193.6291     9.4960     0.0243     2.5008     0.0200
