~VERSION INFORMATION
 VERS.                2.0:   CWLS LOG ASCII STANDARD - VERSION 2.0
 WRAP.                 NO:   ONE LINE PER DEPTH STEP
~WELL INFORMATION
#MNEM.UNIT      DATA TYPE    INFORMATION
#----------   ------------   ------------------------------
 STRT.F           30.0000:   START DEPTH
 STOP.F          515.0000:   STOP DEPTH
 STEP.F            0.5000:   STEP LENGTH
 NULL.          -999.2500:   NO VALUE
 COMP. FENIX & SCISSON INC:   COMPANY
 WELL.      FP SX-3 #63-3:   WELL
 FLD .              NPR 3:   FIELD
 LOC .       S3 T38N R78W:   LOCATION
 CNTY.            NATRONA:   COUNTY
 STAT.            WYOMING:   STATE
 CTRY. UNITED STATES OF AMERICA:   COUNTRY
 SRVC.              Welex:   SERVICE COMPANY
 DATE.        21-JUN-1980:   LOGDATE
 API .       490251082100:   API NUMBER
~CURVE INFORMATION
#MNEM.UNIT       API CODE    CURVE DESCRIPTION
#----------   ------------   ------------------------------
 DEPT.F                  :   
 SPR .MV     07 010 01 00:   SPONTANEOUS POTENTIAL
 SGRD.OHMM   07 220 05 00:   SHALLOW GUARD RESISTIVITY
 ILD .OHMM   07 120 46 00:   INDUCTION LOG DEEP RESISTIVITY
 ILM .OHMM   07 120 44 00:   INDUCTION LOG MEDIUM
 CALD.IN     45 280 60 00:   CALIPER
 GRD .GAPI   45 310 01 00:   GAMMA RAY FROM DENSITY LOG
 CORR.G/C3   45 356 01 00:   DENSITY CORRECTION
 RHOB.G/C3   45 350 01 00:   BULK DENSITY
 DPHI.DEC    45 890 12 00:   DENSITY POROSITY SANDSTONE
 NPHI.DEC    42 890 03 00:   NEUTRON POROSITY SANDSTONE
~PARAMETER INFORMATION
#MNEM.UNIT          VALUE    DESCRIPTION
#----------   ------------   ------------------------------
 PD  .                 GL:   PERMANENT DATUM
 EPD .F              5160:   ELEVATION PERMANENT DATUM
 LMF .                 KB:   LOG MEASURED FROM
 DAPD.F                 5:   FEET ABOVE PERMANENT DATUM
 DMF .                 KB:   DRILLING MEASURED FROM
 EKB .F              5165:   KELLING BUSHING
 EGL .F              5160:   GROUND LEVEL
 DATE.            6-21-80:   RUN DATE
 RUN .                  1:   RUN NUMBER
 DD  .F               508:   DEPTH DRILLER
 DL  .F               517:   DEPTH LOGGER
 BLI .F               515:   BOTTOM LOG INTERVAL
 TLI .F                35:   TOP LOG INTERVAL
 BS  .IN            9.875:   BIT SIZE
 BSD .F               508:   BIT SIZE AT DEPTH
 DFT .            KCL MUD:   DRILLING FLUID TYPE
 DFD .                9.2:   DRILLING FLUID DENSITY
 DFV .                 50:   DRILLING FLUID VISCOSITY
 DFPH.                8.5:   DRILLING FLUID PH
 DFL .                  8:   DRILLING FLUID LOSS
 MSS .           FLOWLINE:   MUD SAMPLE SOURCE
 RMS .OHMM            .42:   RESISTIVITY MUD SAMPLE
 MST .F                63:   MUD SAMPLE TEMPERATURE
 RMF .OHMM            .34:   RESISTIVITY MUD FILTRATE SAMPLE
 MFST.F                63:   MUD FILTRATE SAMPLE TEMPERATURE
 RMC .OHMM             .5:   RESISTIVITY MUD CAKE
 MCST.F                63:   MUD CAKE SAMPLE TEMPERATURE
 MFSS.           MEASURED:   MUD FILTRATE SAMPLE SOURCE
 MCSS.           MEASURED:   MUD CAKE SAMPLE SOURCE
 RMB .OHMM            .35:   RESISTIVITY MUD AT BHT
 BHT .F                75:   BOTTOM HOLE TEMPERATURE
 TCS .HRS             1.5:   TIME CURCULATED STOPPED
 MRT .F                75:   MAXIMUM RECORDED TEMPERATURE
 LUN .               9685:   LOGGING UNIT NUMBER
 LUL .             CASPER:   LOGGING UNIT LOCATION
 ENGI.            TOTHILL:   RECORDING ENGINEER
 WITN.           DINSMORE:   WITNESSED BY
 CLNT.            A2DTECH:   CLIENT CODE
 ORIG.           5" PRINT:   ORIGIN OF DATA
 UWI .       490251082100:   UNIQUE WELL ID
 DICO. A2D Technologies, Inc.:   DIGITIZING COMPANY
~OTHER INFORMATION
~A   DEPT      SPR       SGRD        ILD        ILM        CALD       GRD         CORR       RHOB       DPHI       NPHI 
# ...
  231.0000   -43.3501     4.1422     3.5365     3.8473    10.1076   109.3572     0.1087     2.4965     0.1118     0.3255
  231.5000   -43.2016     3.1639     3.4727     3.8473    10.1094   109.6675     0.1087     2.4824     0.1178     0.3259
  232.0000   -43.9642     3.1286     3.4405     4.0559    10.1112   110.0348     0.0987     2.4708     0.1239     0.3277
  232.5000   -44.8985     4.7675     3.4405     4.3286    10.1130   110.0837     0.0887     2.4608     0.1261     0.3285
  233.0000   -45.2379     5.5738     3.6139     4.4981    10.1148   110.0800     0.0823     2.4610     0.1189     0.3288
  233.5000   -45.2450     6.0158     3.8035     4.6741    10.1166   110.0796     0.0870     2.4748     0.1109     0.3293
  234.0000   -45.2481     6.2387     4.0034     4.8571    10.1183   110.0782     0.0892     2.4917     0.1062     0.3295
  234.5000   -45.2174     6.4362     4.2144     5.0473    10.1174   110.6393     0.0824     2.4935     0.1080     0.3282
  235.0000   -44.6040     6.4811     4.4243     5.2449    10.1158   111.7355     0.0756     2.4902     0.1067     0.3245
  235.5000   -43.9864     6.1281     4.6481     5.3298    10.1142   112.8290     0.0752     2.4940     0.1086     0.3189
  236.0000   -43.3686     5.8500     4.8832     5.3542    10.1125   113.9085     0.0755     2.4909     0.1128     0.3170
  236.5000   -42.7943     6.3425     5.1830     5.3961    10.1109   114.4581     0.0710     2.4825     0.1145     0.3126
  237.0000   -43.6248     6.6647     5.1751     5.4808    10.1093   114.4310     0.0683     2.4791     0.1134     0.3129
  237.5000   -44.6334     6.2441     5.1653     5.4808    10.1076   113.3970     0.0683     2.4818     0.1120     0.3132
  238.0000   -44.7111     6.4961     5.1555     5.4530    10.1060   112.2642     0.0682     2.4852     0.1106     0.3137
  238.5000   -44.4571     6.7141     5.1456     5.4300    10.1044   111.0999     0.0703     2.4887     0.1050     0.3153
  239.0000   -44.2034     6.9824     5.1358     5.5453    10.1028   110.9040     0.0728     2.4900     0.1038     0.3209
  239.5000   -44.0235     6.8628     5.1260     5.6899    10.1011   112.1713     0.0754     2.4886     0.1074     0.3264
  240.0000   -43.8719     6.7185     5.1162     5.6884    10.0995   113.5300     0.0713     2.4865     0.1110     0.3293
  240.5000   -43.6973     6.5773     5.1065     5.6509    10.0979   114.8869     0.0633     2.4845     0.1120     0.3274
  241.0000   -43.4692     6.4390     5.0967     5.6199    10.0963   116.2502     0.0603     2.4825     0.1133     0.3244
  241.5000   -43.0097     6.3615     5.0875     5.5890    10.0946   116.4467     0.0576     2.4789     0.1177     0.3214
  242.0000   -42.5565     6.3615     5.0872     5.5747    10.0930   116.4632     0.0513     2.4752     0.1189     0.3197
  242.5000   -42.1021     6.4233     5.0819     5.5602    10.0914   115.7176     0.0526     2.4752     0.1129     0.3193
  243.0000   -41.6442     6.4192     5.0766     5.5458    10.0898   114.8190     0.0638     2.4858     0.1068     0.3203
  243.5000   -41.2080     6.3901     5.0713     5.5314    10.0881   113.9170     0.0746     2.4962     0.1013     0.3266
  244.0000   -41.3566     6.3616     5.0661     5.5171    10.0865   113.0166     0.0817     2.5065     0.0990     0.3285
  244.5000   -42.2797     6.3731     5.0608     5.5028    10.0849   112.1149     0.0882     2.5065     0.1020     0.3234
  245.0000   -42.8347     6.3866     5.0555     5.4887    10.0833   111.2005     0.0762     2.4993     0.1055     0.3177
  245.5000   -42.2046     6.4003     5.0503     5.4643    10.0816   110.9219     0.0727     2.4967     0.1071     0.3177
  246.0000   -41.4592     6.4138     5.0450     5.4300    10.0800   110.8778     0.0746     2.4959     0.1063     0.3233
  246.5000   -41.2936     6.4210     5.0396     5.3955    10.0784   111.3952     0.0774     2.4952     0.1082     0.3261
  247.0000   -41.5083     6.2996     5.0428     5.3612    10.0781   112.5567     0.0801     2.4943     0.1030     0.3219
  247.5000   -41.7322     6.2183     4.9527     5.3298    10.0781   113.7081     0.0827     2.4904     0.1073     0.3185
  248.0000   -41.6272     6.1381     4.8404     5.1869    10.0782   114.8631     0.0794     2.4829     0.1122     0.3176
  248.5000   -41.3797     6.0721     4.7259     5.0580    10.0782   116.0174     0.0702     2.4803     0.1134     0.3169
  249.0000   -41.3140     5.2102     4.6123     4.9431    10.0782   117.1714     0.0753     2.4851     0.1135     0.3208
  249.5000   -41.8460     3.7413     4.5014     4.8445    10.0782   118.3268     0.0762     2.4806     0.1166     0.3252
  250.0000   -42.3576     3.7413     4.3932     4.7466    10.0782   119.5315     0.0743     2.4798     0.1129     0.3305
  250.5000   -42.6070     5.7421     4.2875     4.6512    10.0781   119.8183     0.0833     2.4862     0.1119     0.3362
  251.0000   -42.3515     5.6159     4.1845     4.5494    10.0782   119.8259     0.0935     2.4844     0.1094     0.3416
  251.5000   -41.8433     5.5321     4.0839     4.6350    10.0793   119.6029     0.1007     2.4868     0.1121     0.3420
  252.0000   -41.4205     5.6810     3.9857     4.6783    10.0804   119.1996     0.1024     2.4850     0.1209     0.3414
  252.5000   -42.2985     6.0158     3.8833     4.5329    10.0816   118.7965     0.0806     2.4590     0.1262     0.3356
  253.0000   -43.7153     5.7592     3.8114     4.4073    10.0828   118.3842     0.0650     2.4635     0.1192     0.3341
  253.5000   -44.2457     4.7536     3.7356     4.2738    10.0840   117.9652     0.0803     2.4715     0.1149     0.3341
  254.0000   -44.0640     3.3541     3.6615     4.0684    10.0852   117.2837     0.0970     2.4794     0.1128     0.3350
  254.5000   -43.8190     2.6756     3.5703     4.0684    10.0864   116.6017     0.1050     2.4873     0.1066     0.3422
  255.0000   -43.5772     4.0307     3.5703     4.0953    10.0876   115.5891     0.1111     2.4947     0.1110     0.3448
  255.5000   -43.1327     5.5707     3.5723     4.2686    10.0887   114.1352     0.1171     2.4942     0.1097     0.3448
  256.0000   -42.2672     5.9600     3.5686     4.4492    10.0899   112.6877     0.1203     2.4869     0.1087     0.3436
  256.5000   -41.3914     5.9048     3.8546     4.6374    10.0911   111.2265     0.1203     2.4969     0.1121     0.3328
  257.0000   -41.1228     5.9916     4.0542     4.8345    10.0923   109.7492     0.1092     2.4885     0.1118     0.3193
  257.5000   -41.9680     6.1049     4.2631     5.0419    10.0935   109.6531     0.0931     2.4831     0.1097     0.3117
  258.0000   -42.8415     6.2441     4.4826     5.0395    10.0947   110.5116     0.0783     2.4921     0.1134     0.3078
  258.5000   -42.9260     6.0974     4.7146     5.0769    10.0958   111.6386     0.0876     2.4979     0.1221     0.3077
  259.0000   -42.7742     5.9184     4.8574     5.0873    10.0970   111.2812     0.0706     2.4664     0.1221     0.3131
  259.5000   -42.6092     5.8500     4.8568     5.0873    10.0982   109.6729     0.0624     2.4671     0.1170     0.3157
  260.0000   -43.3267     6.0620     4.6783     5.0872    10.0977   108.4706     0.0655     2.4747     0.1120     0.3183
  260.5000   -43.9168     6.2169     4.4719     5.0893    10.0973   108.4450     0.0769     2.4832     0.1122     0.3214
  261.0000   -44.0221     6.2441     4.2855     4.9480    10.0968   108.7448     0.0865     2.4859     0.1154     0.3249
  261.5000   -43.7436     5.5852     4.1068     4.7301    10.0963   109.6711     0.0843     2.4800     0.1186     0.3291
  262.0000   -43.4511     4.6866     3.9356     4.5233    10.0959   110.9852     0.0739     2.4737     0.1182     0.3332
  262.5000   -43.2123     2.9794     3.8116     4.3255    10.0954   112.2826     0.0814     2.4738     0.1121     0.3341
  263.0000   -42.9733     3.8593     3.7923     4.1837    10.0949   113.5658     0.0900     2.4825     0.1167     0.3300
  263.5000   -42.0653     5.5807     3.7763     4.1837    10.0945   114.4716     0.0850     2.4816     0.1189     0.3270
  264.0000   -41.1098     5.8500     3.8355     4.4336    10.0940   114.4826     0.0806     2.4715     0.1128     0.3217
