~VERSION INFORMATION
 VERS.                2.0:   CWLS LOG ASCII STANDARD - VERSION 2.0
 WRAP.                 NO:   ONE LINE PER DEPTH STEP
~WELL INFORMATION
#MNEM.UNIT      DATA TYPE    INFORMATION
#----------   ------------   ------------------------------
 STRT.F            4.0000:   START DEPTH
 STOP.F          572.0000:   STOP DEPTH
 STEP.F            0.5000:   STEP LENGTH
 NULL.          -999.2500:   NO VALUE
 COMP. FENIX & SCISSON INC:   COMPANY
 WELL.       NPR#3 #33-10:   WELL
 FLD .             TEAPOT:   FIELD
 LOC .      S10 T38N R78W:   LOCATION
 CNTY.            NATRONA:   COUNTY
 STAT.            WYOMING:   STATE
 CTRY. UNITED STATES OF AMERICA:   COUNTRY
 SRVC.              Welex:   SERVICE COMPANY
 DATE.        05-MAY-1980:   LOGDATE
 API .       490251080800:   API NUMBER
~CURVE INFORMATION
#MNEM.UNIT       API CODE    CURVE DESCRIPTION
#----------   ------------   ------------------------------
 DEPT.F                  :   
 SGRD.OHMM   07 220 05 00:   SHALLOW GUARD RESISTIVITY
 ILD .OHMM   07 120 46 00:   INDUCTION LOG DEEP RESISTIVITY
 ILM .OHMM   07 120 44 00:   INDUCTION LOG MEDIUM
 SPR .MV     07 010 01 00:   SPONTANEOUS POTENTIAL
 CALD.IN     45 280 60 00:   CALIPER
 GRD .GAPI   45 310 01 00:   GAMMA RAY FROM DENSITY LOG
 RHOB.G/C3   45 350 01 00:   BULK DENSITY
 CORR.G/C3   45 356 01 00:   DENSITY CORRECTION
 DPHI.DEC    45 890 12 00:   DENSITY POROSITY SANDSTONE
~PARAMETER INFORMATION
#MNEM.UNIT          VALUE    DESCRIPTION
#----------   ------------   ------------------------------
 PD  .                 GL:   PERMANENT DATUM
 EPD .F              5228:   ELEVATION PERMANENT DATUM
 LMF .                 KB:   LOG MEASURED FROM
 DAPD.F                 5:   FEET ABOVE PERMANENT DATUM
 DMF .                 KB:   DRILLING MEASURED FROM
 EKB .F              5233:   KELLING BUSHING
 EGL .F              5228:   GROUND LEVEL
 DATE.             5-5-80:   RUN DATE
 RUN .                  1:   RUN NUMBER
 DD  .F               572:   DEPTH DRILLER
 DL  .F               572:   DEPTH LOGGER
 BLI .F               570:   BOTTOM LOG INTERVAL
 TLI .F                30:   TOP LOG INTERVAL
 BS  .IN            7.875:   BIT SIZE
 BSD .F               572:   BIT SIZE AT DEPTH
 DFT .            KCL MUD:   DRILLING FLUID TYPE
 DFD .                8.9:   DRILLING FLUID DENSITY
 DFV .                 36:   DRILLING FLUID VISCOSITY
 DFL .               12.6:   DRILLING FLUID LOSS
 MSS .           FLOWLINE:   MUD SAMPLE SOURCE
 RMS .OHMM           1.08:   RESISTIVITY MUD SAMPLE
 MST .F                60:   MUD SAMPLE TEMPERATURE
 RMF .OHMM            .86:   RESISTIVITY MUD FILTRATE SAMPLE
 MFST.F                60:   MUD FILTRATE SAMPLE TEMPERATURE
 RMC .OHMM           1.29:   RESISTIVITY MUD CAKE
 MCST.F                60:   MUD CAKE SAMPLE TEMPERATURE
 MFSS.           MEASURED:   MUD FILTRATE SAMPLE SOURCE
 MCSS.           MEASURED:   MUD CAKE SAMPLE SOURCE
 TCS .HRS               2:   TIME CURCULATED STOPPED
 MRT .F               100:   MAXIMUM RECORDED TEMPERATURE
 LUN .               1892:   LOGGING UNIT NUMBER
 LUL .             CASPER:   LOGGING UNIT LOCATION
 ENGI.               REIN:   RECORDING ENGINEER
 WITN.              AMEND:   WITNESSED BY
 CLNT.            A2DTECH:   CLIENT CODE
 ORIG.           5" PRINT:   ORIGIN OF DATA
 UWI .       490251080800:   UNIQUE WELL ID
 DICO. A2D Technologies, Inc.:   DIGITIZING COMPANY
~OTHER INFORMATION
~A    DEPT    SGRD        ILD        ILM        SPR       CALD         GRD        RHOB       CORR     DPHI   
# ...
  369.0000    18.0742    10.7466     7.9889   -29.6883     7.8676    72.5678     2.4590     0.0167     0.1305
  369.5000    29.4992    11.4690     8.1549   -29.9312     7.8661    72.1347     2.4343     0.0199     0.1494
  370.0000    25.3926    12.2399     8.3253   -30.1744     7.8639    72.2773     2.4109     0.0224     0.1620
  370.5000    19.9064    13.0626     8.4970   -30.4172     7.8617    72.3971     2.4035     0.0237     0.1664
  371.0000    18.9237    13.9406     8.6577   -30.6408     7.8595    72.5143     2.3970     0.0248     0.1698
  371.5000    20.5842    14.8776     8.8727   -30.7238     7.8573    72.6319     2.3985     0.0255     0.1719
  372.0000    22.0359    15.8776     9.0958   -30.8013     7.8551    72.7468     2.4037     0.0247     0.1713
  372.5000    23.1790    16.9449     9.4168   -30.8786     7.8529    72.8613     2.4049     0.0236     0.1690
  373.0000    21.9316    17.2179     9.8647   -30.9548     7.8507    72.6156     2.3971     0.0225     0.1708
  373.5000    24.0497    17.6739    10.1096   -31.0437     7.8485    71.9787     2.3845     0.0213     0.1782
  374.0000    22.8775    18.1419    10.2794   -31.4838     7.8478    71.3427     2.3720     0.0130     0.1856
  374.5000    21.8388    18.5780    11.1387   -31.9521     7.8432    70.7036     2.3609     0.0034     0.1930
  375.0000    21.5309    18.5780    12.1719   -32.4199     7.8379    70.0570     2.3530    -0.0062     0.1975
  375.5000    26.8632    18.4075    12.6419   -32.8885     7.8327    69.3982     2.3424    -0.0161     0.2067
  376.0000    26.6167    18.7436    12.9118   -33.3599     7.8281    69.7876     2.3172    -0.0168     0.2150
  376.5000    28.5749    19.0990    13.2084   -33.4205     7.8280    70.2646     2.3273    -0.0127     0.2183
  377.0000    29.4576    18.9422    13.3604   -33.3563     7.8281    70.7392     2.3484    -0.0023     0.2023
  377.5000    26.5758    18.8038    13.6533   -33.2937     7.8281    71.2368     2.3788     0.0092     0.1839
  378.0000    24.4973    18.6663    13.9526   -33.2201     7.8281    70.9100     2.3658     0.0215     0.1880
  378.5000    27.8724    18.5780    14.3424   -32.9313     7.8281    70.2993     2.3478     0.0182     0.1968
  379.0000    27.1120    18.6266    14.8136   -32.6482     7.8281    70.4523     2.3670     0.0110     0.1903
  379.5000    27.8152    18.6776    15.3002   -32.3669     7.8281    70.8229     2.3907     0.0075     0.1718
  380.0000    28.1305    18.7284    15.8029   -32.0858     7.8281    72.0491     2.4343     0.0105     0.1448
  380.5000    25.1843    18.7511    16.3283   -31.8046     7.8281    73.3742     2.4786     0.0143     0.1268
  381.0000    28.9035    18.6293    16.3944   -31.5227     7.8281    73.7592     2.4688     0.0161     0.1286
  381.5000    32.3027    18.5271    16.5068   -31.2428     7.8281    74.1384     2.4588     0.0112     0.1318
  382.0000    25.4176    18.4316    16.6200   -31.0711     7.8285    74.5205     2.4857     0.0262     0.1328
  382.5000    28.9061    17.8022    16.7340   -30.9031     7.8315    74.9019     2.5135     0.0455     0.0995
  383.0000    32.0062    17.0885    16.8487   -30.7330     7.8345    75.2915     2.5355     0.0650     0.0920
  383.5000    26.8434    16.4020    16.9643   -30.5027     7.8376    75.6462     2.5243     0.0731     0.1082
  384.0000    20.0646    15.9676    17.0806   -30.1851     7.8406    74.9225     2.4860     0.0687     0.1250
  384.5000    17.7410    15.8269    17.1155   -29.8703     7.8436    73.9265     2.4471     0.0499     0.1419
  385.0000    19.5819    15.6875    17.1416   -29.6233     7.8465    72.9756     2.4206     0.0314     0.1568
  385.5000    22.4240    15.5492    17.1677   -29.5723     7.8407    73.8833     2.4095     0.0130     0.1660
  386.0000    25.4176    15.4429    17.1939   -29.5196     7.8217    74.8862     2.4154     0.0010     0.1636
  386.5000    20.5609    15.4181    17.2201   -29.4655     7.8027    75.8816     2.4256    -0.0021     0.1587
  387.0000    21.1375    15.3934    17.2464   -29.5756     7.7840    76.8755     2.4340    -0.0047     0.1528
  387.5000    20.3649    15.3688    17.2727   -29.8279     7.7699    77.8720     2.4181    -0.0157     0.1570
  388.0000    20.6623    15.3442    17.2990   -30.0804     7.7791    78.8364     2.4277    -0.0238     0.1611
  388.5000    20.7520    15.3198    17.3254   -30.3349     7.7879    78.2543     2.4511    -0.0154     0.1428
  389.0000    19.4440    15.2782    17.3518   -30.4837     7.7962    77.2656     2.4422    -0.0062     0.1453
  389.5000    20.1221    15.2216    17.3781   -30.5646     7.8030    76.2811     2.4305     0.0029     0.1484
  390.0000    20.5609    15.1651    17.4042   -30.6288     7.8306    75.6657     2.4323     0.0122     0.1516
  390.5000    20.0000    15.1088    17.4187   -30.3979     7.8368    76.5657     2.4267     0.0087     0.1550
  391.0000    21.1375    15.0528    17.1448   -30.1581     7.8436    77.6168     2.4194    -0.0019     0.1583
  391.5000    20.7024    14.9192    16.9110   -29.9172     7.8500    78.7097     2.4203    -0.0127     0.1615
  392.0000    19.9470    14.7263    16.6804   -29.8275     7.8564    78.1002     2.4301    -0.0120     0.1548
  392.5000    19.4544    14.5359    16.4530   -29.8063     7.8627    77.2066     2.4398    -0.0062     0.1465
  393.0000    20.0000    14.3476    16.2287   -29.7862     7.8678    76.2992     2.4497    -0.0003     0.1417
  393.5000    19.6730    14.1630    16.0074   -29.7661     7.8662    75.3950     2.4567     0.0088     0.1375
  394.0000    19.1328    14.0886    15.7889   -29.7459     7.8645    74.9799     2.4843     0.0177     0.1305
  394.5000    18.9235    14.0128    15.5728   -29.7256     7.8629    75.3770     2.5124     0.0265     0.1202
  395.0000    19.3048    13.9306    15.4484   -29.7054     7.8612    75.6005     2.4994     0.0231     0.1099
  395.5000    19.4544    13.7913    15.4913   -29.6851     7.8596    75.8070     2.4845     0.0049     0.1205
  396.0000    18.8312    13.6547    15.5256   -29.6647     7.8579    76.0419     2.4727    -0.0099     0.1280
  396.5000    18.7500    13.5788    15.5600   -29.6428     7.8563    76.4139     2.4781    -0.0139     0.1229
  397.0000    19.0990    13.9541    15.5927   -29.6991     7.8546    76.1452     2.4852    -0.0183     0.1189
  397.5000    18.9030    14.4050    15.3808   -29.7722     7.8530    75.6253     2.5126    -0.0257     0.1088
  398.0000    19.8421    14.7644    15.1820   -29.8342     7.8513    75.1059     2.5430    -0.0381     0.0912
  398.5000    22.3877    15.1713    14.9855   -29.7171     7.8496    74.5944     2.5733    -0.0477     0.0736
  399.0000    26.3571    15.7308    14.7917   -29.5984     7.8480    74.0900     2.6011    -0.0331     0.0560
  399.5000    31.0815    16.6494    14.6178   -29.4675     7.8429    73.6163     2.6101    -0.0187     0.0393
  400.0000    35.7272    17.6217    14.6182   -29.9282     7.8330    74.0120     2.6184    -0.0044     0.0456
  400.5000    40.3027    18.7500    14.6182   -30.6087     7.8284    74.9523     2.6222     0.0054     0.0582
  401.0000    40.3027    18.7500    14.6182   -31.3046     7.8348    75.9187     2.5928    -0.0035     0.0752
  401.5000    38.2789    18.7528    14.6182   -31.6301     7.8410    76.8856     2.5657    -0.0121     0.0939
  402.0000    36.7050    18.4202    14.6182   -31.6285     7.8472    77.8505     2.5251    -0.0071     0.1126
  402.5000    35.1069    17.9708    14.6182   -32.0236     7.8534    78.8160     2.4835    -0.0121     0.1314
  403.0000    27.0921    17.5303    14.6184   -32.5460     7.8595    79.7767     2.3966    -0.0271     0.1501
  403.5000    20.8729    16.9661    14.6442   -33.0729     7.8659    80.7375     2.3975    -0.0417     0.1708
  404.0000    17.7410    16.3735    14.6928   -33.5973     7.8637    80.9951     2.4209    -0.0512     0.1554
  404.5000    17.7410    15.8015    14.7411   -34.0436     7.8561    80.5492     2.4462    -0.0174     0.1313
  405.0000    18.2385    15.2494    14.9020   -34.0328     7.8482    80.1031     2.4682     0.0016     0.1322
