~VERSION INFORMATION
 VERS.                2.0:   CWLS LOG ASCII STANDARD - VERSION 2.0
 WRAP.                 NO:   ONE LINE PER DEPTH STEP
~WELL INFORMATION
#MNEM.UNIT      DATA TYPE    INFORMATION
#----------   ------------   ------------------------------
 STRT.F            0.0000:   START DEPTH
 STOP.F          530.0000:   STOP DEPTH
 STEP.F            0.5000:   STEP LENGTH
 NULL.          -999.2500:   NO VALUE
 COMP. FENIX & SCISSON INC:   COMPANY
 WELL.      74 SX 3 #74-3:   WELL
 FLD .             TEAPOT:   FIELD
 LOC .       S3 T38N R78W:   LOCATION
 CNTY.            NATRONA:   COUNTY
 STAT.            WYOMING:   STATE
 CTRY. UNITED STATES OF AMERICA:   COUNTRY
 SRVC.            Unknown:   SERVICE COMPANY
 DATE.        20-SEP-1978:   LOGDATE
 API .       490251072200:   API NUMBER
~CURVE INFORMATION
#MNEM.UNIT       API CODE    CURVE DESCRIPTION
#----------   ------------   ------------------------------
 DEPT.F                  :   
 CALD.IN     45 280 60 00:   CALIPER
 GRD .GAPI   45 310 01 00:   GAMMA RAY FROM DENSITY LOG
 RHOB.G/C3   45 350 01 00:   BULK DENSITY
 DPHI.DEC    45 890 12 00:   DENSITY POROSITY SANDSTONE
 CORR.G/C3   45 356 01 00:   DENSITY CORRECTION
 SPR .MV     05 010 01 00:   SPONTANEOUS POTENTIAL FROM RES.
 SN  .OHMM   05 040 16 00:   SHORT NORMAL 16"
 ILD .OHMM   05 120 46 00:   INDUCTION LOG DEEP
~PARAMETER INFORMATION
#MNEM.UNIT          VALUE    DESCRIPTION
#----------   ------------   ------------------------------
 PD  .                 GL:   PERMANENT DATUM
 EPD .F              5139:   ELEVATION PERMANENT DATUM
 LMF .                 KB:   LOG MEASURED FROM
 DAPD.F                 4:   FEET ABOVE PERMANENT DATUM
 DMF .                 KB:   DRILLING MEASURED FROM
 EKB .F              5143:   KELLING BUSHING
 EGL .F              5139:   GROUND LEVEL
 DATE.            9-20-78:   RUN DATE
 RUN .                  1:   RUN NUMBER
 DD  .F               532:   DEPTH DRILLER
 DL  .F               530:   DEPTH LOGGER
 BLI .F               524:   BOTTOM LOG INTERVAL
 TLI .F                40:   TOP LOG INTERVAL
 CS  .IN            8.625:   CASING SIZE
 CBD .F                40:   CASING BOTTOM DRILLER
 CBL .F                40:   CASING BOTTOM LOGGER
 BS  .IN            7.875:   BIT SIZE
 BSD .F               532:   BIT SIZE AT DEPTH
 DFT .                KCL:   DRILLING FLUID TYPE
 DFD .                8.8:   DRILLING FLUID DENSITY
 DFV .                 38:   DRILLING FLUID VISCOSITY
 DFPH.                  9:   DRILLING FLUID PH
 DFL .                6.2:   DRILLING FLUID LOSS
 MSS .                PIT:   MUD SAMPLE SOURCE
 BHT .F                69:   BOTTOM HOLE TEMPERATURE
 TCS .HRS               3:   TIME CURCULATED STOPPED
 MRT .F                69:   MAXIMUM RECORDED TEMPERATURE
 LUN .               2958:   LOGGING UNIT NUMBER
 LUL .             CASPER:   LOGGING UNIT LOCATION
 ENGI.           REYNOLDS:   RECORDING ENGINEER
 WITN.           DINSMORE:   WITNESSED BY
 CLNT.            A2DTECH:   CLIENT CODE
 ORIG.       2", 5" PRINT:   ORIGIN OF DATA
 UWI .       490251072200:   UNIQUE WELL ID
 DICO. A2D Technologies, Inc.:   DIGITIZING COMPANY
~OTHER INFORMATION
~A    DEPT    CALD         GRD      RHOB       DPHI       CORR        SPR         SN        ILD   
# ...
  121.5000     7.5502    95.2663     2.4859     0.1123     0.0356   -36.5218     9.5321     9.0582
  122.0000     7.5073    96.3820     2.4858     0.1116     0.0359   -36.9011     9.4311     9.0068
  122.5000     7.4791    98.6904     2.4854     0.1139     0.0362   -37.2768     9.4984     9.0382
  123.0000     7.6266   100.4283     2.4851     0.1149     0.0365   -37.3277     9.5778     9.0682
  123.5000     7.6268   100.8557     2.4835     0.1151     0.0368   -37.3282     9.6580     9.1287
  124.0000     7.4774   100.8705     2.4817     0.1153     0.0371   -37.3263     9.7387     9.2710
  124.5000     7.5641   100.9098     2.4803     0.1155     0.0382   -37.2720     9.8202     9.4155
  125.0000     7.6311   100.2163     2.4792     0.1161     0.0395   -37.0409     9.9023     9.5616
  125.5000     7.6301    95.6504     2.4782     0.1173     0.0408   -36.8189     9.9852     9.7011
  126.0000     7.6069    90.3241     2.4771     0.1179     0.0421   -36.5973    10.0590     9.7378
  126.5000     7.5618    86.9774     2.4772     0.1175     0.0433   -36.3755    10.0946     9.7769
  127.0000     7.5289    85.4207     2.4775     0.1178     0.0446   -36.1455    10.1339     9.8159
  127.5000     7.5250    85.2338     2.4778     0.1207     0.0459   -35.8287    10.1731     9.8550
  128.0000     7.5203    85.4316     2.4755     0.1235     0.0473   -35.1264    10.2126     9.8943
  128.5000     7.5158    85.6597     2.4715     0.1229     0.0500   -34.8264    10.2521     9.9336
  129.0000     7.5109    85.6117     2.4688     0.1171     0.0612   -34.7520    10.2919     9.9692
  129.5000     7.5459    85.5696     2.5094     0.1114     0.0773   -34.7521    10.3317     9.9813
  130.0000     7.6152    85.5125     2.5076     0.1056     0.0832   -34.7523    10.3718     9.9939
  130.5000     7.5898    84.8945     2.5124     0.1000     0.0834   -34.7525    10.4120    10.0064
  131.0000     7.5168    84.2241     2.5143     0.0998     0.0788   -34.7525    10.4364    10.0190
  131.5000     7.4426    83.5561     2.5149     0.0997     0.0667   -34.7525    10.4089    10.0316
  132.0000     7.4180    82.8850     2.5104     0.1018     0.0554   -34.7525    10.3892    10.0442
  132.5000     7.4308    82.5931     2.5032     0.1068     0.0463   -34.7525    10.3696    10.0583
  133.0000     7.4437    82.9097     2.4960     0.1119     0.0397   -34.7525    10.3499    10.0485
  133.5000     7.4228    83.1447     2.4889     0.1169     0.0371   -34.7525    10.3304    10.0354
  134.0000     7.3389    83.1450     2.4815     0.1220     0.0371   -34.7525    10.3108    10.0225
  134.5000     7.6316    83.5408     2.4743     0.1271     0.0361   -34.7527    10.2913    10.0096
  135.0000     7.3790    84.5745     2.4670     0.1307     0.0351   -34.7516    10.2718     9.9966
  135.5000     7.3073    86.7806     2.4597     0.1335     0.0341   -34.7574    10.2447     9.9838
  136.0000     7.4073    85.9883     2.4529     0.1345     0.0333   -34.4106    10.2781     9.9710
  136.5000     7.5303    85.3637     2.4512     0.1331     0.0369   -33.9654    10.3465     9.9668
  137.0000     7.5993    85.6939     2.4534     0.1281     0.0404   -33.9584    10.4153    10.0994
  137.5000     7.4145    86.2122     2.4600     0.1225     0.0497   -33.9600    10.4846    10.1899
  138.0000     7.3594    86.5969     2.4742     0.1169     0.0551   -33.9604    10.5811    10.2812
  138.5000     7.3289    86.9759     2.4883     0.1112     0.0557   -33.9605    10.7401    10.3734
  139.0000     7.3787    87.3561     2.4946     0.1056     0.0560   -33.9610    10.9015    10.4866
  139.5000     7.4569    87.7339     2.4972     0.1040     0.0564   -33.9589    11.0653    10.6442
  140.0000     7.5377    87.9982     2.4981     0.1037     0.0569   -33.8448    11.2316    10.8041
  140.5000     7.4870    87.7870     2.4982     0.1032     0.0572   -33.7203    11.4004    10.9665
  141.0000     7.4328    87.5882     2.4984     0.1030     0.0575   -33.6002    11.5718    11.1313
  141.5000     7.5067    87.5458     2.4985     0.1028     0.0578   -33.0928    11.7457    11.2986
  142.0000     7.5327    87.7245     2.4987     0.1026     0.0580   -32.9725    11.9222    11.4684
  142.5000     7.4450    87.8984     2.4988     0.1027     0.0582   -32.9766    12.1013    11.6408
  143.0000     7.3594    87.9558     2.4990     0.1039     0.0585   -32.6580    12.2832    11.8157
  143.5000     7.3424    87.4280     2.4984     0.1050     0.0587   -32.2598    12.4678    11.9933
  144.0000     7.3994    86.1780     2.4974     0.1062     0.0590   -31.8588    12.6552    12.1735
  144.5000     7.4291    84.2178     2.4965     0.1073     0.0593   -31.4538    12.8454    12.3687
  145.0000     7.4065    82.2712     2.4956     0.1085     0.0608   -31.3861    13.0385    12.6140
  145.5000     7.3910    80.2852     2.4947     0.1080     0.0624   -31.3877    13.2344    12.8641
  146.0000     7.4163    80.2650     2.4952     0.1050     0.0639   -31.2943    13.4333    13.1192
  146.5000     7.4174    81.1089     2.5005     0.1019     0.0650   -31.1840    13.5631    13.3793
  147.0000     7.3611    81.8055     2.5049     0.1087     0.0603   -31.0723    13.6533    13.6307
  147.5000     7.3068    79.4236     2.4945     0.1168     0.0556   -30.9368    13.7442    13.6307
  148.0000     7.3078    76.0926     2.4779     0.1200     0.0531   -30.7004    13.8356    13.6307
  148.5000     7.3813    73.4398     2.4729     0.1211     0.0530   -30.4678    13.8841    13.5429
  149.0000     7.3639    73.2185     2.4704     0.1222     0.0529   -30.3640    13.8284    13.4100
  149.5000     7.3103    73.0860     2.4683     0.1233     0.0528   -30.3162    13.7907    13.2788
  150.0000     7.2565    72.8470     2.4669     0.1243     0.0526   -30.2687    13.7568    13.1378
  150.5000     7.2690    71.6816     2.4673     0.1249     0.0525   -30.2217    13.6088    13.1378
  151.0000     7.3443    70.5490     2.4677     0.1247     0.0524   -29.9936    13.4755    13.1378
  151.5000     7.4124    73.4465     2.4680     0.1245     0.0523   -29.5954    13.3434    13.0071
  152.0000     7.3806    76.7336     2.4682     0.1242     0.0521   -29.1937    13.2127    12.8273
  152.5000     7.3385    77.0219     2.4684     0.1239     0.0520   -29.1474    13.0830    12.6499
  153.0000     7.3639    76.3586     2.4686     0.1235     0.0519   -29.3931    12.9552    12.4735
  153.5000     7.4240    75.1019     2.4688     0.1223     0.0517   -29.6400    12.8754    12.4164
  154.0000     7.4852    73.6818     2.4699     0.1211     0.0516   -29.8044    12.8342    12.3948
  154.5000     7.4949    72.3263     2.4724     0.1198     0.0515   -29.8017    12.7932    12.3741
  155.0000     7.4411    72.8549     2.4750     0.1185     0.0514   -29.8021    12.7523    12.3533
  155.5000     7.0523    74.2322     2.4775     0.1146     0.0512   -29.8020    12.7116    12.3324
  156.0000     7.2299    74.9360     2.4812     0.1108     0.0507   -29.8020    12.6710    12.3117
  156.5000     7.4334    75.6520     2.4863     0.1072     0.0500   -29.8020    12.6305    12.2909
  157.0000     7.2401    76.7597     2.4910     0.1072     0.0495   -29.8020    12.5901    12.2702
  157.5000     7.0581    77.4398     2.4922     0.1086     0.0446   -29.8020    12.5499    12.2495
  158.0000     7.1825    76.7942     2.4931     0.1106     0.0399   -29.8020    12.5098    12.2288
  158.5000     7.3059    76.4823     2.4900     0.1120     0.0373   -29.8020    12.4698    12.2082
  159.0000     7.3930    76.5365     2.4866     0.1125     0.0377   -29.8020    12.4317    11.6704
  159.5000     7.3975    76.6134     2.4850     0.1129     0.0384   -29.8020    12.2007    10.5424
  160.0000     7.4029    77.2206     2.4850     0.1137     0.0391   -29.8020    11.9328     9.5234
  160.5000     7.4083    78.6915     2.4844     0.1151     0.0387   -29.8020    11.6709     8.6029
  161.0000     7.4464    80.1543     2.4808     0.1165     0.0382   -29.8018    11.4143     7.9907
  161.5000     7.4517    81.0144     2.4772     0.1177     0.0377   -29.8030    11.2338     7.9907
