~VERSION INFORMATION
 VERS.                2.0:   CWLS LOG ASCII STANDARD - VERSION 2.0
 WRAP.                 NO:   ONE LINE PER DEPTH STEP
~WELL INFORMATION
#MNEM.UNIT      DATA TYPE    INFORMATION
#----------   ------------   ------------------------------
 STRT.F           40.0000:   START DEPTH
 STOP.F          950.5000:   STOP DEPTH
 STEP.F            0.5000:   STEP LENGTH
 NULL.          -999.2500:   NO VALUE
 COMP. FENIX & SCISSON INC:   COMPANY
 WELL.       NPR 3 #44-14:   WELL
 FLD .             TEAPOT:   FIELD
 LOC .      S14 T38N R78W:   LOCATION
 CNTY.            NATRONA:   COUNTY
 STAT.            WYOMING:   STATE
 CTRY. UNITED STATES OF AMERICA:   COUNTRY
 SRVC.            Unknown:   SERVICE COMPANY
 DATE.        05-JAN-1979:   LOGDATE
 API .       490251076100:   API NUMBER
~CURVE INFORMATION
#MNEM.UNIT       API CODE    CURVE DESCRIPTION
#----------   ------------   ------------------------------
 DEPT.F                  :   
 SPR .MV     05 010 01 00:   SPONTANEOUS POTENTIAL FROM RES.
 SN  .OHMM   05 040 16 00:   SHORT NORMAL 16"
 IL  .OHMM   05 120 00 00:   INDUCTION LOG
 CALD.IN     45 280 60 00:   CALIPER
 GRD .GAPI   45 310 01 00:   GAMMA RAY FROM DENSITY LOG
 RHOB.G/C3   45 350 01 00:   BULK DENSITY
 DPHI.DEC    45 890 12 00:   DENSITY POROSITY SANDSTONE
 CORR.G/C3   45 356 01 00:   DENSITY CORRECTION
~PARAMETER INFORMATION
#MNEM.UNIT          VALUE    DESCRIPTION
#----------   ------------   ------------------------------
 PD  .                 GL:   PERMANENT DATUM
 EPD .F              5266:   ELEVATION PERMANENT DATUM
 LMF .                 KB:   LOG MEASURED FROM
 DAPD.F                 4:   FEET ABOVE PERMANENT DATUM
 DMF .                 KB:   DRILLING MEASURED FROM
 EKB .F              5270:   KELLING BUSHING
 EGL .F              5266:   GROUND LEVEL
 DATE.             1-5-79:   RUN DATE
 RUN .                  1:   RUN NUMBER
 DD  .F               950:   DEPTH DRILLER
 DL  .F               943:   DEPTH LOGGER
 BLI .F               937:   BOTTOM LOG INTERVAL
 TLI .F                40:   TOP LOG INTERVAL
 CS  .IN            8.625:   CASING SIZE
 CBL .F                40:   CASING BOTTOM LOGGER
 BS  .IN            7.875:   BIT SIZE
 BSD .F               950:   BIT SIZE AT DEPTH
 DFT .                KCL:   DRILLING FLUID TYPE
 DFV .                 42:   DRILLING FLUID VISCOSITY
 DFL .               10.5:   DRILLING FLUID LOSS
 MSS .           FLOWLINE:   MUD SAMPLE SOURCE
 RMS .OHMM            .23:   RESISTIVITY MUD SAMPLE
 RMF .OHMM            .23:   RESISTIVITY MUD FILTRATE SAMPLE
 RMC .OHMM             .2:   RESISTIVITY MUD CAKE
 MFSS.           MEASURED:   MUD FILTRATE SAMPLE SOURCE
 MCSS.           MEASURED:   MUD CAKE SAMPLE SOURCE
 RMB .OHMM             .2:   RESISTIVITY MUD AT BHT
 BHT .F                70:   BOTTOM HOLE TEMPERATURE
 TCS .HRS               5:   TIME CURCULATED STOPPED
 MRT .F                70:   MAXIMUM RECORDED TEMPERATURE
 LUL .             CASPER:   LOGGING UNIT LOCATION
 ENGI.             MILLER:   RECORDING ENGINEER
 WITN.           DINSMORE:   WITNESSED BY
 CLNT.            A2DTECH:   CLIENT CODE
 ORIG.           5" PRINT:   ORIGIN OF DATA
 UWI .       490251076100:   UNIQUE WELL ID
 DICO. A2D Technologies, Inc.:   DIGITIZING COMPANY
~OTHER INFORMATION
~A   DEPT      SPR           SN         IL     CALD        GRD       RHOB       DPHI       CORR   
# ...
  850.0000   -21.0460    10.2900    15.7130     7.6020    72.5890     2.3960     0.1720     0.1630
  850.5000   -21.2310    10.2960    15.5150     7.5890    71.9220     2.4330     0.1570     0.1850
  851.0000   -21.3250    10.2870    15.3170     7.5690    74.5550     2.4370     0.1520     0.1810
  851.5000   -21.4190    10.2670    15.1780     7.5430    76.6630     2.4360     0.1520     0.1660
  852.0000   -21.5130    10.2470    15.0470     7.5280    75.5510     2.4150     0.1650     0.1440
  852.5000   -21.6090    10.2270    14.9170     7.3350    74.5430     2.4060     0.1710     0.1250
  853.0000   -21.7040    10.2070    14.7860     7.4240    78.8710     2.4070     0.1710     0.1190
  853.5000   -21.7600    10.1870    14.6560     7.5040    82.4440     2.4110     0.1690     0.1160
  854.0000   -21.0410    10.1670    14.5220     7.5840    83.2560     2.4140     0.1660     0.1160
  854.5000   -21.2220    10.1470    14.3200     7.6600    85.9430     2.4180     0.1620     0.1160
  855.0000   -21.9650    10.1270    14.1180     7.5840    88.3780     2.4170     0.1670     0.1070
  855.5000   -22.1270    10.1070    13.9160     7.5200    88.1150     2.4020     0.1770     0.0890
  856.0000   -22.2610    10.0860    13.7140     7.5790    87.9150     2.3990     0.1740     0.0790
  856.5000   -22.3950    10.0660    13.5120     7.6290    87.0970     2.4050     0.1710     0.0870
  857.0000   -22.5310    10.0460    13.3100     7.6510    86.1830     2.4100     0.1670     0.0950
  857.5000   -22.6670    10.0270    13.1080     7.6730    85.3980     2.4160     0.1630     0.0940
  858.0000   -22.8020    10.0170    12.9060     7.6950    86.3270     2.4180     0.1650     0.0950
  858.5000   -22.9370    10.0170    12.7040     7.7020    82.9250     2.4170     0.1670     0.0900
  859.0000   -23.2500    10.0170    12.5020     7.7020    79.5980     2.4080     0.1700     0.0830
  859.5000   -23.9450    10.0170    12.3000     7.7020    81.5080     2.3990     0.1750     0.0770
  860.0000   -23.8740    10.0170    12.1510     7.7020    87.0980     2.3890     0.1820     0.0740
  860.5000   -23.7880    10.0170    12.4290     7.7020    84.8730     2.3830     0.1870     0.0740
  861.0000   -23.5470    10.0170    12.5850     7.7020    81.8000     2.4010     0.1740     0.0990
  861.5000   -23.2940    10.0170    12.7410     7.6840    80.8370     2.4270     0.1530     0.1340
  862.0000   -23.0370    10.0170    12.8970     7.6640    83.5000     2.4530     0.1430     0.1550
  862.5000   -22.7920    10.0170    12.9590     7.6450    85.4800     2.4670     0.1330     0.1650
  863.0000   -22.8410    10.0170    12.6640     7.6250    86.5190     2.4660     0.1350     0.1550
  863.5000   -22.9030    10.0170    12.4180     7.6060    85.1140     2.4650     0.1370     0.1290
  864.0000   -22.9640    10.0170    12.2630     7.5980    80.7570     2.4490     0.1510     0.1020
  864.5000   -23.0260    10.0170    12.4550     7.5910    74.5970     2.4100     0.1670     0.0800
  865.0000   -23.0890    10.0170    12.7070     7.5850    74.1430     2.4090     0.1720     0.0790
  865.5000   -23.1480    10.0170    12.9580     7.5790    75.4000     2.4030     0.1770     0.0780
  866.0000   -23.4810    10.0170    13.1990     7.5730    64.6170     2.3890     0.1850     0.0690
  866.5000   -24.0650     9.9930    13.0520     7.5670    66.1040     2.3750     0.1900     0.0620
  867.0000   -24.3310     9.9160    12.9400     7.5610    68.2350     2.3740     0.1910     0.0620
  867.5000   -24.2790     9.8400    12.8290     7.5550    70.4580     2.3800     0.1880     0.0690
  868.0000   -24.2300     9.7630    12.7170     7.5490    72.8350     2.3820     0.1880     0.0770
  868.5000   -24.1770     9.6860    12.6050     7.5490    76.2650     2.3740     0.1930     0.0840
  869.0000   -24.1750     9.6100    12.4930     7.5950    78.5800     2.3860     0.1830     0.1080
  869.5000   -24.1940     9.5640    12.3820     7.6410    74.2260     2.4150     0.1660     0.1340
  870.0000   -24.2130     9.5530    12.2700     7.6870    75.8800     2.4430     0.1500     0.1610
  870.5000   -24.2330     9.5430    12.1580     7.7230    77.7430     2.4550     0.1460     0.1400
  871.0000   -24.2520     9.5320    12.0470     7.7220    76.7300     2.4400     0.1560     0.1130
  871.5000   -24.2720     9.5220    11.9350     7.7220    76.7260     2.4210     0.1680     0.0890
  872.0000   -24.2920     9.5110    11.8200     7.7220    76.9060     2.4100     0.1690     0.0880
  872.5000   -24.3120     9.5010    11.9680     7.7220    76.8340     2.4110     0.1670     0.1010
  873.0000   -24.3330     9.4900    12.1210     7.7220    76.5580     2.4150     0.1630     0.1260
  873.5000   -24.3520     9.4800    12.2740     7.7220    75.4390     2.4260     0.1570     0.1510
  874.0000   -24.6350     9.4690    12.3760     7.7220    74.2800     2.4420     0.1450     0.1760
  874.5000   -25.1450     9.4590    12.0150     7.7220    75.6140     2.4740     0.1280     0.2050
  875.0000   -25.6570     9.4480    11.7420     7.7260    76.9410     2.5000     0.1110     0.1950
  875.5000   -26.1870     9.4380    11.6050     7.7320    76.5450     2.4880     0.1160     0.1720
  876.0000   -26.2180     9.4270    11.6050     7.7370    76.2470     2.4730     0.1290     0.1480
  876.5000   -26.0720     9.4170    11.6050     7.7420    83.3970     2.4610     0.1370     0.1390
  877.0000   -25.9160     9.4060    11.6050     7.7500    81.9790     2.4730     0.1310     0.1550
  877.5000   -25.7470     9.3960    11.4230     7.7580    80.2360     2.4890     0.1210     0.1660
  878.0000   -26.2890     9.3910    11.1440     7.7660    79.5510     2.4960     0.1180     0.1460
  878.5000   -26.7450     9.3870    10.8810     7.7740    83.0360     2.4840     0.1210     0.1170
  879.0000   -26.7800     9.3840    11.0270     7.7800    84.6830     2.4750     0.1280     0.0890
  879.5000   -26.8240     9.3800    11.1710     7.7100    84.3650     2.4560     0.1380     0.0600
  880.0000   -26.8670     9.3770    11.2910     7.6350    82.4510     2.4380     0.1480     0.0310
  880.5000   -26.8990     9.3740    11.3010     7.5610    77.4260     2.4360     0.1510     0.0300
  881.0000   -27.5150     9.3700    11.3120     7.4860    77.3660     2.4460     0.1500     0.0340
  881.5000   -28.2660     9.3670    11.3230     7.4130    77.5120     2.4410     0.1500     0.0310
  882.0000   -28.1520     9.3630    11.3340     7.4070    76.5090     2.4380     0.1530     0.0290
  882.5000   -27.9890     9.3600    11.3440     7.4090    75.7430     2.4460     0.1460     0.0320
  883.0000   -27.8240     9.3570    11.3550     7.4120    78.4990     2.4410     0.1510     0.0240
  883.5000   -27.6620     9.3530    11.3660     7.4150    79.6020     2.4340     0.1550     0.0160
  884.0000   -27.5480     9.3500    11.3760     7.4180    80.8450     2.4280     0.1570     0.0120
  884.5000   -28.0750     9.3460    11.3850     7.4200    84.1500     2.4270     0.1580     0.0070
  885.0000   -27.7610     9.3430    11.3930     7.4220    86.8750     2.4270     0.1580     0.0070
  885.5000   -27.4380     9.3400    11.1930     7.4550    89.6410     2.4260     0.1610     0.0080
  886.0000   -27.1140     9.3360    11.0350     7.4950    90.1020     2.4160     0.1670     0.0090
  886.5000   -27.0640     9.3330    10.8810     7.5350    85.4140     2.4050     0.1740     0.0100
  887.0000   -27.3910     9.3290    10.8810     7.5750    81.7670     2.3940     0.1780     0.0200
  887.5000   -27.7130     9.3260    10.9180     7.6040    80.1130     2.4020     0.1650     0.0430
  888.0000   -28.0320     9.3230    10.9550     7.6030    83.4680     2.4250     0.1570     0.0670
  888.5000   -28.2790     9.3190    10.9920     7.6210    84.9250     2.4270     0.1590     0.0910
  889.0000   -28.0820     9.3160    11.0290     7.6590    84.6630     2.4230     0.1600     0.1000
  889.5000   -27.9580     9.3120    11.0660     7.6960    88.3340     2.4200     0.1600     0.0990
  890.0000   -28.5140     9.3090    11.1090     7.7070    96.9340     2.4270     0.1560     0.1000
