~VERSION INFORMATION
 VERS.                2.0:   CWLS LOG ASCII STANDARD - VERSION 2.0
 WRAP.                 NO:   ONE LINE PER DEPTH STEP
~WELL INFORMATION
#MNEM.UNIT      DATA TYPE    INFORMATION
#----------   ------------   ------------------------------
 STRT.F            0.0000:   START DEPTH
 STOP.F         4535.0000:   STOP DEPTH
 STEP.F            0.5000:   STEP LENGTH
 NULL.          -999.2500:   NO VALUE
 COMP.   FLUOR DANIEL INC:   COMPANY
 WELL.     56 X 15 #56-15:   WELL
 FLD .             TEAPOT:   FIELD
 LOC .      S15 T38N R78W:   LOCATION
 CNTY.            NATRONA:   COUNTY
 STAT.            WYOMING:   STATE
 CTRY. UNITED STATES OF AMERICA:   COUNTRY
 SRVC.      Dresser Atlas:   SERVICE COMPANY
 DATE.        03-MAY-1984:   LOGDATE
 API .       490252268500:   API NUMBER
~CURVE INFORMATION
#MNEM.UNIT       API CODE    CURVE DESCRIPTION
#----------   ------------   ------------------------------
 DEPT.F                  :   
 CNC .DEC    42 890 03 00:   NEUTRON POROSITY SANDSTONE
 PORD.DEC    45 890 12 00:   POROSITY DENSITY SANDSTONE
 RHOB.G/C3   45 350 01 00:   BULK DENSITY
 CORR.G/C3   45 356 01 00:   DENSITY CORRECTION
 DT  .US/F   60 520 00 00:   INTERVAL TRANSIT TIME
 RILD.OHMM   07 120 46 00:   INDUCTION LOG DEEP RESISTIVITY
 RILM.OHMM   07 120 44 00:   INDUCTION LOG MEDIUM RESISTIVITY
 CALR.IN     07 280 01 00:   CALIPER FROM RESISTIVITY
 GRR .GAPI   07 310 01 00:   GAMMA RAY FROM RESISTIVITY LOG
 SPR .MV     07 010 01 00:   SPONTANEOUS POTENTIAL
 RFOC.OHMM   07 220 04 00:   RESISTIVITY FOCUSED LOG
~PARAMETER INFORMATION
#MNEM.UNIT          VALUE    DESCRIPTION
#----------   ------------   ------------------------------
 PD  .                 GL:   PERMANENT DATUM
 EPD .F              5326:   ELEVATION PERMANENT DATUM
 LMF .                 KB:   LOG MEASURED FROM
 DAPD.F                12:   FEET ABOVE PERMANENT DATUM
 DMF .                 KB:   DRILLING MEASURED FROM
 EKB .F              5338:   KELLING BUSHING
 EDF .F              5337:   DRILLING FLOOR
 EGL .F              5326:   GROUND LEVEL
 DATE.        03-MAY-1984:   RUN DATE
 RUN .                  1:   RUN NUMBER
 DD  .F              4547:   DEPTH DRILLER
 DL  .F              4539:   DEPTH LOGGER
 BLI .F              4536:   BOTTOM LOG INTERVAL
 TLI .F              1021:   TOP LOG INTERVAL
 CS  .IN            8.625:   CASING SIZE
 CBD .F              1027:   CASING BOTTOM DRILLER
 CBL .F              1021:   CASING BOTTOM LOGGER
 BS  .IN            7.875:   BIT SIZE
 BSD .F              4547:   BIT SIZE AT DEPTH
 DFT .            KCL GEL:   DRILLING FLUID TYPE
 DFD .                9.1:   DRILLING FLUID DENSITY
 DFV .                 44:   DRILLING FLUID VISCOSITY
 DFPH.                  8:   DRILLING FLUID PH
 DFL .               14.5:   DRILLING FLUID LOSS
 MSS .            MUDTANK:   MUD SAMPLE SOURCE
 RMS .OHMM           0.56:   RESISTIVITY MUD SAMPLE
 MST .F                73:   MUD SAMPLE TEMPERATURE
 RMF .OHMM           0.42:   RESISTIVITY MUD FILTRATE SAMPLE
 MFST.F                73:   MUD FILTRATE SAMPLE TEMPERATURE
 RMC .OHMM           0.71:   RESISTIVITY MUD CAKE
 MCST.F                73:   MUD CAKE SAMPLE TEMPERATURE
 MFSS.               MEAS:   MUD FILTRATE SAMPLE SOURCE
 MCSS.               CALC:   MUD CAKE SAMPLE SOURCE
 RMB .OHMM           0.29:   RESISTIVITY MUD AT BHT
 BHT .F               141:   BOTTOM HOLE TEMPERATURE
 TCS .HRS             3.5:   TIME CURCULATED STOPPED
 MRT .F               125:   MAXIMUM RECORDED TEMPERATURE
 LUN .               6302:   LOGGING UNIT NUMBER
 LUL .               CODY:   LOGGING UNIT LOCATION
 ENGI.              GETTY:   RECORDING ENGINEER
 WITN.           JENNINGS:   WITNESSED BY
 CLNT.            A2DTECH:   CLIENT CODE
 ORIG.           5" PRINT:   ORIGIN OF DATA
 UWI .       490252268500:   UNIQUE WELL ID
 DICO. A2D Technologies, Inc.:   DIGITIZING COMPANY
~OTHER INFORMATION
~A    DEPT     CNC       PORD       RHOB       CORR         DT       RILD       RILM       CALR         GRR       SPR       RFOC   
# ...
 3355.0000     0.2789     0.0600     2.5517     0.0349    88.6048     5.7098     6.0502     8.5873   117.8947   -10.9743     6.1791
 3355.5000     0.2774     0.0594     2.5532     0.0545    88.3161     5.7890     6.0907     8.6021   112.4812   -10.9780     6.1830
 3356.0000     0.2753     0.0636     2.5442     0.0500    88.0188     5.8334     6.0886     8.6169   108.5714   -10.9809     6.3082
 3356.5000     0.2735     0.0726     2.5343     0.0274    87.8724     5.8685     6.0870     8.6166   110.0752   -10.9839     6.3962
 3357.0000     0.2693     0.0772     2.5253     0.0017    87.9522     5.9086     6.0853     8.6162   111.2782   -10.9868     6.3074
 3357.5000     0.2530     0.0724     2.5265     0.0063    88.0321     5.9076     6.0836     8.5858   108.8722   -10.9897     6.2199
 3358.0000     0.2415     0.0672     2.5388     0.0182    87.7348     5.9069     6.0819     8.5403   107.6692   -10.8420     6.2195
 3358.5000     0.2436     0.0685     2.5410     0.0288    87.2867     5.9060     6.0799     8.5250   107.0677   -10.6957     6.2191
 3359.0000     0.2476     0.0691     2.5403     0.0424    86.5370     5.8643     6.0363     8.5247   107.9741   -10.6987     6.4833
 3359.5000     0.2489     0.0694     2.5387     0.0393    85.7805     5.8228     5.9104     8.5394   111.0731   -10.8582     6.7588
 3360.0000     0.2557     0.0706     2.5357     0.0242    85.7927     5.7416     5.7871     8.5542   119.3985   -11.0045     6.8054
 3360.5000     0.2605     0.0724     2.5327     0.0167    86.0988     5.6615     5.6664     8.5690   123.9098   -11.0081     6.6374
 3361.0000     0.2587     0.0827     2.5274     0.0151    86.5557     5.5805     5.5099     8.5837   121.8045   -11.0110     6.0465
 3361.5000     0.2482     0.0878     2.5140     0.0151    87.3142     5.4665     5.4325     8.5684   116.9925   -10.8633     6.0461
 3362.0000     0.2443     0.0962     2.4904     0.0087    88.0728     5.3527     5.3562     8.5380   114.5865   -10.7163     6.0457
 3362.5000     0.2476     0.0941     2.4979    -0.0030    88.7559     5.3149     5.3548     8.5376   115.1880   -10.4201     5.9619
 3363.0000     0.2509     0.0848     2.5100    -0.0061    89.4391     5.2773     5.4315     8.5373   118.4962   -10.1232     5.9202
 3363.5000     0.2524     0.0751     2.5265     0.0000    89.7451     5.3136     5.5789     8.5521   121.5038    -9.8263     5.8382
 3364.0000     0.2503     0.0537     2.5573     0.0392    89.7495     5.3873     5.6946     8.5669   118.1955    -9.6793     5.9194
 3364.5000     0.2446     0.0525     2.5611     0.0482    89.3026     5.5000     5.7730     8.5665   109.3774    -9.5322     6.0437
 3365.0000     0.2395     0.0549     2.5550     0.0286    88.7036     5.5763     5.8924     8.5512   106.1654    -9.2354     6.1705
 3365.5000     0.2289     0.0594     2.5520     0.0120    87.5014     5.7328     6.0146     8.5509   109.7744    -9.0699     6.3044
 3366.0000     0.2211     0.0537     2.5600     0.0138    85.9975     5.8938     6.1398     8.5355   111.8797    -8.9414     6.5221
 3366.5000     0.2153     0.0479     2.5700     0.0512    84.3428     6.0240     6.2668     8.5352   112.1805    -9.0950     6.6590
 3367.0000     0.2150     0.0491     2.5655     0.0633    83.3668     6.1862     6.3968     8.5048   110.3759    -9.3977     6.7049
 3367.5000     0.2190     0.0525     2.5617     0.0557    82.4662     6.3597     6.4845     8.4744   107.9699    -9.7005     6.7983
 3368.0000     0.2304     0.0540     2.5579     0.0270    81.9427     6.4589     6.6202     8.4590   105.8647   -10.0033     6.8453
 3368.5000     0.2304     0.0558     2.5556     0.0164    81.3333     6.6290     6.7096     8.4436   105.2632   -10.3061     6.8926
 3369.0000     0.2250     0.0576     2.5549     0.0300    81.0466     6.7209     6.8015     8.4283   104.6617   -10.7588     6.8920
 3369.5000     0.2208     0.0576     2.5556     0.0496    81.2029     6.8141     6.8941     8.4129   104.6617   -11.0616     6.8915
 3370.0000     0.2214     0.0557     2.5586     0.0677    81.2073     6.8610     6.9402     8.4126   105.5843   -11.3644     6.8910
 3370.5000     0.2262     0.0552     2.5563     0.0660    81.2117     6.8797     6.9866     8.4123   106.1654   -11.5205     6.8906
 3371.0000     0.2338     0.0585     2.5525     0.0556    80.9899     6.9068     7.0338     8.4120   104.0602   -11.6872     6.9381
 3371.5000     0.2392     0.0654     2.5442     0.0314    80.6172     6.9059     7.0314     8.4117   101.0526   -11.9736     7.0346
 3372.0000     0.2368     0.0775     2.5239    -0.0063    80.0183     6.8545     7.0295     8.4416    99.8496   -11.9765     7.1325
 3372.5000     0.2350     0.0878     2.5140    -0.0094    79.8718     6.7612     7.0276     8.4714   101.9549   -11.3798     7.1320
 3373.0000     0.2347     0.0887     2.5035    -0.0003    79.8763     6.5291     6.7863     8.5012   105.5639   -10.4831     7.1316
 3373.5000     0.2337     0.0866     2.5072     0.0012    80.0317     6.3491     6.5030     8.5460   109.7744    -9.7365     7.0817
 3374.0000     0.2250     0.0854     2.5117    -0.0019    80.4141     6.1312     6.0938     8.5609   114.2857    -8.9898     6.8395
 3374.5000     0.2247     0.0879     2.5042    -0.0141    81.0972     5.6788     5.5066     8.5756   117.2932    -8.2431     6.5599
 3375.0000     0.2293     0.0974     2.4687    -0.0218    81.9312     4.9405     4.9612     8.5753   119.3985    -7.1965     6.2917
 3375.5000     0.2453     0.1201     2.4107    -0.0427    82.9160     3.9266     4.4082     8.6051   120.9577    -6.0001     5.9389
 3376.0000     0.2709     0.1756     2.2699    -0.0925    84.4287     3.4882     3.7834     8.6349   125.7143    -5.2516     5.3248
 3376.5000     0.3171     0.2481     2.1916    -0.1227    87.3742     3.0772     3.2925     8.6799   135.9398    -4.1913     4.8647
 3377.0000     0.3149     0.3178     2.1095    -0.0940    91.5265     2.9289     2.9664     8.7096   144.0602    -3.0111     3.8146
 3377.5000     0.2686     0.3281     2.1441    -0.0306    98.8919     2.8078     2.7669     8.6340   140.4511    -2.1145     3.0969
 3378.0000     0.2451     0.3139     2.2832     0.0252   102.0302     2.7139     2.8048     8.5422   134.4361    -2.2673     2.9497
 3378.5000     0.2263     0.2094     2.4182     0.0237    99.0823     2.8095     3.0686     8.4639   116.6917    -3.0199     2.9907
 3379.0000     0.2127     0.1074     2.5070     0.0238    91.0927     3.3196     3.5361     8.4072   108.5714    -4.0723     3.2280
 3379.5000     0.2067     0.0695     2.5408     0.0357    81.8965     3.9496     4.2909     8.3918   106.1654    -5.7244     4.2027
 3380.0000     0.2112     0.0663     2.5393     0.0402    79.0351     4.4758     5.3768     8.3765   105.5639    -7.2266     6.4645
 3380.5000     0.2124     0.0657     2.5393     0.0296    79.0395     5.1791     6.0480     8.3762   104.9546    -8.1291     6.6925
 3381.0000     0.2121     0.0642     2.5415     0.0176    79.1948     5.7480     6.2602     8.4060   104.0602    -8.8816     6.5085
 3381.5000     0.2136     0.0603     2.5520    -0.0006    78.9729     5.9506     6.2580     8.4208   104.6617    -9.9352     6.4631
 3382.0000     0.2198     0.0522     2.5648    -0.0036    78.5973     6.0753     6.2563     8.4356   108.2707   -11.3139     6.7376
 3382.5000     0.2289     0.0515     2.5633     0.0054    78.5292     6.1197     6.2546     8.4352   111.8797   -13.0891     6.7372
 3383.0000     0.2317     0.0546     2.5603     0.0267    78.7610     6.1587     6.2530     8.4500   113.2349   -14.4413     6.7367
 3383.5000     0.2185     0.0585     2.5542     0.0464    79.8212     6.1152     6.2513     8.4497   108.5714   -15.0439     6.6433
 3384.0000     0.2142     0.0616     2.5459     0.0356    81.4093     6.0718     6.2490     8.4645   103.7594   -15.1968     6.4608
 3384.5000     0.2224     0.0682     2.5376     0.0114    82.2433     6.0289     6.2046     8.4641   101.0526   -14.7500     6.2399
 3385.0000     0.2254     0.0672     2.5376    -0.0007    82.7002     5.9863     6.2026     8.4638   106.1654   -14.3031     6.1534
