~VERSION INFORMATION
 VERS.                2.0:   CWLS LOG ASCII STANDARD - VERSION 2.0
 WRAP.                 NO:   ONE LINE PER DEPTH STEP
~WELL INFORMATION
#MNEM.UNIT      DATA TYPE    INFORMATION
#----------   ------------   ------------------------------
 STRT.F          695.0000:   START DEPTH
 STOP.F         1588.0000:   STOP DEPTH
 STEP.F            0.5000:   STEP LENGTH
 NULL.          -999.2500:   NO VALUE
 COMP. FENIX & SCISSON INC:   COMPANY
 WELL. 13 SHX 10 STX #13-10:   WELL
 FLD .             TEAPOT:   FIELD
 LOC .      S10 T38N R78W:   LOCATION
 CNTY.            NATRONA:   COUNTY
 STAT.            WYOMING:   STATE
 CTRY. UNITED STATES OF AMERICA:   COUNTRY
 SRVC.            Unknown:   SERVICE COMPANY
 DATE.        22-JUL-1979:   LOGDATE
 API .       490251078700:   API NUMBER
~CURVE INFORMATION
#MNEM.UNIT       API CODE    CURVE DESCRIPTION
#----------   ------------   ------------------------------
 DEPT.F                  :   
 CORR.G/C3   45 356 01 00:   DENSITY CORRECTION
 RHOB.G/C3   45 350 01 00:   BULK DENSITY
 CALD.IN     45 280 60 00:   CALIPER
 GRD .GAPI   45 310 01 00:   GAMMA RAY FROM DENSITY LOG
 DPHI.DEC    45 890 12 00:   DENSITY POROSITY SANDSTONE
~PARAMETER INFORMATION
#MNEM.UNIT          VALUE    DESCRIPTION
#----------   ------------   ------------------------------
 PD  .                 GL:   PERMANENT DATUM
 EPD .F              5306:   ELEVATION PERMANENT DATUM
 LMF .                 DF:   LOG MEASURED FROM
 DAPD.F                 9:   FEET ABOVE PERMANENT DATUM
 DMF .                 KB:   DRILLING MEASURED FROM
 EKB .F              5316:   KELLING BUSHING
 EDF .F              5315:   DRILLING FLOOR
 EGL .F              5306:   GROUND LEVEL
 DATE.            7-22-79:   RUN DATE
 RUN .                  1:   RUN NUMBER
 DD  .F              1595:   DEPTH DRILLER
 DL  .F              1588:   DEPTH LOGGER
 BLI .F              1588:   BOTTOM LOG INTERVAL
 TLI .F               700:   TOP LOG INTERVAL
 CS  .IN            9.625:   CASING SIZE
 CBD .F               950:   CASING BOTTOM DRILLER
 CBL .F               950:   CASING BOTTOM LOGGER
 BS  .IN             8.75:   BIT SIZE
 BSD .F              1595:   BIT SIZE AT DEPTH
 DFT .                OIL:   DRILLING FLUID TYPE
 TCS .HRS               2:   TIME CURCULATED STOPPED
 LUN .               2959:   LOGGING UNIT NUMBER
 LUL .             CASPER:   LOGGING UNIT LOCATION
 ENGI.            ROLLINS:   RECORDING ENGINEER
 WITN.           DINSMORE:   WITNESSED BY
 CLNT.            A2DTECH:   CLIENT CODE
 ORIG.     1", 2.5" PRINT:   ORIGIN OF DATA
 UWI .       490251078700:   UNIQUE WELL ID
 DICO. A2D Technologies, Inc.:   DIGITIZING COMPANY
~OTHER INFORMATION
~A   DEPT     CORR       RHOB       CALD         GRD      DPHI   
# ...
 1122.0000     0.1082     2.4338     9.3285   126.3725     0.0781
 1122.5000     0.0858     2.4180     9.3310   129.4361     0.0726
 1123.0000     0.0844     2.4346     9.3335   128.0111     0.0624
 1123.5000     0.0843     2.4548     9.3358   123.8190     0.0561
 1124.0000     0.0791     2.4418     9.3386   118.5181     0.0610
 1124.5000     0.0708     2.4281     9.3409   120.7396     0.0724
 1125.0000     0.0765     2.4325     9.3369   128.3800     0.0708
 1125.5000     0.0883     2.4332     9.3082   132.6910     0.0684
 1126.0000     0.1032     2.4346     9.2770   136.2575     0.0676
 1126.5000     0.0935     2.4263     9.2677   131.2400     0.0762
 1127.0000     0.0822     2.4156     9.2855   127.8569     0.0803
 1127.5000     0.0699     2.4157     9.2991   129.3494     0.0799
 1128.0000     0.0586     2.4157     9.2621   133.1073     0.0830
 1128.5000     0.0486     2.4144     9.2236   134.2134     0.0784
 1129.0000     0.0541     2.4428     9.2324   125.9204     0.0677
 1129.5000     0.0594     2.4597     9.2553   121.8468     0.0570
 1130.0000     0.0598     2.4616     9.2514   122.3609     0.0542
 1130.5000     0.0598     2.4650     9.2271   123.2492     0.0521
 1131.0000     0.0602     2.4613     9.2059   124.0361     0.0542
 1131.5000     0.0512     2.4564     9.1842   125.0611     0.0577
 1132.0000     0.0289     2.4518     9.1630   125.7435     0.0619
 1132.5000     0.0297     2.4501     9.1427   126.4719     0.0580
 1133.0000     0.0355     2.4636     9.1500   124.4537     0.0498
 1133.5000     0.0469     2.4760     9.1574   126.1159     0.0416
 1134.0000     0.0568     2.4854     9.1665   126.0215     0.0386
 1134.5000     0.0672     2.4927     9.1752   124.0060     0.0398
 1135.0000     0.0658     2.4801     9.1738   122.1436     0.0445
 1135.5000     0.0601     2.4684     9.1407   120.3511     0.0492
 1136.0000     0.0453     2.4674     9.1083   118.5092     0.0515
 1136.5000     0.0287     2.4675     9.0716   117.9405     0.0481
 1137.0000     0.0287     2.4685     9.0739   117.8384     0.0448
 1137.5000     0.0466     2.4842     9.1041   117.9649     0.0415
 1138.0000     0.0552     2.4927     9.1311   122.1771     0.0383
 1138.5000     0.0504     2.4674     9.1578   124.8137     0.0627
 1139.0000     0.0458     2.4372     9.1853   120.1406     0.0643
 1139.5000     0.0925     2.4695     9.2124   116.5260     0.0424
 1140.0000     0.1676     2.5196     9.2397   114.2481     0.0198
 1140.5000     0.2442     2.5591     9.2668   120.7164     0.0010
 1141.0000     0.2822     2.5480     9.2941   127.1460     0.0002
 1141.5000     0.2685     2.4756     9.3213   123.8830     0.0553
 1142.0000     0.1736     2.3551     9.3424   121.3873     0.1146
 1142.5000     0.0971     2.3605     9.3423   122.5709     0.1076
 1143.0000     0.0815     2.3879     9.3430   123.6506     0.0900
 1143.5000     0.0867     2.4145     9.3428   125.6450     0.0724
 1144.0000     0.0942     2.4422     9.3411   126.7462     0.0656
 1144.5000     0.1017     2.4443     9.3606   125.0254     0.0651
 1145.0000     0.1006     2.4436     9.4095   123.7943     0.0704
 1145.5000     0.0909     2.4153     9.4565   125.1871     0.0773
 1146.0000     0.0895     2.4197     9.5041   127.2882     0.0765
 1146.5000     0.0935     2.4478     9.5517   126.2077     0.0621
 1147.0000     0.1218     2.4718     9.5989   122.9223     0.0465
 1147.5000     0.1472     2.4695     9.6474   119.7386     0.0513
 1148.0000     0.1685     2.4641     9.6666   118.4507     0.0490
 1148.5000     0.2476     2.5041     9.6388   121.1706     0.0145
 1149.0000     0.3578     2.6008     9.6053   124.6345    -0.0359
 1149.5000     0.4911     2.7350     9.5710   127.7739    -0.0931
 1150.0000     0.4659     2.7242     9.5379   127.8730    -0.0619
 1150.5000     0.3409     2.1837     9.5066   128.8015     0.0046
 1151.0000     0.2279     2.1296     9.4953   127.3216     0.2274
 1151.5000     0.1065     2.1402     9.4766   123.2679     0.2082
 1152.0000     0.0428     2.1608     9.4597   128.6272     0.1609
 1152.5000     0.0953     2.2894     9.4437   130.4805     0.1136
 1153.0000     0.1605     2.4187     9.4251   130.6745     0.0663
 1153.5000     0.1831     2.4659     9.4136   129.4645     0.0489
 1154.0000     0.1733     2.4588     9.3836   125.0418     0.0661
 1154.5000     0.1359     2.4207     9.3664   121.3384     0.0910
 1155.0000     0.1009     2.3837     9.3448   123.0289     0.0959
 1155.5000     0.0622     2.3914     9.3267   125.2348     0.0893
 1156.0000     0.0586     2.4121     9.3082   129.0526     0.0816
 1156.5000     0.0557     2.4251     9.4181   131.5987     0.0740
 1157.0000     0.0544     2.4329     9.5427   130.6706     0.0685
 1157.5000     0.0522     2.4413     9.8098   125.5283     0.0631
 1158.0000     0.0515     2.4495    10.0922   121.9869     0.0577
 1158.5000     0.0517     2.4547     9.8886   118.9635     0.0558
 1159.0000     0.0517     2.4526     9.2987   115.0914     0.0569
 1159.5000     0.0517     2.4506     9.2777   115.9627     0.0588
 1160.0000     0.0517     2.4485     9.2860   122.4125     0.0607
 1160.5000     0.0517     2.4459     9.2642   130.1338     0.0626
 1161.0000     0.0517     2.4473     9.2396   127.1522     0.0621
 1161.5000     0.0517     2.4519     9.2160   123.5483     0.0595
 1162.0000     0.0517     2.4552     9.1920   121.8481     0.0592
 1162.5000     0.0517     2.4527     9.1758   122.8720     0.0600
 1163.0000     0.0517     2.4507     9.1678   128.0719     0.0611
 1163.5000     0.0518     2.4494     9.1585   128.8172     0.0586
 1164.0000     0.0517     2.4550     9.1493   126.4344     0.0556
 1164.5000     0.0516     2.4613     9.1401   125.2147     0.0526
 1165.0000     0.0500     2.4677     9.1310   126.0663     0.0497
 1165.5000     0.0483     2.4633     9.1220   128.5926     0.0536
 1166.0000     0.0466     2.4552     9.1123   127.7655     0.0573
 1166.5000     0.0448     2.4472     9.1033   126.3122     0.0602
 1167.0000     0.0439     2.4452     9.0645   127.4088     0.0611
 1167.5000     0.0452     2.4477     9.0134   127.3603     0.0611
 1168.0000     0.0464     2.4511     8.9620   126.7372     0.0585
 1168.5000     0.0476     2.4542     8.9122   123.9733     0.0554
 1169.0000     0.0446     2.4571     8.8615   119.6327     0.0564
 1169.5000     0.0445     2.4551     8.8073   116.3822     0.0574
 1170.0000     0.0464     2.4537     8.7735   119.2678     0.0578
 1170.5000     0.0457     2.4572     8.7718   121.2376     0.0567
 1171.0000     0.0373     2.4591     8.7662   120.5380     0.0549
 1171.5000     0.0289     2.4578     8.7608   118.1816     0.0551
 1172.0000     0.0195     2.4599     8.7561   120.2697     0.0558
 1172.5000     0.0176     2.4675     8.7510   126.3589     0.0536
 1173.0000     0.0255     2.4747     8.7460   124.0469     0.0476
 1173.5000     0.0328     2.4820     8.7406   118.6912     0.0416
 1174.0000     0.0350     2.4894     8.7377   117.8196     0.0400
 1174.5000     0.0337     2.4921     8.7383   121.6901     0.0415
 1175.0000     0.0325     2.4847     8.7438   124.4699     0.0430
 1175.5000     0.0314     2.4784     8.7483   125.6674     0.0448
 1176.0000     0.0302     2.4814     8.7533   127.2651     0.0434
 1176.5000     0.0290     2.4854     8.7580   124.4580     0.0417
 1177.0000     0.0282     2.4903     8.7628   117.7240     0.0400
 1177.5000     0.0240     2.4884     8.7676   119.4145     0.0383
 1178.0000     0.0169     2.4799     8.7726   121.0845     0.0430
 1178.5000     0.0114     2.4734     8.7782   121.6821     0.0475
 1179.0000     0.0135     2.4686     8.7998   123.2899     0.0496
 1179.5000     0.0152     2.4652     8.8264   124.5856     0.0506
 1180.0000     0.0171     2.4643     8.8529   121.1914     0.0517
 1180.5000     0.0190     2.4633     8.8792   117.8029     0.0527
 1181.0000     0.0170     2.4624     8.9057   116.0613     0.0538
 1181.5000     0.0146     2.4614     8.9321   118.9611     0.0535
 1182.0000     0.0119     2.4620     8.9586   119.6097     0.0533
 1182.5000     0.0118     2.4629     8.9849   117.7449     0.0531
