~VERSION INFORMATION
 VERS.                2.0:   CWLS LOG ASCII STANDARD - VERSION 2.0
 WRAP.                 NO:   ONE LINE PER DEPTH STEP
~WELL INFORMATION
#MNEM.UNIT      DATA TYPE    INFORMATION
#----------   ------------   ------------------------------
 STRT.F           12.0000:   START DEPTH
 STOP.F          551.0000:   STOP DEPTH
 STEP.F            0.5000:   STEP LENGTH
 NULL.          -999.2500:   NO VALUE
 COMP. LAWRENCE-ALLISON &AS:   COMPANY
 WELL. NPR 3 #58-46SX3LP4:   WELL
 FLD .             TEAPOT:   FIELD
 LOC .       S3 T38N R78W:   LOCATION
 CNTY.            NATRONA:   COUNTY
 STAT.            WYOMING:   STATE
 CTRY. UNITED STATES OF AMERICA:   COUNTRY
 SRVC.      Dresser Atlas:   SERVICE COMPANY
 DATE.        14-DEC-1984:   LOGDATE
 API .       490251099900:   API NUMBER
~CURVE INFORMATION
#MNEM.UNIT       API CODE    CURVE DESCRIPTION
#----------   ------------   ------------------------------
 DEPT.F                  :   
 RD  .OHMM   11 220 10 00:   RESISTIVITY DEEP
 RS  .OHMM   11 220 09 00:   RESISTIVITY SHALLOW
 SPR .MV     11 010 01 00:   SPONTANEOUS POTENTIAL FROM RES.
 AC  .US/F   60 520 00 00:   ACOUSTIC SONIC
 CALD.IN     45 280 60 00:   CALIPER FROM DENSITY
 CORR.G/C3   45 356 01 00:   DENSITY CORRECTION
 DEN .G/C3   45 350 01 00:   COMPENSATED BULK DENSTIY
 GRD .GAPI   45 310 01 00:   GAMMA RAY FROM DENSITY LOG
 PORD.DEC    45 890 12 00:   POROSITY DENSITY SANDSTONE
 CNC .DEC    42 890 03 00:   NEUTRON POROSITY SANDSTONE
~PARAMETER INFORMATION
#MNEM.UNIT          VALUE    DESCRIPTION
#----------   ------------   ------------------------------
 PD  .                 GL:   PERMANENT DATUM
 EPD .F              5201:   ELEVATION PERMANENT DATUM
 LMF .                 GL:   LOG MEASURED FROM
 DMF .                 GL:   DRILLING MEASURED FROM
 EGL .F              5201:   GROUND LEVEL
 DATE.        14-DEC-1984:   RUN DATE
 RUN .                  1:   RUN NUMBER
 DD  .F               552:   DEPTH DRILLER
 DL  .F               552:   DEPTH LOGGER
 BLI .F               550:   BOTTOM LOG INTERVAL
 TLI .F                20:   TOP LOG INTERVAL
 CS  .IN            8.625:   CASING SIZE
 CBD .F                20:   CASING BOTTOM DRILLER
 CBL .F                20:   CASING BOTTOM LOGGER
 BS  .IN            7.875:   BIT SIZE
 BSD .F               552:   BIT SIZE AT DEPTH
 DFT .          KCL WATER:   DRILLING FLUID TYPE
 MSS .            MUDTANK:   MUD SAMPLE SOURCE
 RMS .OHMM          0.152:   RESISTIVITY MUD SAMPLE
 MST .F                76:   MUD SAMPLE TEMPERATURE
 RMF .OHMM           0.11:   RESISTIVITY MUD FILTRATE SAMPLE
 MFST.F                76:   MUD FILTRATE SAMPLE TEMPERATURE
 RMC .OHMM           0.19:   RESISTIVITY MUD CAKE
 MCST.F                76:   MUD CAKE SAMPLE TEMPERATURE
 MFSS.               CALC:   MUD FILTRATE SAMPLE SOURCE
 MCSS.               CALC:   MUD CAKE SAMPLE SOURCE
 TCS .HRS               5:   TIME CURCULATED STOPPED
 MRT .F               100:   MAXIMUM RECORDED TEMPERATURE
 LUN .               6270:   LOGGING UNIT NUMBER
 ENGI.            LEBSOCK:   RECORDING ENGINEER
 WITN.        GREG GROOMS:   WITNESSED BY
 CLNT.            A2DTECH:   CLIENT CODE
 ORIG.           5" PRINT:   ORIGIN OF DATA
 UWI .       490251099900:   UNIQUE WELL ID
 DICO. A2D Technologies, Inc.:   DIGITIZING COMPANY
~OTHER INFORMATION
~A   DEPT       RD         RS        SPR         AC       CALD       CORR        DEN        GRD       PORD          CNC 
# ...
  112.5000    22.9870    11.8250   -67.8061   102.3588     7.6692     0.0498     2.4620    88.2331     0.1275     0.2658
  113.0000    23.0119    11.7500   -68.0880   102.5030     7.6692     0.0483     2.4612    88.6752     0.1288     0.2688
  113.5000    23.0319    11.7566   -68.3728   102.5736     7.6842     0.0391     2.4605    90.1716     0.1306     0.2682
  114.0000    23.0519    11.9269   -68.5093   102.6428     7.6860     0.0255     2.4574    91.2168     0.1309     0.2583
  114.5000    23.0719    12.0997   -68.7971   102.7855     7.6992     0.0118     2.4558    90.9086     0.1318     0.2815
  115.0000    23.0919    12.1064   -68.9335   103.3054     7.7143     0.0133     2.4551    89.5478     0.1351     0.2994
  115.5000    23.1119    11.8645   -69.2154   104.2761     7.7143     0.0178     2.4460    86.2321     0.1415     0.3030
  116.0000    23.1320    11.7891   -69.3548   104.8712     7.7143     0.0132     2.4316    85.6250     0.1503     0.3024
  116.5000    23.3130    11.7143   -69.4913   104.7900     7.7293     0.0025     2.4202    87.2698     0.1555     0.2643
  117.0000    23.4953    11.8023   -69.3280   103.5819     7.7143     0.0055     2.4126    86.2098     0.1576     0.2601
  117.5000    23.6791    12.1401   -69.3161   102.3738     7.7143     0.0266     2.4163    84.3978     0.1573     0.2601
  118.0000    24.1972    12.5741   -69.1558   101.9922     7.7143     0.0431     2.4254    84.9919     0.1509     0.2565
  118.5000    24.7266    12.5811   -69.2953   102.2116     7.7143     0.0339     2.4397    87.9920     0.1443     0.2550
  119.0000    24.7481    12.4152   -69.4317   103.2574     7.6992     0.0247     2.4464    91.1424     0.1397     0.2674
  119.5000    23.9266    11.9173   -69.4168   104.4535     7.6992     0.0288     2.4540    93.0899     0.1352     0.2973
  120.0000    22.8141    11.4393   -69.4049   104.8983     7.6992     0.0429     2.4540    95.4885     0.1337     0.3070
  120.5000    21.3062    10.9048   -69.3930   105.1928     7.6842     0.0338     2.4509    98.4886     0.1340     0.3070
  121.0000    19.8979    10.3237   -69.3811   105.7127     7.6992     0.0322     2.4455   100.1353     0.1380     0.2876
  121.5000    19.5015     9.8414   -69.3692   105.7355     7.6992     0.0336     2.4410    98.3123     0.1413     0.2847
  122.0000    19.5226     9.7103   -69.3573   104.9494     7.6992     0.0698     2.4372    91.7774     0.1428     0.2917
  122.5000    19.9498     9.8523   -69.3454   104.1921     7.6992     0.0728     2.4425    89.4361     0.1422     0.3068
  123.0000    20.2455    10.3467   -69.1851   104.1728     7.6992     0.0622     2.4523    89.4286     0.1383     0.3074
  123.5000    20.5457    10.5694   -68.8765   104.5557     7.6992     0.0425     2.4552    90.0211     0.1332     0.2882
  124.0000    20.5635    10.5024   -68.7162   105.0005     7.6992     0.0258     2.4520    91.3670     0.1332     0.2741
  124.5000    20.2939    10.3639   -68.2592   105.0699     7.7143     0.0273     2.4458    96.7731     0.1359     0.2751
  125.0000    20.1713    10.2968   -68.2473   105.0636     7.7293     0.0242     2.4452    97.6679     0.1386     0.2932
  125.5000    19.6702    10.1610   -68.2354   104.9825     7.7293     0.0150     2.4505    96.3071     0.1380     0.3149
  126.0000    19.6811    10.0980   -68.5202   105.0518     7.7293     0.0120     2.4489    91.3373     0.1356     0.2975
  126.5000    19.4218    10.1737   -68.6596   105.1961     7.7293     0.0179     2.4474    92.3825     0.1365     0.2763
  127.0000    19.2961    10.2500   -68.7961   105.2652     7.7293     0.0209     2.4473    94.0292     0.1366     0.2772
  127.5000    19.3095    10.3268   -68.7812   105.3343     7.7293     0.0193     2.4488    96.2774     0.1360     0.2793
  128.0000    19.5890    10.4043   -68.7693   105.2530     7.7143     0.0146     2.4533   100.6309     0.1341     0.2760
  128.5000    19.7358    10.7020   -69.0541   104.9464     7.7143     0.0313     2.4631   104.2324     0.1311     0.2905
  129.0000    20.1603    10.9324   -69.3389   104.7150     7.7143     0.0450     2.4646   104.5276     0.1281     0.2936
  129.5000    20.3114    11.0908   -69.3270   104.2582     7.7143     0.0463     2.4623   101.9619     0.1278     0.2939
  130.0000    20.3486    11.3295   -69.4665   103.7263     7.6992     0.0400     2.4577    96.8417     0.1301     0.2555
  130.5000    20.4991    11.4145   -69.3056   103.1193     7.6992     0.0326     2.4546    95.4809     0.1336     0.2595
  131.0000    20.6507    11.5000   -69.1454   102.8127     7.6992     0.0310     2.4516    95.4735     0.1354     0.2767
  131.5000    20.6369    11.5863   -68.9852   102.8819     7.6992     0.0279     2.4485    95.0149     0.1366     0.2837
  132.0000    20.5061    11.5927   -68.6766   103.3266     7.6992     0.0082     2.4470    94.7048     0.1369     0.2770
  132.5000    20.5175    11.4398   -68.6647   103.7714     7.6992     0.0283     2.4439    95.7719     0.1345     0.2794
  133.0000    20.2472    11.2890   -68.8190   104.2162     7.6992     0.0519     2.4545    99.8647     0.1327     0.2937
  133.5000    19.8428    11.0618   -69.0864   104.5859     7.6992     0.0594     2.4529   102.7113     0.1330     0.2988
  134.0000    19.3126    10.7660   -69.2228   104.8804     7.6992     0.0548     2.4566   103.3988     0.1324     0.2891
  134.5000    18.9167    10.4796   -69.3709   105.1749     7.6992     0.0351     2.4611   102.6376     0.1300     0.2858
  135.0000    18.6775    10.2687   -69.6441   105.4694     7.6842     0.0078     2.4619   101.2768     0.1291     0.2867
  135.5000    18.4314    10.4912   -69.7883   105.6889     7.6992    -0.0103     2.4550    97.2093     0.1291     0.2831
  136.0000    18.7035    10.7914   -70.0654   105.4574     7.6992    -0.0028     2.4497    93.4424     0.1331     0.2581
  136.5000    19.2365    11.0238   -70.2019   104.6250     7.6992     0.0167     2.4466    93.1361     0.1370     0.2578
  137.0000    19.7828    11.3392   -70.1899   104.1682     7.6992     0.0378     2.4421    94.9313     0.1395     0.2596
  137.5000    19.9310    11.5833   -70.1780   104.1560     7.6992     0.0650     2.4405    95.9765     0.1407     0.2699
  138.0000    19.9439    11.5083   -70.1661   104.5318     7.6992     0.0755     2.4390    96.1195     0.1413     0.2759
  138.5000    19.8158    11.4353   -70.1542   104.9766     7.6830     0.0784     2.4540    96.5632     0.1349     0.2895
  139.0000    19.5545    11.1311   -70.1423   105.1960     7.6842     0.0769     2.4570   100.0144     0.1319     0.3061
  139.5000    19.2970    10.9828   -70.1304   105.1148     7.6842     0.0676     2.4585   103.7663     0.1316     0.3077
  140.0000    19.0425    11.0667   -70.1185   104.6581     7.6842     0.0413     2.4446   103.0070     0.1350     0.3010
  140.5000    19.0533    11.1496   -70.2550   104.4267     7.6992     0.0095     2.4341   101.1951     0.1432     0.2666
  141.0000    19.0638    11.1558   -70.6881   104.4959     7.6992    -0.0140     2.4327    99.3831     0.1447     0.2672
  141.5000    18.8126    11.0087   -71.2697   104.8654     7.6992     0.0222     2.4407    97.1201     0.1438     0.2790
  142.0000    18.3100    10.7887   -71.7029   104.9346     7.6842     0.0372     2.4541    95.0074     0.1341     0.2811
  142.5000    17.9443    10.5573   -71.9881   104.7783     7.6842     0.0251     2.4575    95.1503     0.1317     0.2799
  143.0000    17.9542    10.2889   -72.1246   104.6220     7.6842     0.0159     2.4552    95.4436     0.1311     0.2787
  143.5000    17.7177    10.2949   -72.1123   104.3906     7.6992     0.0129     2.4506    93.2316     0.1311     0.2799
  144.0000    17.6050    10.3721   -71.9520   104.4597     7.6992     0.0234     2.4446    89.8486     0.1329     0.2809
  144.5000    17.4935    10.3778   -71.7917   104.7543     7.7143     0.0414     2.4581    89.9263     0.1360     0.2802
  145.0000    17.2634    10.4554   -71.6314   104.9736     7.7293     0.0520     2.4686    93.0060     0.1347     0.2726
  145.5000    17.0336    10.3175   -71.1744   105.2682     7.7293     0.0474     2.4701    97.2091     0.1265     0.2700
