~VERSION INFORMATION
 VERS.                2.0:   CWLS LOG ASCII STANDARD - VERSION 2.0
 WRAP.                 NO:   ONE LINE PER DEPTH STEP
~WELL INFORMATION
#MNEM.UNIT      DATA TYPE    INFORMATION
#----------   ------------   ------------------------------
 STRT.F           46.0000:   START DEPTH
 STOP.F          522.0000:   STOP DEPTH
 STEP.F            0.5000:   STEP LENGTH
 NULL.          -999.2500:   NO VALUE
 COMP.       F D SERV INC:   COMPANY
 WELL.  82-4 SX 10 #82-10:   WELL
 FLD .             TEAPOT:   FIELD
 LOC .      S10 T38N R78W:   LOCATION
 CNTY.            NATRONA:   COUNTY
 STAT.            WYOMING:   STATE
 CTRY. UNITED STATES OF AMERICA:   COUNTRY
 SRVC.     Atlas Wireline:   SERVICE COMPANY
 DATE.        04-FEB-1993:   LOGDATE
 API .       490252257900:   API NUMBER
~CURVE INFORMATION
#MNEM.UNIT       API CODE    CURVE DESCRIPTION
#----------   ------------   ------------------------------
 DEPT.F                  :   
 C13 .IN     45 280 13 00:   CALIPER FROM DENSITY LOG
 GRD .GAPI   45 310 01 00:   GAMMA RAY FROM DENSITY LOG
 PORS.DEC    42 890 03 00:   NEUTRON POROSITY SANDSTONE
 PORZ.DEC    45 890 12 00:   DENSITY POROSITY SANDSTONE
 ZCOR.G/C3   45 356 01 00:   DENSITY CORRECTION
 ZDEN.G/C3   45 350 01 00:   BULK DENSITY
 RILD.OHMM   07 120 46 00:   INDUCTION LOG DEEP RESISTIVITY
 RILM.OHMM   07 120 44 00:   INDUCTION LOG MEDIUM RESISTIVITY
~PARAMETER INFORMATION
#MNEM.UNIT          VALUE    DESCRIPTION
#----------   ------------   ------------------------------
 PD  .                 GL:   PERMANENT DATUM
 EPD .F              5145:   ELEVATION PERMANENT DATUM
 LMF .                 KB:   LOG MEASURED FROM
 DAPD.F                10:   FEET ABOVE PERMANENT DATUM
 DMF .                 KB:   DRILLING MEASURED FROM
 EKB .F              5155:   KELLING BUSHING
 EDF .F              5154:   DRILLING FLOOR
 EGL .F              5145:   GROUND LEVEL
 DATE.        04-FEB-1993:   RUN DATE
 RUN .                  1:   RUN NUMBER
 DD  .F               525:   DEPTH DRILLER
 DL  .F               525:   DEPTH LOGGER
 BLI .F               517:   BOTTOM LOG INTERVAL
 TLI .F                81:   TOP LOG INTERVAL
 CS  .IN            8.625:   CASING SIZE
 CBD .F                45:   CASING BOTTOM DRILLER
 CBL .F                81:   CASING BOTTOM LOGGER
 BS  .IN            7.875:   BIT SIZE
 BSD .F               525:   BIT SIZE AT DEPTH
 DFT .                AIR:   DRILLING FLUID TYPE
 MRT .F                58:   MAXIMUM RECORDED TEMPERATURE
 LUN .            HL 6274:   LOGGING UNIT NUMBER
 LUL .             CASPER:   LOGGING UNIT LOCATION
 ENGI.          V. RAUTIO:   RECORDING ENGINEER
 WITN.          G. STRONG:   WITNESSED BY
 CLNT.            A2DTECH:   CLIENT CODE
 ORIG.           5" PRINT:   ORIGIN OF DATA
 UWI .       490252257900:   UNIQUE WELL ID
 DICO. A2D Technologies, Inc.:   DIGITIZING COMPANY
~OTHER INFORMATION
~A   DEPT      C13         GRD      PORS       PORZ       ZCOR       ZDEN       RILD       RILM   
# ...
  410.5000     8.1923   136.0570     0.2475     0.1138     0.0382     2.4593    14.7536    15.1067
  411.0000     8.1922   136.6567     0.2508     0.1154     0.0382     2.4601    14.7536    15.1091
  411.5000     8.1920   138.7556     0.2574     0.1163     0.0305     2.4586    14.6519    15.1111
  412.0000     8.1919   140.8546     0.2601     0.1169     0.0247     2.4586    14.5510    15.1131
  412.5000     8.1917   141.4543     0.2601     0.1141     0.0202     2.4616    14.3511    14.7536
  413.0000     8.1916   140.8546     0.2595     0.1072     0.0217     2.4708    14.1540    14.3511
  413.5000     8.1914   139.9550     0.2589     0.1008     0.0383     2.4842    13.9596    14.0468
  414.0000     8.1913   141.4543     0.2582     0.0919     0.0427     2.5008    13.7679    13.7679
  414.5000     8.1911   144.7526     0.2624     0.0867     0.0232     2.5053    13.5788    13.6730
  415.0000     8.1890   148.6507     0.2657     0.0873     0.0142     2.5003    13.3923    13.4852
  415.5000     8.1457   150.7496     0.2669     0.0984     0.0082     2.4878    13.2084    13.3000
  416.0000     8.1155   151.6492     0.2672     0.1039     0.0050     2.4774    13.1174    13.2084
  416.5000     8.1003   150.7496     0.2666     0.1039     0.0022     2.4759    13.0270    13.1174
  417.0000     8.0851   148.0270     0.2660     0.1039    -0.0007     2.4736    12.9372    13.0270
  417.5000     8.1000   144.4528     0.2648     0.1051    -0.0022     2.4706    12.8481    12.9372
  418.0000     8.1149   144.1529     0.2642     0.1066    -0.0037     2.4691    12.6716    12.9372
  418.5000     8.1147   146.2519     0.2642     0.1084    -0.0037     2.4736    12.4976    12.6629
  419.0000     8.1146   149.5502     0.2645     0.1096     0.0007     2.4782    12.3259    12.4976
  419.5000     8.1144   151.6672     0.2648     0.1038     0.0127     2.4812    12.2410    12.3259
  420.0000     8.1143   152.5487     0.2648     0.1008     0.0262     2.4827    12.1566    12.2410
  420.5000     8.1141   151.6492     0.2647     0.0996     0.0157     2.4842    12.1566    12.2410
  421.0000     8.1140   151.0495     0.2647     0.0999     0.0112     2.4842    12.1566    12.2410
  421.5000     8.1138   150.7496     0.2647     0.0987     0.0082     2.4842    12.2487    12.2410
  422.0000     8.1137   149.5222     0.2640     0.0984     0.0112     2.4827    12.3259    12.2410
  422.5000     8.1135   147.4513     0.2593     0.1002     0.0142     2.4827    12.3259    12.2410
  423.0000     8.1134   146.8516     0.2572     0.1014     0.0142     2.4849    12.3259    12.3259
  423.5000     8.1132   146.8516     0.2569     0.0996     0.0127     2.4887    12.3259    12.3259
  424.0000     8.1131   146.8516     0.2594     0.0962     0.0097     2.4902    12.3259    12.3259
  424.5000     8.1129   146.2519     0.2614     0.0956     0.0097     2.4872    12.3259    12.3259
  425.0000     8.1128   144.4528     0.2623     0.0974     0.0112     2.4827    12.3259    12.3259
  425.5000     8.1126   142.6537     0.2625     0.0998     0.0112     2.4819    12.3259    12.2410
  426.0000     8.1125   142.0540     0.2622     0.1016     0.0097     2.4819    12.2410    12.2410
  426.5000     8.1123   141.7541     0.2616     0.1025     0.0097     2.4849    12.1566    12.1566
  427.0000     8.1122   143.2534     0.2604     0.1010     0.0112     2.4895    11.9897    12.0729
  427.5000     8.1120   145.9520     0.2601     0.0968     0.0067     2.4932    11.9897    11.9897
  428.0000     8.1119   151.6492     0.2610     0.0950     0.0037     2.4895    11.8250    11.9071
  428.5000     8.1117   152.8486     0.2622     0.0962     0.0037     2.4887    11.6626    11.8989
  429.0000     8.1116   152.8486     0.2646     0.0980     0.0052     2.4887    11.6626    11.5822
  429.5000     8.1114   149.2504     0.2673     0.0974     0.0067     2.4902    11.5024    11.4232
  430.0000     8.1113   147.7511     0.2691     0.0962     0.0022     2.4902    11.4127    11.2663
  430.5000     8.1111   146.8516     0.2694     0.0953     0.0022     2.4895    11.3445    10.9589
  431.0000     8.1110   146.5517     0.2688     0.0962     0.0052     2.4887    11.1887    10.8084
  431.5000     8.1108   146.2519     0.2685     0.0977     0.0082     2.4887    11.0350    10.6600
  432.0000     8.0956   146.5517     0.2684     0.0992     0.0067     2.4857    10.8084    10.5136
  432.5000     8.0955   145.9520     0.2684     0.0998     0.0022     2.4842    10.6600    10.4411
  433.0000     8.0953   145.6522     0.2684     0.1007     0.0017     2.4834    10.4411    10.3692
  433.5000     8.0952   145.6062     0.2681     0.0985     0.0007     2.4864    10.2268    10.2906
  434.0000     8.0800   148.0669     0.2699     0.0949    -0.0007     2.4902    10.0863    10.0863
  434.5000     8.0798   149.8501     0.2738     0.0943    -0.0007     2.4917     9.8792     9.9478
  435.0000     8.0797   151.0495     0.2771     0.0937     0.0052     2.4917     9.6698     9.8112
  435.5000     8.0795   152.2489     0.2801     0.0928     0.0157     2.4932     9.4124     9.5435
  436.0000     8.0794   153.4483     0.2813     0.0913     0.0249     2.4947     8.9677     9.0299
  436.5000     8.0792   154.0480     0.2819     0.0898     0.0247     2.4977     8.1403     8.3109
  437.0000     8.0941   153.4483     0.2849     0.0877     0.0187     2.5000     7.0401     6.8955
  437.5000     8.0928   154.0480     0.2900     0.0868     0.0157     2.5038     5.8009     6.0466
  438.0000     8.0890   157.6462     0.2987     0.0928     0.0142     2.5038     5.3760     5.1933
  438.5000     8.0851   162.4438     0.3178     0.1099     0.0067     2.5023     5.2656     4.8463
  439.0000     8.0813   167.3133     0.3393     0.1253    -0.0037     2.4789     5.3022     4.9138
  439.5000     8.0774   169.9400     0.3474     0.1496    -0.0142     2.4476     5.3760     5.0867
  440.0000     8.0736   170.2399     0.3366     0.1578     0.0127     2.3976     5.5293     5.4133
  440.5000     8.0697   170.2399     0.3094     0.1313     0.0489     2.3968     5.8411     5.9635
  441.0000     8.0658   169.6402     0.2779     0.1124     0.0502     2.4232     6.3027     6.4795
  441.5000     8.0627   160.0227     0.2689     0.0795     0.0442     2.4586     7.0889     7.0401
  442.0000     8.0776   151.6492     0.2686     0.0708     0.0397     2.4995     8.0285     8.0842
  442.5000     8.0774   151.6492     0.2686     0.0713     0.0322     2.5301     8.8445     8.7231
  443.0000     8.0923   151.9490     0.2685     0.0762     0.0202     2.5309     9.5435     9.2832
  443.5000     8.0922   152.2489     0.2688     0.0780     0.0172     2.5279    10.0168     9.8112
  444.0000     8.0920   152.2489     0.2694     0.0770     0.0262     2.5233    10.2268    10.1563
  444.5000     8.0919   151.9490     0.2730     0.0716     0.0382     2.5301    10.3692    10.2268
  445.0000     8.0917   152.2489     0.2787     0.0701     0.0319     2.5324    10.3668    10.2977
  445.5000     8.0615   153.7481     0.2808     0.0707     0.0247     2.5331    10.2977    10.3692
  446.0000     8.0463   155.2552     0.2805     0.0698     0.0202     2.5331    10.4411    10.3692
  446.5000     8.0311   156.1469     0.2820     0.0695     0.0157     2.5339    10.5865    10.4411
  447.0000     8.0460   153.4483     0.2835     0.0692     0.0112     2.5339    10.8834    10.6600
  447.5000     8.0458   151.6492     0.2844     0.0695     0.0052     2.5339    11.1887    10.8834
  448.0000     8.0608   151.3493     0.2841     0.0722     0.0022     2.5294    11.3445    11.0350
  448.5000     8.0756   154.0620     0.2835     0.0731     0.0007     2.5294    11.5112    11.2663
  449.0000     8.0905   155.2474     0.2823     0.0707     0.0052     2.5324    11.6626    11.4232
  449.5000     8.0753   153.7481     0.2811     0.0695     0.0129     2.5331    11.8250    11.5822
  450.0000     8.0902   150.7496     0.2795     0.0710     0.0176     2.5331    11.9071    11.8250
  450.5000     8.0664   150.4498     0.2774     0.0710     0.0219     2.5331    12.0729    11.9071
