~VERSION INFORMATION
 VERS.                2.0:   CWLS LOG ASCII STANDARD - VERSION 2.0
 WRAP.                 NO:   ONE LINE PER DEPTH STEP
~WELL INFORMATION
#MNEM.UNIT      DATA TYPE    INFORMATION
#----------   ------------   ------------------------------
 STRT.F         1304.0000:   START DEPTH
 STOP.F         2900.0000:   STOP DEPTH
 STEP.F            0.5000:   STEP LENGTH
 NULL.          -999.2500:   NO VALUE
 COMP.   FLUOR DANIEL INC:   COMPANY
 WELL. NAVAL PETROLEUM RESERVE 3 SHX- #18-14:   WELL
 FLD .             TEAPOT:   FIELD
 LOC .      S14 T38N R78W:   LOCATION
 CNTY.            NATRONA:   COUNTY
 STAT.            WYOMING:   STATE
 CTRY. UNITED STATES OF AMERICA:   COUNTRY
 SRVC.            Unknown:   SERVICE COMPANY
 DATE.        17-APR-1995:   LOGDATE
 API .       490252270800:   API NUMBER
~CURVE INFORMATION
#MNEM.UNIT       API CODE    CURVE DESCRIPTION
#----------   ------------   ------------------------------
 DEPT.F                  :   
 ROP .FT/HR  91 810 01 00:   RAT OF DRILLING PENETRATION
 TGAS.TC/CC  91 830 01 00:   TOTAL GAS UNIT
~PARAMETER INFORMATION
#MNEM.UNIT          VALUE    DESCRIPTION
#----------   ------------   ------------------------------
 EKB .F              5271:   KELLING BUSHING
 EGL .F              5281:   GROUND LEVEL
 DATE.        17-APR-1995:   RUN DATE
 RUN .                  1:   RUN NUMBER
 BLI .F              2900:   BOTTOM LOG INTERVAL
 TLI .F              1310:   TOP LOG INTERVAL
 WITN.     C.TOWER/R.HUSK:   WITNESSED BY
 CLNT.            A2DTECH:   CLIENT CODE
 ORIG.           5" PRINT:   ORIGIN OF DATA
 UWI .       490252270800:   UNIQUE WELL ID
 DICO. A2D Technologies, Inc.:   DIGITIZING COMPANY
~OTHER INFORMATION
~A  DEPT         ROP     TGAS   
# ...
 1425.5000     0.6476    53.5806
 1426.0000     0.6466    53.5770
 1426.5000     0.6456    53.5733
 1427.0000     0.6446    53.9479
 1427.5000     0.6436    54.2201
 1428.0000     0.6426    54.5158
 1428.5000     0.6416    54.6907
 1429.0000     0.6407    54.8748
 1429.5000     0.6397    55.0598
 1430.0000     0.6387    55.2449
 1430.5000     0.8077    55.4308
 1431.0000     0.8075    55.8036
 1431.5000     0.8073    55.9887
 1432.0000     0.8166    56.1736
 1432.5000     1.0142    56.3836
 1433.0000     1.0139    56.7314
 1433.5000     1.0232    56.9170
 1434.0000     1.0230    57.2910
 1434.5000     0.7685    57.8525
 1435.0000     0.7495    58.2262
 1435.5000     0.7493    58.5999
 1436.0000     0.7397    58.9736
 1436.5000     0.7395    59.4503
 1437.0000     0.7582    59.9087
 1437.5000     0.7675    60.0946
 1438.0000     0.7532    60.3220
 1438.5000     0.5504    60.6534
 1439.0000     0.5503    60.8384
 1439.5000     0.5407    61.0234
 1440.0000     0.5405    61.0188
 1440.5000     0.5403    61.0151
 1441.0000     0.5401    61.0113
 1441.5000     0.5399    60.8182
 1442.0000     0.5397    60.8151
 1442.5000     0.5395    60.8449
 1443.0000     0.5394    60.9962
 1443.5000     0.5398    60.9925
 1444.0000     0.5402    60.9886
 1444.5000     0.5407    60.9849
 1445.0000     0.5411    60.9811
 1445.5000     0.5415    60.9767
 1446.0000     0.5419    60.9730
 1446.5000     0.5423    60.9693
 1447.0000     0.5427    60.9657
 1447.5000     0.5431    60.9620
 1448.0000     0.5435    60.9584
 1448.5000     0.5439    60.9547
 1449.0000     0.5443    60.9509
 1449.5000     0.5447    60.9464
 1450.0000     0.5451    60.9575
 1450.5000     0.5456    61.1289
 1451.0000     0.5460    61.3002
 1451.5000     0.5464    61.4715
 1452.0000     0.5468    61.6428
 1452.5000     0.5472    61.5094
 1453.0000     0.5476    61.6981
 1453.5000     0.5480    61.6981
 1454.0000     0.5971    61.8919
 1454.5000     0.7747    62.0755
 1455.0000     0.7750    62.0755
 1455.5000     0.7752    62.8302
 1456.0000     0.7755    63.7736
 1456.5000     0.7758    64.7170
 1457.0000     0.7761    65.6604
 1457.5000     0.7764    66.4151
 1458.0000     0.7766    66.6038
 1458.5000     0.7769    66.2264
 1459.0000     0.7772    65.8491
 1459.5000     0.7775    65.4717
 1460.0000     0.7778    64.7044
 1460.5000     0.7781    63.9333
 1461.0000     0.7783    63.3962
 1461.5000     0.7786    63.2075
 1462.0000     0.9955    63.2075
 1462.5000     0.9958    63.2075
 1463.0000     0.9960    63.2075
 1463.5000     0.9963    63.2075
 1464.0000     0.9966    63.0189
 1464.5000     0.7690    63.2075
 1465.0000     0.7669    63.0189
 1465.5000     0.7648    62.8302
 1466.0000     0.7624    62.6215
 1466.5000     0.5455    62.4528
 1467.0000     0.5449    62.4528
 1467.5000     0.5442    62.4528
 1468.0000     0.5435    62.4528
 1468.5000     0.5428    62.0755
 1469.0000     0.5422    61.8868
 1469.5000     0.5415    61.6981
 1470.0000     0.5408    61.6981
 1470.5000     0.5402    61.6981
 1471.0000     0.5395    61.5094
 1471.5000     0.5388    61.3651
 1472.0000     0.5381    61.3208
 1472.5000     0.5375    61.3208
 1473.0000     0.5368    61.3208
 1473.5000     0.5361    61.1321
 1474.0000     0.5355    60.9434
 1474.5000     0.5348    60.9434
 1475.0000     0.5341    60.9434
 1475.5000     0.5334    60.9434
 1476.0000     0.5328    60.9434
 1476.5000     0.6632    60.9434
 1477.0000     0.6609    60.9434
 1477.5000     0.6586    60.9434
 1478.0000     0.7880    60.9434
 1478.5000     0.7882    60.9434
 1479.0000     0.7885    60.9434
 1479.5000     0.7888    60.9434
 1480.0000     0.5254    60.7547
 1480.5000     0.5257    60.7547
 1481.0000     0.5260    60.7547
 1481.5000     0.5263    60.6419
 1482.0000     0.5266    60.6491
 1482.5000     0.5268    60.7547
 1483.0000     0.5271    60.7446
 1483.5000     0.5274    60.7547
 1484.0000     0.5277    60.5660
 1484.5000     0.6307    60.5660
 1485.0000     0.6298    60.5660
 1485.5000     0.6288    60.5660
 1486.0000     0.6279    60.5660
 1486.5000     0.6269    60.7547
 1487.0000     0.6259    60.7547
 1487.5000     0.6250    60.7547
 1488.0000     0.6240    60.9434
 1488.5000     0.6231    60.5660
 1489.0000     0.6221    60.1887
 1489.5000     0.6212    60.0000
 1490.0000     0.6202    60.0000
 1490.5000     0.6192    60.0000
 1491.0000     0.6183    60.0000
 1491.5000     0.6173    60.0000
 1492.0000     0.7676    60.0000
 1492.5000     0.7679    60.0000
 1493.0000     0.7682    60.1887
 1493.5000     0.7685    60.1887
 1494.0000     0.7687    60.1887
 1494.5000     0.7690    60.1887
 1495.0000     0.7693    60.1887
 1495.5000     0.7696    60.1887
 1496.0000     0.5345    60.1887
 1496.5000     0.5348    60.1887
 1497.0000     0.5352    60.1887
 1497.5000     0.5355    60.1887
 1498.0000     0.5359    60.1887
 1498.5000     0.5362    60.1887
 1499.0000     0.5366    60.1887
 1499.5000     0.5369    60.1887
 1500.0000     0.5373    60.3774
 1500.5000     0.5376    60.3372
 1501.0000     0.5380    60.2971
 1501.5000     0.5383    60.2570
 1502.0000     0.5387    60.2169
 1502.5000     0.5390    60.1691
 1503.0000     0.5394    60.1654
 1503.5000     0.5397    60.1617
 1504.0000     0.5401    60.1581
 1504.5000     0.5404    60.1544
 1505.0000     0.5408    60.1507
 1505.5000     0.5411    60.1471
 1506.0000     0.5415    60.1434
 1506.5000     0.5418    59.9509
 1507.0000     0.5422    59.9464
 1507.5000     0.5425    59.9428
 1508.0000     0.5429    60.1287
 1508.5000     0.5429    60.1241
 1509.0000     0.5427    60.1204
 1509.5000     0.5426    60.4941
 1510.0000     0.5527    60.3018
 1510.5000     0.6455    60.2981
 1511.0000     0.6450    60.2943
 1511.5000     0.6444    60.2898
 1512.0000     0.6439    60.2868
 1512.5000     0.6433    60.4721
 1513.0000     0.6428    60.4675
 1513.5000     0.6422    60.2751
 1514.0000     0.6417    60.2715
 1514.5000     0.6412    60.2678
 1515.0000     0.6406    60.0754
 1515.5000     0.6401    60.0717
 1516.0000     0.6395    60.0672
 1516.5000     0.6390    60.0635
 1517.0000     0.6384    60.0598
 1517.5000     0.6379    60.2448
 1518.0000     0.6373    60.0525
 1518.5000     0.6368    60.4262
 1519.0000     0.6362    60.0451
 1519.5000     0.6357    60.0415
 1520.0000     0.6352    60.0377
 1520.5000     0.6346    60.0340
 1521.0000     0.6341    60.0295
 1521.5000     0.6335    60.0264
 1522.0000     0.6330    60.0222
 1522.5000     0.6324    60.0185
 1523.0000     0.6319    60.0148
 1523.5000     0.6314    60.0112
 1524.0000     0.7910    60.0075
 1524.5000     0.7902    60.0038
 1525.0000     0.7895    60.0000
 1525.5000     0.7887    59.9956
 1526.0000     0.7879    59.9919
 1526.5000     0.7872    59.9882
 1527.0000     0.7864    59.9845
 1527.5000     0.7856    59.9809
 1528.0000     0.7849    59.9772
 1528.5000     0.7841    59.9736
 1529.0000     0.7833    59.9698
 1529.5000     0.7826    59.9365
 1530.0000     0.7818    59.7729
 1530.5000     0.7811    59.9588
 1531.0000     0.7803    59.7665
 1531.5000     0.7795    59.9515
 1532.0000     0.6470    59.7591
 1532.5000     0.6462    59.9432
 1533.0000     0.6455    59.7509
 1533.5000     0.6447    59.5585
 1534.0000     0.6439    59.5547
 1534.5000     0.6431    59.7399
 1535.0000     0.6423    59.7353
 1535.5000     0.6416    59.7316
 1536.0000     0.6408    59.7279
 1536.5000     0.6400    59.7243
 1537.0000     0.6392    59.7206
 1537.5000     0.6384    59.7169
 1538.0000     0.6376    59.7132
 1538.5000     0.6369    59.7094
 1539.0000     0.6361    59.8946
 1539.5000     0.6353    59.8900
 1540.0000     0.5311    59.8863
 1540.5000     0.5349    59.8826
 1541.0000     0.5392    59.8790
 1541.5000     0.5436    59.8753
 1542.0000     0.5479    59.8717
 1542.5000     0.6620    60.0566
 1543.0000     0.6618    60.0648
 1543.5000     0.6616    60.2380
 1544.0000     0.7838    60.0447
 1544.5000     0.7855    59.8532
 1545.0000     0.7877    60.0383
 1545.5000     0.7899    60.2233
 1546.0000     0.7924    60.4074
 1546.5000     0.5198    60.4037
