~VERSION INFORMATION
 VERS.                2.0:   CWLS LOG ASCII STANDARD - VERSION 2.0
 WRAP.                 NO:   ONE LINE PER DEPTH STEP
~WELL INFORMATION
#MNEM.UNIT      DATA TYPE    INFORMATION
#----------   ------------   ------------------------------
 STRT.F            0.0000:   START DEPTH
 STOP.F          546.0000:   STOP DEPTH
 STEP.F            0.5000:   STEP LENGTH
 NULL.          -999.2500:   NO VALUE
 COMP. LAWRENCE/ALLISON INC:   COMPANY
 WELL.   NPR 3 #76-21SX10:   WELL
 FLD .             TEAPOT:   FIELD
 LOC .      S10 T38N R78W:   LOCATION
 CNTY.            NATRONA:   COUNTY
 STAT.            WYOMING:   STATE
 CTRY. UNITED STATES OF AMERICA:   COUNTRY
 SRVC.      Dresser Atlas:   SERVICE COMPANY
 DATE.        22-JUL-1984:   LOGDATE
 API .       490251097000:   API NUMBER
~CURVE INFORMATION
#MNEM.UNIT       API CODE    CURVE DESCRIPTION
#----------   ------------   ------------------------------
 DEPT.F                  :   
 CALD.IN     45 280 60 00:   CALIPER FROM DENSITY LOG
 DEN .G/C3   45 350 01 00:   COMPENSATED BULK DENSTIY
 CORR.G/C3   45 356 01 00:   DENSITY CORRECTION
 DPHI.DEC    45 890 12 00:   POROSITY DENSITY SANDSTONE
 CNC .DEC    42 890 03 00:   NEUTRON POROSITY SANDSTONE
 GRR .GAPI   07 310 01 00:   GAMMA RAY
 SPR .MV     07 010 01 00:   SPONTANEOUS POTENTIAL
 RILD.OHMM   07 120 46 00:   INDUCTION LOG DEEP RESISTIVITY
 RILM.OHMM   07 120 44 00:   INDUCTION LOG MEDIUM RESISTIVITY
 RFOC.OHMM   07 220 04 00:   RESISTIVITY FOCUSED LOG
 AC  .US/F   60 520 00 00:   ACCOUSTIC
~PARAMETER INFORMATION
#MNEM.UNIT          VALUE    DESCRIPTION
#----------   ------------   ------------------------------
 PD  .                 GL:   PERMANENT DATUM
 EPD .F              5167:   ELEVATION PERMANENT DATUM
 LMF .                 GL:   LOG MEASURED FROM
 DMF .                 GL:   DRILLING MEASURED FROM
 EGL .F              5167:   GROUND LEVEL
 DATE.        22-JUL-1984:   RUN DATE
 RUN .                  1:   RUN NUMBER
 DD  .F               551:   DEPTH DRILLER
 DL  .F               547:   DEPTH LOGGER
 BLI .F               544:   BOTTOM LOG INTERVAL
 CS  .IN            9.625:   CASING SIZE
 CBD .F                40:   CASING BOTTOM DRILLER
 CBL .F                42:   CASING BOTTOM LOGGER
 BS  .IN            7.875:   BIT SIZE
 BSD .F               551:   BIT SIZE AT DEPTH
 DFT .        KCL POLYMER:   DRILLING FLUID TYPE
 MSS .           FLOWLINE:   MUD SAMPLE SOURCE
 RMS .OHMM           .193:   RESISTIVITY MUD SAMPLE
 MST .F                75:   MUD SAMPLE TEMPERATURE
 RMF .OHMM           .144:   RESISTIVITY MUD FILTRATE SAMPLE
 MFST.F                75:   MUD FILTRATE SAMPLE TEMPERATURE
 RMC .OHMM            .24:   RESISTIVITY MUD CAKE
 MCST.F                74:   MUD CAKE SAMPLE TEMPERATURE
 MFSS.               CALC:   MUD FILTRATE SAMPLE SOURCE
 MCSS.               CALC:   MUD CAKE SAMPLE SOURCE
 TCS .HRS               5:   TIME CURCULATED STOPPED
 MRT .F                90:   MAXIMUM RECORDED TEMPERATURE
 LUN .               6274:   LOGGING UNIT NUMBER
 LUL .               GLTE:   LOGGING UNIT LOCATION
 ENGI.             RAUTIO:   RECORDING ENGINEER
 WITN.              FIVAS:   WITNESSED BY
 CLNT.            A2DTECH:   CLIENT CODE
 ORIG.       2", 5" PRINT:   ORIGIN OF DATA
 UWI .       490251097000:   UNIQUE WELL ID
 DICO. A2D Technologies, Inc.:   DIGITIZING COMPANY
~OTHER INFORMATION
~A    DEPT    CALD        DEN       CORR       DPHI        CNC         GRR       SPR       RILD       RILM       RFOC         AC   
# ...
  427.0000     7.9200     2.4920     0.0430     0.0960     0.2510    94.9480   -19.4140    12.9240    10.3390    13.9900    89.2260
  427.5000     7.9240     2.4960     0.0480     0.0930     0.2510    94.8260   -19.4180    12.9560    10.3150    13.9160    89.3820
  428.0000     7.9270     2.5010     0.0500     0.0910     0.2560    96.7200   -19.2520    13.0010    10.2830    13.8520    89.6460
  428.5000     7.9310     2.5000     0.0480     0.0910     0.2590    98.7740   -18.7790    12.9200    10.2510    13.7870    89.9090
  429.0000     7.9310     2.4940     0.0410     0.0940     0.2570    97.8720   -17.8460    12.7810    10.2010    13.7360    90.1990
  429.5000     7.9320     2.4860     0.0350     0.0990     0.2540    97.3310   -16.6780    12.6420    10.1270    13.6100    90.5970
  430.0000     7.9330     2.4820     0.0280     0.1020     0.2530    98.1700   -15.5130    12.4780    10.0530    13.4860    91.1780
  430.5000     7.9330     2.4920     0.0230     0.0960     0.2540   100.1980   -14.6050    12.2270     9.9790    13.1960    91.7070
  431.0000     7.9340     2.5020     0.0220     0.0910     0.2560   102.5360   -14.3480    11.9760     9.7140    13.0010    92.2890
  431.5000     7.9350     2.5000     0.0150     0.0910     0.2580   104.3530   -14.0830    11.7250     9.5370    12.6670    92.4680
  432.0000     7.9360     2.4970     0.0130     0.0940     0.2560   104.5630   -13.8590    11.5030     9.4270    12.3470    92.6870
  432.5000     7.9360     2.4940     0.0220     0.0950     0.2560   104.5420   -13.7310    11.3630     9.3260    12.3050    92.7160
  433.0000     7.9370     2.4970     0.0300     0.0940     0.2570   105.0940   -14.3010    11.2230     9.2480    12.3050    92.7500
  433.5000     7.9380     2.4990     0.0410     0.0920     0.2590   104.7060   -14.9210    11.0870     9.1710    12.2790    92.7860
  434.0000     7.9380     2.4990     0.0540     0.0910     0.2580   103.1200   -15.5310    10.9600     9.0940    12.2280    92.9650
  434.5000     7.9390     2.4950     0.0490     0.0930     0.2570   103.2870   -16.4660    10.8340     9.0110    12.1570    93.1840
  435.0000     7.9400     2.4870     0.0360     0.0980     0.2540   104.6380   -17.4570    10.6910     8.9560    12.0450    93.5530
  435.5000     7.9400     2.4820     0.0330     0.1020     0.2560   104.5300   -18.4510    10.4470     8.8970    11.9340    93.9630
  436.0000     7.9410     2.4880     0.0420     0.1010     0.2630   103.5100   -19.4460    10.3160     8.8470    11.7760    94.3720
  436.5000     7.9420     2.5010     0.0470     0.0930     0.2640   104.2710   -20.4370    10.2770     8.6530    11.5360    94.5890
  437.0000     7.9430     2.5100     0.0430     0.0850     0.2600   105.9550   -21.3160    10.2390     8.5290    11.3890    94.6130
  437.5000     7.9430     2.5070     0.0240     0.0870     0.2600   107.1760   -21.7290    10.2090     8.5290    11.2680    94.6360
  438.0000     7.9440     2.5020     0.0010     0.0890     0.2650   107.5050   -22.1530    10.1800     8.5290    11.1250    94.6600
  438.5000     7.9450     2.5050     0.0180     0.0880     0.2710   107.5190   -22.2990    10.1510     8.5290    11.2520    94.6090
  439.0000     7.9450     2.5120     0.0370     0.0840     0.2660   107.4970   -22.1120    10.1210     8.5560    11.4070    94.3860
  439.5000     7.9460     2.5120     0.0350     0.0830     0.2600   106.1760   -21.8290    10.0920     8.6070    11.5620    94.1620
  440.0000     7.9470     2.5140     0.0340     0.0820     0.2640   103.3100   -21.2050    10.0620     8.5610    11.7020    93.9380
  440.5000     7.9470     2.5250     0.0470     0.0770     0.2690   102.4150   -20.5890    10.0370     8.4580    11.8230    93.9300
  441.0000     7.9480     2.5340     0.0700     0.0700     0.2640   102.3790   -19.8960    10.0130     8.3550    11.8620    94.4280
  441.5000     7.9490     2.5350     0.0660     0.0700     0.2600   102.1050   -19.2770     9.9880     8.2530    11.8090    94.9250
  442.0000     7.9500     2.5310     0.0630     0.0720     0.2670   101.9850   -18.6580     9.9660     8.1800    11.6470    95.4230
  442.5000     7.9500     2.5290     0.0640     0.0740     0.2710   105.4610   -18.2710     9.7350     8.1210    11.3460    95.8710
  443.0000     7.9530     2.5350     0.0690     0.0690     0.2670   109.0850   -18.3870     9.5260     8.0610    11.0750    96.0110
  443.5000     7.9570     2.5400     0.0730     0.0670     0.2650   111.5200   -18.4930     9.3260     7.9990    10.8030    96.1660
  444.0000     7.9610     2.5380     0.0680     0.0690     0.2690   110.4580   -18.5990     9.1740     7.8980    10.6270    96.3220
  444.5000     7.9650     2.5310     0.0630     0.0730     0.2730   108.7930   -18.7900     9.0220     7.7910    10.6270    96.3150
  445.0000     7.9700     2.5310     0.0580     0.0720     0.2790   110.1020   -19.1920     8.8700     7.6850    10.6100    96.2080
  445.5000     7.9680     2.5310     0.0540     0.0710     0.2860   111.4300   -19.7210     8.7180     7.5990    10.5130    96.1020
  446.0000     7.9650     2.5310     0.0480     0.0710     0.2880   110.0890   -20.4540     8.6230     7.5290    10.4160    96.2190
  446.5000     7.9620     2.5270     0.0400     0.0740     0.2810   105.6600   -21.1830     8.5440     7.4670    10.3190    96.4320
  447.0000     7.9590     2.5220     0.0320     0.0770     0.2760   106.3040   -21.9500     8.4640     7.4090    10.2370    96.6450
  447.5000     7.9570     2.5180     0.0330     0.0800     0.2720   108.7600   -22.7660     8.3370     7.3270    10.2030    96.8590
  448.0000     7.9540     2.5160     0.0470     0.0800     0.2680   109.6600   -23.5810     8.2010     7.1630    10.1690    97.2140
  448.5000     7.9510     2.5230     0.0590     0.0770     0.2740   107.8980   -24.3940     8.0720     6.9990    10.1510    97.9730
  449.0000     7.9610     2.5220     0.0700     0.0770     0.2900   106.0920   -25.1560     8.0060     6.8350    10.1510    98.8430
  449.5000     7.9720     2.5100     0.0730     0.0840     0.2970   105.8000   -25.6820     7.9690     6.7560     9.9950    99.4530
  450.0000     7.9840     2.4980     0.0570     0.0910     0.2900   110.2080   -25.9340     7.9260     6.7200     9.4710    98.9820
  450.5000     7.9840     2.4880     0.0420     0.0970     0.2780   115.0210   -25.9260     8.0000     6.9530     8.6860    98.0770
  451.0000     7.9730     2.4910     0.0430     0.0960     0.2720   113.9050   -25.5560     8.1060     7.1560     9.0050    97.1720
  451.5000     7.9620     2.5030     0.0450     0.0880     0.2670   110.7880   -25.1460     8.2220     7.3370     9.5930    96.3680
  452.0000     7.9510     2.5120     0.0460     0.0840     0.2630   108.3900   -24.3880     8.4740     7.5170    10.3020    95.7310
  452.5000     7.9560     2.5080     0.0480     0.0850     0.2700   106.2580   -23.3190     8.8240     7.7140    10.7580    95.1570
  453.0000     7.9610     2.5040     0.0490     0.0880     0.2740   105.7570   -22.3730     9.2430     7.9450    11.0340    94.5840
  453.5000     7.9660     2.5000     0.0460     0.0900     0.2680   106.1550   -21.5280     9.6440     8.1470    11.3310    94.0100
  454.0000     7.9680     2.5030     0.0380     0.0890     0.2570   105.4600   -20.6160     9.9260     8.2790    11.5280    93.4370
  454.5000     7.9610     2.5070     0.0310     0.0860     0.2510   102.7970   -19.9310    10.1000     8.4050    11.7540    93.1000
  455.0000     7.9540     2.5110     0.0230     0.0840     0.2600   101.9680   -19.4580    10.1780     8.4970    11.9010    92.8510
  455.5000     7.9530     2.5120     0.0310     0.0830     0.2670   103.4590   -19.2080    10.2560     8.5890    12.0590    92.7040
  456.0000     7.9580     2.5120     0.0510     0.0840     0.2710   105.0060   -19.0370    10.3390     8.6860    12.1930    92.7540
  456.5000     7.9630     2.5170     0.0680     0.0790     0.2750   103.5530   -19.1390    10.3140     8.7680    12.1390    92.8040
  457.0000     7.9680     2.5230     0.0620     0.0760     0.2780   101.3150   -19.3240    10.2890     8.8530    12.0930    92.8540
