~VERSION INFORMATION
 VERS.                2.0:   CWLS LOG ASCII STANDARD - VERSION 2.0
 WRAP.                 NO:   ONE LINE PER DEPTH STEP
~WELL INFORMATION
#MNEM.UNIT      DATA TYPE    INFORMATION
#----------   ------------   ------------------------------
 STRT.F            0.0000:   START DEPTH
 STOP.F          419.0000:   STOP DEPTH
 STEP.F            0.5000:   STEP LENGTH
 NULL.          -999.2500:   NO VALUE
 COMP.       F D SERV INC:   COMPANY
 WELL.   63-4 SX-1 #63-10:   WELL
 FLD .             TEAPOT:   FIELD
 LOC .      S10 T38N R78W:   LOCATION
 CNTY.            NATRONA:   COUNTY
 STAT.            WYOMING:   STATE
 CTRY. UNITED STATES OF AMERICA:   COUNTRY
 SRVC.            Unknown:   SERVICE COMPANY
 DATE.        05-JAN-1992:   LOGDATE
 API .       490252257000:   API NUMBER
~CURVE INFORMATION
#MNEM.UNIT       API CODE    CURVE DESCRIPTION
#----------   ------------   ------------------------------
 DEPT.F                  :   
 GR  .GAPI   35 310 01 00:   GAMMA RAY
 NEUT.NAPI   35 330 01 00:   NEUTRON
~PARAMETER INFORMATION
#MNEM.UNIT          VALUE    DESCRIPTION
#----------   ------------   ------------------------------
 PD  .                 GL:   PERMANENT DATUM
 EPD .F              5177:   ELEVATION PERMANENT DATUM
 LMF .                 KB:   LOG MEASURED FROM
 DAPD.F                10:   FEET ABOVE PERMANENT DATUM
 DMF .                 KB:   DRILLING MEASURED FROM
 EKB .F              5187:   KELLING BUSHING
 EGL .F              5177:   GROUND LEVEL
 DATE.        05-JAN-1992:   RUN DATE
 RUN .                  1:   RUN NUMBER
 DD  .F               490:   DEPTH DRILLER
 DL  .F               421:   DEPTH LOGGER
 BLI .F               421:   BOTTOM LOG INTERVAL
 BSD .F               490:   BIT SIZE AT DEPTH
 DFT .              WATER:   DRILLING FLUID TYPE
 TCS .HRS            0200:   TIME CURCULATED STOPPED
 TLAB.HRS            0300:   TIME LOGGER AT BOTTOM
 LUN .                509:   LOGGING UNIT NUMBER
 LUL .           GILLETTE:   LOGGING UNIT LOCATION
 ENGI.           L.GOERES:   RECORDING ENGINEER
 WITN.            B.SYLAR:   WITNESSED BY
 CLNT.            A2DTECH:   CLIENT CODE
 ORIG.           5" PRINT:   ORIGIN OF DATA
 UWI .       490252257000:   UNIQUE WELL ID
 DICO. A2D Technologies, Inc.:   DIGITIZING COMPANY
~OTHER INFORMATION
~A    DEPT       GR      NEUT   
    0.0000    90.3829  -999.2500
    0.5000    88.8673  -999.2500
    1.0000    84.6110  -999.2500
    1.5000    77.2692  -999.2500
    2.0000    74.7644  -999.2500
    2.5000    69.6973  -999.2500
    3.0000    62.6891  -999.2500
    3.5000    58.7345  -999.2500
    4.0000    57.8332  -999.2500
    4.5000    56.0160  -999.2500
    5.0000    44.4277  -999.2500
    5.5000    41.9634  -999.2500
    6.0000    38.3542  -999.2500
    6.5000    39.2850  -999.2500
    7.0000    47.2387  -999.2500
    7.5000    33.5131  -999.2500
    8.0000    31.3867  -999.2500
    8.5000    36.2907  -999.2500
    9.0000    45.1605  -999.2500
    9.5000    51.1562  -999.2500
   10.0000    64.7358  -999.2500
   10.5000    75.1323  -999.2500
   11.0000    77.5898  -999.2500
   11.5000    75.7725  -999.2500
   12.0000    81.2835  -999.2500
   12.5000    84.0464  -999.2500
   13.0000    84.6719  -999.2500
   13.5000    81.9386  -999.2500
   14.0000    86.2319  -999.2500
   14.5000    92.0482  -999.2500
   15.0000    94.2004  -999.2500
   15.5000    95.1313  -999.2500
   16.0000    96.0621  -999.2500
   16.5000    99.4357  -999.2500
   17.0000    99.7639  -999.2500
   17.5000    98.2137  -999.2500
   18.0000    96.7320  -999.2500
   18.5000    96.1361  -999.2500
   19.0000    94.9332  -999.2500
   19.5000    87.6198  -999.2500
   20.0000    89.7720  -999.2500
   20.5000    93.1456  -999.2500
   21.0000    92.8550  -999.2500
   21.5000    91.9538  -999.2500
   22.0000    91.0562  -999.2500
   22.5000    88.9336  -999.2500
   23.0000    90.6992  -999.2500
   23.5000    90.4900  -999.2500
   24.0000    88.6727  -999.2500
   24.5000    89.9089  -999.2500
   25.0000    89.9237  -999.2500
   25.5000    82.0733  -999.2500
   26.0000    77.1325  -999.2500
   26.5000    69.5137  -999.2500
   27.0000    65.5591  -999.2500
   27.5000    66.7952  -999.2500
   28.0000    65.2833  -999.2500
   28.5000    65.2981  -999.2500
   29.0000    64.6982  -999.2500
   29.5000    63.4534  -999.2500
   30.0000    62.2891  -999.2500
   30.5000    64.4450  -999.2500
   31.0000    65.6812  -999.2500
   31.5000    67.2227  -999.2500
   32.0000    70.5963  -999.2500
   32.5000    71.8324  -999.2500
   33.0000    71.8472  -999.2500
   33.5000    69.7246  -999.2500
   34.0000    70.6592  -999.2500
   34.5000    69.7579  -999.2500
   35.0000    67.9370  -999.2500
   35.5000    69.1768  -999.2500
   36.0000    70.1077  -999.2500
   36.5000    69.8171  -999.2500
   37.0000    69.5266  -999.2500
   37.5000    74.1730  -999.2500
   38.0000    74.7470    -9.8028
   38.5000    43.8941   -10.0095
   39.0000    35.9091   -10.4680
   39.5000    37.8350   -10.6962
   40.0000    37.0490   -11.0784
   40.5000    37.2795   -11.9999
   41.0000    37.9618   -11.6117
   41.5000    36.6110    -9.8141
   42.0000    35.5990    -9.1404
   42.5000    35.4895   -11.7560
   43.0000    35.2694   -12.0619
   43.5000    34.4833   -11.1337
   44.0000    34.3749   -10.1292
   44.5000    35.3134    -7.1986
   45.0000    35.7407    -2.0338
   45.5000    36.0842     5.5198
   46.0000    36.4265     7.2947
   46.5000    35.7534     4.4472
   47.0000    35.9851    -1.0966
   47.5000    36.2156    -4.8686
   48.0000    36.2202    -8.5636
   48.5000    36.2248    -8.2524
   49.0000    35.7775    -6.8627
   49.5000    35.3279    -8.7087
   50.0000    34.8707    -9.7072
   50.5000    35.7925    -9.5151
   51.0000    36.4748   -10.8561
   51.5000    38.0608   -10.0057
   52.0000    39.4196    -9.5412
   52.5000    38.5218   -10.3078
   53.0000    39.4300   -11.7686
   53.5000    40.4512   -12.3827
   54.0000    40.5687   -11.6856
   54.5000    38.7661   -11.0632
   55.0000    38.0930   -10.5136
   55.5000    37.8717    -9.2105
   56.0000    37.6104    -5.4325
   56.5000    37.4291    -4.1968
   57.0000    37.2089    -5.4265
   57.5000    36.3099    -6.7332
   58.0000    35.7498    -8.0407
   58.5000    35.7544    -6.7272
   59.0000    35.8719    -5.6364
   59.5000    36.2154    -4.5285
   60.0000    35.8812    -3.5588
   60.5000    34.9821    -4.8332
   61.0000    33.6088    -6.1384
   61.5000    33.1841    -6.9043
   62.0000    34.9971    -8.2095
   62.5000    36.0171    -8.5902
   63.0000    35.1181    -7.0438
   63.5000    35.8016    -5.9607
   64.0000    36.5968    -6.4196
   64.5000    37.7298    -2.5619
   65.0000    36.1542    -1.4788
   65.5000    35.4811    -0.7039
   66.0000    34.9210    -1.3927
   66.5000    35.0436    -3.0832
   67.0000    35.0282    -4.0971
   67.5000    34.3712    -5.4613
   68.0000    33.9240    -7.7681
   68.5000    33.9286    -6.1457
   69.0000    34.1591    -3.1366
   69.5000    35.0673    -2.1305
   70.0000    35.7496    -2.0501
   70.5000    36.2060    -2.0445
   71.0000    35.0811    -1.5778
   71.5000    34.4080    -2.0452
   72.0000    33.2731    -2.1851
   72.5000    33.5263    -2.7958
   73.0000    34.0841    -5.1796
   73.5000    34.4276    -5.0981
   74.0000    34.7710    -3.4757
   74.5000    35.3393    -1.1599
   75.0000    34.5544     0.2054
   75.5000    33.9942     1.1611
   76.0000    33.0952     0.5492
   76.5000    33.4386    -1.7579
   77.0000    33.3302    -5.3744
   77.5000    33.3349    -5.1271
   78.0000    33.3396    -3.7874
   78.5000    33.6832    -3.5119
   79.0000    33.6887    -8.1287
   79.5000    33.2415    -8.7417
   80.0000    32.7943    -8.2738
   80.5000    32.3471    -8.4234
   81.0000    32.8035    -9.2664
   81.5000    33.3729    -8.7226
   82.0000    33.3775    -7.6333
   82.5000    33.4950    -6.5293
   83.0000    33.2737    -4.0084
   83.5000    32.9395    -4.0039
   84.0000    33.4312    -3.4601
   84.5000    32.4980    -2.8404
   85.0000    32.2756    -5.0701
   85.5000    32.2813    -3.6007
   86.0000    32.5119    -3.4421
   86.5000    33.4201    -3.2018
   87.0000    34.6671    -2.6410
   87.5000    35.4624    -2.3489
   88.0000    35.0152    -3.2689
   88.5000    34.4551    -1.4154
   89.0000    34.0029     1.9793
   89.5000    34.0277     3.5246
   90.0000    35.0348     3.9902
   90.5000    35.9430     0.4731
   91.0000    35.9476    -3.7805
   91.5000    35.7263    -3.0826
   92.0000    33.3589     0.9281
   92.5000    32.4588     1.0096
   93.0000    33.0293     1.8616
   93.5000    33.7116     3.0987
   94.0000    34.1680     4.5003
   94.5000    36.6877     6.8344
   95.0000    43.3390     7.5818
   95.5000    46.9465     8.2785
   96.0000    47.4029     7.1285
   96.5000    45.9392     7.0548
   97.0000    44.9272     7.4457
   97.5000    43.9152     6.6027
   98.0000    42.7903     5.5286
   98.5000    43.0208     5.6117
   99.0000    43.7031     7.4217
   99.5000    44.3855     7.9304
  100.0000    46.0843     6.4722
  100.5000    46.3181     6.0920
  101.0000    45.8562     6.1776
  101.5000    45.1909     6.7238
  102.0000    44.2726     8.9649
  102.5000    42.9628    11.4371
  103.0000    42.1780    10.0572
  103.5000    42.7525     9.0625
  104.0000    42.6654     8.5301
  104.5000    41.7510     7.8436
  105.0000    43.6790     8.3127
  105.5000    47.7531     4.1163
  106.0000    46.1796     1.8829
  106.5000    45.6058     1.5537
  107.0000    46.1952     2.7581
  107.5000    46.5419     4.5738
  108.0000    47.3404     3.2692
  108.5000    48.3648     5.8972
  109.0000    46.8742     8.2924
  109.5000    44.6531     7.6812
  110.0000    45.8358     8.9224
  110.5000    46.9477     8.6194
  111.0000    47.7282     9.5525
  111.5000    48.0729     9.3283
  112.0000    46.9532     9.4122
  112.5000    46.1704     9.8043
  113.0000    46.0633    10.1946
  113.5000    45.8452     9.8180
  114.0000    45.0643     5.5105
  114.5000    44.0536     5.7485
  115.0000    44.4023     5.3702
  115.5000    44.9749     4.9131
  116.0000    43.8532     7.7722
  116.5000    42.9574     9.3970
  117.0000    42.1726     9.5208
  117.5000    43.6507     7.7928
  118.0000    45.0140     7.3374
  118.5000    45.4736     8.7311
  119.0000    46.1592     8.0401
  119.5000    45.7152     7.6515
  120.0000    45.3840     7.3649
  120.5000    46.6345     7.7835
  121.0000    48.9013     6.9182
