~VERSION INFORMATION
 VERS.                2.0:   CWLS LOG ASCII STANDARD - VERSION 2.0
 WRAP.                 NO:   ONE LINE PER DEPTH STEP
~WELL INFORMATION
#MNEM.UNIT      DATA TYPE    INFORMATION
#----------   ------------   ------------------------------
 STRT.F         1050.0000:   START DEPTH
 STOP.F         2592.5000:   STOP DEPTH
 STEP.F            0.5000:   STEP LENGTH
 NULL.          -999.2500:   NO VALUE
 COMP. LAWRENCE/ALLISON INC:   COMPANY
 WELL. NAVAL PETROLEUM RESERVE 3 X15 #34-15:   WELL
 FLD .            WILDCAT:   FIELD
 LOC .      S15 T38N R78W:   LOCATION
 CNTY.            NATRONA:   COUNTY
 STAT.            WYOMING:   STATE
 CTRY. UNITED STATES OF AMERICA:   COUNTRY
 SRVC.            Unknown:   SERVICE COMPANY
 DATE.        07-AUG-1988:   LOGDATE
 API .       490251125500:   API NUMBER
~CURVE INFORMATION
#MNEM.UNIT       API CODE    CURVE DESCRIPTION
#----------   ------------   ------------------------------
 DEPT.F                  :   
 ROP .MIN/FT 91 810 01 00:   RATE OF DRILLING PENETRATION
 TGAS.UNITS  91 830 01 00:   TOTAL GAS FROM HOTWIRE
~PARAMETER INFORMATION
#MNEM.UNIT          VALUE    DESCRIPTION
#----------   ------------   ------------------------------
 EKB .F              5286:   KELLING BUSHING
 EGL .F              5276:   GROUND LEVEL
 DATE.           9-7-1988:   RUN DATE
 RUN .                  1:   RUN NUMBER
 DD  .F              2592:   DEPTH DRILLER
 CBD .F              1044:   CASING BOTTOM DRILLER
 ENGI.               HUSK:   RECORDING ENGINEER
 CLNT.            A2DTECH:   CLIENT CODE
 ORIG.           5" PRINT:   ORIGIN OF DATA
 UWI .       490251125500:   UNIQUE WELL ID
 DICO. A2D Technologies, Inc.:   DIGITIZING COMPANY
~OTHER INFORMATION
~A  DEPT         ROP     TGAS   
# ...
 1657.5000     0.5990     4.5956
 1658.0000     0.6477     4.5617
 1658.5000     0.6600     4.5278
 1659.0000     0.6604     4.4939
 1659.5000     0.6607     4.4601
 1660.0000     0.6747     4.4262
 1660.5000     0.7297     4.3923
 1661.0000     0.7831     4.3584
 1661.5000     0.8364     4.3244
 1662.0000     0.8894     4.2906
 1662.5000     0.9210     4.2670
 1663.0000     0.9062     4.3032
 1663.5000     0.8925     4.3395
 1664.0000     0.8869     4.3757
 1664.5000     0.8868     4.4119
 1665.0000     0.8868     4.4481
 1665.5000     0.8868     4.4842
 1666.0000     0.8867     4.5204
 1666.5000     0.8797     4.5566
 1667.0000     0.8630     4.5928
 1667.5000     0.8463     4.6289
 1668.0000     0.8288     4.6651
 1668.5000     0.8240     4.7013
 1669.0000     0.8460     4.7375
 1669.5000     0.8716     4.7726
 1670.0000     0.8983     4.8069
 1670.5000     0.8996     4.8408
 1671.0000     0.8995     4.8746
 1671.5000     0.9006     4.9085
 1672.0000     0.8549     4.9424
 1672.5000     0.7948     4.9763
 1673.0000     0.7343     5.0102
 1673.5000     0.6738     5.0441
 1674.0000     0.6134     5.0780
 1674.5000     0.5530     5.1119
 1675.0000     0.4925     5.1458
 1675.5000     0.4317     5.1797
 1676.0000     0.4125     5.2136
 1676.5000     0.4294     5.2475
 1677.0000     0.4463     5.2814
 1677.5000     0.4596     5.3152
 1678.0000     0.4583     5.3491
 1678.5000     0.4384     5.3830
 1679.0000     0.4194     5.4169
 1679.5000     0.4291     5.4508
 1680.0000     0.5095     5.4847
 1680.5000     0.5878     5.5186
 1681.0000     0.6659     5.5525
 1681.5000     0.7437     5.5864
 1682.0000     0.8008     5.6203
 1682.5000     0.7693     5.6542
 1683.0000     0.7276     5.6880
 1683.5000     0.6853     5.7219
 1684.0000     0.6309     5.7586
 1684.5000     0.5708     5.6953
 1685.0000     0.5107     5.5958
 1685.5000     0.4511     5.4955
 1686.0000     0.4078     5.3951
 1686.5000     0.4086     5.2920
 1687.0000     0.4177     5.2466
 1687.5000     0.4300     5.2193
 1688.0000     0.4573     5.1930
 1688.5000     0.4906     5.1666
 1689.0000     0.5239     5.1401
 1689.5000     0.5475     5.1136
 1690.0000     0.5190     5.0871
 1690.5000     0.4875     5.0606
 1691.0000     0.4550     5.0342
 1691.5000     0.4467     5.0077
 1692.0000     0.4464     4.9812
 1692.5000     0.4465     4.9547
 1693.0000     0.4465     4.9282
 1693.5000     0.4459     4.9017
 1694.0000     0.4753     4.8752
 1694.5000     0.5159     4.8487
 1695.0000     0.5569     4.8222
 1695.5000     0.5992     4.7958
 1696.0000     0.6096     4.7693
 1696.5000     0.5779     4.7428
 1697.0000     0.5419     4.7163
 1697.5000     0.5059     4.6898
 1698.0000     0.4688     4.6633
 1698.5000     0.4593     4.6368
 1699.0000     0.4590     4.6103
 1699.5000     0.4591     4.5838
 1700.0000     0.4591     4.5574
 1700.5000     0.4592     4.5309
 1701.0000     0.4591     4.5044
 1701.5000     0.4470     4.4779
 1702.0000     0.4331     4.4514
 1702.5000     0.4193     4.4249
 1703.0000     0.4055     4.3984
 1703.5000     0.3916     4.3719
 1704.0000     0.3842     4.3454
 1704.5000     0.4022     4.3189
 1705.0000     0.4206     4.2924
 1705.5000     0.4390     4.2659
 1706.0000     0.4421     4.2618
 1706.5000     0.4349     4.2618
 1707.0000     0.4277     4.2618
 1707.5000     0.4207     4.2618
 1708.0000     0.4178     4.2618
 1708.5000     0.4147     4.2618
 1709.0000     0.4116     4.2618
 1709.5000     0.4088     4.2618
 1710.0000     0.4088     4.2618
 1710.5000     0.4089     4.2618
 1711.0000     0.4171     4.2618
 1711.5000     0.4340     4.2618
 1712.0000     0.4510     4.2618
 1712.5000     0.4680     4.2618
 1713.0000     0.4849     4.2618
 1713.5000     0.5020     4.2618
 1714.0000     0.5198     4.2613
 1714.5000     0.5011     4.2788
 1715.0000     0.4758     4.3008
 1715.5000     0.4500     4.3231
 1716.0000     0.4248     4.3453
 1716.5000     0.3950     4.3676
 1717.0000     0.3980     4.3898
 1717.5000     0.3998     4.4120
 1718.0000     0.4013     4.4342
 1718.5000     0.4029     4.4564
 1719.0000     0.4045     4.4787
 1719.5000     0.4061     4.5009
 1720.0000     0.4077     4.5231
 1720.5000     0.4115     4.5453
 1721.0000     0.4217     4.5675
 1721.5000     0.4315     4.5897
 1722.0000     0.4412     4.6120
 1722.5000     0.4358     4.6342
 1723.0000     0.4135     4.6564
 1723.5000     0.3904     4.6786
 1724.0000     0.3838     4.7011
 1724.5000     0.3836     4.7239
 1725.0000     0.3836     4.7449
 1725.5000     0.3837     4.7099
 1726.0000     0.3837     4.4089
 1726.5000     0.3837     4.1101
 1727.0000     0.3836     3.8117
 1727.5000     0.3845     3.5143
 1728.0000     0.3858     3.2791
 1728.5000     0.3871     3.4241
 1729.0000     0.3885     3.5715
 1729.5000     0.3898     3.7209
 1730.0000     0.3911     3.8038
 1730.5000     0.3925     3.8667
 1731.0000     0.3938     3.9285
 1731.5000     0.3951     3.9905
 1732.0000     0.3981     4.0525
 1732.5000     0.4088     4.1146
 1733.0000     0.4195     4.1766
 1733.5000     0.4302     4.2388
 1734.0000     0.4409     4.2900
 1734.5000     0.4516     4.3352
 1735.0000     0.4622     4.3804
 1735.5000     0.4728     4.4255
 1736.0000     0.4863     4.4706
 1736.5000     0.4915     4.5157
 1737.0000     0.4559     4.5609
 1737.5000     0.4195     4.6062
 1738.0000     0.3834     4.6515
 1738.5000     0.3579     4.6954
 1739.0000     0.3585     4.7396
 1739.5000     0.3585     4.5561
 1740.0000     0.3586     4.1620
 1740.5000     0.3679     3.7659
 1741.0000     0.3865     3.3484
 1741.5000     0.4051     3.6749
 1742.0000     0.4187     4.2387
 1742.5000     0.3979     4.2656
 1743.0000     0.3768     4.2628
 1743.5000     0.3557     4.2618
 1744.0000     0.3459     4.2618
 1744.5000     0.3461     4.2618
 1745.0000     0.3517     4.2618
 1745.5000     0.3712     4.2618
 1746.0000     0.3899     4.2618
 1746.5000     0.4087     4.2618
 1747.0000     0.4276     4.2618
 1747.5000     0.4456     4.2618
 1748.0000     0.4272     4.2618
 1748.5000     0.4068     4.2618
 1749.0000     0.3868     4.2618
 1749.5000     0.3666     4.2618
 1750.0000     0.3758     4.2618
 1750.5000     0.4037     4.2618
 1751.0000     0.4087     4.2618
 1751.5000     0.4089     4.2618
 1752.0000     0.4088     4.2616
 1752.5000     0.4088     4.2606
 1753.0000     0.4089     4.2627
 1753.5000     0.4100     4.2765
 1754.0000     0.3750     4.7153
 1754.5000     0.3351     4.7734
 1755.0000     0.2948     4.7648
 1755.5000     0.2549     4.7629
 1756.0000     0.2376     4.7632
 1756.5000     0.2580     4.7632
 1757.0000     0.2778     4.7632
 1757.5000     0.2975     4.7632
 1758.0000     0.3016     4.7632
 1758.5000     0.2748     4.7632
 1759.0000     0.2488     4.7632
 1759.5000     0.2230     4.7632
 1760.0000     0.2201     4.7632
 1760.5000     0.2194     4.7625
 1761.0000     0.2467     4.7615
 1761.5000     0.2842     4.7661
 1762.0000     0.3220     4.9314
 1762.5000     0.3597     5.5985
 1763.0000     0.3975     5.8180
 1763.5000     0.4365     5.9314
 1764.0000     0.4462     6.0392
 1764.5000     0.4255     6.1487
 1765.0000     0.4018     6.2626
 1765.5000     0.3781     6.2684
 1766.0000     0.3545     6.2676
 1766.5000     0.3335     6.2674
 1767.0000     0.3332     6.2674
 1767.5000     0.3327     6.2674
 1768.0000     0.3586     6.2674
 1768.5000     0.3944     6.2674
 1769.0000     0.4303     6.2674
 1769.5000     0.4660     6.2675
 1770.0000     0.4792     6.2677
 1770.5000     0.4601     6.2669
 1771.0000     0.4414     6.2661
 1771.5000     0.4216     6.1090
 1772.0000     0.4240     5.7959
 1772.5000     0.4898     5.4860
 1773.0000     0.5535     5.2859
 1773.5000     0.6171     5.3925
 1774.0000     0.6827     5.4909
 1774.5000     0.6860     5.5889
 1775.0000     0.6858     5.6874
 1775.5000     0.6859     5.7857
 1776.0000     0.7266     5.8840
 1776.5000     0.8080     5.9823
 1777.0000     0.8890     6.0808
 1777.5000     0.9614     6.1792
 1778.0000     0.9185     6.2668
 1778.5000     0.8309     6.2678
