~VERSION INFORMATION
 VERS.                2.0:   CWLS LOG ASCII STANDARD - VERSION 2.0
 WRAP.                 NO:   ONE LINE PER DEPTH STEP
~WELL INFORMATION
#MNEM.UNIT      DATA TYPE    INFORMATION
#----------   ------------   ------------------------------
 STRT.F            0.0000:   START DEPTH
 STOP.F          453.5000:   STOP DEPTH
 STEP.F            0.5000:   STEP LENGTH
 NULL.          -999.2500:   NO VALUE
 COMP. BROWN JOHN E&C INC:   COMPANY
 WELL. NAVAL PETROLEUM RESERVE 3 SX-1 #54-1-10:   WELL
 FLD .             TEAPOT:   FIELD
 LOC .      S10 T38N R78W:   LOCATION
 CNTY.            NATRONA:   COUNTY
 STAT.            WYOMING:   STATE
 CTRY. UNITED STATES OF AMERICA:   COUNTRY
 SRVC.     Atlas Wireline:   SERVICE COMPANY
 DATE.        22-APR-1991:   LOGDATE
 API .       490251133200:   API NUMBER
~CURVE INFORMATION
#MNEM.UNIT       API CODE    CURVE DESCRIPTION
#----------   ------------   ------------------------------
 DEPT.F                  :   
 GRR .GAPI   07 310 01 00:   GAMMA RAY
 RILD.OHMM   07 120 46 00:   INDUCTION LOG DEEP RESISTIVITY
 RILM.OHMM   07 120 44 00:   INDUCTION LOG MEDIUM RESISTIVITY
~PARAMETER INFORMATION
#MNEM.UNIT          VALUE    DESCRIPTION
#----------   ------------   ------------------------------
 PD  .                 GL:   PERMANENT DATUM
 EPD .F              5199:   ELEVATION PERMANENT DATUM
 LMF .                 KB:   LOG MEASURED FROM
 DAPD.F                 5:   FEET ABOVE PERMANENT DATUM
 DMF .                 KB:   DRILLING MEASURED FROM
 EKB .F              5204:   KELLING BUSHING
 EGL .F              5199:   GROUND LEVEL
 DATE.        22-APR-1991:   RUN DATE
 RUN .                  1:   RUN NUMBER
 DD  .F               460:   DEPTH DRILLER
 DL  .F               461:   DEPTH LOGGER
 BLI .F               459:   BOTTOM LOG INTERVAL
 TLI .F                 0:   TOP LOG INTERVAL
 CS  .IN            8.625:   CASING SIZE
 CBD .F                45:   CASING BOTTOM DRILLER
 CBL .F                44:   CASING BOTTOM LOGGER
 BS  .IN            7.875:   BIT SIZE
 BSD .F               460:   BIT SIZE AT DEPTH
 DFT .                AIR:   DRILLING FLUID TYPE
 LUN .           HL- 6307:   LOGGING UNIT NUMBER
 LUL .             CASPER:   LOGGING UNIT LOCATION
 ENGI.          OTTERHOLT:   RECORDING ENGINEER
 WITN.   HERRMANN/ STRONG:   WITNESSED BY
 CLNT.            A2DTECH:   CLIENT CODE
 ORIG.           5" PRINT:   ORIGIN OF DATA
 UWI .       490251133200:   UNIQUE WELL ID
 DICO. A2D Technologies, Inc.:   DIGITIZING COMPANY
~OTHER INFORMATION
~A    DEPT      GRR      RILD       RILM   
# ...
  273.0000    89.9337    29.3370    33.2448
  273.5000    94.4533    29.5355    32.5427
  274.0000    95.0440    29.7315    32.0922
  274.5000    91.6848    29.7130    32.3052
  275.0000    86.5125    29.7153    32.2965
  275.5000    83.4668    29.7053    32.5128
  276.0000    89.1985    29.6973    32.7305
  276.5000    94.9353    29.4838    32.7216
  277.0000    94.9147    29.0692    32.4863
  277.5000    93.9798    28.8602    32.2527
  278.0000    93.6612    28.2574    31.7992
  278.5000    95.4536    27.8600    31.1349
  279.0000    97.8571    27.2405    30.4562
  279.5000   101.7759    26.1558    29.4341
  280.0000   102.3664    25.2562    28.4217
  280.5000    97.7951    24.3875    27.2541
  281.0000    96.2644    23.5487    26.3167
  281.5000    99.2689    23.0569    25.0610
  282.0000   104.7028    22.5753    24.3677
  282.5000   110.4697    22.4130    23.6935
  283.0000   111.6311    22.0977    23.1986
  283.5000   111.9135    22.0916    22.7140
  284.0000   113.4028    22.0844    22.5296
  284.5000   115.8063    22.0784    22.3870
  285.0000   119.4220    22.2263    22.3810
  285.5000   120.0125    22.3767    22.6879
  286.0000   114.2292    22.5266    23.0006
  286.5000   108.1479    22.6762    23.4770
  287.0000   107.8122    23.1472    23.8006
  287.5000   110.5308    23.6418    24.2938
  288.0000   108.0807    24.6254    24.7983
  288.5000   106.8479    25.1389    25.1442
  289.0000   106.8272    25.3072    25.6607
  289.5000   108.3216    25.1236    25.6521
  290.0000   110.1192    25.1168    25.6451
  290.5000   108.5833    24.9362    25.2844
  291.0000   105.8353    24.5856    24.9289
  291.5000   106.1177    24.4088    24.7496
  292.0000   110.6504    24.4020    24.5716
  292.5000   115.3433    24.2251    24.2261
  293.0000   118.1769    24.0509    24.0519
  293.5000   117.8480    23.8780    23.8788
  294.0000   115.4031    23.7063    23.6851
  294.5000   110.2309    23.5359    23.3722
  295.0000   103.2405    23.2049    23.0435
  295.5000   105.0380    23.0381    22.8778
  296.0000   107.1385    22.7140    22.5561
  296.5000   109.2391    22.2382    22.2389
  297.0000   111.6850    22.0783    22.0789
  297.5000   114.3492    22.0723    22.0730
  298.0000   112.5052    22.0664    22.0570
  298.5000   108.8481    21.9077    22.2148
  299.0000   107.9236    21.5997    22.3635
  299.5000   112.7463    21.5765    22.6687
  300.0000   114.2459    21.5880    22.5052
  300.5000   111.4512    21.4317    22.0320
  301.0000   108.0829    21.1302    21.4195
  301.5000   105.6939    20.6888    20.9692
  302.0000   107.9639    20.3978    20.3862
  302.5000   108.9861    19.9716    20.2368
  303.0000   106.5356    19.8279    19.9494
  303.5000   105.9139    19.5490    19.8032
  304.0000   107.7059    19.4084    19.7950
  304.5000   111.0181    19.2687    19.7869
  305.0000   111.3055    18.8662    19.7788
  305.5000   107.6429    18.7304    19.6338
  306.0000   104.5916    18.3391    19.2193
  306.5000   102.4495    17.8317    18.5393
  307.0000   100.9133    17.3383    17.9006
  307.5000    99.9833    16.9761    17.3960
  308.0000   100.2653    16.6183    16.9324
  308.5000   102.3656    16.2662    16.9254
  309.0000   103.5567    15.9341    17.0382
  309.5000   104.7479    15.9296    17.1499
  310.0000   106.8481    16.1471    17.2623
  310.5000   108.6454    16.3696    17.2535
  311.0000   107.0767    16.3640    17.2464
  311.5000   102.4755    16.3595    17.1199
  312.0000   103.1999    16.2418    16.9945
  312.5000   105.2281    16.2373    16.6372
  313.0000   103.3837    16.0089    16.5152
  313.5000   101.5447    15.8937    16.2807
  314.0000   104.5540    15.7794    16.1613
  314.5000   109.0784    15.5574    16.0429
  315.0000   114.2089    15.4455    15.9252
  315.5000   117.8244    15.2282    15.8084
  316.0000   116.5913    15.0140    15.6925
  316.5000   112.6309    14.8028    15.6846
  317.0000   108.3676    14.5946    15.5697
  317.5000   106.2253    14.4896    15.3486
  318.0000   105.9013    14.2858    15.3422
  318.5000   105.5773    14.1830    15.2298
  319.0000   106.7685    14.0809    15.2235
  319.5000   109.4748    13.9773    15.0073
  320.0000   114.3024    13.7829    14.6918
  320.5000   116.1001    13.7791    14.7881
  321.0000   110.6240    13.7752    14.9889
  321.5000   105.7467    14.0606    15.0887
  322.0000   103.9155    14.1557    15.0809
  322.5000   104.8036    14.4488    15.1800
  323.0000   104.4788    14.6469    15.3859
  323.5000   102.6352    14.7460    15.4867
  324.0000    99.8869    14.6389    15.5882
  324.5000   102.5932    14.5335    15.5816
  325.0000   106.2087    14.4290    15.4673
  325.5000   105.5816    14.1275    15.1409
  326.0000   106.7728    14.0259    15.0299
  326.5000   110.9943    13.8286    14.7139
  327.0000   113.4027    13.6341    14.6060
  327.5000   111.2553    13.3492    14.2989
  328.0000   111.8404    13.2532    13.9983
  328.5000   112.1277    12.9763    13.7040
  329.0000   108.4651    12.7052    13.4159
  329.5000   102.9896    12.5265    13.1338
  330.0000   104.4839    12.4364    13.1284
  330.5000   109.0083    12.5196    13.2145
  331.0000   111.1085    12.7815    13.3013
  331.5000   111.0876    13.2335    13.4817
  332.0000   111.0665    13.7118    13.9524
  332.5000   111.6616    14.6165    14.9532
  333.0000   113.7520    16.1651    17.3625
  333.5000   113.6534    17.4438    20.6358
  334.0000   110.6143    18.8237    23.2495
  334.5000   101.8656    20.8849    26.1952
  335.0000    96.0871    23.1720    28.0678
  335.5000    88.4904    25.1792    29.6594
  336.0000    84.5300    27.3604    31.1244
  336.5000    83.3021    28.9158    32.4356
  337.0000    85.3972    29.9295    33.3391
  337.5000    90.8307    30.3419    33.0913
  338.0000    95.0521    29.7060    32.6214
  338.5000   100.1827    29.4923    32.3823
  339.0000    98.0405    29.4841    31.7015
  339.5000    95.5953    29.4760    31.6884
  340.0000    94.6653    29.6754    31.6754
  340.5000    95.5533    29.6652    31.6624
  341.0000    98.2597    29.8637    31.6494
  341.5000   101.2691    29.8555    32.0790
  342.0000   102.1576    29.8473    32.5143
  342.5000    99.7120    29.6326    32.9895
  343.0000    96.0429    29.6243    33.6357
  343.5000    94.8212    29.2075    33.3858
  344.0000    95.4709    28.9678    32.4576
  344.5000    97.5526    28.7885    31.5552
  345.0000   100.8140    28.7791    30.6780
  345.5000   101.7073    28.3742    30.2423
  346.0000    98.6508    27.9751    30.0206
  346.5000    98.6299    27.3906    29.8006
  347.0000   100.4271    26.4484    29.3774
  347.5000   104.6485    25.7166    28.7597
  348.0000   107.0571    25.0051    27.9602
  348.5000   104.9096    24.4827    27.1829
  349.0000    98.5251    23.9712    26.2442
  349.5000    92.7465    23.6340    25.5146
  350.0000    88.7913    23.3988    25.1520
  350.5000    95.8436    22.6395    24.4595
  351.0000   101.5656    22.3339    24.2869
  351.5000   105.7092    22.4839    24.2836
  352.0000   112.3609    22.4744    24.2803
  352.5000   113.8649    22.4667    24.2768
  353.0000   110.2099    22.4591    24.2455
  353.5000   101.7101    22.4515    24.1015
  354.0000    97.7596    22.6007    24.2670
  354.5000   100.1652    22.7503    24.4329
  355.0000   100.4571    23.0659    24.9431
  355.5000   100.1353    23.5382    25.2886
  356.0000    98.3023    24.0257    25.8184
  356.5000    96.4692    24.1830    25.9948
  357.0000    94.3331    24.0074    25.8105
  357.5000    93.1060    23.8332    25.6284
  358.0000    93.7172    23.4964    25.2714
  358.5000    95.3181    23.1644    24.9192
  359.0000   103.0576    22.6791    24.3739
  359.5000   110.0124    22.0502    23.7294
  360.0000   112.1224    21.4287    22.9163
  360.5000   105.1341    20.5321    22.1311
  361.0000    99.3616    19.5728    21.2248
  361.5000    96.3164    19.0300    20.4976
  362.0000    96.0023    18.5023    19.9332
  362.5000   103.8624    18.2408    19.2502
  363.0000   109.6051    17.8586    18.5906
  363.5000   110.2000    17.6063    18.0787
