~VERSION INFORMATION
 VERS.                2.0:   CWLS LOG ASCII STANDARD - VERSION 2.0
 WRAP.                 NO:   ONE LINE PER DEPTH STEP
~WELL INFORMATION
#MNEM.UNIT      DATA TYPE    INFORMATION
#----------   ------------   ------------------------------
 STRT.F            0.0000:   START DEPTH
 STOP.F          547.0000:   STOP DEPTH
 STEP.F            0.1000:   STEP LENGTH
 NULL.          -999.2500:   NO VALUE
 COMP.     BROWN JOHN E&C:   COMPANY
 WELL.    NPR 3 #86-1-X-3:   WELL
 FLD .             TEAPOT:   FIELD
 LOC .       S3 T38N R78W:   LOCATION
 CNTY.            NATRONA:   COUNTY
 STAT.            WYOMING:   STATE
 CTRY. UNITED STATES OF AMERICA:   COUNTRY
 SRVC.     Atlas Wireline:   SERVICE COMPANY
 DATE.        09-FEB-1992:   LOGDATE
 API .       490252249800:   API NUMBER
~CURVE INFORMATION
#MNEM.UNIT       API CODE    CURVE DESCRIPTION
#----------   ------------   ------------------------------
 DEPT.F                  :   
 GRR .GAPI   07 310 01 00:   GAMMA RAY
 RFOC.OHMM   07 220 04 00:   RESISTIVITY FOCUSED LOG
 RILD.OHMM   07 120 46 00:   INDUCTION LOG DEEP RESISTIVITY
 RILM.OHMM   07 120 44 00:   INDUCTION LOG MEDIUM RESISTIVITY
 SPR .MV     07 010 01 00:   SPONTANEOUS POTENTIAL
~PARAMETER INFORMATION
#MNEM.UNIT          VALUE    DESCRIPTION
#----------   ------------   ------------------------------
 PD  .                 GL:   PERMANENT DATUM
 EPD .F              5145:   ELEVATION PERMANENT DATUM
 LMF .                 KB:   LOG MEASURED FROM
 DAPD.F                10:   FEET ABOVE PERMANENT DATUM
 DMF .                 KB:   DRILLING MEASURED FROM
 EKB .F              5155:   KELLING BUSHING
 EDF .F              5154:   DRILLING FLOOR
 EGL .F              5145:   GROUND LEVEL
 DATE.        09-FEB-1992:   RUN DATE
 RUN .                  1:   RUN NUMBER
 DD  .F               562:   DEPTH DRILLER
 DL  .F               550:   DEPTH LOGGER
 BLI .F               547:   BOTTOM LOG INTERVAL
 CS  .IN            8.625:   CASING SIZE
 CBD .F               183:   CASING BOTTOM DRILLER
 CBL .F               181:   CASING BOTTOM LOGGER
 BS  .IN            7.875:   BIT SIZE
 BSD .F               562:   BIT SIZE AT DEPTH
 DFT .            GEL BAR:   DRILLING FLUID TYPE
 DFD .               17.8:   DRILLING FLUID DENSITY
 DFV .                 52:   DRILLING FLUID VISCOSITY
 DFPH.                  9:   DRILLING FLUID PH
 DFL .                5.2:   DRILLING FLUID LOSS
 MSS .           FLOWLINE:   MUD SAMPLE SOURCE
 RMS .OHMM           1.78:   RESISTIVITY MUD SAMPLE
 MST .F                68:   MUD SAMPLE TEMPERATURE
 RMF .OHMM          1.335:   RESISTIVITY MUD FILTRATE SAMPLE
 MFST.F                68:   MUD FILTRATE SAMPLE TEMPERATURE
 RMC .OHMM          2.225:   RESISTIVITY MUD CAKE
 MCST.F                68:   MUD CAKE SAMPLE TEMPERATURE
 MFSS.               MEAS:   MUD FILTRATE SAMPLE SOURCE
 MCSS.               MEAS:   MUD CAKE SAMPLE SOURCE
 TCS .HRS               3:   TIME CURCULATED STOPPED
 LUN .            HL 6274:   LOGGING UNIT NUMBER
 LUL .             CASPER:   LOGGING UNIT LOCATION
 ENGI.       P. RASMUSSEN:   RECORDING ENGINEER
 WITN.          G. STRONG:   WITNESSED BY
 CLNT.            A2DTECH:   CLIENT CODE
 ORIG.           5" PRINT:   ORIGIN OF DATA
 UWI .       490252249800:   UNIQUE WELL ID
 DICO. A2D Technologies, Inc.:   DIGITIZING COMPANY
~OTHER INFORMATION
~A    DEPT      GRR      RFOC       RILD       RILM        SPR   
# ...
  183.0000    94.7518     8.0458    10.8133     9.7808   -20.0603
  183.1000    94.5026     8.0629    10.8133     9.7106   -20.1124
  183.2000    94.2205     8.0629    10.8477     9.5980   -20.2373
  183.3000    94.0041     8.0629    10.9537     9.4688   -20.3620
  183.4000    93.7548     8.0648    11.1706     9.3769   -20.3620
  183.5000    93.5056     8.1195    11.5960     9.3374   -20.2627
  183.6000    93.2564     8.1594    11.8458     9.3374   -20.1378
  183.7000    93.0223     8.2071    12.1230     9.3242   -20.0603
  183.8000    93.0267     8.2551    12.4064     9.2700   -20.0387
  183.9000    92.8126     8.2915    12.6529     9.2078   -19.9095
  184.0000    92.3972     8.2937    12.7998     9.1177   -19.7888
  184.1000    92.0101     8.3496    12.9678     9.0800   -19.5691
  184.2000    91.7609     8.3910    13.1656     9.0564   -19.3881
  184.3000    91.4987     8.4082    13.3444     9.0037   -19.2632
  184.4000    90.9209     8.4082    13.4641     8.9513   -19.1212
  184.5000    90.4945     8.4206    13.5420     8.8916   -18.8537
  184.6000    90.1561     8.4671    13.6179     8.8476   -18.7375
  184.7000    89.9068     8.4082    13.5231     8.8297   -18.6126
  184.8000    89.6576     8.4082    13.3323     8.8297   -18.5520
  184.9000    89.4187     8.4082    13.0121     8.8430   -18.5520
  185.0000    89.4231     8.4082    12.6128     8.8946   -18.5395
  185.1000    89.6385     8.4082    12.1821     8.9540   -18.4012
  185.2000    90.0563     8.4082    11.7592     8.9540   -18.4012
  185.3000    90.4555     8.4082    11.2391     8.9540   -18.3155
  185.4000    90.7712     8.4082    10.5473     8.9540   -18.4298
  185.5000    91.2807     8.3758    10.0294     8.9678   -19.0083
  185.6000    91.8766     8.3271     9.8664     9.0168   -20.1166
  185.7000    92.2996     8.2915    10.0735     9.0168   -21.1161
  185.8000    92.6501     8.2915    10.5152     9.0168   -21.4374
  185.9000    93.0144     8.2915    10.8635     9.0168   -21.7310
  186.0000    93.5239     8.2915    11.1049     9.0168   -21.8703
  186.1000    94.0218     8.2915    11.2313     9.0168   -21.8997
  186.2000    93.7222     8.2915    11.2763     9.0168   -22.0246
  186.3000    93.3102     8.2915    11.2763     9.0168   -22.1719
  186.4000    92.9645     8.2915    11.2763     9.0168   -22.1719
  186.5000    92.5045     8.2915    11.2763     9.0168   -22.1719
  186.6000    91.5866     8.2915    11.2763     8.9918   -22.1719
  186.7000    90.0762     8.2915    11.2158     8.9540   -22.2217
  186.8000    88.5770     8.2915    11.0706     8.9540   -22.4736
  186.9000    88.1698     8.2915    10.8801     8.9540   -22.4736
  187.0000    87.5137     8.2915    10.6632     8.9540   -22.6697
  187.1000    86.6557     8.2915    10.4594     8.9540   -22.7753
  187.2000    85.7516     8.2915    10.1841     8.9289   -22.7753
  187.3000    85.2495     8.2915     9.9412     8.8916   -22.8160
  187.4000    84.6475     8.2915     9.7819     8.8872   -23.0769
  187.5000    84.2451     8.2915     9.6694     8.8297   -23.0769
  187.6000    83.8946     8.2915     9.4491     8.8297   -23.2639
  187.7000    83.7459     8.2915     9.3601     8.8297   -23.3786
  187.8000    83.7495     8.2915     9.3062     8.8297   -23.4620
  187.9000    83.7532     8.2915     9.2526     8.8297   -23.6802
  188.0000    84.0081     8.2915     9.2078     8.8297   -23.6802
  188.1000    84.2646     8.2915     9.2724     8.8297   -23.9100
  188.2000    84.5212     8.2915     9.2724     8.8297   -24.0709
  188.3000    84.7777     8.2915     9.3524     8.8297   -24.3220
  188.4000    85.0342     8.2915     9.4319     8.8297   -24.6596
  188.5000    85.2949     8.2915     9.4865     8.8297   -24.8869
  188.6000    85.5473     8.2674     9.5352     8.8297   -24.8869
  188.7000    85.8038     8.2337     9.5352     8.8297   -25.1076
  188.8000    86.0604     8.2337     9.5352     8.8297   -25.2730
  188.9000    86.2213     8.2337     9.5736     8.8297   -25.3979
  189.0000    86.1804     8.2337     9.6290     8.8297   -25.5229
  189.1000    85.9247     8.2000     9.6694     8.8297   -25.6478
  189.2000    85.9283     8.1764     9.6694     8.8297   -25.7919
  189.3000    85.9319     8.1764     9.6694     8.8297   -25.7919
  189.4000    85.7913     8.1764     9.6694     8.8297   -25.7919
  189.5000    85.6353     8.1764     9.6694     8.8297   -25.7919
  189.6000    85.6389     8.1764     9.6694     8.8297   -25.6229
  189.7000    85.6427     8.1764     9.6821     8.8297   -24.8687
  189.8000    85.6462     8.1764     9.7372     8.8297   -23.6802
  189.9000    85.6498     8.1764     9.7372     8.8297   -22.8698
  190.0000    85.6535     8.1819     9.7372     8.7828   -21.8703
  190.1000    85.7479     8.2337     9.7372     8.7682   -20.4747
  190.2000    86.0045     8.2337     9.7372     8.7418   -18.6883
  190.3000    86.2725     8.2337     9.7372     8.7072   -17.7979
  190.4000    87.0006     8.2337     9.7372     8.7072   -17.0618
  190.5000    87.3820     8.2337     9.7919     8.7072   -16.5058
  190.6000    87.7779     8.2337     9.8055     8.6605   -16.0769
  190.7000    88.1990     8.2337     9.8055     8.6465   -15.6571
  190.8000    88.5300     8.2337     9.8055     8.6465   -15.1765
  190.9000    89.3339     8.2337     9.8055     8.6465   -14.7813
  191.0000    91.0112     8.2337     9.8055     8.6465   -14.6631
  191.1000    92.0329     8.2180     9.8055     8.6465   -14.6305
  191.2000    92.6582     8.1764     9.8055     8.6465   -14.6305
  191.3000    93.0817     8.1764     9.8055     8.6465   -14.6305
  191.4000    93.3033     8.1764     9.8055     8.6734   -14.6596
  191.5000    93.3072     8.1764     9.8055     8.7072   -14.9321
  191.6000    93.3106     8.1764     9.8055     8.7072   -14.9321
  191.7000    93.1287     8.1764     9.8055     8.7072   -14.9321
  191.8000    92.6103     8.1764     9.8055     8.7072   -14.9321
  191.9000    91.8553     8.1764     9.8055     8.7072   -14.9681
  192.0000    91.0031     8.1764     9.8055     8.7346   -15.0830
  192.1000    89.3778     8.1413     9.8055     8.7682   -15.0830
  192.2000    87.9758     8.1195     9.8055     8.7682   -15.0830
  192.3000    86.0958     8.1195     9.7591     8.7682   -15.0830
  192.4000    84.8689     8.1195     9.7372     8.7682   -15.0830
  192.5000    84.2047     8.1195     9.7372     8.8064   -15.0830
  192.6000    83.1669     8.1195     9.7372     8.8297   -15.0885
  192.7000    81.8009     8.1549     9.7372     8.8297   -15.2338
  192.8000    80.8771     8.1764     9.7372     8.8221   -15.2338
  192.9000    80.0499     8.1764     9.7372     8.7682   -15.2338
  193.0000    79.6839     8.1764     9.7372     8.7682   -15.2338
  193.1000    79.7662     8.1764     9.7173     8.7682   -15.2607
  193.2000    80.0227     8.1764     9.6694     8.7682   -15.3856
  193.3000    80.3031     8.1764     9.6694     8.7502   -15.5354
  193.4000    80.5358     8.2030     9.6694     8.7072   -15.7355
  193.5000    80.7923     8.2337     9.6694     8.7072   -15.9854
  193.6000    81.3033     8.2337     9.6694     8.7072   -16.2835
  193.7000    82.2942     8.2337     9.6694     8.7072   -16.6584
  193.8000    83.7649     8.2337     9.6640     8.6789   -17.0437
  193.9000    84.8843     8.2337     9.6021     8.6284   -17.4080
  194.0000    85.7953     8.2337     9.5530     8.5863   -17.7828
  194.1000    86.6346     8.2337     9.5352     8.5863   -18.0880
  194.2000    87.5217     8.2417     9.5352     8.5863   -18.4253
  194.3000    88.3894     8.2915     9.5211     8.5482   -18.9251
  194.4000    88.8762     8.2915     9.4662     8.5265   -19.4570
  194.5000    89.1615     8.2915     9.4029     8.5083   -19.9246
  194.6000    88.9403     8.2915     9.3575     8.4671   -20.3333
  194.7000    88.6910     8.2915     9.3036     8.4671   -20.7081
  194.8000    88.4417     8.2915     9.2500     8.4671   -20.9653
  194.9000    88.1925     8.2915     9.1967     8.4292   -20.9653
  195.0000    87.9433     8.2446     9.1437     8.3802   -20.9653
  195.1000    87.6637     8.2337     9.1437     8.3496   -20.9653
