~VERSION INFORMATION
 VERS.                2.0:   CWLS LOG ASCII STANDARD - VERSION 2.0
 WRAP.                 NO:   ONE LINE PER DEPTH STEP
~WELL INFORMATION
#MNEM.UNIT      DATA TYPE    INFORMATION
#----------   ------------   ------------------------------
 STRT.F          630.0000:   START DEPTH
 STOP.F         1708.0000:   STOP DEPTH
 STEP.F            0.5000:   STEP LENGTH
 NULL.          -999.2500:   NO VALUE
 COMP. FENIX & SCISSON INC:   COMPANY
 WELL.      SHX 34 #58-34:   WELL
 FLD .             TEAPOT:   FIELD
 LOC .      S34 T39N R78W:   LOCATION
 CNTY.            NATRONA:   COUNTY
 STAT.            WYOMING:   STATE
 CTRY. UNITED STATES OF AMERICA:   COUNTRY
 SRVC.           BIRDWELL:   SERVICE COMPANY
 DATE.        28-MAR-1979:   LOGDATE
 API .       490251077400:   API NUMBER
~CURVE INFORMATION
#MNEM.UNIT       API CODE    CURVE DESCRIPTION
#----------   ------------   ------------------------------
 DEPT.F                  :   
 CORR.G/C3   45 356 01 00:   DENSITY CORRECTION
 DPHI.DEC    45 890 12 00:   DENSITY POROSITY SANDSTONE
 RHOB.G/C3   45 350 01 00:   BULK DENSITY
 CALD.IN     45 280 60 00:   CALIPER
 GRD .GAPI   45 310 01 00:   GAMMA RAY FROM DENSITY LOG
~PARAMETER INFORMATION
#MNEM.UNIT          VALUE    DESCRIPTION
#----------   ------------   ------------------------------
 PD  .                 GL:   PERMANENT DATUM
 EPD .F              5120:   ELEVATION PERMANENT DATUM
 LMF .                 KB:   LOG MEASURED FROM
 DAPD.F                10:   FEET ABOVE PERMANENT DATUM
 DMF .                 KB:   DRILLING MEASURED FROM
 EKB .F              5130:   KELLING BUSHING
 EGL .F              5120:   GROUND LEVEL
 DATE.            3-28-79:   RUN DATE
 RUN .                  2:   RUN NUMBER
 DD  .F              1720:   DEPTH DRILLER
 DL  .F              1708:   DEPTH LOGGER
 BLI .F              1708:   BOTTOM LOG INTERVAL
 TLI .F               649:   TOP LOG INTERVAL
 CS  .IN            9.625:   CASING SIZE
 CBD .F               639:   CASING BOTTOM DRILLER
 CBL .F               646:   CASING BOTTOM LOGGER
 BS  .IN             8.75:   BIT SIZE
 BSD .F              1720:   BIT SIZE AT DEPTH
 DFT .                OIL:   DRILLING FLUID TYPE
 TCS .HRS               3:   TIME CURCULATED STOPPED
 MRT .F               150:   MAXIMUM RECORDED TEMPERATURE
 LUN .               2959:   LOGGING UNIT NUMBER
 LUL .             CASPER:   LOGGING UNIT LOCATION
 ENGI.         B. ROLLINS:   RECORDING ENGINEER
 WITN.              AMEND:   WITNESSED BY
 CLNT.            A2DTECH:   CLIENT CODE
 ORIG.           5" PRINT:   ORIGIN OF DATA
 UWI .       490251077400:   UNIQUE WELL ID
 DICO. A2D Technologies, Inc.:   DIGITIZING COMPANY
~OTHER INFORMATION
~A   DEPT     CORR       DPHI       RHOB       CALD         GRD  
  630.0000  -999.2500  -999.2500  -999.2500  -999.2500    61.4000
  630.5000  -999.2500  -999.2500  -999.2500  -999.2500    64.2400
  631.0000  -999.2500  -999.2500  -999.2500  -999.2500    79.8000
  631.5000  -999.2500  -999.2500  -999.2500  -999.2500    92.2637
  632.0000  -999.2500  -999.2500  -999.2500  -999.2500    99.2962
  632.5000  -999.2500  -999.2500  -999.2500  -999.2500   108.7175
  633.0000  -999.2500  -999.2500  -999.2500  -999.2500   117.8000
  633.5000  -999.2500  -999.2500  -999.2500  -999.2500   114.8954
  634.0000  -999.2500  -999.2500  -999.2500  -999.2500    87.0716
  634.5000  -999.2500  -999.2500  -999.2500  -999.2500    70.2355
  635.0000  -999.2500  -999.2500  -999.2500  -999.2500    72.7233
  635.5000  -999.2500  -999.2500  -999.2500  -999.2500    69.4414
  636.0000  -999.2500  -999.2500  -999.2500  -999.2500    66.7951
  636.5000  -999.2500  -999.2500  -999.2500  -999.2500    67.6586
  637.0000  -999.2500  -999.2500  -999.2500  -999.2500    67.7891
  637.5000  -999.2500  -999.2500  -999.2500  -999.2500    64.9194
  638.0000  -999.2500  -999.2500  -999.2500  -999.2500    61.3599
  638.5000  -999.2500  -999.2500  -999.2500  -999.2500    63.0360
  639.0000  -999.2500  -999.2500  -999.2500  -999.2500    66.3614
  639.5000  -999.2500  -999.2500  -999.2500  -999.2500    70.2580
  640.0000  -999.2500  -999.2500  -999.2500  -999.2500    69.1824
  640.5000  -999.2500  -999.2500  -999.2500  -999.2500    68.7042
  641.0000  -999.2500  -999.2500  -999.2500     9.5000    70.4700
  641.5000  -999.2500  -999.2500  -999.2500     9.4600    71.8863
  642.0000  -999.2500  -999.2500  -999.2500     9.4600    72.9510
  642.5000  -999.2500  -999.2500  -999.2500     9.4600    71.8749
  643.0000  -999.2500  -999.2500  -999.2500     9.4600    70.4473
  643.5000  -999.2500  -999.2500  -999.2500     9.4600    69.6471
  644.0000  -999.2500  -999.2500  -999.2500     9.5138    70.2451
  644.5000  -999.2500  -999.2500  -999.2500     9.5899    74.9832
  645.0000  -999.2500  -999.2500  -999.2500     9.5781    88.0322
  645.5000  -999.2500  -999.2500  -999.2500    10.1895    96.1860
  646.0000    -0.4940     0.1971     2.1564    11.1955   100.8980
  646.5000    -0.4569     0.1613     2.3577    11.4426   108.5148
  647.0000    -0.1186     0.0878     2.4978    10.9123   109.5188
  647.5000     0.3546     0.0642     2.5672    10.4413   110.6525
  648.0000     0.4143     0.0406     2.6713    10.6108   113.1213
  648.5000     0.3413     0.0239     2.5919    10.5009   115.1661
  649.0000     0.0637     0.1203     2.3635    10.3627   117.2971
  649.5000     0.0503     0.1046     2.3707    10.1923   119.3381
  650.0000     0.0458     0.0913     2.3607    10.0263   120.8899
  650.5000     0.0395     0.0736     2.4260     9.9060   121.2319
  651.0000     0.0360     0.0575     2.4728     9.8218   119.9669
  651.5000     0.0356     0.0580     2.4652     9.6993   113.9332
  652.0000     0.0338     0.0585     2.4566     9.6998   116.3179
  652.5000     0.0322     0.0590     2.4475     9.6991   120.0966
  653.0000     0.0309     0.0546     2.4493     9.7015   119.8463
  653.5000     0.0293     0.0520     2.4546     9.6755   120.9035
  654.0000     0.0277     0.0533     2.4596     9.6591   123.6707
  654.5000     0.0262     0.0545     2.4647     9.6736   120.0812
  655.0000     0.0246     0.0557     2.4650     9.6887   111.6277
  655.5000     0.0230     0.0569     2.4571     9.7029   107.8516
  656.0000     0.0214     0.0574     2.4532     9.7177   112.3656
  656.5000     0.0198     0.0566     2.4526     9.7322   117.3359
  657.0000     0.0215     0.0549     2.4634     9.7468   117.2581
  657.5000     0.0242     0.0534     2.4697     9.7614   116.5553
  658.0000     0.0269     0.0525     2.4753     9.7760   118.3302
  658.5000     0.0274     0.0514     2.4791     9.7906   122.3576
  659.0000     0.0251     0.0503     2.4806     9.8052   126.0511
  659.5000     0.0230     0.0492     2.4784     9.8197   128.4582
  660.0000     0.0201     0.0490     2.4669     9.8343   127.3243
  660.5000     0.0246     0.0484     2.4622     9.8492   124.2152
  661.0000     0.0404     0.0454     2.4689     9.8602   125.3910
  661.5000     0.0478     0.0424     2.4685     9.8685   127.5585
  662.0000     0.0450     0.0390     2.4605     9.8790   129.6505
  662.5000     0.0432     0.0390     2.4577     9.8889   130.5020
  663.0000     0.0414     0.0388     2.4686     9.8995   127.5007
  663.5000     0.0394     0.0384     2.4833     9.8987   126.2413
  664.0000     0.0376     0.0380     2.4860     9.8963   126.9087
  664.5000     0.0357     0.0377     2.4834     9.8935   128.6725
  665.0000     0.0338     0.0376     2.4777     9.8911   126.1950
  665.5000     0.0319     0.0380     2.4711     9.8885   121.8520
  666.0000     0.0300     0.0385     2.4661     9.8859   117.8660
  666.5000     0.0281     0.0389     2.4758     9.8834   116.6668
  667.0000     0.0262     0.0399     2.4798     9.8808   117.4745
  667.5000     0.0243     0.0437     2.4754     9.8783   118.1533
  668.0000     0.0224     0.0475     2.4789     9.8757   118.0597
  668.5000     0.0205     0.0514     2.4743     9.8731   117.9679
  669.0000     0.0186     0.0552     2.4695     9.8704   117.8146
  669.5000     0.0167     0.0590     2.4635     9.8679   118.3787
  670.0000     0.0148     0.0629     2.4625     9.8657   120.1215
  670.5000     0.0129     0.0667     2.4595     9.8621   121.7261
  671.0000     0.0112     0.0705     2.4541     9.8608   122.9139
  671.5000     0.0101     0.0744     2.4361     9.8638   120.4030
  672.0000     0.0088     0.0782     2.4190     9.9202   117.4214
  672.5000     0.0073     0.0805     2.4049     9.9768   114.2311
  673.0000     0.0132     0.0789     2.4082    10.0352   111.2073
  673.5000     0.0222     0.0781     2.4151    10.0550   110.0796
  674.0000     0.0311     0.0790     2.4041    10.0031   116.2869
  674.5000     0.0237     0.0797     2.4118     9.9920   120.5894
  675.0000     0.0153     0.0747     2.4279     9.9736   122.4097
  675.5000     0.0132     0.0683     2.4459     9.9561   122.7660
  676.0000     0.0200     0.0619     2.4506     9.9397   117.5496
  676.5000     0.0177     0.0565     2.4424     9.9222   113.6988
  677.0000     0.0158     0.0550     2.4480     9.9054   116.3216
  677.5000     0.0239     0.0511     2.4658     9.8883   119.9856
  678.0000     0.0266     0.0446     2.4660     9.8702   121.0821
  678.5000     0.0196     0.0480     2.4562     9.8589   122.1852
  679.0000     0.0124     0.0566     2.4518     9.8597   122.0701
  679.5000     0.0107     0.0504     2.4527     9.8524   121.2864
  680.0000     0.0088     0.0436     2.4708     9.8462   118.8858
  680.5000     0.0073     0.0406     2.4871     9.8399   116.1353
  681.0000     0.0059     0.0391     2.5094     9.8335   113.6418
  681.5000     0.0042     0.0378     2.5050     9.8271   112.5226
  682.0000     0.0081     0.0364     2.4973     9.8207   120.7938
  682.5000     0.0127     0.0351     2.4908     9.8143   129.1765
  683.0000     0.0173     0.0343     2.4796     9.8079   134.1427
  683.5000     0.0225     0.0424     2.4672     9.8015   132.4037
  684.0000     0.0221     0.0527     2.4539     9.7952   127.4997
  684.5000     0.0178     0.0622     2.4403     9.7887   128.4413
  685.0000     0.0188     0.0645     2.4329     9.7820   127.5071
  685.5000     0.0298     0.0585     2.4434     9.7851   124.4683
  686.0000     0.0398     0.0473     2.4661     9.8094   122.9691
  686.5000     0.0470     0.0343     2.4884     9.8329   122.4232
  687.0000     0.0452     0.0327     2.4975     9.8572   124.9070
  687.5000     0.0369     0.0335     2.4881     9.8811   125.6374
  688.0000     0.0351     0.0372     2.4845     9.9050   123.6382
  688.5000     0.0387     0.0428     2.4798     9.9299   129.9632
  689.0000     0.0324     0.0492     2.4573     9.9406   131.0834
  689.5000     0.0367     0.0586     2.4453     9.9402   130.9361
  690.0000     0.0425     0.0516     2.4603     9.9405   128.8629
  690.5000     0.0476     0.0502     2.4596     9.9672   127.1887
