~VERSION INFORMATION
 VERS.                2.0:   CWLS LOG ASCII STANDARD - VERSION 2.0
 WRAP.                 NO:   ONE LINE PER DEPTH STEP
~WELL INFORMATION
#MNEM.UNIT      DATA TYPE    INFORMATION
#----------   ------------   ------------------------------
 STRT.F           50.0000:   START DEPTH
 STOP.F         1152.0000:   STOP DEPTH
 STEP.F            0.5000:   STEP LENGTH
 NULL.          -999.2500:   NO VALUE
 COMP. FENIX & SCISSON INC:   COMPANY
 WELL.  NPR 3 #65 SX14-14:   WELL
 FLD .             TEAPOT:   FIELD
 LOC .      S14 T38N R78W:   LOCATION
 CNTY.            NATRONA:   COUNTY
 STAT.            WYOMING:   STATE
 CTRY. UNITED STATES OF AMERICA:   COUNTRY
 SRVC.              Welex:   SERVICE COMPANY
 DATE.        13-JAN-1979:   LOGDATE
 API .       490251073800:   API NUMBER
~CURVE INFORMATION
#MNEM.UNIT       API CODE    CURVE DESCRIPTION
#----------   ------------   ------------------------------
 DEPT.F                  :   
 SPR .MV     07 010 01 00:   SPONTANEOUS POTENTIAL
 SGRD.OHMM   07 220 05 00:   SHALLOW GUARD RESISTIVITY
 ILD .OHMM   07 120 46 00:   INDUCTION LOG DEEP
 ILM .OHMM   07 120 44 00:   INDUCTION LOG MEDIUM
 CALD.IN     45 280 60 00:   CALIPER
 GRD .GAPI   45 310 01 00:   GAMMA RAY FROM DENSITY LOG
 RHOB.G/C3   45 350 01 00:   BULK DENSITY
 DPHI.DEC    45 890 12 00:   DENSITY POROSITY SANDSTONE
 CORR.G/C3   45 356 01 00:   DENSITY CORRECTION
~PARAMETER INFORMATION
#MNEM.UNIT          VALUE    DESCRIPTION
#----------   ------------   ------------------------------
 PD  .                 GL:   PERMANENT DATUM
 EPD .F              5312:   ELEVATION PERMANENT DATUM
 LMF .                 KB:   LOG MEASURED FROM
 DAPD.F                 4:   FEET ABOVE PERMANENT DATUM
 DMF .                 KB:   DRILLING MEASURED FROM
 EKB .F              5316:   KELLING BUSHING
 EGL .F              5312:   GROUND LEVEL
 DATE.            1-13-79:   RUN DATE
 RUN .                  1:   RUN NUMBER
 DD  .F              1167:   DEPTH DRILLER
 DL  .F              1154:   DEPTH LOGGER
 BLI .F              1152:   BOTTOM LOG INTERVAL
 TLI .F                50:   TOP LOG INTERVAL
 CS  .IN            8.625:   CASING SIZE
 CBD .F                40:   CASING BOTTOM DRILLER
 CBL .F                60:   CASING BOTTOM LOGGER
 BS  .IN            7.875:   BIT SIZE
 BSD .F              1167:   BIT SIZE AT DEPTH
 DFT .            KCL MUD:   DRILLING FLUID TYPE
 DFD .                8.8:   DRILLING FLUID DENSITY
 DFV .                 42:   DRILLING FLUID VISCOSITY
 DFPH.                8.2:   DRILLING FLUID PH
 DFL .                7.7:   DRILLING FLUID LOSS
 MSS .                PIT:   MUD SAMPLE SOURCE
 RMS .OHMM            .29:   RESISTIVITY MUD SAMPLE
 MST .F                40:   MUD SAMPLE TEMPERATURE
 RMF .OHMM            .19:   RESISTIVITY MUD FILTRATE SAMPLE
 MFST.F                40:   MUD FILTRATE SAMPLE TEMPERATURE
 RMC .OHMM            .87:   RESISTIVITY MUD CAKE
 MCST.F                40:   MUD CAKE SAMPLE TEMPERATURE
 MFSS.           MEASURED:   MUD FILTRATE SAMPLE SOURCE
 MCSS.           MEASURED:   MUD CAKE SAMPLE SOURCE
 RMB .OHMM           .119:   RESISTIVITY MUD AT BHT
 BHT .F                97:   BOTTOM HOLE TEMPERATURE
 TCS .HRS              30:   TIME CURCULATED STOPPED
 MRT .F                97:   MAXIMUM RECORDED TEMPERATURE
 LUN .               8611:   LOGGING UNIT NUMBER
 LUL .             CASPER:   LOGGING UNIT LOCATION
 ENGI.            BENTSEN:   RECORDING ENGINEER
 WITN.              AMEND:   WITNESSED BY
 CLNT.            A2DTECH:   CLIENT CODE
 ORIG.       2", 5" PRINT:   ORIGIN OF DATA
 UWI .       490251073800:   UNIQUE WELL ID
 DICO. A2D Technologies, Inc.:   DIGITIZING COMPANY
~OTHER INFORMATION
~A   DEPT      SPR       SGRD        ILD        ILM       CALD        GRD       RHOB       DPHI       CORR   
# ...
  743.5000   -28.9361     9.3428     7.7196     8.1345     7.8667   121.1961     2.5148     0.0907    -0.0252
  744.0000   -29.0926     9.2493     7.5438     8.0570     7.8584   115.9288     2.5288     0.0840    -0.0259
  744.5000   -29.0732     9.0743     7.3727     7.9748     7.8501   112.3281     2.5442     0.0759    -0.0241
  745.0000   -29.0413     8.9605     7.2061     7.8931     7.8442   116.9670     2.5479     0.0785    -0.0165
  745.5000   -29.0103     8.7493     7.0165     7.8124     7.8471   121.3864     2.5359     0.0837    -0.0089
  746.0000   -28.9795     8.5945     7.0703     7.7325     7.8498   125.5073     2.5234     0.0890    -0.0133
  746.5000   -28.9488     8.7313     7.1551     7.6535     7.8525   126.4264     2.5108     0.0941    -0.0195
  747.0000   -28.9180     8.9216     7.2410     7.5541     7.8552   124.7420     2.4997     0.0994    -0.0239
  747.5000   -28.8873     8.8426     7.3278     7.5875     7.8578   124.9624     2.5051     0.0918    -0.0272
  748.0000   -28.8565     8.7520     7.4157     7.6505     7.8605   126.1638     2.5032     0.0982    -0.0279
  748.5000   -28.8258     8.6757     7.5047     7.7140     7.8636   125.3681     2.5061     0.0942    -0.0240
  749.0000   -28.7950     8.8700     7.5947     7.7780     7.8540   124.6335     2.5198     0.0900    -0.0172
  749.5000   -28.7643     9.0117     7.6858     7.8382     7.8409   121.0201     2.5332     0.0857    -0.0074
  750.0000   -28.7335     9.2241     7.7780     8.2078     7.8277   116.5749     2.5465     0.0699     0.0049
  750.5000   -28.7028     9.7166     7.8713     8.5738     7.8148   117.1046     2.5543     0.0742     0.0131
  751.0000   -28.6721    10.2435     7.9657     8.9536     7.8100   119.2338     2.5449     0.0804     0.0082
  751.5000   -28.6413    13.3534     8.0613     9.4271     7.8347   120.3188     2.5316     0.0878     0.0037
  752.0000   -28.6106    17.1750     8.1334     9.3613     7.8587   119.7377     2.5392     0.0802     0.0011
  752.5000   -28.5798    10.1617     8.1330     9.2595     7.8826   123.5425     2.5620     0.0706     0.0080
  753.0000   -28.5489     9.5899     8.1000     9.1589     7.9032   126.6623     2.5762     0.0610     0.0132
  753.5000   -28.5189     9.7426     8.0746     9.0593     7.9028   123.9207     2.5708     0.0643     0.0072
  754.0000   -28.5249     9.9607     8.0493     8.9609     7.9021   119.8511     2.5664     0.0652     0.0011
  754.5000   -28.5886     9.5252     8.0241     8.8635     7.9015   118.3961     2.5718     0.0622    -0.0050
  755.0000   -28.6514     9.0020     7.9990     8.7672     7.9009   117.3446     2.5782     0.0583    -0.0060
  755.5000   -28.7146     9.0020     7.9739     8.6719     7.9004   116.2757     2.5847     0.0519    -0.0059
  756.0000   -28.7776     9.1034     7.9490     8.5950     7.8998   117.5902     2.5905     0.0568    -0.0043
  756.5000   -28.8406     9.2847     7.9241     8.7577     7.8992   120.1920     2.5714     0.0647     0.0014
  757.0000   -28.9036     9.4687     7.8921     8.5882     7.8986   122.4819     2.5695     0.0656     0.0068
  757.5000   -28.9667     9.6558     7.8246     8.3364     7.8980   125.7093     2.5687     0.0627     0.0119
  758.0000   -29.0297     9.8469     7.7578     8.1330     7.8975   128.8813     2.5651     0.0656     0.0107
  758.5000   -29.0927     9.9638     7.6914     8.1875     7.8969   126.8715     2.5577     0.0713     0.0077
  759.0000   -29.1558     9.4935     7.6257     8.2439     7.8963   123.3973     2.5515     0.0755     0.0047
  759.5000   -29.2188     9.0847     7.5605     8.2845     7.8957   124.8269     2.5538     0.0730     0.0040
  760.0000   -29.2850     9.1700     7.4958     8.2362     7.8951   124.5609     2.5536     0.0739     0.0040
  760.5000   -29.2738     9.2913     7.4318     8.1923     7.8946   126.0830     2.5465     0.0780     0.0040
  761.0000   -29.2375     9.3408     7.3682     8.1487     7.8940   127.9540     2.5411     0.0818     0.0040
  761.5000   -29.2005     9.2044     7.3052     8.1052     7.8934   126.4016     2.5462     0.0767     0.0040
  762.0000   -29.1638     9.1080     7.2428     8.0582     7.8928   123.3088     2.5450     0.0800     0.0040
  762.5000   -29.1271     9.0137     7.2104     7.9377     7.8922   120.7301     2.5389     0.0827     0.0040
  763.0000   -29.0903     8.9193     7.2046     7.8076     7.8917   123.7743     2.5398     0.0798     0.0040
  763.5000   -29.0536     9.4549     7.1989     7.6796     7.8911   126.0176     2.5456     0.0762     0.0040
  764.0000   -29.0169     9.8723     7.1931     7.5537     7.8905   125.1209     2.5415     0.0802     0.0040
  764.5000   -28.9802     9.2393     7.1873     7.4299     7.8899   121.9004     2.5466     0.0774     0.0026
  765.0000   -28.9435     8.8373     7.1816     7.2804     7.8893   122.9785     2.5443     0.0807    -0.0005
  765.5000   -28.9068     8.9548     7.1758     7.3859     7.8888   124.3013     2.5320     0.0847    -0.0037
  766.0000   -28.8701     9.0787     7.1701     7.5253     7.8882   122.4452     2.5219     0.0887    -0.0068
  766.5000   -28.8334     9.2043     7.1643     7.6673     7.8876   120.6627     2.5251     0.0898    -0.0100
  767.0000   -28.7967     9.3405     7.1586     7.7662     7.8870   118.8514     2.5275     0.0874    -0.0131
  767.5000   -28.7600     9.2959     7.1529     7.5723     7.8864   117.1188     2.5215     0.0893    -0.0162
  768.0000   -28.7233     9.2150     7.1466     7.4280     7.8858   122.9595     2.5212     0.0910    -0.0195
  768.5000   -28.6866     9.0854     7.0849     7.2865     7.8853   126.3682     2.5242     0.0898    -0.0182
  769.0000   -28.6499     9.5145     7.0238     7.2135     7.8847   125.0984     2.5328     0.0846    -0.0161
  769.5000   -28.6132     9.2238     6.9633     7.2377     7.8841   123.1564     2.5451     0.0793    -0.0139
  770.0000   -28.5765     8.6805     6.9033     7.4232     7.8853   121.8564     2.5579     0.0740    -0.0114
  770.5000   -28.5398     9.0042     6.8438     7.6134     7.8950   120.5444     2.5607     0.0691    -0.0056
  771.0000   -28.5031     8.8261     6.7849     7.8086     7.9046   120.3740     2.5592     0.0703     0.0003
  771.5000   -28.4664     8.7537     6.7264     7.9487     7.9141   122.7266     2.5740     0.0611     0.0056
  772.0000   -28.4296     9.2547     6.6684     8.0273     7.9233   119.6762     2.5612     0.0698    -0.0016
  772.5000   -28.3929     8.9307     6.6110     8.1066     7.9327   121.9432     2.5455     0.0806    -0.0093
  773.0000   -28.3562     8.8373     6.5775     8.1868     7.9417   124.8689     2.5363     0.0847    -0.0160
  773.5000   -28.3195     8.9397     6.6771     8.2677     7.9507   125.1307     2.5306     0.0860    -0.0195
  774.0000   -28.2828     9.0634     6.7407     8.3494     7.9597   125.2387     2.5289     0.0864    -0.0234
  774.5000   -28.2461     9.1888     6.8036     8.4320     7.9686   124.4496     2.5272     0.0868    -0.0255
  775.0000   -28.2094     9.3161     6.8670     8.5157     7.9776   123.6057     2.5254     0.0872    -0.0271
  775.5000   -28.1727     9.4449     6.9310     8.5971     7.9866   123.2094     2.5258     0.0875    -0.0263
  776.0000   -28.1358     9.5154     6.9956     8.5537     7.9956   123.8746     2.5325     0.0850    -0.0194
  776.5000   -28.1008     9.4179     7.0609     8.4897     8.0046   122.9933     2.5493     0.0794    -0.0080
  777.0000   -28.0998     9.3428     7.1267     8.4262     8.0136   122.2628     2.5653     0.0684     0.0033
  777.5000   -28.1000     9.2682     7.1931     8.3631     8.0225   123.6000     2.5778     0.0598     0.0110
  778.0000   -28.1000     9.1942     7.2602     8.3007     8.0316   125.9447     2.5739     0.0622     0.0055
  778.5000   -28.1000     9.1208     7.3278     8.2391     8.0416   124.5392     2.5700     0.0645     0.0003
  779.0000   -28.1000     9.0480     7.3478     8.0742     8.0111   121.9929     2.5684     0.0652    -0.0035
  779.5000   -28.1000     8.9290     7.2224     7.8194     7.9679   119.4250     2.5712     0.0632     0.0006
