~VERSION INFORMATION
 VERS.                2.0:   CWLS LOG ASCII STANDARD - VERSION 2.0
 WRAP.                 NO:   ONE LINE PER DEPTH STEP
~WELL INFORMATION
#MNEM.UNIT      DATA TYPE    INFORMATION
#----------   ------------   ------------------------------
 STRT.F           20.0000:   START DEPTH
 STOP.F         2420.0000:   STOP DEPTH
 STEP.F            0.5000:   STEP LENGTH
 NULL.          -999.2500:   NO VALUE
 COMP. FENIX & SCISSON INC:   COMPANY
 WELL.    SHX 15 #71-1-15:   WELL
 FLD .             TEAPOT:   FIELD
 LOC .      S15 T38N R78W:   LOCATION
 CNTY.            NATRONA:   COUNTY
 STAT.            WYOMING:   STATE
 CTRY. UNITED STATES OF AMERICA:   COUNTRY
 SRVC.           BIRDWELL:   SERVICE COMPANY
 DATE.        03-SEP-1978:   LOGDATE
 API .       490251081800:   API NUMBER
~CURVE INFORMATION
#MNEM.UNIT       API CODE    CURVE DESCRIPTION
#----------   ------------   ------------------------------
 DEPT.F                  :   
 CALD.IN     45 280 60 00:   CALIPER
 GRD .GAPI   45 310 01 00:   GAMMA RAY FROM DENSITY LOG
 RHOB.G/C3   45 350 01 00:   BULK DENSITY
 DPHI.DEC    45 890 12 00:   DENSITY POROSITY SANDSTONE
 CORR.G/C3   45 356 01 00:   DENSITY CORRECTION
 NPHI.DEC    42 890 03 00:   NEUTRON POROSITY
~PARAMETER INFORMATION
#MNEM.UNIT          VALUE    DESCRIPTION
#----------   ------------   ------------------------------
 PD  .                 GL:   PERMANENT DATUM
 EPD .F              5249:   ELEVATION PERMANENT DATUM
 LMF .                 KB:   LOG MEASURED FROM
 DAPD.F                10:   FEET ABOVE PERMANENT DATUM
 DMF .                 KB:   DRILLING MEASURED FROM
 EKB .F              5259:   KELLING BUSHING
 EGL .F              5249:   GROUND LEVEL
 DATE.             9-3-78:   RUN DATE
 RUN .                  1:   RUN NUMBER
 DD  .F              2450:   DEPTH DRILLER
 DL  .F              2422:   DEPTH LOGGER
 BLI .F              2420:   BOTTOM LOG INTERVAL
 TLI .F                50:   TOP LOG INTERVAL
 CS  .IN            9.625:   CASING SIZE
 CBD .F               650:   CASING BOTTOM DRILLER
 CBL .F               676:   CASING BOTTOM LOGGER
 BS  .IN             8.75:   BIT SIZE
 BSD .F              2450:   BIT SIZE AT DEPTH
 DFT .           AIR MIST:   DRILLING FLUID TYPE
 LUN .               2958:   LOGGING UNIT NUMBER
 LUL .               CASP:   LOGGING UNIT LOCATION
 ENGI.             MILLER:   RECORDING ENGINEER
 WITN.           MCGINLEY:   WITNESSED BY
 CLNT.            A2DTECH:   CLIENT CODE
 ORIG.         2.5" PRINT:   ORIGIN OF DATA
 UWI .       490251081800:   UNIQUE WELL ID
 DICO. A2D Technologies, Inc.:   DIGITIZING COMPANY
~OTHER INFORMATION
~A   DEPT     CALD        GRD       RHOB       DPHI       CORR         NPHI 
# ...
  800.0000    12.1000   128.3349     2.4695     0.1138     0.0877  -999.2500
  800.5000    12.1002   127.6825     2.4806     0.1083     0.0901  -999.2500
  801.0000    12.0984   127.2494     2.4973     0.1014     0.0873  -999.2500
  801.5000    12.0953   127.3717     2.4986     0.1040     0.0820  -999.2500
  802.0000    12.0924   131.2547     2.4819     0.1116     0.0766  -999.2500
  802.5000    12.0894   132.7964     2.4730     0.1193     0.0746  -999.2500
  803.0000    12.0865   131.1100     2.4602     0.1144     0.0772  -999.2500
  803.5000    12.0835   129.7767     2.4647     0.1124     0.0794  -999.2500
  804.0000    12.0805   128.0757     2.4643     0.1149     0.0816  -999.2500
  804.5000    12.0776   127.5799     2.4636     0.1145     0.0812  -999.2500
  805.0000    12.0745   127.6233     2.4818     0.1099     0.0667  -999.2500
  805.5000    12.0715   128.3092     2.4865     0.1053     0.0526  -999.2500
  806.0000    12.0694   129.1567     2.4843     0.1110     0.0345  -999.2500
  806.5000    12.0644   130.0869     2.4735     0.1166     0.0298  -999.2500
  807.0000    12.0642   130.3009     2.4767     0.1187     0.0300  -999.2500
  807.5000    12.0656   130.0231     2.4636     0.1195     0.0295  -999.2500
  808.0000    12.1601   129.8070     2.4565     0.1188     0.0359  -999.2500
  808.5000    12.2611   129.5709     2.4601     0.1175     0.0479  -999.2500
  809.0000    12.3037   129.3434     2.4691     0.1163     0.0600  -999.2500
  809.5000    12.2994   128.8997     2.4714     0.1165     0.0665  -999.2500
  810.0000    12.2998   126.9345     2.4651     0.1195     0.0680  -999.2500
  810.5000    12.3005   124.1631     2.4596     0.1187     0.0703  -999.2500
  811.0000    12.2999   125.0891     2.4554     0.1210     0.0787  -999.2500
  811.5000    12.3001   125.5152     2.4572     0.1233     0.0873  -999.2500
  812.0000    12.3001   125.0036     2.4588     0.1251     0.0938  -999.2500
  812.5000    12.2999   124.9968     2.4557     0.1210     0.0939  -999.2500
  813.0000    12.3001   125.8363     2.4530     0.1176     0.0986  -999.2500
  813.5000    12.3004   124.5017     2.4500     0.1076     0.1171  -999.2500
  814.0000    12.3078   121.0755     2.4609     0.0837     0.1342  -999.2500
  814.5000    12.3152   120.4836     2.4894     0.0884     0.1331  -999.2500
  815.0000    12.3233   120.7673     2.5106     0.0956     0.1069  -999.2500
  815.5000    12.3305   120.2433     2.4928     0.1016     0.0833  -999.2500
  816.0000    12.3393   118.7083     2.4751     0.1076     0.0824  -999.2500
  816.5000    12.3399   116.8430     2.4762     0.1138     0.0818  -999.2500
  817.0000    12.3401   119.0230     2.4738     0.1179     0.0799  -999.2500
  817.5000    12.3399   124.2083     2.4679     0.1194     0.0758  -999.2500
  818.0000    12.3400   128.4069     2.4632     0.1203     0.0704  -999.2500
  818.5000    12.3400   127.3893     2.4632     0.1183     0.0684  -999.2500
  819.0000    12.3400   124.6737     2.4626     0.1163     0.0665  -999.2500
  819.5000    12.3400   122.9767     2.4570     0.1179     0.0655  -999.2500
  820.0000    12.3400   124.4373     2.4524     0.1195     0.0578  -999.2500
  820.5000    12.3400   126.7606     2.4621     0.1251     0.0489  -999.2500
  821.0000    12.3400   128.0847     2.4698     0.1216     0.0487  -999.2500
  821.5000    12.3400   128.2025     2.4536     0.1203     0.0551  -999.2500
  822.0000    12.3400   127.5770     2.4526     0.1223     0.0602  -999.2500
  822.5000    12.3400   129.0906     2.4649     0.1243     0.0663  -999.2500
  823.0000    12.3400   131.3986     2.4598     0.1163     0.0595  -999.2500
  823.5000    12.3400   132.4755     2.4580     0.1084     0.0467  -999.2500
  824.0000    12.3400   132.3464     2.4669     0.1130     0.0349  -999.2500
  824.5000    12.3401   131.6199     2.4747     0.1177     0.0226  -999.2500
  825.0000    12.3400   130.5617     2.4736     0.1203     0.0171  -999.2500
  825.5000    12.3399   129.8089     2.4603     0.1217     0.0240  -999.2500
  826.0000    12.3406   129.5621     2.4477     0.1227     0.0400  -999.2500
  826.5000    12.3331   129.2341     2.4639     0.1143     0.0560  -999.2500
  827.0000    12.3145   129.4886     2.4830     0.1060     0.0625  -999.2500
  827.5000    12.2962   129.7836     2.4902     0.1052     0.0617  -999.2500
  828.0000    12.2784   129.9554     2.4817     0.1095     0.0641  -999.2500
  828.5000    12.2609   129.5329     2.4726     0.1138     0.0687  -999.2500
  829.0000    12.2602   128.3087     2.4648     0.1159     0.0701  -999.2500
  829.5000    12.2598   126.8847     2.4597     0.1134     0.0684  -999.2500
  830.0000    12.2601   126.8806     2.4558     0.1081     0.0667  -999.2500
  830.5000    12.2600   128.1195     2.4503     0.1029     0.0719  -999.2500
  831.0000    12.2600   127.9301     2.4555     0.0965     0.0802  -999.2500
  831.5000    12.2601   124.9473     2.4907     0.1049     0.0592  -999.2500
  832.0000    12.2600   117.7375     2.4841     0.1154     0.0242  -999.2500
  832.5000    12.2600   115.7827     2.4648     0.1258     0.0177  -999.2500
  833.0000    12.2603   113.4841     2.4448     0.1300     0.0180  -999.2500
  833.5000    12.2598   111.8400     2.4449     0.1292     0.0183  -999.2500
  834.0000    12.2596   109.4950     2.4459     0.1284     0.0281  -999.2500
  834.5000    12.2358   112.8407     2.4484     0.1257     0.0377  -999.2500
  835.0000    12.2047   118.3552     2.4498     0.1210     0.0476  -999.2500
  835.5000    12.1737   121.4140     2.4616     0.1163     0.0593  -999.2500
  836.0000    12.1434   119.3484     2.4997     0.0916     0.0347  -999.2500
  836.5000    12.1116   117.7518     2.4857     0.1226    -0.0001  -999.2500
  837.0000    12.0990   118.1791     2.4376     0.1242     0.0024  -999.2500
  837.5000    12.1001   122.0466     2.4451     0.1212     0.0022  -999.2500
  838.0000    12.1000   124.8758     2.4634     0.1176     0.0017  -999.2500
  838.5000    12.0998   123.9744     2.4669     0.1139     0.0019  -999.2500
  839.0000    12.1000   122.8715     2.4672     0.1139     0.0039  -999.2500
  839.5000    12.0999   123.3239     2.4613     0.1163     0.0076  -999.2500
  840.0000    12.1000   121.2676     2.4528     0.1183     0.0087  -999.2500
  840.5000    12.1000   117.4849     2.4534     0.1203     0.0134  -999.2500
  841.0000    12.1000   113.6131     2.4655     0.1151     0.0132  -999.2500
  841.5000    12.1000   110.9660     2.4762     0.1100     0.0119  -999.2500
  842.0000    12.1000   110.4364     2.4720     0.1135     0.0093  -999.2500
  842.5000    12.1000   110.6380     2.4671     0.1175     0.0050  -999.2500
  843.0000    12.1002   108.3040     2.4668     0.1183     0.0001  -999.2500
  843.5000    12.0975   107.4297     2.4693     0.1192    -0.0027  -999.2500
  844.0000    12.0906   111.3579     2.4666     0.1195    -0.0059  -999.2500
  844.5000    12.0838   114.9761     2.4590     0.1273    -0.0089  -999.2500
  845.0000    12.0774   114.8964     2.4388     0.1301    -0.0099  -999.2500
  845.5000    12.0708   111.7342     2.4397     0.1304    -0.0068  -999.2500
  846.0000    12.0628   108.3996     2.4421     0.1308    -0.0051  -999.2500
  846.5000    12.0684   108.8992     2.4451     0.1328    -0.0012  -999.2500
  847.0000    12.0931   109.4592     2.4450     0.1290     0.0046  -999.2500
  847.5000    12.1165   109.5686     2.4391     0.1256     0.0320  -999.2500
  848.0000    12.1396   108.8994     2.4341     0.1291     0.0558  -999.2500
  848.5000    12.1635   109.0066     2.4486     0.1327     0.0804  -999.2500
  849.0000    12.1876   110.0843     2.4445     0.1227     0.1092  -999.2500
  849.5000    12.2079   111.0270     2.4459     0.1168     0.1620  -999.2500
  850.0000    12.2537   111.1113     2.4571     0.0891     0.2140  -999.2500
  850.5000    12.3193   111.3019     2.5220     0.0611     0.2200  -999.2500
  851.0000    12.3800   111.5343     2.5349     0.0382     0.2118  -999.2500
  851.5000    12.4408   111.5677     2.5689     0.0682     0.1458  -999.2500
