~VERSION INFORMATION
 VERS.                2.0:   CWLS LOG ASCII STANDARD - VERSION 2.0
 WRAP.                 NO:   ONE LINE PER DEPTH STEP
~WELL INFORMATION
#MNEM.UNIT      DATA TYPE    INFORMATION
#----------   ------------   ------------------------------
 STRT.F           20.0000:   START DEPTH
 STOP.F          626.0000:   STOP DEPTH
 STEP.F            0.5000:   STEP LENGTH
 NULL.          -999.2500:   NO VALUE
 COMP. FENIX & SCISSON INC:   COMPANY
 WELL. NPR-3  38-S-34 #38-34:   WELL
 FLD .             TEAPOT:   FIELD
 LOC .      S34 T39N R78W:   LOCATION
 CNTY.            NATRONA:   COUNTY
 STAT.            WYOMING:   STATE
 CTRY. UNITED STATES OF AMERICA:   COUNTRY
 SRVC.           BIRDWELL:   SERVICE COMPANY
 DATE.        08-AUG-1978:   LOGDATE
 API .       490251068300:   API NUMBER
~CURVE INFORMATION
#MNEM.UNIT       API CODE    CURVE DESCRIPTION
#----------   ------------   ------------------------------
 DEPT.F                  :   
 SPR .MV     05 010 01 00:   SPONTANEOUS POTENTIAL FROM RES.
 SN  .OHMM   05 040 16 00:   SHORT NORMAL 16"
 IL  .OHMM   05 120 00 00:   INDUCTION LOG
 RHOB.G/C3   45 350 01 00:   BULK DENSITY
 DPHI.DEC    45 890 12 00:   DENSITY POROSITY SANDSTONE
 CORR.G/C3   45 356 01 00:   DENSITY CORRECTION
 GRD .GAPI   45 310 01 00:   GAMMA RAY FROM DENSITY LOG
 CALD.IN     45 280 60 00:   CALIPER
~PARAMETER INFORMATION
#MNEM.UNIT          VALUE    DESCRIPTION
#----------   ------------   ------------------------------
 PD  .                 GL:   PERMANENT DATUM
 EPD .F              5213:   ELEVATION PERMANENT DATUM
 LMF .                 KB:   LOG MEASURED FROM
 DAPD.F                 4:   FEET ABOVE PERMANENT DATUM
 DMF .                 KB:   DRILLING MEASURED FROM
 EKB .F              5217:   KELLING BUSHING
 EGL .F              5213:   GROUND LEVEL
 DATE.             8-8-78:   RUN DATE
 RUN .                  1:   RUN NUMBER
 DD  .F               620:   DEPTH DRILLER
 DL  .F               632:   DEPTH LOGGER
 BLI .F               626:   BOTTOM LOG INTERVAL
 TLI .F                35:   TOP LOG INTERVAL
 CS  .IN            8.625:   CASING SIZE
 CBL .F                35:   CASING BOTTOM LOGGER
 BS  .IN            7.875:   BIT SIZE
 BSD .F               620:   BIT SIZE AT DEPTH
 DFT .                KCL:   DRILLING FLUID TYPE
 DFD .                8.7:   DRILLING FLUID DENSITY
 DFV .                 33:   DRILLING FLUID VISCOSITY
 DFPH.                  9:   DRILLING FLUID PH
 DFL .                  5:   DRILLING FLUID LOSS
 MSS .          FLOW LINE:   MUD SAMPLE SOURCE
 RMS .OHMM            .12:   RESISTIVITY MUD SAMPLE
 MST .F                80:   MUD SAMPLE TEMPERATURE
 RMF .OHMM            .13:   RESISTIVITY MUD FILTRATE SAMPLE
 MFST.F                83:   MUD FILTRATE SAMPLE TEMPERATURE
 RMC .OHMM            .16:   RESISTIVITY MUD CAKE
 MCST.F                84:   MUD CAKE SAMPLE TEMPERATURE
 MFSS.               MEAS:   MUD FILTRATE SAMPLE SOURCE
 TCS .HRS               1:   TIME CURCULATED STOPPED
 LUN .               3006:   LOGGING UNIT NUMBER
 LUL .               CASP:   LOGGING UNIT LOCATION
 ENGI.             MILLER:   RECORDING ENGINEER
 WITN.           MCGINLEY:   WITNESSED BY
 CLNT.            A2DTECH:   CLIENT CODE
 ORIG.           5" PRINT:   ORIGIN OF DATA
 UWI .       490251068300:   UNIQUE WELL ID
 DICO. A2D Technologies, Inc.:   DIGITIZING COMPANY
~OTHER INFORMATION
~A   DEPT      SPR         SN         IL       RHOB       DPHI       CORR         GRD      CALD   
# ...
  222.5000   -32.8396     6.8542     6.4369     2.4702     0.1217     0.0155   105.0791     7.8053
  223.0000   -32.8488     6.8542     6.4311     2.4720     0.1204     0.0155   104.6387     7.7778
  223.5000   -32.8580     6.8542     6.4274     2.4709     0.1219     0.0155   104.1892     7.7513
  224.0000   -32.8672     6.8542     6.4386     2.4697     0.1249     0.0155   104.7131     7.7444
  224.5000   -32.8764     6.8542     6.4472     2.4686     0.1249     0.0156   106.2042     7.7767
  225.0000   -32.8857     6.8543     6.4559     2.4673     0.1233     0.0190   107.7716     7.8082
  225.5000   -32.8945     6.8543     6.4646     2.4679     0.1237     0.0222   109.2847     7.8309
  226.0000   -32.8843     6.8550     6.4732     2.4713     0.1206     0.0255   107.9622     7.8155
  226.5000   -32.8476     6.8406     6.4820     2.4785     0.1146     0.0286   106.3548     7.8010
  227.0000   -32.8112     6.8104     6.4859     2.4857     0.1139     0.0295   105.1122     7.7865
  227.5000   -32.7746     6.7805     6.4598     2.4864     0.1167     0.0245   105.0134     7.7721
  228.0000   -32.7379     6.7507     6.4418     2.4848     0.1194     0.0193   108.0513     7.7576
  228.5000   -32.7014     6.7210     6.4239     2.4797     0.1222     0.0191   111.5391     7.7431
  229.0000   -32.6997     6.6916     6.4060     2.4693     0.1248     0.0216   111.6473     7.7284
  229.5000   -32.7000     6.6651     6.3882     2.4700     0.1244     0.0242   103.3610     7.7150
  230.0000   -32.6999     6.6516     6.3704     2.4739     0.1240     0.0268    97.9434     7.7544
  230.5000   -32.7000     6.6380     6.3527     2.4731     0.1237     0.0250    96.9619     7.7974
  231.0000   -32.7071     6.6245     6.3350     2.4724     0.1233     0.0203    99.1170     7.8400
  231.5000   -32.7402     6.6110     6.3174     2.4707     0.1275     0.0155   104.5514     7.8726
  232.0000   -32.7721     6.5975     6.2998     2.4617     0.1284     0.0165   109.8625     7.8669
  232.5000   -32.8041     6.5840     6.2823     2.4577     0.1257     0.0217   110.8615     7.8621
  233.0000   -32.8364     6.5706     6.2648     2.4681     0.1248     0.0270   103.5556     7.8573
  233.5000   -32.8708     6.5572     6.2474     2.4673     0.1241     0.0323    96.2369     7.8492
  234.0000   -32.8879     6.5438     6.2300     2.4687     0.1203     0.0376    96.7047     7.8158
  234.5000   -32.4936     6.5304     6.2127     2.4764     0.1160     0.0429   101.4022     7.7819
  235.0000   -32.1067     6.5171     6.1954     2.4840     0.1116     0.0408   104.8030     7.7478
  235.5000   -32.0684     6.5038     6.1782     2.4933     0.1073     0.0377   105.8161     7.7153
  236.0000   -32.0418     6.4906     6.1610     2.5038     0.1054     0.0347   102.0631     7.7362
  236.5000   -32.0137     6.4773     6.1438     2.5016     0.1085     0.0316    97.5974     7.7599
  237.0000   -31.9853     6.4641     6.1267     2.4953     0.1097     0.0285    95.9449     7.7833
  237.5000   -31.9569     6.4510     6.1097     2.4892     0.1099     0.0256    97.0699     7.8068
  238.0000   -31.9285     6.4378     6.0927     2.4893     0.1164     0.0279   101.7844     7.8309
  238.5000   -31.9004     6.4271     6.0823     2.4734     0.1240     0.0304   111.1490     7.8048
  239.0000   -31.8838     6.4976     6.1627     2.4713     0.1225     0.0329   113.8266     7.7721
  239.5000   -31.8676     6.5574     6.2312     2.4697     0.1233     0.0353   112.8387     7.7393
  240.0000   -31.8514     6.6178     6.3005     2.4682     0.1227     0.0377   111.6035     7.7066
  240.5000   -31.8352     6.6787     6.3706     2.4711     0.1157     0.0396   110.2837     7.6740
  241.0000   -31.8190     6.7402     6.4415     2.4850     0.1140     0.0347   107.8202     7.6405
  241.5000   -31.8028     6.8023     6.5125     2.4891     0.1171     0.0283   103.1558     7.6338
  242.0000   -31.7865     6.8649     6.5471     2.4789     0.1201     0.0257   101.7050     7.6357
  242.5000   -31.7703     6.9176     6.5464     2.4747     0.1200     0.0260   100.6929     7.6877
  243.0000   -31.7541     6.9176     6.5464     2.4755     0.1190     0.0263    99.6910     7.7415
  243.5000   -31.7377     6.9176     6.5464     2.4765     0.1179     0.0266    98.7843     7.7946
  244.0000   -31.7219     6.9176     6.5464     2.4763     0.1193     0.0270    98.9224     7.8279
  244.5000   -31.7034     6.9176     6.5462     2.4729     0.1220     0.0273   100.6413     7.8012
  245.0000   -31.8298     6.9176     6.5409     2.4710     0.1169     0.0298   102.3384     7.7764
  245.5000   -32.0183     6.9176     6.5356     2.4800     0.1125     0.0347   102.4757     7.7515
  246.0000   -32.2114     6.9176     6.5304     2.4892     0.1081     0.0395   102.0075     7.7267
  246.5000   -32.1463     6.9176     6.5252     2.4982     0.1032     0.0445   101.5645     7.7018
  247.0000   -31.8648     6.9176     6.5200     2.5038     0.1059     0.0424   102.2865     7.6769
  247.5000   -31.5796     6.9175     6.5149     2.5024     0.1107     0.0371   103.0651     7.6521
  248.0000   -31.3050     6.9175     6.5097     2.4937     0.1126     0.0318   103.2427     7.6272
  248.5000   -31.2348     6.9175     6.5045     2.4907     0.1163     0.0265   101.7856     7.6024
  249.0000   -31.1729     6.9213     6.4992     2.4814     0.1252     0.0215   100.3697     7.5775
  249.5000   -31.1101     6.9392     6.4941     2.4685     0.1252     0.0242    99.1275     7.5543
  250.0000   -31.0470     6.9566     6.4865     2.4679     0.1232     0.0275    98.5815     7.5413
  250.5000   -30.9839     6.9740     6.5174     2.4691     0.1211     0.0309    98.7150     7.5290
  251.0000   -30.9209     6.9914     6.5774     2.4715     0.1189     0.0276   100.1322     7.5165
  251.5000   -30.8579     7.0089     6.6381     2.4797     0.1209     0.0224   101.7123     7.5043
  252.0000   -30.7948     7.0265     6.6993     2.4740     0.1276     0.0199   103.2984     7.5014
  252.5000   -30.7317     7.0440     6.7610     2.4595     0.1296     0.0222   104.2916     7.5330
  253.0000   -30.5968     7.1099     6.8233     2.4578     0.1315     0.0244   103.0786     7.5636
  253.5000   -30.3895     7.1822     6.8862     2.4576     0.1303     0.0265   101.3867     7.5935
  254.0000   -30.1826     7.2553     6.9497     2.4569     0.1280     0.0287   101.5549     7.5963
  254.5000   -29.9734     7.3291     7.0137     2.4632     0.1257     0.0271   101.8604     7.5978
  255.0000   -29.9009     7.4036     7.0784     2.4673     0.1234     0.0234   102.1550     7.5995
  255.5000   -29.8996     7.4789     7.1436     2.4687     0.1228     0.0197   100.2773     7.6012
  256.0000   -29.8999     7.5600     7.2094     2.4691     0.1222     0.0217    98.1534     7.6029
  256.5000   -29.9000     7.6464     7.2759     2.4716     0.1207     0.0242    98.5575     7.6046
  257.0000   -29.9000     7.7337     7.3430     2.4742     0.1196     0.0268    99.0677     7.6063
  257.5000   -29.9000     7.8221     7.4108     2.4760     0.1228     0.0227    93.0570     7.6080
  258.0000   -29.8999     7.8676     7.4455     2.4732     0.1268     0.0159    92.0683     7.6097
  258.5000   -29.8987     7.8545     7.4374     2.4643     0.1276     0.0088    92.8679     7.6114
  259.0000   -29.8988     7.8457     7.4318     2.4647     0.1287     0.0107    93.6494     7.6130
  259.5000   -29.9850     7.8369     7.4264     2.4616     0.1284     0.0161    94.3425     7.6141
  260.0000   -30.5089     7.8282     7.4209     2.4587     0.1232     0.0216    93.8777     7.6130
  260.5000   -30.9253     7.8194     7.4155     2.4704     0.1228     0.0270    93.3941     7.6119
  261.0000   -30.9963     7.8107     7.4100     2.4683     0.1225     0.0319    93.8383     7.6109
  261.5000   -31.0727     7.8020     7.4046     2.4703     0.1213     0.0338    94.9265     7.6098
  262.0000   -31.1493     7.7932     7.3992     2.4739     0.1185     0.0358    91.9929     7.6088
  262.5000   -31.2262     7.7845     7.3937     2.4776     0.1156     0.0378    87.9316     7.6077
