~VERSION INFORMATION
 VERS.                2.0:   CWLS LOG ASCII STANDARD - VERSION 2.0
 WRAP.                 NO:   ONE LINE PER DEPTH STEP
~WELL INFORMATION
#MNEM.UNIT      DATA TYPE    INFORMATION
#----------   ------------   ------------------------------
 STRT.F           27.0000:   START DEPTH
 STOP.F          713.0000:   STOP DEPTH
 STEP.F            0.5000:   STEP LENGTH
 NULL.          -999.2500:   NO VALUE
 COMP. FENIX & SCISSON INC:   COMPANY
 WELL.       NPR 3 #44-34:   WELL
 FLD .        TEAPOT DOME:   FIELD
 LOC .      S34 T39N R78W:   LOCATION
 CNTY.            NATRONA:   COUNTY
 STAT.            WYOMING:   STATE
 CTRY. UNITED STATES OF AMERICA:   COUNTRY
 SRVC.           BIRDWELL:   SERVICE COMPANY
 DATE.        24-AUG-1978:   LOGDATE
 API .       490251070000:   API NUMBER
~CURVE INFORMATION
#MNEM.UNIT       API CODE    CURVE DESCRIPTION
#----------   ------------   ------------------------------
 DEPT.F                  :   
 SPR .MV     05 010 01 00:   SPONTANEOUS POTENTIAL FROM RES.
 ILD .OHMM   05 120 46 00:   INDUCTION LOG DEEP
 SN  .OHMM   05 040 16 00:   SHORT NORMAL 16"
 CALD.IN     45 280 60 00:   CALIPER
 GRD .GAPI   45 310 01 00:   GAMMA RAY FROM DENSITY LOG
 DEN .G/C3   45 350 01 00:   COMPENSATED BULK DENSTIY
 DPHI.DEC    45 890 12 00:   DENSITY POROSITY SANDSTONE
 CORR.G/C3   45 356 01 00:   DENSITY CORRECTION
~PARAMETER INFORMATION
#MNEM.UNIT          VALUE    DESCRIPTION
#----------   ------------   ------------------------------
 PD  .                 GL:   PERMANENT DATUM
 EPD .F              5124:   ELEVATION PERMANENT DATUM
 LMF .                 KB:   LOG MEASURED FROM
 DAPD.F                 4:   FEET ABOVE PERMANENT DATUM
 DMF .                 KB:   DRILLING MEASURED FROM
 EKB .F              5128:   KELLING BUSHING
 EGL .F              5124:   GROUND LEVEL
 DATE.            8-24-78:   RUN DATE
 RUN .                  1:   RUN NUMBER
 DD  .F               716:   DEPTH DRILLER
 DL  .F               713:   DEPTH LOGGER
 BLI .F               707:   BOTTOM LOG INTERVAL
 TLI .F                50:   TOP LOG INTERVAL
 CS  .IN            8.625:   CASING SIZE
 CBD .F                40:   CASING BOTTOM DRILLER
 BS  .IN            7.875:   BIT SIZE
 BSD .F               716:   BIT SIZE AT DEPTH
 DFT .            MUD KCL:   DRILLING FLUID TYPE
 DFD .                8.6:   DRILLING FLUID DENSITY
 DFV .                 34:   DRILLING FLUID VISCOSITY
 DFL .                7.4:   DRILLING FLUID LOSS
 MSS .          FLOW LINE:   MUD SAMPLE SOURCE
 RMS .OHMM            .18:   RESISTIVITY MUD SAMPLE
 MST .F                76:   MUD SAMPLE TEMPERATURE
 RMF .OHMM            .16:   RESISTIVITY MUD FILTRATE SAMPLE
 MFST.F                92:   MUD FILTRATE SAMPLE TEMPERATURE
 RMC .OHMM             .3:   RESISTIVITY MUD CAKE
 MCST.F                86:   MUD CAKE SAMPLE TEMPERATURE
 MFSS.               MEAS:   MUD FILTRATE SAMPLE SOURCE
 TCS .HRS               3:   TIME CURCULATED STOPPED
 MRT .F                72:   MAXIMUM RECORDED TEMPERATURE
 LUN .               2958:   LOGGING UNIT NUMBER
 LUL .               CASP:   LOGGING UNIT LOCATION
 ENGI.           REYNOLDS:   RECORDING ENGINEER
 WITN.              AMEND:   WITNESSED BY
 CLNT.            A2DTECH:   CLIENT CODE
 ORIG.           5" PRINT:   ORIGIN OF DATA
 UWI .       490251070000:   UNIQUE WELL ID
 DICO. A2D Technologies, Inc.:   DIGITIZING COMPANY
~OTHER INFORMATION
~A   DEPT      SPR        ILD         SN       CALD         GRD       DEN       DPHI       CORR   
# ...
  189.0000   -66.7521     7.1840     7.6375     8.9487   101.6913     2.5031     0.1156     0.0116
  189.5000   -66.6528     7.1314     7.6054     8.9453   101.8497     2.5030     0.1182     0.0128
  190.0000   -66.7009     7.0791     7.5734     8.9419   102.6758     2.4995     0.1245     0.0150
  190.5000   -66.7913     7.0272     7.5435     8.9386   104.0981     2.4805     0.1318     0.0188
  191.0000   -66.8829     7.0016     7.4709     8.9352   105.3868     2.4670     0.1403     0.0216
  191.5000   -66.9710     6.9882     7.4032     8.9318   103.4914     2.4627     0.1395     0.0219
  192.0000   -66.9385     6.9749     7.3362     8.9284    99.9907     2.4646     0.1368     0.0223
  192.5000   -66.6570     6.9616     7.2722     8.9250    99.5579     2.4699     0.1348     0.0226
  193.0000   -66.3801     6.9483     7.2553     8.9216    99.3445     2.4737     0.1334     0.0229
  193.5000   -66.2347     6.9350     7.2393     8.9182    97.1606     2.4777     0.1280     0.0233
  194.0000   -66.2350     6.9218     7.2233     8.9178    93.8887     2.4911     0.1174     0.0268
  194.5000   -66.2348     6.9085     7.2072     8.9178    88.3671     2.5045     0.1108     0.0366
  195.0000   -66.2351     6.8954     7.1912     8.9178    88.2692     2.5114     0.1203     0.0461
  195.5000   -66.2351     6.8822     7.1753     8.9178    89.0059     2.5011     0.1293     0.0409
  196.0000   -66.2351     6.8691     7.1593     8.9178    89.7565     2.4883     0.1257     0.0168
  196.5000   -66.2351     6.8559     7.1409     8.9178    90.6775     2.4825     0.1190     0.0174
  197.0000   -66.2351     6.8428     7.1540     8.9178    96.5121     2.4979     0.1123     0.0175
  197.5000   -66.2351     6.8296     7.1711     8.9178   100.7210     2.5108     0.1100     0.0164
  198.0000   -66.2351     6.8211     7.1882     8.9172   102.0919     2.4913     0.1360     0.0139
  198.5000   -66.2351     6.8659     7.2059     8.9143   103.0864     2.4740     0.1348     0.0114
  199.0000   -66.2351     6.9005     7.2466     8.9116   104.0097     2.4801     0.1272     0.0094
  199.5000   -66.2351     6.9353     7.2888     8.9089   104.1390     2.4862     0.1228     0.0095
  200.0000   -66.2351     6.9706     7.3313     8.9063   104.2412     2.4927     0.1256     0.0095
  200.5000   -66.2351     7.0062     7.3740     8.9036   104.0430     2.4863     0.1298     0.0097
  201.0000   -66.2351     7.0420     7.4169     8.9009   102.9609     2.4777     0.1319     0.0114
  201.5000   -66.2351     7.0779     7.4602     8.8981   100.6327     2.4774     0.1368     0.0130
  202.0000   -66.2351     7.1141     7.5037     8.9001    98.3413     2.4661     0.1420     0.0147
  202.5000   -66.2353     7.1403     7.5434     8.9028    96.4351     2.4627     0.1401     0.0148
  203.0000   -66.2364     7.1343     7.5262     8.9055    95.6961     2.4669     0.1352     0.0127
  203.5000   -66.2300     7.1295     7.5101     8.9082    96.3149     2.4702     0.1257     0.0106
  204.0000   -66.0183     7.1248     7.4941     8.9109    94.9816     2.4961     0.1136     0.0101
  204.5000   -65.7959     7.1201     7.4782     8.9136    92.5284     2.5029     0.1213     0.0113
  205.0000   -65.6287     7.1154     7.4623     8.9163    90.0496     2.4886     0.1320     0.0125
  205.5000   -65.6083     7.1107     7.4464     8.9162    88.9390     2.4738     0.1327     0.0137
  206.0000   -65.5858     7.1060     7.4306     8.9124    90.2886     2.4735     0.1355     0.0149
  206.5000   -65.5634     7.1013     7.4148     8.9086    95.7881     2.4724     0.1387     0.0149
  207.0000   -65.5409     7.0967     7.3990     8.9048    96.0294     2.4680     0.1420     0.0139
  207.5000   -65.5184     7.0920     7.3833     8.9011    97.2767     2.4635     0.1414     0.0128
  208.0000   -65.4958     7.0873     7.3677     8.8977   100.0227     2.4620     0.1374     0.0117
  208.5000   -65.4732     7.0825     7.3521     8.8978    98.8981     2.4662     0.1332     0.0137
  209.0000   -65.4511     7.0744     7.3398     8.8978    98.2154     2.4720     0.1361     0.0168
  209.5000   -65.4533     7.1130     7.4172     8.8978    98.1684     2.4700     0.1400     0.0199
  210.0000   -65.4881     7.2053     7.4841     8.8978   100.4590     2.4605     0.1428     0.0214
  210.5000   -65.5225     7.2993     7.5517     8.8978   101.7150     2.4607     0.1368     0.0209
  211.0000   -65.5571     7.3945     7.6199     8.8978    98.6716     2.4659     0.1291     0.0204
  211.5000   -65.5916     7.4794     7.6887     8.8978    95.7123     2.4826     0.1255     0.0199
  212.0000   -65.6262     7.5075     7.7582     8.8978    96.3975     2.4910     0.1212     0.0194
  212.5000   -65.6607     7.5357     7.8249     8.8978    97.6454     2.4931     0.1136     0.0178
  213.0000   -65.6952     7.5641     7.8389     8.8998    97.2240     2.5010     0.1115     0.0162
  213.5000   -65.7297     7.5925     7.8521     8.9030    96.7279     2.5072     0.1110     0.0147
  214.0000   -65.7644     7.6210     7.8654     8.9062    98.4582     2.5078     0.1105     0.0131
  214.5000   -65.8001     7.6495     7.8788     8.9094   101.1553     2.5084     0.1120     0.0115
  215.0000   -65.8339     7.6817     7.8968     8.9125    99.3003     2.5081     0.1143     0.0109
  215.5000   -65.6361     7.4783     7.7511     8.9158    97.1399     2.4988     0.1233     0.0104
  216.0000   -65.4139     7.2465     7.5332     8.9216    97.2455     2.4869     0.1266     0.0098
  216.5000   -65.2782     7.1222     7.4318     8.9328    99.1239     2.4817     0.1280     0.0092
  217.0000   -65.5183     7.0884     7.4009     8.9439   100.6527     2.4782     0.1307     0.0086
  217.5000   -65.6300     7.0548     7.3908     8.9556   100.6321     2.4743     0.1337     0.0080
  218.0000   -65.4707     7.0214     7.3808     8.9482   100.9081     2.4702     0.1364     0.0076
  218.5000   -65.4840     7.0107     7.3708     8.9351   100.6221     2.4697     0.1366     0.0092
  219.0000   -65.5443     7.0987     7.3608     8.9219    98.7226     2.4692     0.1368     0.0109
  219.5000   -65.6057     7.1585     7.3506     8.9087   100.3574     2.4690     0.1390     0.0115
  220.0000   -65.6375     7.2261     7.3387     8.8975    97.5597     2.4690     0.1379     0.0115
  220.5000   -65.6375     7.3221     7.4846     8.8978   101.4579     2.4720     0.1320     0.0115
  221.0000   -65.6375     7.4194     7.6646     8.8978    93.7338     2.4808     0.1261     0.0116
  221.5000   -65.6375     7.5180     7.7641     8.8978    93.6653     2.4902     0.1206     0.0157
  222.0000   -65.6375     7.5546     7.7846     8.8978    93.7856     2.5011     0.1164     0.0195
  222.5000   -65.6375     7.5696     7.8052     8.8978    94.3191     2.5072     0.1122     0.0195
  223.0000   -65.6375     7.5845     7.8258     8.8978    94.0578     2.5117     0.1080     0.0195
  223.5000   -65.6375     7.5996     7.8465     8.8978    90.2709     2.5161     0.1042     0.0195
  224.0000   -65.6375     7.6146     7.8672     8.8978    90.6206     2.5208     0.1020     0.0195
  224.5000   -65.6377     7.6297     7.8880     8.8978    91.5901     2.5208     0.1089     0.0195
  225.0000   -65.6382     7.6449     7.9089     8.8978    96.8936     2.5099     0.1165     0.0195
  225.5000   -65.6357     7.6599     7.9298     8.8978   101.5640     2.4981     0.1228     0.0195
  226.0000   -65.5018     7.6751     7.9507     8.8978   100.9858     2.4910     0.1232     0.0193
  226.5000   -65.1231     7.6825     7.9687     8.8978    97.2525     2.4921     0.1232     0.0157
  227.0000   -64.8578     7.6676     7.9576     8.8978    97.2280     2.4924     0.1186     0.0121
  227.5000   -64.9673     7.6572     7.9469     8.8978    97.5418     2.4963     0.1168     0.0094
  228.0000   -64.9436     7.6470     7.9363     8.8978    97.6088     2.5008     0.1161     0.0087
  228.5000   -64.6569     7.6368     7.9257     8.8987    97.9787     2.5008     0.1174     0.0079
  229.0000   -64.8917     7.6266     7.9151     8.9027    99.7194     2.5003     0.1227     0.0070
