~VERSION INFORMATION
 VERS.                2.0:   CWLS LOG ASCII STANDARD - VERSION 2.0
 WRAP.                 NO:   ONE LINE PER DEPTH STEP
~WELL INFORMATION
#MNEM.UNIT      DATA TYPE    INFORMATION
#----------   ------------   ------------------------------
 STRT.F           20.0000:   START DEPTH
 STOP.F          469.0000:   STOP DEPTH
 STEP.F            0.5000:   STEP LENGTH
 NULL.          -999.2500:   NO VALUE
 COMP. FENIX & SCISSON INC:   COMPANY
 WELL.       SX 3FO #26-3:   WELL
 FLD .             TEAPOT:   FIELD
 LOC .       S3 T38N R78W:   LOCATION
 CNTY.            NATRONA:   COUNTY
 STAT.            WYOMING:   STATE
 CTRY. UNITED STATES OF AMERICA:   COUNTRY
 SRVC.              Welex:   SERVICE COMPANY
 DATE.        02-JUL-1980:   LOGDATE
 API .       490251082500:   API NUMBER
~CURVE INFORMATION
#MNEM.UNIT       API CODE    CURVE DESCRIPTION
#----------   ------------   ------------------------------
 DEPT.F                  :   
 CALD.IN     45 280 60 00:   CALIPER
 GRD .GAPI   45 310 01 00:   GAMMA RAY FROM DENSITY LOG
 CORR.G/C3   45 356 01 00:   DENSITY CORRECTION
 RHOB.G/C3   45 350 01 00:   BULK DENSITY
 DPHI.DEC    45 890 12 00:   DENSITY POROSITY SANDSTONE
~PARAMETER INFORMATION
#MNEM.UNIT          VALUE    DESCRIPTION
#----------   ------------   ------------------------------
 PD  .                 GL:   PERMANENT DATUM
 EPD .F              5163:   ELEVATION PERMANENT DATUM
 LMF .                 KB:   LOG MEASURED FROM
 DAPD.F                 5:   FEET ABOVE PERMANENT DATUM
 DMF .                 KB:   DRILLING MEASURED FROM
 EKB .F              5168:   KELLING BUSHING
 EGL .F              5163:   GROUND LEVEL
 DATE.             7-2-80:   RUN DATE
 RUN .                  1:   RUN NUMBER
 DD  .F               470:   DEPTH DRILLER
 DL  .F               472:   DEPTH LOGGER
 BLI .F               470:   BOTTOM LOG INTERVAL
 TLI .F                20:   TOP LOG INTERVAL
 CS  .IN                7:   CASING SIZE
 CBD .F                43:   CASING BOTTOM DRILLER
 BS  .IN             6.25:   BIT SIZE
 BSD .F               470:   BIT SIZE AT DEPTH
 DFT .        AIR DRILLED:   DRILLING FLUID TYPE
 BHT .F                76:   BOTTOM HOLE TEMPERATURE
 TCS .HRS             1.5:   TIME CURCULATED STOPPED
 MRT .F                76:   MAXIMUM RECORDED TEMPERATURE
 ENGI.        REIN/GLASER:   RECORDING ENGINEER
 WITN.            RHOADES:   WITNESSED BY
 CLNT.            A2DTECH:   CLIENT CODE
 ORIG.           5" PRINT:   ORIGIN OF DATA
 UWI .       490251082500:   UNIQUE WELL ID
 DICO. A2D Technologies, Inc.:   DIGITIZING COMPANY
~OTHER INFORMATION
~A   DEPT     CALD         GRD      CORR       RHOB       DPHI   
# ...
  325.0000     6.1016    55.5980     0.0399     2.4830     0.1236
  325.5000     6.1016    56.2451     0.0404     2.4700     0.1307
  326.0000     6.1016    59.7540     0.0408     2.4544     0.1383
  326.5000     6.1016    64.9991     0.0412     2.4390     0.1483
  327.0000     6.1102    69.7983     0.0417     2.4235     0.1583
  327.5000     6.1215    72.1829     0.0417     2.4078     0.1639
  328.0000     6.1107    74.5658     0.0413     2.4034     0.1686
  328.5000     6.0995    74.3002     0.0408     2.4042     0.1685
  329.0000     6.0885    73.4024     0.0404     2.4062     0.1674
  329.5000     6.0774    72.5036     0.0398     2.4081     0.1662
  330.0000     6.0663    71.6157     0.0354     2.4057     0.1674
  330.5000     6.0612    71.0385     0.0320     2.4022     0.1706
  331.0000     6.0908    71.6287     0.0355     2.4044     0.1691
  331.5000     6.1244    72.6127     0.0390     2.4098     0.1656
  332.0000     6.1372    73.6030     0.0425     2.4149     0.1646
  332.5000     6.1504    74.6013     0.0458     2.4154     0.1640
  333.0000     6.1608    74.9957     0.0459     2.4163     0.1634
  333.5000     6.1547    73.8566     0.0456     2.4233     0.1580
  334.0000     6.1489    70.5869     0.0566     2.4353     0.1527
  334.5000     6.1432    67.5448     0.0647     2.4433     0.1477
  335.0000     6.1375    66.7682     0.0687     2.4455     0.1437
  335.5000     6.1317    66.1155     0.0723     2.4545     0.1397
  336.0000     6.1260    67.2485     0.0986     2.4672     0.1321
  336.5000     6.1203    70.0124     0.1029     2.4759     0.1255
  337.0000     6.1145    72.8341     0.0888     2.4611     0.1351
  337.5000     6.1087    73.6224     0.0695     2.4407     0.1443
  338.0000     6.1024    73.6572     0.0502     2.4384     0.1483
  338.5000     6.1239    75.1366     0.0410     2.4375     0.1499
  339.0000     6.1537    76.6033     0.0343     2.4318     0.1516
  339.5000     6.1834    77.4496     0.0272     2.4239     0.1570
  340.0000     6.2135    76.9677     0.0083     2.4160     0.1626
  340.5000     6.2177    77.8648    -0.0022     2.4089     0.1662
  341.0000     6.1995    77.6972    -0.0032     2.4070     0.1664
  341.5000     6.1807    76.4668    -0.0039     2.4073     0.1661
  342.0000     6.1615    75.8055    -0.0012     2.4083     0.1658
  342.5000     6.1424    77.4351     0.0016     2.4093     0.1655
  343.0000     6.1441    77.8726     0.0043     2.4132     0.1651
  343.5000     6.1472    77.4044     0.0069     2.4170     0.1647
  344.0000     6.1503    78.5219     0.0096     2.4209     0.1614
  344.5000     6.1533    79.6066     0.0123     2.4203     0.1606
  345.0000     6.1563    78.9807     0.0149     2.4179     0.1622
  345.5000     6.1593    78.3266     0.0175     2.4155     0.1628
  346.0000     6.1660    76.3705     0.0201     2.4126     0.1622
  346.5000     6.1815    74.6401     0.0218     2.4097     0.1651
  347.0000     6.1968    74.6348     0.0210     2.4068     0.1678
  347.5000     6.2121    74.2509     0.0203     2.4039     0.1686
  348.0000     6.2274    71.7770     0.0195     2.4038     0.1683
  348.5000     6.2404    70.4929     0.0188     2.4079     0.1678
  349.0000     6.2306    71.7145     0.0180     2.4150     0.1646
  349.5000     6.2211    73.1616     0.0187     2.4219     0.1606
  350.0000     6.2115    74.5550     0.0195     2.4280     0.1570
  350.5000     6.2017    76.0122     0.0187     2.4267     0.1591
  351.0000     6.2011    77.5308     0.0162     2.4215     0.1593
  351.5000     6.2012    79.4159     0.0137     2.4165     0.1628
  352.0000     6.2012    80.5624     0.0124     2.4115     0.1642
  352.5000     6.2012    80.9651     0.0159     2.4088     0.1646
  353.0000     6.2012    81.4935     0.0199     2.4082     0.1665
  353.5000     6.2012    82.3923     0.0238     2.4060     0.1689
  354.0000     6.2012    83.2980     0.0247     2.3970     0.1740
  354.5000     6.2012    82.3786     0.0254     2.3836     0.1820
  355.0000     6.2012    79.3032     0.0261     2.3703     0.1901
  355.5000     6.2012    76.2624     0.0269     2.3569     0.1975
  356.0000     6.2012    73.2300     0.0277     2.3434     0.2072
  356.5000     6.2012    70.4002     0.0284     2.3237     0.2171
  357.0000     6.2012    68.5552     0.0292     2.3054     0.2274
  357.5000     6.2012    65.3201     0.0299     2.2950     0.2349
  358.0000     6.2012    61.9930     0.0305     2.2847     0.2407
  358.5000     6.2012    60.6285     0.0310     2.2779     0.2468
  359.0000     6.2012    62.3940     0.0316     2.2840     0.2430
  359.5000     6.2012    63.7427     0.0316     2.2864     0.2405
  360.0000     6.2011    62.8546     0.0307     2.2820     0.2437
  360.5000     6.2077    60.2125     0.0292     2.2814     0.2417
  361.0000     6.2188    57.5976     0.0367     2.2951     0.2351
  361.5000     6.2300    55.9439     0.0479     2.3094     0.2265
  362.0000     6.2404    56.6696     0.0578     2.3235     0.2180
  362.5000     6.2301    57.5144     0.0678     2.3376     0.2096
  363.0000     6.2189    57.7117     0.0749     2.3486     0.2022
  363.5000     6.2077    58.5057     0.0772     2.3560     0.1989
  364.0000     6.1966    59.8336     0.0781     2.3620     0.1965
  364.5000     6.1855    63.6422     0.0738     2.3599     0.1985
  365.0000     6.1743    64.8677     0.0696     2.3562     0.1985
  365.5000     6.1628    63.8059     0.0655     2.3520     0.1987
  366.0000     6.1744    62.7481     0.0575     2.3470     0.2019
  366.5000     6.1901    62.0052     0.0475     2.3433     0.2065
  367.0000     6.2060    62.5977     0.0459     2.3443     0.2037
  367.5000     6.2208    63.3464     0.0457     2.3449     0.2017
  368.0000     6.2212    64.1996     0.0397     2.3400     0.2031
  368.5000     6.2211    65.8569     0.0336     2.3349     0.2045
  369.0000     6.2236    67.6199     0.0235     2.3349     0.2049
  369.5000     6.2265    68.1010     0.0135     2.3359     0.2085
  370.0000     6.2295    66.9656     0.0079     2.3343     0.2120
  370.5000     6.2324    65.6828     0.0111     2.3315     0.2149
  371.0000     6.2354    66.1408     0.0156     2.3313     0.2140
  371.5000     6.2383    67.5427     0.0206     2.3379     0.2091
  372.0000     6.2408    68.2535     0.0360     2.3504     0.2037
  372.5000     6.2377    67.7828     0.0512     2.3627     0.1982
  373.0000     6.2345    67.3129     0.0578     2.3617     0.1957
  373.5000     6.2313    67.4453     0.0540     2.3582     0.1970
  374.0000     6.2282    70.6151     0.0504     2.3574     0.1977
  374.5000     6.2250    72.9126     0.0468     2.3578     0.1975
  375.0000     6.2218    71.4679     0.0433     2.3582     0.1972
  375.5000     6.2187    69.8418     0.0397     2.3586     0.1969
  376.0000     6.2155    68.4829     0.0410     2.3590     0.1967
  376.5000     6.2124    68.2921     0.0470     2.3588     0.1962
  377.0000     6.2092    68.0799     0.0498     2.3577     0.1969
  377.5000     6.2061    67.5923     0.0471     2.3565     0.1984
  378.0000     6.2029    67.0654     0.0439     2.3554     0.1994
  378.5000     6.1997    66.5336     0.0489     2.3584     0.1967
  379.0000     6.1966    66.3038     0.0548     2.3658     0.1934
  379.5000     6.1934    67.0168     0.0589     2.3728     0.1901
  380.0000     6.1903    69.3626     0.0508     2.3689     0.1901
  380.5000     6.1871    68.9623     0.0437     2.3652     0.1933
  381.0000     6.1839    67.3044     0.0450     2.3702     0.1904
  381.5000     6.1812    67.3650     0.0470     2.3756     0.1849
  382.0000     6.1813    69.3691     0.0491     2.3802     0.1874
  382.5000     6.1813    71.4115     0.0514     2.3793     0.1901
  383.0000     6.1813    72.5929     0.0508     2.3785     0.1910
  383.5000     6.1813    73.2003     0.0437     2.3717     0.1909
  384.0000     6.1813    72.9034     0.0380     2.3703     0.1894
  384.5000     6.1813    73.4341     0.0481     2.3737     0.1895
  385.0000     6.1813    75.1083     0.0430     2.3653     0.1928
  385.5000     6.1813    74.9128     0.0362     2.3562     0.1991
