~VERSION INFORMATION
 VERS.                2.0:   CWLS LOG ASCII STANDARD - VERSION 2.0
 WRAP.                 NO:   ONE LINE PER DEPTH STEP
~WELL INFORMATION
#MNEM.UNIT      DATA TYPE    INFORMATION
#----------   ------------   ------------------------------
 STRT.F           18.0000:   START DEPTH
 STOP.F          449.0000:   STOP DEPTH
 STEP.F            0.5000:   STEP LENGTH
 NULL.          -999.2500:   NO VALUE
 COMP.   LAWRENCE-ALLISON:   COMPANY
 WELL. NPR 3 #51-46SX10OB4:   WELL
 FLD .             TEAPOT:   FIELD
 LOC .      S10 T38N R78W:   LOCATION
 CNTY.            NATRONA:   COUNTY
 STAT.            WYOMING:   STATE
 CTRY. UNITED STATES OF AMERICA:   COUNTRY
 SRVC.      Dresser Atlas:   SERVICE COMPANY
 DATE.        19-NOV-1984:   LOGDATE
 API .       490251100700:   API NUMBER
~CURVE INFORMATION
#MNEM.UNIT       API CODE    CURVE DESCRIPTION
#----------   ------------   ------------------------------
 DEPT.F                  :   
 AC  .US/F   60 520 00 00:   ACCOUSTIC
 PORD.DEC    45 890 12 00:   POROSITY DENSITY SANDSTONE
 CNC .DEC    42 890 03 00:   NEUTRON POROSITY SANDSTONE
 CALD.IN     45 280 60 00:   CALIPER FROM DENSITY
 CORR.G/C3   45 356 01 00:   DENSITY CORRECTION
 DEN .G/C3   45 350 01 00:   COMPENSATED BULK DENSTIY
 GRD .GAPI   45 310 01 00:   GAMMA RAY FROM DENSITY LOG
~PARAMETER INFORMATION
#MNEM.UNIT          VALUE    DESCRIPTION
#----------   ------------   ------------------------------
 PD  .                 GL:   PERMANENT DATUM
 EPD .F              5163:   ELEVATION PERMANENT DATUM
 LMF .                 GL:   LOG MEASURED FROM
 DMF .                 GL:   DRILLING MEASURED FROM
 EGL .F              5163:   GROUND LEVEL
 DATE.        19-DEC-1984:   RUN DATE
 RUN .                  1:   RUN NUMBER
 DD  .F               450:   DEPTH DRILLER
 DL  .F               451:   DEPTH LOGGER
 BLI .F               449:   BOTTOM LOG INTERVAL
 TLI .F                20:   TOP LOG INTERVAL
 CS  .IN            8.625:   CASING SIZE
 CBD .F                20:   CASING BOTTOM DRILLER
 CBL .F                20:   CASING BOTTOM LOGGER
 BS  .IN             6.25:   BIT SIZE
 BSD .F               450:   BIT SIZE AT DEPTH
 DFT .          KCL WATER:   DRILLING FLUID TYPE
 MSS .            MUDTANK:   MUD SAMPLE SOURCE
 RMS .OHMM          0.146:   RESISTIVITY MUD SAMPLE
 MST .F               100:   MUD SAMPLE TEMPERATURE
 RMF .OHMM          0.110:   RESISTIVITY MUD FILTRATE SAMPLE
 MFST.F               100:   MUD FILTRATE SAMPLE TEMPERATURE
 RMC .OHMM          0.183:   RESISTIVITY MUD CAKE
 MCST.F               100:   MUD CAKE SAMPLE TEMPERATURE
 MFSS.               CALC:   MUD FILTRATE SAMPLE SOURCE
 MCSS.               CALC:   MUD CAKE SAMPLE SOURCE
 TCS .HRS               2:   TIME CURCULATED STOPPED
 MRT .F               100:   MAXIMUM RECORDED TEMPERATURE
 LUN .               6270:   LOGGING UNIT NUMBER
 ENGI.        TOM GAUGHAN:   RECORDING ENGINEER
 WITN.              LUERS:   WITNESSED BY
 CLNT.            A2DTECH:   CLIENT CODE
 ORIG.           5" PRINT:   ORIGIN OF DATA
 UWI .       490251100700:   UNIQUE WELL ID
 DICO. A2D Technologies, Inc.:   DIGITIZING COMPANY
~OTHER INFORMATION
~A   DEPT        AC      PORD        CNC       CALD       CORR        DEN        GRD   
# ...
  154.5000   110.9984     0.1438     0.2931     6.4668    -0.0017     2.4404   103.5139
  155.0000   112.2657     0.1499     0.3025     6.4661     0.0042     2.4258   103.2082
  155.5000   114.0047     0.1611     0.3146     6.4653     0.0057     2.4097   103.6544
  156.0000   115.6651     0.1654     0.3219     6.4646    -0.0157     2.4000   104.4030
  156.5000   118.7406     0.1666     0.3291     6.4638    -0.0339     2.3993   104.8514
  157.0000   125.5213     0.1663     0.3454     6.4631    -0.0128     2.4009   104.0928
  157.5000   129.6428     0.1666     0.3645     6.4623     0.0022     2.4014   103.1847
  158.0000   134.6093     0.1673     0.3859     6.4616     0.0127     2.3953   101.9754
  158.5000   135.4828     0.1758     0.3999     6.4608     0.0277     2.3755   100.1637
  159.0000   132.0383     0.1964     0.4165     6.4751     0.0367     2.3436    98.3520
  159.5000   127.9620     0.2204     0.4376     6.4744     0.0350     2.2897    96.6909
  160.0000   122.3919     0.2426     0.4443     6.4889     0.0304     2.2411    92.3190
  160.5000   117.7652     0.2714     0.4271     6.4729     0.0454     2.2100    85.5374
  161.0000   114.9467     0.2790     0.4081     6.4571     0.0695     2.2160    83.8774
  161.5000   112.5999     0.2566     0.3911     6.4714     0.0664     2.2592    87.6369
  162.0000   109.3884     0.2344     0.3338     6.5007     0.0464     2.3198    93.6565
  162.5000   107.6705     0.1947     0.2969     6.5150     0.0314     2.3585    99.2243
  163.0000   107.9967     0.1865     0.2848     6.4992     0.0330     2.3767   100.8764
  163.5000   108.6373     0.1641     0.2857     6.4985     0.0357     2.4077   102.2274
  164.0000   109.5137     0.1310     0.2981     6.4977     0.0235     2.4532   104.1928
  164.5000   109.5254     0.1234     0.3245     6.4970     0.0143     2.4729   105.5507
  165.0000   109.3013     0.1274     0.3317     6.4961     0.0082     2.4683   106.7470
  165.5000   108.9199     0.1295     0.3202     6.4953     0.0050     2.4637   107.5010
  166.0000   107.8310     0.1286     0.3043     6.4946     0.0095     2.4667   108.2291
  166.5000   108.3144     0.1244     0.2988     6.4939     0.0169     2.4773   106.1151
  167.0000   109.8984     0.1195     0.2958     6.5083     0.0244     2.4840   104.0022
  167.5000   112.1113     0.1165     0.2970     6.5226     0.0333     2.4855   102.7929
  168.0000   117.0759     0.1156     0.2988     6.5217     0.0438     2.4855   102.0354
  168.5000   118.7385     0.1150     0.3517     6.5059     0.0558     2.4862   101.8814
  169.0000   118.6714     0.1153     0.3683     6.5052     0.0588     2.4861   104.5867
  169.5000   117.8185     0.1193     0.3693     6.5044     0.0526     2.4631   113.3171
  170.0000   114.7641     0.1311     0.3496     6.4886     0.0464     2.4259   116.1741
  170.5000   113.4343     0.1706     0.3421     6.4729     0.0524     2.3825   116.4719
  171.0000   112.9691     0.1840     0.3454     6.4721     0.0629     2.3661   110.4423
  171.5000   112.5904     0.1800     0.3599     6.4563     0.0552     2.3979   104.1125
  172.0000   111.6022     0.1573     0.3536     6.4556     0.0385     2.4183   101.2466
  172.5000   110.1066     0.1563     0.3508     6.4549     0.0217     2.4190   100.3385
  173.0000   109.4108     0.1564     0.3441     6.4541     0.0095     2.4167   102.4424
  173.5000   108.7149     0.1510     0.3298     6.4684     0.0003     2.4243   109.6669
  174.0000   106.5254     0.1449     0.3097     6.4677    -0.0028     2.4386   113.2768
  174.5000   105.0433     0.1434     0.2998     6.4669     0.0037     2.4409   111.9169
  175.0000   104.2689     0.1431     0.2862     6.4662     0.0406     2.4393   109.5028
  175.5000   104.1233     0.1428     0.2749     6.4504     0.0559     2.4393   109.4983
  176.0000   104.2978     0.1389     0.2799     6.3883     0.0300     2.4476   109.0421
  176.5000   104.4615     0.1234     0.2839     6.3905     0.0118     2.4748   106.4773
  177.0000   104.7196     0.1136     0.2845     6.4331     0.0041     2.4900   107.8283
  177.5000   105.1271     0.1113     0.2851     6.4472     0.0055     2.4937   110.5396
  178.0000   105.7571     0.1106     0.2963     6.4465     0.0084     2.4944   110.9820
  178.5000   106.2404     0.1068     0.3123     6.4457     0.0083     2.4997   106.8570
  179.0000   106.8025     0.1031     0.3132     6.4450     0.0279     2.5049   106.6056
  179.5000   107.3645     0.1019     0.3129     6.4442     0.0474     2.5079   108.6818
  180.0000   107.9265     0.1016     0.3133     6.4285     0.0504     2.5102   112.3184
  180.5000   108.2526     0.1032     0.3222     6.4277     0.0533     2.5086   110.2055
  181.0000   108.1828     0.1068     0.3307     6.4270     0.0607     2.5032   108.2432
  181.5000   108.6691     0.1071     0.3378     6.4262     0.0667     2.5017   107.9386
  182.0000   109.1525     0.1081     0.3350     6.4255     0.0666     2.5009   109.5896
  182.5000   109.6359     0.1129     0.3301     6.4247     0.0559     2.4977   110.1887
  183.0000   110.3551     0.1178     0.3275     6.4240     0.0331     2.4884   110.3348
  183.5000   112.2536     0.1202     0.3260     6.4232     0.0118     2.4809   109.5762
  184.0000   114.3093     0.1193     0.3197     6.4225    -0.0004     2.4795   108.6681
  184.5000   114.8714     0.1184     0.3148     6.4218     0.0025     2.4824   109.5672
  185.0000   114.7258     0.1175     0.3170     6.4210     0.0253     2.4832   113.9302
  185.5000   112.8507     0.1179     0.3303     6.4203     0.0418     2.4831   119.6487
  186.0000   107.9882     0.1255     0.3366     6.4195     0.0461     2.4793   121.0007
  186.5000   106.5848     0.1409     0.3173     6.4188     0.0457     2.4542   116.1758
  187.0000   105.6531     0.1537     0.3018     6.4180     0.0428     2.4268   109.3943
  187.5000   105.4153     0.1528     0.2937     6.4173     0.0412     2.4200   105.6247
  188.0000   105.9910     0.1288     0.2989     6.4165     0.0426     2.4533   104.5671
  188.5000   106.3171     0.1173     0.2995     6.4158     0.0440     2.4783   108.6278
  189.0000   106.5647     0.1186     0.2974     6.4150     0.0439     2.4858   110.8824
  189.5000   106.3405     0.1274     0.2874     6.4143     0.0257     2.4767   112.2333
  190.0000   105.7233     0.1344     0.2805     6.4134     0.0150     2.4615   112.9819
  190.5000   105.4205     0.1371     0.2796     6.4126     0.0254     2.4538   116.1400
  191.0000   105.4324     0.1365     0.2829     6.4119     0.0344     2.4530   118.5472
  191.5000   105.2713     0.1350     0.2947     6.4112     0.0359     2.4537   118.0497
  192.0000   104.8267     0.1338     0.3092     6.4104     0.0191     2.4552   114.0843
  192.5000   104.6811     0.1341     0.3138     6.4097    -0.0128     2.4559   111.8700
  193.0000   104.8530     0.1338     0.3062     6.4089    -0.0189     2.4544   110.9508
  193.5000   105.2577     0.1323     0.3004     6.4082    -0.0221     2.4589   110.5409
  194.0000   106.0556     0.1284     0.2987     6.4074    -0.0131     2.4664   114.3003
  194.5000   106.0673     0.1272     0.3005     6.4067    -0.0011     2.4702   117.1573
  195.0000   106.0790     0.1259     0.3023     6.4059     0.0033     2.4709   117.3046
  195.5000   106.1693     0.1229     0.3026     6.4052     0.0093     2.4754   116.9977
  196.0000   106.5741     0.1179     0.3029     6.4045     0.0349     2.4845   116.0897
  196.5000   106.9002     0.1175     0.3090     6.3887     0.0499     2.4859   112.9225
  197.0000   107.1478     0.1248     0.3108     6.3879     0.0371     2.4741   110.8096
  197.5000   107.0022     0.1309     0.3099     6.3872     0.0191     2.4593   111.4076
  198.0000   106.8538     0.1349     0.3084     6.3864     0.0103     2.4516   113.6621
  198.5000   106.7898     0.1333     0.3072     6.4008     0.0162     2.4584   113.8094
  199.0000   106.6413     0.1288     0.3036     6.4000     0.0161     2.4682   112.9001
  199.5000   106.8918     0.1209     0.2961     6.3842     0.0129     2.4788   112.5945
