~VERSION INFORMATION
 VERS.                2.0:   CWLS LOG ASCII STANDARD - VERSION 2.0
 WRAP.                 NO:   ONE LINE PER DEPTH STEP
~WELL INFORMATION
#MNEM.UNIT      DATA TYPE    INFORMATION
#----------   ------------   ------------------------------
 STRT.F           16.5000:   START DEPTH
 STOP.F          640.0000:   STOP DEPTH
 STEP.F            0.5000:   STEP LENGTH
 NULL.          -999.2500:   NO VALUE
 COMP. FENIX & SCISSON INC:   COMPANY
 WELL.     11 SX 14 #3-14:   WELL
 FLD .             TEAPOT:   FIELD
 LOC .      S14 T38N R78W:   LOCATION
 CNTY.            NATRONA:   COUNTY
 STAT.            WYOMING:   STATE
 CTRY. UNITED STATES OF AMERICA:   COUNTRY
 SRVC.            Unknown:   SERVICE COMPANY
 DATE.        18-DEC-1978:   LOGDATE
 API .       490251075700:   API NUMBER
~CURVE INFORMATION
#MNEM.UNIT       API CODE    CURVE DESCRIPTION
#----------   ------------   ------------------------------
 DEPT.F                  :   
 SPR .MV     05 010 01 00:   SPONTANEOUS POTENTIAL FROM RES.
 SN  .OHMM   05 040 16 00:   SHORT NORMAL 16"
 IL  .OHMM   05 120 00 00:   INDUCTION LOG
 GRD .GAPI   45 310 01 00:   GAMMA RAY FROM DENSITY LOG
 CALD.IN     45 280 60 00:   CALIPER
 RHOB.G/C3   45 350 01 00:   BULK DENSITY
 DPHI.DEC    45 890 12 00:   DENSITY POROSITY SANDSTONE
 CORR.G/C3   45 356 01 00:   DENSITY CORRECTION
~PARAMETER INFORMATION
#MNEM.UNIT          VALUE    DESCRIPTION
#----------   ------------   ------------------------------
 PD  .                 GL:   PERMANENT DATUM
 EPD .F              5217:   ELEVATION PERMANENT DATUM
 LMF .                 KB:   LOG MEASURED FROM
 DAPD.F                 4:   FEET ABOVE PERMANENT DATUM
 DMF .                 KB:   DRILLING MEASURED FROM
 EKB .F              5221:   KELLING BUSHING
 EGL .F              5217:   GROUND LEVEL
 DATE.           12-18-78:   RUN DATE
 RUN .                  1:   RUN NUMBER
 DD  .F               653:   DEPTH DRILLER
 DL  .F               640:   DEPTH LOGGER
 BLI .F               634:   BOTTOM LOG INTERVAL
 TLI .F                32:   TOP LOG INTERVAL
 CS  .IN            8.625:   CASING SIZE
 CBD .F                40:   CASING BOTTOM DRILLER
 CBL .F                30:   CASING BOTTOM LOGGER
 BS  .IN            7.875:   BIT SIZE
 BSD .F               653:   BIT SIZE AT DEPTH
 DFT .                KCL:   DRILLING FLUID TYPE
 DFD .                8.3:   DRILLING FLUID DENSITY
 DFV .                 36:   DRILLING FLUID VISCOSITY
 DFPH.               12.5:   DRILLING FLUID PH
 DFL .               12.3:   DRILLING FLUID LOSS
 MSS .           FLOWLINE:   MUD SAMPLE SOURCE
 MST .F                56:   MUD SAMPLE TEMPERATURE
 RMF .OHMM            .44:   RESISTIVITY MUD FILTRATE SAMPLE
 MFST.F                58:   MUD FILTRATE SAMPLE TEMPERATURE
 RMC .OHMM            .58:   RESISTIVITY MUD CAKE
 MCST.F                66:   MUD CAKE SAMPLE TEMPERATURE
 MFSS.           MEASURED:   MUD FILTRATE SAMPLE SOURCE
 MCSS.           MEASURED:   MUD CAKE SAMPLE SOURCE
 BHT .F                58:   BOTTOM HOLE TEMPERATURE
 TCS .HRS               4:   TIME CURCULATED STOPPED
 MRT .F                58:   MAXIMUM RECORDED TEMPERATURE
 LUL .             CASPER:   LOGGING UNIT LOCATION
 ENGI.         B. ROLLINS:   RECORDING ENGINEER
 WITN.              AMEND:   WITNESSED BY
 CLNT.            A2DTECH:   CLIENT CODE
 ORIG.           5" PRINT:   ORIGIN OF DATA
 UWI .       490251075700:   UNIQUE WELL ID
 DICO. A2D Technologies, Inc.:   DIGITIZING COMPANY
~OTHER INFORMATION
~A   DEPT      SPR         SN         IL         GRD      CALD       RHOB       DPHI       CORR   
# ...
  583.5000   -46.7330    12.6030    11.9620    75.9420     8.2820     2.4470     0.1440     0.0080
  584.0000   -46.6800    12.5950    11.9460    75.8700     8.1420     2.4430     0.1420     0.0090
  584.5000   -46.6260    12.5870    11.9290    75.8220     8.0610     2.4440     0.1400     0.0090
  585.0000   -46.5730    12.5780    11.9130    75.7770     8.0630     2.4480     0.1370     0.0060
  585.5000   -46.5190    12.5700    11.8960    75.7530     8.0650     2.4520     0.1350     0.0030
  586.0000   -46.4660    12.5620    11.8800    76.4610     8.0670     2.4560     0.1360     0.0000
  586.5000   -46.4120    12.5540    11.8630    79.4830     8.0690     2.4550     0.1400     0.0010
  587.0000   -46.3580    12.5460    11.8470    80.2280     8.0710     2.4510     0.1400     0.0030
  587.5000   -46.3040    12.5380    11.8300    80.2770     8.0730     2.4500     0.1360     0.0040
  588.0000   -46.3920    12.5300    11.8140    80.3040     8.0750     2.4520     0.1290     0.0060
  588.5000   -46.4930    12.5220    11.7970    80.3280     8.0770     2.4610     0.1270     0.0080
  589.0000   -46.5960    12.5130    11.7810    80.3510     8.0790     2.4690     0.1280     0.0090
  589.5000   -46.6900    12.5050    11.7640    80.3740     8.0860     2.4680     0.1310     0.0080
  590.0000   -46.4900    12.4970    11.7480    80.3960     8.2180     2.4660     0.1390     0.0060
  590.5000   -46.2720    12.4520    11.7310    80.4200     8.3490     2.4600     0.1390     0.0050
  591.0000   -46.0550    12.4090    11.7150    80.4420     8.3280     2.4520     0.1370     0.0040
  591.5000   -45.8380    12.3660    11.6990    80.4970     8.0730     2.4530     0.1370     0.0080
  592.0000   -45.6210    12.3230    11.6820    80.7170     8.1950     2.4550     0.1390     0.0140
  592.5000   -45.4950    12.2800    11.6660    81.9250     8.2590     2.4530     0.1350     0.0230
  593.0000   -45.4830    12.2370    11.6490    82.5260     7.9910     2.4550     0.1300     0.0360
  593.5000   -45.4700    12.1930    11.6330    82.5020     8.0000     2.4610     0.1290     0.0490
  594.0000   -45.4570    12.1500    11.6160    81.8310     8.0260     2.4660     0.1290     0.0600
  594.5000   -45.4450    12.1070    11.5940    81.0700     8.0690     2.4670     0.1270     0.0590
  595.0000   -45.4320    12.0640    11.5680    81.1880     8.1280     2.4690     0.1260     0.0580
  595.5000   -45.4200    12.0210    11.5420    81.3170     8.1490     2.4710     0.1260     0.0580
  596.0000   -45.4080    11.9780    11.5150    81.4450     8.1310     2.4730     0.1240     0.0580
  596.5000   -45.3950    11.9350    11.4890    81.2070     8.1130     2.4740     0.1210     0.0600
  597.0000   -45.3830    11.8920    11.4630    80.9080     8.0950     2.4780     0.1100     0.0630
  597.5000   -45.3710    11.8500    11.4370    81.8190     8.0800     2.4950     0.1160     0.0610
  598.0000   -45.3580    11.8250    11.4100    83.0390     8.1020     2.4900     0.1220     0.0590
  598.5000   -45.3460    11.8250    11.3840    83.4420     8.1680     2.4820     0.1230     0.0580
  599.0000   -45.3330    11.8250    11.3580    82.9380     8.2350     2.4760     0.1180     0.0600
  599.5000   -45.3210    11.8250    11.3320    81.5180     8.3260     2.4800     0.1090     0.0710
  600.0000   -45.3070    11.8250    11.3050    81.0630     8.3830     2.4960     0.1060     0.0760
  600.5000   -45.2690    11.8250    11.2650    81.1440     8.3610     2.5060     0.1080     0.0760
  601.0000   -45.1550    11.8250    11.2100    81.7060     8.1510     2.5030     0.1120     0.0740
  601.5000   -45.0430    11.8250    11.1550    82.2640     8.2360     2.5000     0.1160     0.0720
  602.0000   -44.9320    11.8250    11.1000    82.8860     8.2600     2.4880     0.1190     0.0700
  602.5000   -44.8210    11.7470    11.0190    84.9460     8.1300     2.4810     0.0960     0.0840
  603.0000   -44.7090    11.5230    10.9290    85.0930     8.0910     2.5090     0.0850     0.0990
  603.5000   -44.5980    11.2920    10.8390    85.1510     8.2100     2.5350     0.0910     0.1040
  604.0000   -44.4870    11.2920    10.7490    85.2010     8.3470     2.5390     0.1090     0.0840
  604.5000   -44.3760    11.2920    10.6590    85.7080     8.3800     2.5150     0.1170     0.0660
  605.0000   -44.2650    11.2920    10.5630    86.4510     8.3560     2.4800     0.1150     0.0620
  605.5000   -44.1540    11.2920    10.4440    87.1950     8.3320     2.4920     0.1080     0.0760
  606.0000   -44.1140    11.1980    10.3250    87.9380     8.2740     2.5040     0.1010     0.0880
  606.5000   -44.1620    11.0450    10.2060    88.6210     8.1020     2.5110     0.1040     0.0870
  607.0000   -44.2080    10.8910    10.0860    89.0240     8.0620     2.5080     0.1060     0.0870
  607.5000   -44.2540    10.7380     9.9670    89.4050     8.0750     2.5050     0.1060     0.0870
  608.0000   -44.3000    10.5850     9.8480    89.8240     8.1850     2.5040     0.1040     0.0900
  608.5000   -44.3470    10.4310     9.7290    90.0920     8.2500     2.5070     0.1030     0.0940
  609.0000   -44.3930    10.2780     9.6100    90.2300     8.1830     2.5090     0.1030     0.0970
  609.5000   -44.4390    10.1250     9.4910    90.3640     7.8890     2.5110     0.1030     0.0880
  610.0000   -44.4850     9.9710     9.1310    90.4940     7.8100     2.5080     0.1000     0.0860
  610.5000   -44.5320     9.8180     8.6310    90.6900     7.7840     2.5120     0.0980     0.0850
  611.0000   -44.5770     9.5160     8.1310    91.7200     7.7950     2.5160     0.0990     0.0850
  611.5000   -44.6230     9.0750     7.5960    93.2680     7.8070     2.5180     0.1010     0.0850
  612.0000   -44.6670     8.6340     7.0510    90.8690     7.8170     2.5150     0.1030     0.0840
  612.5000   -44.5610     8.1920     6.4660    92.0930     8.0050     2.5080     0.1040     0.0830
  613.0000   -44.1630     7.7510     6.0890    95.5490     8.3310     2.5070     0.1050     0.0820
  613.5000   -43.7690     7.3100     6.1040    97.5540     8.2980     2.5090     0.1140     0.0800
  614.0000   -43.3770     6.8940     6.1150    98.3220     8.0510     2.4960     0.1280     0.0790
  614.5000   -42.9820     6.4940     6.1270    99.7430     8.1370     2.4750     0.1430     0.0780
  615.0000   -42.5820     6.5960     6.1380   104.5420     8.3490     2.4540     0.1440     0.0760
  615.5000   -42.5500     6.6990     6.4470   109.3710     8.3770     2.4390     0.1290     0.0750
  616.0000   -42.6060     7.3360     7.1930   113.4700     8.3500     2.4590     0.1110     0.0730
  616.5000   -42.6640     8.3100     7.9380   116.4920     8.3060     2.4880     0.1000     0.0710
  617.0000   -42.7230     9.2840     8.6830   117.1330     8.1580     2.5070     0.1020     0.0680
  617.5000   -42.7820    10.0610     9.4280   112.9900     8.0210     2.5210     0.1040     0.0650
  618.0000   -42.8410    10.2400     9.9190    96.3030     7.9620     2.5240     0.1040     0.0640
  618.5000   -42.8990    10.4190    10.1040    88.9230     7.9320     2.5080     0.1010     0.0660
  619.0000   -42.9550    10.5980    10.2900    85.6560     7.9780     2.5040     0.0980     0.0680
  619.5000   -43.0080    10.7770    10.4760    84.3300     8.0230     2.5140     0.0950     0.0690
  620.0000   -43.0750    10.9560    10.6620    83.5500     8.0690     2.5220     0.0920     0.0710
  620.5000   -42.2680    11.1350    10.8480    83.0040     8.0570     2.5280     0.0900     0.0730
  621.0000   -40.9210    11.3140    11.0340    84.2530     8.0290     2.5330     0.0880     0.0750
  621.5000   -40.1480    11.4940    11.1770    86.7140     8.0000     2.5360     0.0870     0.0750
  622.0000   -40.2700    11.6730    11.3030    89.3660     7.9720     2.5360     0.0870     0.0730
  622.5000   -40.3780    11.8480    11.4280    91.5640     7.9430     2.5330     0.0980     0.0680
  623.0000   -40.4890    12.0010    11.5540    91.7820     7.9240     2.5180     0.1020     0.0650
  623.5000   -40.6020    12.1540    11.6800    91.8080     7.9400     2.5050     0.1000     0.0650
