~VERSION INFORMATION
 VERS.                2.0:   CWLS LOG ASCII STANDARD - VERSION 2.0
 WRAP.                 NO:   ONE LINE PER DEPTH STEP
~WELL INFORMATION
#MNEM.UNIT      DATA TYPE    INFORMATION
#----------   ------------   ------------------------------
 STRT.F           12.0000:   START DEPTH
 STOP.F          754.0000:   STOP DEPTH
 STEP.F            0.5000:   STEP LENGTH
 NULL.          -999.2500:   NO VALUE
 COMP. FENIX & SCISSON INC:   COMPANY
 WELL.    62 SX 34 #62-34:   WELL
 FLD .             TEAPOT:   FIELD
 LOC .      S34 T39N R78W:   LOCATION
 CNTY.            NATRONA:   COUNTY
 STAT.            WYOMING:   STATE
 CTRY. UNITED STATES OF AMERICA:   COUNTRY
 SRVC.            Unknown:   SERVICE COMPANY
 DATE.        20-AUG-1978:   LOGDATE
 API .       490251070200:   API NUMBER
~CURVE INFORMATION
#MNEM.UNIT       API CODE    CURVE DESCRIPTION
#----------   ------------   ------------------------------
 DEPT.F                  :   
 SPR .MV     05 010 01 00:   SPONTANEOUS POTENTIAL FROM RES.
 SN  .OHMM   05 040 16 00:   SHORT NORMAL 16"
 ILD .OHMM   05 120 46 00:   INDUCTION LOG DEEP
 GRD .GAPI   45 310 01 00:   GAMMA RAY FROM DENSITY LOG
 CALD.IN     45 280 60 00:   CALIPER
 RHOB.G/C3   45 350 01 00:   BULK DENSITY
 DPHI.DEC    45 890 12 00:   DENSITY POROSITY SANDSTONE
 CORR.G/C3   45 356 01 00:   DENSITY CORRECTION
~PARAMETER INFORMATION
#MNEM.UNIT          VALUE    DESCRIPTION
#----------   ------------   ------------------------------
 PD  .                 GL:   PERMANENT DATUM
 EPD .F              5039:   ELEVATION PERMANENT DATUM
 LMF .                 KB:   LOG MEASURED FROM
 DAPD.F                 4:   FEET ABOVE PERMANENT DATUM
 DMF .                 KB:   DRILLING MEASURED FROM
 EKB .F              5043:   KELLING BUSHING
 EGL .F              5039:   GROUND LEVEL
 DATE.            8-20-78:   RUN DATE
 RUN .                  1:   RUN NUMBER
 DD  .F               750:   DEPTH DRILLER
 DL  .F               755:   DEPTH LOGGER
 BLI .F               749:   BOTTOM LOG INTERVAL
 TLI .F                30:   TOP LOG INTERVAL
 CS  .IN            8.625:   CASING SIZE
 CBD .F                30:   CASING BOTTOM DRILLER
 CBL .F                34:   CASING BOTTOM LOGGER
 BS  .IN            7.875:   BIT SIZE
 BSD .F               750:   BIT SIZE AT DEPTH
 DFT .            KCL MUD:   DRILLING FLUID TYPE
 DFD .                8.6:   DRILLING FLUID DENSITY
 DFV .                 30:   DRILLING FLUID VISCOSITY
 DFPH.                9.5:   DRILLING FLUID PH
 DFL .               10.4:   DRILLING FLUID LOSS
 MSS .          FLOW LINE:   MUD SAMPLE SOURCE
 RMS .OHMM            .28:   RESISTIVITY MUD SAMPLE
 MST .F                76:   MUD SAMPLE TEMPERATURE
 RMF .OHMM            .24:   RESISTIVITY MUD FILTRATE SAMPLE
 MFST.F                80:   MUD FILTRATE SAMPLE TEMPERATURE
 RMC .OHMM            .34:   RESISTIVITY MUD CAKE
 MCST.F                82:   MUD CAKE SAMPLE TEMPERATURE
 MFSS.               MEAS:   MUD FILTRATE SAMPLE SOURCE
 MCSS.               MEAS:   MUD CAKE SAMPLE SOURCE
 BHT .F                72:   BOTTOM HOLE TEMPERATURE
 TCS .HRS               3:   TIME CURCULATED STOPPED
 MRT .F                72:   MAXIMUM RECORDED TEMPERATURE
 LUN .               2958:   LOGGING UNIT NUMBER
 LUL .               CASP:   LOGGING UNIT LOCATION
 ENGI.           REYNOLDS:   RECORDING ENGINEER
 WITN.              AMEND:   WITNESSED BY
 CLNT.            A2DTECH:   CLIENT CODE
 ORIG.           5" PRINT:   ORIGIN OF DATA
 UWI .       490251070200:   UNIQUE WELL ID
 DICO. A2D Technologies, Inc.:   DIGITIZING COMPANY
~OTHER INFORMATION
~A   DEPT      SPR         SN        ILD         GRD      CALD       RHOB       DPHI       CORR   
# ...
  336.0000   -62.8208     6.9276     7.3831    98.9228     7.8364     2.4943     0.1081     0.0609
  336.5000   -62.8208     6.8785     7.3169    97.5751     7.7366     2.5004     0.1044     0.0602
  337.0000   -62.8208     6.8488     7.2512    96.2784     7.6375     2.5038     0.1040     0.0597
  337.5000   -62.8208     6.8190     7.1862    95.8472     7.5765     2.5051     0.1058     0.0510
  338.0000   -62.8208     6.7894     7.1218    95.4556     7.5696     2.5050     0.1159     0.0415
  338.5000   -62.8208     6.7599     7.0712    95.0252     7.5575     2.4864     0.1270     0.0322
  339.0000   -62.8208     6.7305     7.0976    93.6905     7.5634     2.4671     0.1392     0.0249
  339.5000   -62.8208     6.7012     7.1192    94.9216     7.6009     2.4513     0.1422     0.0233
  340.0000   -62.8208     6.6721     7.1364    97.4106     7.6380     2.4455     0.1459     0.0216
  340.5000   -62.8208     6.6431     6.9946    98.1923     7.6750     2.4396     0.1497     0.0213
  341.0000   -62.8208     6.6142     6.9204    97.5408     7.7119     2.4335     0.1507     0.0210
  341.5000   -62.8208     6.5854     6.8785    96.8737     7.7489     2.4369     0.1469     0.0208
  342.0000   -62.8208     6.5537     6.8785    96.2080     7.7859     2.4435     0.1419     0.0206
  342.5000   -62.8208     6.4882     6.8785    95.7520     7.8228     2.4503     0.1369     0.0204
  343.0000   -62.8208     6.4234     6.8785    96.5381     7.8598     2.4570     0.1319     0.0201
  343.5000   -62.8211     6.3593     6.8785    97.3140     7.8967     2.4632     0.1314     0.0199
  344.0000   -62.7982     6.2957     6.8785    97.5146     7.9341     2.4622     0.1332     0.0197
  344.5000   -62.7643     6.2738     6.8784    96.5624     7.9721     2.4613     0.1332     0.0196
  345.0000   -62.7300     6.2738     6.8792    95.6036     8.0075     2.4603     0.1328     0.0215
  345.5000   -62.6958     6.2739     6.8592    94.6534     8.0301     2.4619     0.1309     0.0235
  346.0000   -62.6615     6.2738     6.8309    93.6938     8.0541     2.4655     0.1288     0.0254
  346.5000   -62.6272     6.2738     6.8156    94.4699     8.0780     2.4692     0.1267     0.0274
  347.0000   -62.5929     6.2738     6.8079    96.5190     8.1017     2.4709     0.1252     0.0267
  347.5000   -62.5587     6.2738     6.7967    96.6155     8.1185     2.4708     0.1260     0.0258
  348.0000   -62.5244     6.2738     6.7855    98.0499     8.1259     2.4706     0.1268     0.0248
  348.5000   -62.4902     6.2738     6.7743   102.7181     8.1408     2.4704     0.1275     0.0239
  349.0000   -62.4559     6.2738     6.7631   107.4333     8.1557     2.4702     0.1283     0.0235
  349.5000   -62.4216     6.2738     6.7526   107.7083     8.1705     2.4700     0.1291     0.0235
  350.0000   -62.3873     6.2738     6.7653   107.7061     8.1854     2.4679     0.1299     0.0249
  350.5000   -62.3531     6.2738     6.7826   106.4917     8.2003     2.4663     0.1308     0.0269
  351.0000   -62.3188     6.2738     6.8001   104.8498     8.2151     2.4657     0.1222     0.0294
  351.5000   -62.2845     6.2738     6.8156   103.1775     8.2300     2.4812     0.1143     0.0320
  352.0000   -62.2503     6.2738     6.7188   102.0689     8.2450     2.4986     0.1065     0.0330
  352.5000   -62.2160     6.2738     6.5692   101.2100     8.2591     2.5164     0.0985     0.0321
  353.0000   -62.1818     6.2755     6.6406   100.3481     8.2328     2.5224     0.0976     0.0312
  353.5000   -62.1475     6.2872     6.7739    99.4894     8.2035     2.5057     0.1089     0.0303
  354.0000   -62.1133     6.2989     6.9099    98.8272     8.1740     2.4866     0.1163     0.0294
  354.5000   -62.0791     6.3107     6.9421    98.7661     8.1446     2.4878     0.1188     0.0285
  355.0000   -62.0440     6.3223     6.8962    98.6999     8.1152     2.4924     0.1104     0.0277
  355.5000   -61.9693     6.3321     6.8626    98.8867     8.0863     2.4945     0.1185     0.0230
  356.0000   -61.8314     6.2747     6.8286    99.3973     8.0603     2.4761     0.1350     0.0177
  356.5000   -61.6950     6.2528     6.7215    99.7946     8.0335     2.4444     0.1529     0.0124
  357.0000   -61.5604     6.2265     6.5674    98.5067     8.0188     2.4086     0.1773     0.0114
  357.5000   -61.4086     6.0597     6.4169    97.2864     8.0179     2.3579     0.2095     0.0158
  358.0000   -60.9022     5.8134     6.2698    97.0800     8.0182     2.3070     0.2588     0.0314
  358.5000   -60.3952     5.5772     6.1594    96.8871     8.0185     2.2550     0.2681     0.0617
  359.0000   -59.8959     5.3505     6.1367    96.6988     8.0384     2.2426     0.2556     0.0664
  359.5000   -59.7523     5.2887     6.1149    96.5626     8.0751     2.2645     0.2427     0.0572
  360.0000   -59.6614     5.2676     6.0430    93.2247     8.1190     2.3117     0.2299     0.0613
  360.5000   -59.5706     5.2193     5.9137    89.5500     8.1635     2.3595     0.2172     0.0626
  361.0000   -59.4793     4.9830     5.7871    89.6236     8.2078     2.3908     0.2044     0.0444
  361.5000   -59.3879     4.9851     5.7223    96.1020     8.2522     2.3773     0.1916     0.0286
  362.0000   -59.2965     5.0105     5.8291   102.1641     8.2965     2.3718     0.1789     0.0259
  362.5000   -59.2051     5.0500     5.9023    99.9772     8.3409     2.3838     0.1733     0.0235
  363.0000   -59.1136     5.0873     5.9765    96.7837     8.3854     2.3946     0.1762     0.0238
  363.5000   -59.0222     5.1204     6.0515    96.2887     8.4306     2.3872     0.1836     0.0241
  364.0000   -58.9308     5.1538     6.1594    97.1348     8.4371     2.3751     0.1910     0.0244
  364.5000   -58.8394     5.1873     6.1846    98.9289     8.4327     2.3629     0.1979     0.0247
  365.0000   -58.7482     5.2211     6.2326    99.6475     8.4282     2.3571     0.1975     0.0250
  365.5000   -58.6590     5.2551     6.2810    99.6568     8.4240     2.3648     0.1898     0.0253
  366.0000   -58.4863     5.2894     6.3297    98.2913     8.4144     2.3725     0.1850     0.0261
  366.5000   -58.2980     5.3238     6.3788    95.0966     8.3951     2.3804     0.1804     0.0320
  367.0000   -58.1078     5.3585     6.4283    91.9607     8.3511     2.3904     0.1728     0.0379
  367.5000   -58.0166     5.3934     6.4782    91.5313     8.3140     2.4031     0.1629     0.0438
  368.0000   -57.9757     5.4258     6.5228    91.2568     8.2775     2.4173     0.1529     0.0496
  368.5000   -57.9355     5.4842     6.5967    91.4805     8.2409     2.4386     0.1429     0.0557
  369.0000   -57.8959     5.5432     6.6716    91.7157     8.2043     2.4595     0.1329     0.0523
  369.5000   -57.8518     5.5665     6.7473    90.9141     8.1665     2.4636     0.1296     0.0450
  370.0000   -58.0041     5.6531     6.8238    88.1614     8.1582     2.4511     0.1404     0.0375
  370.5000   -58.2289     5.7614     6.9014    88.1989     8.1567     2.4389     0.1468     0.0300
  371.0000   -58.4570     5.8717     6.9799    88.1179     8.1618     2.4340     0.1494     0.0275
  371.5000   -58.6884     5.9842     7.0719    85.6693     8.2580     2.4324     0.1522     0.0275
  372.0000   -59.1682     6.0471     7.0007    83.1944     8.8975     2.4274     0.1549     0.0308
  372.5000   -60.1819     6.0448     6.8933    81.8979     9.7570     2.4203     0.1576     0.0387
  373.0000   -61.1883     6.0358     6.8785    82.0272     8.3312     2.4161     0.1595     0.0406
  373.5000   -62.2093     6.0267     6.8132    82.5827     8.1709     2.4224     0.1519     0.0393
  374.0000   -62.9439     6.0177     6.8049    84.5338     8.1125     2.4349     0.1417     0.0380
  374.5000   -63.6013     6.0087     6.7966    88.2512     8.0174     2.4475     0.1340     0.0366
  375.0000   -63.7635     5.9998     6.7883    91.9649     7.9244     2.4600     0.1314     0.0353
  375.5000   -63.9038     5.9917     6.7800    93.6667     7.8711     2.4579     0.1347     0.0341
  376.0000   -64.0183     6.0784     6.7719    93.3652     7.8578     2.4538     0.1388     0.0309
