~VERSION INFORMATION
 VERS.                2.0:   CWLS LOG ASCII STANDARD - VERSION 2.0
 WRAP.                 NO:   ONE LINE PER DEPTH STEP
~WELL INFORMATION
#MNEM.UNIT      DATA TYPE    INFORMATION
#----------   ------------   ------------------------------
 STRT.F            0.0000:   START DEPTH
 STOP.F          497.0000:   STOP DEPTH
 STEP.F            0.1000:   STEP LENGTH
 NULL.          -999.2500:   NO VALUE
 COMP.       F D SERV INC:   COMPANY
 WELL. NAVAL PETROLEUM RESERVE 3 SX-1 #81-1-10:   WELL
 FLD .             NPR #3:   FIELD
 LOC .      S10 T38N R78W:   LOCATION
 CNTY.            NATRONA:   COUNTY
 STAT.            WYOMING:   STATE
 CTRY. UNITED STATES OF AMERICA:   COUNTRY
 SRVC.     Atlas Wireline:   SERVICE COMPANY
 DATE.        14-DEC-1997:   LOGDATE
 API .       490252257400:   API NUMBER
~CURVE INFORMATION
#MNEM.UNIT       API CODE    CURVE DESCRIPTION
#----------   ------------   ------------------------------
 DEPT.F                  :   
 GRR .GAPI   07 310 01 00:   GAMMA RAY
 RILD.OHMM   07 120 46 00:   INDUCTION LOG DEEP RESISTIVITY
 RILM.OHMM   07 120 44 00:   INDUCTION LOG MEDIUM RESISTIVITY
~PARAMETER INFORMATION
#MNEM.UNIT          VALUE    DESCRIPTION
#----------   ------------   ------------------------------
 PD  .                 GL:   PERMANENT DATUM
 EPD .F              5132:   ELEVATION PERMANENT DATUM
 LMF .                 KB:   LOG MEASURED FROM
 DAPD.F                10:   FEET ABOVE PERMANENT DATUM
 DMF .                 KB:   DRILLING MEASURED FROM
 EKB .F              5142:   KELLING BUSHING
 EDF .F              5141:   DRILLING FLOOR
 EGL .F              5132:   GROUND LEVEL
 DATE.        14-DEC-1992:   RUN DATE
 RUN .                  1:   RUN NUMBER
 DD  .F               513:   DEPTH DRILLER
 DL  .F               505:   DEPTH LOGGER
 BLI .F               497:   BOTTOM LOG INTERVAL
 CS  .IN            8.625:   CASING SIZE
 CBD .F                53:   CASING BOTTOM DRILLER
 CBL .F                54:   CASING BOTTOM LOGGER
 BS  .IN            7.875:   BIT SIZE
 BSD .F               513:   BIT SIZE AT DEPTH
 DFT .           AIR FOAM:   DRILLING FLUID TYPE
 BHT .F                68:   BOTTOM HOLE TEMPERATURE
 MRT .F                68:   MAXIMUM RECORDED TEMPERATURE
 LUN .           HL- 6274:   LOGGING UNIT NUMBER
 LUL .             CASPER:   LOGGING UNIT LOCATION
 ENGI.             RAUTIO:   RECORDING ENGINEER
 WITN.          G. STRONG:   WITNESSED BY
 CLNT.            A2DTECH:   CLIENT CODE
 ORIG.           5" PRINT:   ORIGIN OF DATA
 UWI .       490252257400:   UNIQUE WELL ID
 DICO. A2D Technologies, Inc.:   DIGITIZING COMPANY
~OTHER INFORMATION
~A    DEPT      GRR      RILD       RILM   
# ...
  200.2000   117.9506     6.4772     6.1570
  200.3000   119.5442     6.4637     6.1572
  200.4000   120.5237     6.4638     6.1575
  200.5000   121.0782     6.4525     6.1578
  200.6000   121.0771     6.4192     6.1580
  200.7000   121.0759     6.4193     6.1583
  200.8000   121.0747     6.3836     6.1929
  200.9000   120.9709     6.3460     6.2299
  201.0000   120.7711     6.3087     6.2453
  201.1000   120.7560     6.2872     6.2608
  201.2000   120.4673     6.2873     6.2894
  201.3000   119.7873     6.2848     6.2896
  201.4000   118.8337     6.2439     6.2899
  201.5000   117.6677     6.2440     6.2901
  201.6000   116.4755     6.2440     6.2904
  201.7000   115.4958     6.2441     6.3104
  201.8000   114.7330     6.2442     6.3348
  201.9000   114.4348     6.2514     6.3351
  202.0000   114.0000     6.2880     6.3353
  202.1000   113.6576     6.2881     6.3798
  202.2000   113.5277     6.2881     6.4112
  202.3000   113.6102     6.2882     6.4495
  202.4000   113.9052     6.2883     6.4880
  202.5000   114.4277     6.2884     6.5153
  202.6000   114.7275     6.2936     6.5201
  202.7000   114.7265     6.3324     6.5613
  202.8000   115.0514     6.4051     6.5982
  202.9000   115.3265     6.4213     6.6376
  203.0000   115.3253     6.4446     6.6772
  203.1000   115.2942     6.4829     6.7007
  203.2000   115.0216     6.5316     6.7103
  203.3000   115.0205     6.6060     6.7480
  203.4000   115.0193     6.6488     6.7483
  203.5000   115.0181     6.6848     6.8194
  203.6000   115.0169     6.7539     6.8433
  203.7000   115.0157     6.8117     6.8651
  203.8000   115.0145     6.8678     6.8916
  203.9000   115.0131     6.9495     6.8919
  204.0000   115.0120     7.0309     6.8922
  204.1000   115.1994     7.0788     6.9406
  204.2000   115.5992     7.1148     7.0089
  204.3000   115.9120     7.1571     7.0383
  204.4000   116.0770     7.1997     7.0583
  204.5000   116.8243     7.2283     7.1004
  204.6000   117.1131     7.2284     7.1427
  204.7000   117.3355     7.2285     7.1879
  204.8000   117.5912     7.2286     7.2283
  204.9000   117.8468     7.2631     7.2714
  205.0000   118.0120     7.3336     7.2894
  205.1000   118.0108     7.3813     7.2897
  205.2000   118.0096     7.3934     7.3002
  205.3000   118.3094     7.4330     7.3437
  205.4000   118.3084     7.4331     7.3927
  205.5000   118.1376     7.4332     7.3930
  205.6000   118.0048     7.4663     7.4242
  205.7000   118.0036     7.5364     7.4452
  205.8000   117.9293     7.5901     7.4455
  205.9000   117.3988     7.5902     7.4536
  206.0000   117.3976     7.5924     7.4980
  206.1000   117.3964     7.6434     7.4984
  206.2000   117.7157     7.6435     7.4987
  206.3000   118.1123     7.6436     7.4990
  206.4000   118.5108     7.6437     7.4993
  206.5000   119.2530     7.6438     7.4996
  206.6000   119.7999     7.6439     7.5051
  206.7000   120.0384     7.6440     7.5526
  206.8000   120.0988     7.6441     7.5528
  206.9000   119.9468     7.6442     7.5191
  207.0000   119.7952     7.6443     7.5012
  207.1000   119.7319     7.6444     7.5015
  207.2000   119.4916     7.6445     7.4914
  207.3000   119.4902     7.6446     7.4501
  207.4000   119.4892     7.6448     7.4505
  207.5000   119.3022     7.6449     7.4120
  207.6000   119.0442     7.6450     7.3687
  207.7000   118.6891     7.6451     7.3256
  207.8000   118.2269     7.6452     7.2979
  207.9000   117.9524     7.6453     7.2982
  208.0000   117.0721     7.6426     7.2985
  208.1000   116.1883     7.5925     7.2989
  208.2000   115.1598     7.5926     7.2991
  208.3000   114.5271     7.5927     7.2994
  208.4000   114.2691     7.5929     7.2997
  208.5000   114.0542     7.5768     7.2874
  208.6000   114.0530     7.5323     7.2497
  208.7000   114.0516     7.4883     7.2501
  208.8000   114.0506     7.4885     7.2504
  208.9000   114.2163     7.4517     7.2507
  209.0000   114.3494     7.4368     7.2510
  209.1000   114.3482     7.4369     7.2513
  209.2000   114.3807     7.4370     7.2415
  209.3000   114.6469     7.4371     7.2016
  209.4000   114.6458     7.4372     7.2020
  209.5000   114.8464     7.4373     7.1648
  209.6000   114.9446     7.4374     7.1527
  209.7000   115.1695     7.4375     7.1307
  209.8000   115.6133     7.4376     7.1037
  209.9000   115.8932     7.4377     7.1040
  210.0000   116.4457     7.4378     7.1043
  210.1000   116.9180     7.4379     7.0554
  210.2000   117.4305     7.3984     7.0557
  210.3000   117.9430     7.3866     7.0560
  210.4000   118.6627     7.3388     7.0367
  210.5000   119.6295     7.2687     6.9955
  210.6000   120.4136     7.2259     6.9594
  210.7000   121.5577     7.1844     6.9597
  210.8000   122.4659     7.1846     6.9214
  210.9000   122.9432     7.1130     6.9121
  211.0000   123.3373     7.0574     6.9124
  211.1000   123.8498     7.0159     6.8959
  211.2000   124.2629     6.9746     6.8650
  211.3000   124.2669     6.9276     6.8653
  211.4000   124.5613     6.8439     6.8657
  211.5000   124.7781     6.8440     6.7948
  211.6000   124.8602     6.8120     6.7433
  211.7000   124.7299     6.7472     6.7038
  211.8000   124.4719     6.6854     6.6508
  211.9000   124.2138     6.6252     6.5797
  212.0000   123.9518     6.5122     6.5412
  212.1000   122.7456     6.4295     6.4512
  212.2000   122.1193     6.3259     6.3891
  212.3000   121.0195     6.2148     6.3143
  212.4000   119.8537     6.1260     6.2232
  212.5000   118.8253     6.0264     6.1141
  212.6000   117.8278     5.8929     6.0068
  212.7000   117.0156     5.7878     5.8952
  212.8000   116.2844     5.6346     5.7981
  212.9000   115.7116     5.5209     5.6966
  213.0000   115.0421     5.4358     5.5776
  213.1000   114.4910     5.3720     5.4475
  213.2000   114.2329     5.3089     5.3276
  213.3000   113.9749     5.2465     5.2341
  213.4000   113.6939     5.1841     5.1316
  213.5000   113.6928     5.1841     5.0786
  213.6000   113.8811     5.1842     4.9985
  213.7000   114.1367     5.1843     4.9261
  213.8000   114.3923     5.1843     4.8684
  213.9000   114.7608     5.1844     4.8213
  214.0000   115.4940     5.1845     4.8216
  214.1000   115.4926     5.1846     4.7884
  214.2000   115.4916     5.1846     4.7886
  214.3000   115.4904     5.1847     4.7888
  214.4000   115.2177     5.1848     4.7890
  214.5000   114.7942     5.1848     4.7892
  214.6000   114.5361     5.1849     4.7894
  214.7000   114.2755     5.1850     4.7896
  214.8000   113.6769     5.1851     4.8165
  214.9000   113.4609     5.1851     4.8234
  215.0000   113.3735     5.1852     4.8573
  215.1000   113.2460     5.1853     4.9033
  215.2000   113.0699     5.1853     4.9325
  215.3000   113.0687     5.1854     4.9619
  215.4000   113.0674     5.1855     4.9950
  215.5000   113.0660     5.1856     5.0742
  215.6000   113.2707     5.1856     5.1435
  215.7000   113.3651     5.2058     5.2049
  215.8000   113.5976     5.2367     5.2781
  215.9000   114.1100     5.2678     5.3613
  216.0000   114.6507     5.2991     5.3933
  216.1000   115.4686     5.3322     5.5072
  216.2000   116.1891     5.4231     5.5614
  216.3000   117.1546     5.4697     5.6277
  216.4000   118.0289     5.4828     5.6948
  216.5000   119.1205     5.5105     5.7729
  216.6000   120.5973     5.5679     5.8680
  216.7000   121.8614     5.6010     5.9051
  216.8000   122.9902     5.6377     6.0049
  216.9000   123.6825     5.6980     6.0849
  217.0000   124.0783     5.7659     6.1575
  217.1000   124.1916     5.8156     6.2309
  217.2000   124.2884     5.8631     6.3052
  217.3000   124.4904     5.9260     6.3781
  217.4000   124.4799     5.9612     6.4207
  217.5000   124.1866     6.0022     6.5224
  217.6000   123.7421     6.0931     6.6394
  217.7000   123.0500     6.1532     6.7371
  217.8000   121.7467     6.2079     6.8174
  217.9000   120.3018     6.2700     6.8915
  218.0000   119.5743     6.3179     6.9326
  218.1000   119.0590     6.4348     6.9329
  218.2000   118.1540     6.4718     6.9670
  218.3000   117.5163     6.5717     7.0356
