~VERSION INFORMATION
 VERS.                2.0:   CWLS LOG ASCII STANDARD - VERSION 2.0
 WRAP.                 NO:   ONE LINE PER DEPTH STEP
~WELL INFORMATION
#MNEM.UNIT      DATA TYPE    INFORMATION
#----------   ------------   ------------------------------
 STRT.F           30.0000:   START DEPTH
 STOP.F          509.0000:   STOP DEPTH
 STEP.F            0.5000:   STEP LENGTH
 NULL.          -999.2500:   NO VALUE
 COMP. FENIX & SCISSON INC:   COMPANY
 WELL.   NPR 3 #45 SX 3-3:   WELL
 FLD .             TEAPOT:   FIELD
 LOC .       S3 T38N R78W:   LOCATION
 CNTY.            NATRONA:   COUNTY
 STAT.            WYOMING:   STATE
 CTRY. UNITED STATES OF AMERICA:   COUNTRY
 SRVC.            Unknown:   SERVICE COMPANY
 DATE.        05-OCT-1978:   LOGDATE
 API .       490251071700:   API NUMBER
~CURVE INFORMATION
#MNEM.UNIT       API CODE    CURVE DESCRIPTION
#----------   ------------   ------------------------------
 DEPT.F                  :   
 SPR .MV     05 010 01 00:   SPONTANEOUS POTENTIAL FROM RES.
 SN  .OHMM   05 040 16 00:   SHORT NORMAL 16"
 ILD .OHMM   05 120 46 00:   INDUCTION LOG DEEP
 GRD .GAPI   45 310 01 00:   GAMMA RAY FROM DENSITY LOG
 CALD.IN     45 280 60 00:   CALIPER
 RHOB.G/C3   45 350 01 00:   BULK DENSITY
 DPHI.DEC    45 890 12 00:   DENSITY POROSITY SANDSTONE
 CORR.G/C3   45 356 01 00:   DENSITY CORRECTION
~PARAMETER INFORMATION
#MNEM.UNIT          VALUE    DESCRIPTION
#----------   ------------   ------------------------------
 PD  .                 GL:   PERMANENT DATUM
 EPD .F              5188:   ELEVATION PERMANENT DATUM
 LMF .                 KB:   LOG MEASURED FROM
 DAPD.F                 4:   FEET ABOVE PERMANENT DATUM
 DMF .                 KB:   DRILLING MEASURED FROM
 EKB .F              5192:   KELLING BUSHING
 EGL .F              5188:   GROUND LEVEL
 DATE.            10-5-78:   RUN DATE
 RUN .                  1:   RUN NUMBER
 DD  .F               510:   DEPTH DRILLER
 DL  .F               509:   DEPTH LOGGER
 BLI .F               503:   BOTTOM LOG INTERVAL
 TLI .F                48:   TOP LOG INTERVAL
 CS  .IN            8.625:   CASING SIZE
 CBL .F                46:   CASING BOTTOM LOGGER
 BS  .IN            7.875:   BIT SIZE
 BSD .F               510:   BIT SIZE AT DEPTH
 DFT .                KCL:   DRILLING FLUID TYPE
 DFD .                8.7:   DRILLING FLUID DENSITY
 DFV .                 37:   DRILLING FLUID VISCOSITY
 DFPH.                  9:   DRILLING FLUID PH
 DFL .               10.4:   DRILLING FLUID LOSS
 MSS .            MUD PIT:   MUD SAMPLE SOURCE
 RMS .OHMM            .28:   RESISTIVITY MUD SAMPLE
 MST .F                58:   MUD SAMPLE TEMPERATURE
 RMF .OHMM            .32:   RESISTIVITY MUD FILTRATE SAMPLE
 MFST.F                54:   MUD FILTRATE SAMPLE TEMPERATURE
 RMC .OHMM            .24:   RESISTIVITY MUD CAKE
 MCST.F                56:   MUD CAKE SAMPLE TEMPERATURE
 MFSS.               MEAS:   MUD FILTRATE SAMPLE SOURCE
 MCSS.               MEAS:   MUD CAKE SAMPLE SOURCE
 BHT .F                64:   BOTTOM HOLE TEMPERATURE
 TCS .HRS               2:   TIME CURCULATED STOPPED
 MRT .F                64:   MAXIMUM RECORDED TEMPERATURE
 LUN .               2958:   LOGGING UNIT NUMBER
 LUL .               CASP:   LOGGING UNIT LOCATION
 ENGI.             MILLER:   RECORDING ENGINEER
 WITN.           DINSMORE:   WITNESSED BY
 CLNT.            A2DTECH:   CLIENT CODE
 ORIG.       2", 5" PRINT:   ORIGIN OF DATA
 UWI .       490251071700:   UNIQUE WELL ID
 DICO. A2D Technologies, Inc.:   DIGITIZING COMPANY
~OTHER INFORMATION
~A   DEPT      SPR         SN        ILD         GRD      CALD       RHOB       DPHI       CORR   
# ...
  151.5000   -17.7010     8.6215     8.4378    95.2018     7.4852     2.4405     0.1484    -0.0093
  152.0000   -17.7139     8.6178     8.4668    95.1829     7.5110     2.4489     0.1431    -0.0080
  152.5000   -17.7267     8.6140     8.4545    95.1639     7.5361     2.4539     0.1394    -0.0068
  153.0000   -17.7396     8.6102     8.4426    95.1450     7.5611     2.4560     0.1384    -0.0055
  153.5000   -17.7525     8.6064     8.4308    95.1255     7.5858     2.4605     0.1374    -0.0035
  154.0000   -17.7579     8.6026     8.4191    95.1071     7.5866     2.4674     0.1312     0.0016
  154.5000   -17.7579     8.5989     8.4073    95.0856     7.5579     2.4683     0.1304     0.0061
  155.0000   -17.7579     8.5951     8.3956    95.4640     7.5294     2.4694     0.1291     0.0107
  155.5000   -17.7579     8.5913     8.3839    96.1166     7.5010     2.4719     0.1267     0.0159
  156.0000   -17.7579     8.5876     8.3722    98.1565     7.4844     2.4766     0.1243     0.0222
  156.5000   -17.7579     8.5838     8.3605   100.4259     7.5065     2.4800     0.1235     0.0265
  157.0000   -17.7579     8.5800     8.3489   101.8140     7.5274     2.4795     0.1231     0.0285
  157.5000   -17.7579     8.5763     8.3372   102.2287     7.5480     2.4789     0.1226     0.0305
  158.0000   -17.7579     8.5725     8.3256   102.1478     7.5532     2.4739     0.1253     0.0325
  158.5000   -17.7579     8.5687     8.3140   102.0743     7.5382     2.4678     0.1300     0.0345
  159.0000   -17.7579     8.5650     8.3024   101.8385     7.5233     2.4582     0.1347     0.0365
  159.5000   -17.7579     8.5612     8.2908   101.5469     7.5084     2.4511     0.1414     0.0497
  160.0000   -17.7579     8.5575     8.2793   101.2541     7.4935     2.4481     0.1424     0.0720
  160.5000   -17.7579     8.5538     8.2677   100.9598     7.4786     2.4558     0.1390     0.0944
  161.0000   -17.7577     8.5504     8.2563   100.6679     7.4638     2.4711     0.1311     0.1115
  161.5000   -17.8089     8.5460     8.2451   100.6388     7.4366     2.4859     0.1211     0.1217
  162.0000   -17.9058     8.4781     8.2008   100.6236     7.4059     2.4966     0.1110     0.1152
  162.5000   -18.0027     8.4086     8.1063   100.6068     7.3752     2.5070     0.1059     0.1069
  163.0000   -18.0998     8.3399     8.0125   100.5896     7.3445     2.5094     0.1044     0.0900
  163.5000   -18.1968     8.2925     7.9197   100.5725     7.3137     2.5018     0.1093     0.0709
  164.0000   -18.2927     8.2583     7.8282   100.5554     7.2831     2.4947     0.1138     0.0399
  164.5000   -18.3365     8.2242     7.7242   100.5383     7.2598     2.4875     0.1183     0.0152
  165.0000   -18.2889     8.1903     7.7348   100.5212     7.2573     2.4804     0.1228     0.0013
  165.5000   -18.2429     8.1565     7.7472   100.5053     7.2545     2.4733     0.1271    -0.0070
  166.0000   -18.1966     8.1228     7.7596   100.4923     7.2517     2.4686     0.1303    -0.0081
  166.5000   -18.1503     8.0893     7.7721   100.4634     7.2489     2.4661     0.1312    -0.0094
  167.0000   -18.1041     8.0560     7.7847    99.6991     7.2460     2.4660     0.1305    -0.0107
  167.5000   -18.0578     8.0227     7.7956    97.1383     7.2432     2.4648     0.1322    -0.0120
  168.0000   -18.0116     7.8633     7.5718    96.6134     7.2450     2.4588     0.1355    -0.0132
  168.5000   -17.9653     7.6603     7.3361    96.5380     7.2664     2.4510     0.1412    -0.0144
  169.0000   -17.9191     7.4625     7.1077    96.4715     7.2873     2.4400     0.1480    -0.0145
  169.5000   -17.8728     7.3619     6.8864    96.3956     7.3082     2.4299     0.1548    -0.0145
  170.0000   -17.8267     7.3345     6.6678    96.3272     7.3291     2.4250     0.1578    -0.0120
  170.5000   -17.7803     7.3073     6.6492    96.6129     7.3500     2.4230     0.1592    -0.0085
  171.0000   -17.7493     7.2802     6.6254    98.1849     7.3614     2.4271     0.1575    -0.0050
  171.5000   -17.7313     7.2429     6.6068    99.5825     7.3632     2.4374     0.1488    -0.0045
  172.0000   -17.7137     7.3600     6.7386   100.1259     7.3650     2.4475     0.1402    -0.0045
  172.5000   -17.6961     7.5526     6.8492   100.6500     7.3667     2.4553     0.1362    -0.0045
  173.0000   -17.6786     7.7503     6.9616   100.6615     7.3685     2.4603     0.1359    -0.0045
  173.5000   -17.6610     7.9402     7.0540   100.3401     7.3703     2.4634     0.1356    -0.0050
  174.0000   -17.6434     7.9569     7.0850    99.7434     7.3720     2.4666     0.1307    -0.0056
  174.5000   -17.6258     7.9727     7.1161    99.1457     7.3738     2.4669     0.1305    -0.0063
  175.0000   -17.6082     7.9885     7.1474    98.9909     7.3756     2.4609     0.1324    -0.0069
  175.5000   -17.5905     8.0043     7.1789    98.9203     7.3773     2.4519     0.1420    -0.0075
  176.0000   -17.5731     8.0202     7.2104    99.2564     7.3791     2.4428     0.1492    -0.0081
  176.5000   -17.5721     8.0361     7.2421   100.2414     7.3828     2.4348     0.1520    -0.0087
  177.0000   -17.6387     8.0518     7.2740   100.2632     7.3940     2.4351     0.1507    -0.0094
  177.5000   -17.7035     8.0679     7.3060   100.2495     7.4050     2.4376     0.1493    -0.0100
  178.0000   -17.7682     8.0873     7.3381   100.7088     7.4160     2.4402     0.1480    -0.0106
  178.5000   -17.8331     7.9514     7.3773   101.3058     7.4270     2.4473     0.1458    -0.0112
  179.0000   -17.8986     7.7796     7.2990   101.8592     7.4380     2.4560     0.1374    -0.0119
  179.5000   -17.9506     7.6109     7.2006   101.2347     7.4490     2.4640     0.1292    -0.0125
  180.0000   -17.8447     7.4684     7.1036   100.3536     7.4599     2.4658     0.1288    -0.0131
  180.5000   -17.7399     7.3597     7.0079    99.6392     7.4709     2.4581     0.1383    -0.0137
  181.0000   -17.6364     7.2529     6.9176    99.6266     7.4819     2.4508     0.1420    -0.0144
  181.5000   -17.5332     7.1466     6.5898    99.6001     7.4928     2.4428     0.1456    -0.0121
  182.0000   -17.4274     6.9450     6.2903    99.5730     7.5010     2.4306     0.1532    -0.0091
  182.5000   -17.1631     6.7009     6.0045    99.5455     7.5034     2.4175     0.1617    -0.0060
  183.0000   -16.5702     6.4864     5.9706    99.5177     7.5060     2.4077     0.1707    -0.0043
  183.5000   -15.9933     6.5406     5.9710    99.4884     7.5085     2.4052     0.1688    -0.0039
  184.0000   -15.9704     6.5919     5.9713    99.4699     7.5111     2.4137     0.1667    -0.0036
  184.5000   -15.6730     6.6434     6.0248    99.7960     7.5136     2.4325     0.1478    -0.0032
  185.0000   -15.1935     6.8259     6.1289   100.1497     7.5162     2.4513     0.1392    -0.0029
  185.5000   -15.1757     7.1337     6.2349   100.2580     7.5187     2.4612     0.1335    -0.0025
  186.0000   -15.1779     7.4553     6.3416   100.2597     7.5213     2.4655     0.1332    -0.0022
  186.5000   -15.1791     7.7912     6.6785   100.2591     7.5238     2.4665     0.1296    -0.0018
  187.0000   -15.1789     7.9234     7.1054   100.2590     7.5264     2.4670     0.1304    -0.0014
  187.5000   -15.1732     7.9956     7.5603   100.2590     7.5289     2.4668     0.1314    -0.0011
  188.0000   -14.9173     8.0685     7.7397   100.2589     7.5314     2.4665     0.1324    -0.0007
  188.5000   -14.3895     8.1420     7.8485   100.2594     7.5340     2.4662     0.1318    -0.0003
  189.0000   -14.3579     8.2163     7.9589   100.2148     7.5366     2.4674     0.1301     0.0000
  189.5000   -14.3367     8.2912     8.0707   100.1455     7.5389     2.4727     0.1281     0.0004
  190.0000   -14.3142     8.3668     8.1842   100.0482     7.5522     2.4747     0.1268     0.0007
  190.5000   -14.2912     8.4430     8.2990   101.6382     7.5551     2.4746     0.1269     0.0011
  191.0000   -14.2682     8.5096     8.3411   101.8572     7.5473     2.4740     0.1270     0.0014
  191.5000   -14.2451     8.5717     8.3726   101.8555     7.5392     2.4735     0.1272     0.0017
