~VERSION INFORMATION
 VERS.                2.0:   CWLS LOG ASCII STANDARD - VERSION 2.0
 WRAP.                 NO:   ONE LINE PER DEPTH STEP
~WELL INFORMATION
#MNEM.UNIT      DATA TYPE    INFORMATION
#----------   ------------   ------------------------------
 STRT.F           28.0000:   START DEPTH
 STOP.F          563.0000:   STOP DEPTH
 STEP.F            0.1000:   STEP LENGTH
 NULL.          -999.2500:   NO VALUE
 COMP.       F D SERV INC:   COMPANY
 WELL.    SX-3 62-4 #62-3:   WELL
 FLD .          N.P.R. #3:   FIELD
 LOC .       S3 T38N R78W:   LOCATION
 CNTY.            NATRONA:   COUNTY
 STAT.            WYOMING:   STATE
 CTRY. UNITED STATES OF AMERICA:   COUNTRY
 SRVC.     Atlas Wireline:   SERVICE COMPANY
 DATE.        03-MAY-1992:   LOGDATE
 API .       490252252100:   API NUMBER
~CURVE INFORMATION
#MNEM.UNIT       API CODE    CURVE DESCRIPTION
#----------   ------------   ------------------------------
 DEPT.F                  :   
 RILD.OHMM   07 120 46 00:   INDUCTION LOG DEEP RESISTIVITY
 RILM.OHMM   07 120 44 00:   INDUCTION LOG MEDIUM RESISTIVITY
 CALD.IN     45 280 60 00:   CALIPER FROM DENSITY LOG
 CORR.G/C3   45 356 01 00:   DENSITY CORRECTION
 DEN .G/C3   45 350 01 00:   COMPENSATED BULK DENSTIY
 GRD .GAPI   45 310 01 00:   GAMMA RAY FROM DENSITY LOG
 PORD.DEC    45 890 12 00:   POROSITY DENSITY SANDSTONE
~PARAMETER INFORMATION
#MNEM.UNIT          VALUE    DESCRIPTION
#----------   ------------   ------------------------------
 PD  .                 GL:   PERMANENT DATUM
 EPD .F              5156:   ELEVATION PERMANENT DATUM
 LMF .                 KB:   LOG MEASURED FROM
 DAPD.F                 5:   FEET ABOVE PERMANENT DATUM
 DMF .                 KB:   DRILLING MEASURED FROM
 EKB .F              5161:   KELLING BUSHING
 EGL .F              5156:   GROUND LEVEL
 DATE.        03-MAY-1992:   RUN DATE
 RUN .                  1:   RUN NUMBER
 DD  .F               565:   DEPTH DRILLER
 DL  .F               566:   DEPTH LOGGER
 BLI .F               564:   BOTTOM LOG INTERVAL
 TLI .F                50:   TOP LOG INTERVAL
 CS  .IN            8.625:   CASING SIZE
 CBD .F                49:   CASING BOTTOM DRILLER
 CBL .F                50:   CASING BOTTOM LOGGER
 BS  .IN            7.875:   BIT SIZE
 BSD .F               565:   BIT SIZE AT DEPTH
 DFT .        AIR DRILLED:   DRILLING FLUID TYPE
 LUN .             HL 632:   LOGGING UNIT NUMBER
 LUL .           RK. SPGS:   LOGGING UNIT LOCATION
 ENGI.               RALL:   RECORDING ENGINEER
 WITN.             STRONG:   WITNESSED BY
 CLNT.            A2DTECH:   CLIENT CODE
 ORIG.           5" PRINT:   ORIGIN OF DATA
 UWI .       490252252100:   UNIQUE WELL ID
 DICO. A2D Technologies, Inc.:   DIGITIZING COMPANY
~OTHER INFORMATION
~A   DEPT     RILD       RILM       CALD       CORR        DEN        GRD       PORD   
# ...
  510.3000    17.6996    17.5522     8.1481     0.0009     2.3635   129.2952     0.1734
  510.4000    17.7232    17.4784     8.1354     0.0009     2.3623   128.6814     0.1739
  510.5000    17.8213    17.4289     8.1259     0.0007     2.3616   128.2831     0.1744
  510.6000    17.8206    17.4280     8.1249    -0.0006     2.3610   128.0228     0.1744
  510.7000    17.8198    17.4331     8.1106    -0.0006     2.3608   127.7972     0.1746
  510.8000    17.8191    17.5472     8.1106    -0.0007     2.3608   127.7951     0.1745
  510.9000    17.8183    17.5463     8.1105    -0.0007     2.3610   127.4916     0.1743
  511.0000    17.8176    17.5454     8.1039    -0.0007     2.3616   127.6975     0.1739
  511.1000    17.8168    17.5831     8.0952    -0.0007     2.3623   127.7892     0.1734
  511.2000    17.8161    17.6657     8.0952    -0.0007     2.3629   127.9089     0.1726
  511.3000    17.8154    17.6645     8.0951    -0.0007     2.3644   128.0863     0.1721
  511.4000    17.8146    17.6636     8.0950     0.0003     2.3656   128.1566     0.1715
  511.5000    17.7714    17.7343     8.0949     0.0008     2.3667   128.6847     0.1706
  511.6000    17.5678    17.7845     8.0948     0.0008     2.3685   129.2847     0.1696
  511.7000    17.1800    17.7835     8.0947     0.0008     2.3698   129.7008     0.1685
  511.8000    17.0123    17.7784     8.0946     0.0009     2.3716   130.2156     0.1672
  511.9000    16.9156    17.6585     8.0945     0.0023     2.3735   130.6071     0.1659
  512.0000    16.8489    17.6577     8.0944     0.0034     2.3754   130.8634     0.1648
  512.1000    16.8564    17.6567     8.0943     0.0046     2.3773   131.0826     0.1640
  512.2000    16.9647    17.6191     8.0943     0.0059     2.3792   131.0803     0.1631
  512.3000    16.9641    17.5327     8.1001     0.0068     2.3811   131.0779     0.1621
  512.4000    16.9634    17.5317     8.1091     0.0069     2.3830   131.2865     0.1611
  512.5000    17.0020    17.5308     8.1090     0.0083     2.3849   131.3755     0.1599
  512.6000    17.0801    17.4612     8.1089     0.0083     2.3872   131.3735     0.1591
  512.7000    17.0793    17.3616     8.1088     0.0092     2.3892   131.3715     0.1579
  512.8000    17.0786    17.2864     8.1088     0.0104     2.3907   131.3695     0.1568
  512.9000    17.0779    17.2834     8.1087     0.0117     2.3933   131.3674     0.1555
  513.0000    17.0284    17.1849     8.1086     0.0129     2.3969   131.0639     0.1533
  513.1000    16.9315    17.0869     8.1085     0.0143     2.4007   131.0623     0.1518
  513.2000    16.8352    17.0445     8.1084     0.0155     2.4043   130.8915     0.1501
  513.3000    16.7233    17.0436     8.1083     0.0167     2.4071   130.6311     0.1483
  513.4000    16.6444    17.0308     8.1082     0.0180     2.4107   130.4538     0.1449
  513.5000    16.4936    16.9238     8.1081     0.0192     2.4170   130.4518     0.1398
  513.6000    16.3770    16.8372     8.1080     0.0207     2.4241   130.4498     0.1357
  513.7000    16.3763    16.8050     8.1079     0.0233     2.4319   130.1462     0.1301
  513.8000    16.3756    16.7615     8.1078     0.0245     2.4457   129.9318     0.1265
  513.9000    16.3750    16.6659     8.1077     0.0238     2.4602   129.6714     0.1205
  514.0000    16.3743    16.5708     8.1077     0.0217     2.4707   129.4110     0.1145
  514.1000    16.3736    16.5699     8.1076     0.0192     2.4751   129.0661     0.1094
  514.2000    16.3729    16.4964     8.1075     0.0164     2.4798   128.5474     0.1049
  514.3000    16.3722    16.4023     8.1074     0.0126     2.4822   128.0261     0.1011
  514.4000    16.3714    16.3389     8.1073     0.0097     2.4842   127.7226     0.0997
  514.5000    16.3709    16.3380     8.1072     0.0076     2.4854   127.7209     0.0989
  514.6000    16.3702    16.3370     8.1071     0.0050     2.4861   127.8903     0.0986
  514.7000    16.3695    16.2553     8.1070     0.0025     2.4866   128.1466     0.0984
  514.8000    16.3688    16.2224     8.1069     0.0006     2.4866   128.4029     0.0986
  514.9000    16.3681    16.1823     8.1069     0.0005     2.4853   128.6593     0.0999
  515.0000    16.2845    16.1085     8.1068    -0.0009     2.4831   128.9157     0.1028
  515.1000    16.1920    16.1075     8.1067    -0.0009     2.4802   129.2145     0.1059
  515.2000    16.1407    16.0176     8.1066     0.0000     2.4757   129.2128     0.1092
  515.3000    16.1198    15.9945     8.1065     0.0012     2.4692   129.3835     0.1125
  515.4000    16.0278    15.9457     8.1064     0.0029     2.4623   129.6399     0.1156
  515.5000    16.0271    15.8822     8.1063     0.0052     2.4557   129.8092     0.1189
  515.6000    15.9568    15.8813     8.1062     0.0066     2.4504   129.7630     0.1340
  515.7000    15.9150    15.8803     8.1061     0.0089     2.4444   129.5012     0.1363
  515.8000    15.8856    15.8027     8.1060     0.0105     2.4387   128.8993     0.1383
  515.9000    15.8037    15.7126     8.1060     0.0118     2.4332   128.6808     0.1398
  516.0000    15.8030    15.6590     8.1059     0.0130     2.4281   128.4203     0.1412
  516.1000    15.7249    15.6582     8.1058     0.0143     2.4225   128.2912     0.1422
  516.2000    15.6925    15.6573     8.1057     0.0156     2.4191   128.2892     0.1434
  516.3000    15.6919    15.6564     8.1056     0.0168     2.4153   128.2872     0.1440
  516.4000    15.6912    15.6556     8.1055     0.0171     2.4125   128.2852     0.1446
  516.5000    15.6905    15.6547     8.1054     0.0171     2.4106   128.5840     0.1452
  516.6000    15.6043    15.6538     8.1152     0.0171     2.4088   128.8006     0.1460
  516.7000    15.5808    15.6530     8.1203     0.0171     2.4074   129.0569     0.1467
  516.8000    15.5348    15.6519     8.1202     0.0171     2.4057   129.4457     0.1473
  516.9000    15.4718    15.6512     8.1201     0.0171     2.4038   129.8708     0.1480
  517.0000    15.4655    15.6503     8.1200     0.0170     2.4022   130.1272     0.1488
  517.1000    15.3635    15.6495     8.1199     0.0178     2.4005   130.3795     0.1496
  517.2000    15.2902    15.6486     8.1198     0.0185     2.3981   130.3772     0.1504
  517.3000    15.2033    15.6477     8.1197     0.0185     2.3961   130.3755     0.1514
  517.4000    15.1501    15.6469     8.1196     0.0186     2.3943   130.3735     0.1522
  517.5000    15.1495    15.6460     8.1195     0.0200     2.3924   130.1037     0.1531
  517.6000    15.1488    15.6451     8.1195     0.0211     2.3905   129.5850     0.1541
  517.7000    15.1482    15.6443     8.1194     0.0215     2.3888   128.9698     0.1553
  517.8000    15.0867    15.6434     8.1193     0.0221     2.3875   127.9558     0.1564
  517.9000    15.0423    15.6424     8.1098     0.0234     2.3863   127.9535     0.1571
  518.0000    15.0416    15.6417     8.1041     0.0245     2.3841   127.9518     0.1582
  518.1000    15.0441    15.6408     8.1040     0.0245     2.3835   128.1279     0.1590
  518.2000    15.1449    15.6399     8.1039     0.0234     2.3833   128.3843     0.1598
  518.3000    15.1444    15.6391     8.1038     0.0221     2.3833   128.7330     0.1602
  518.4000    15.1438    15.6381     8.1037     0.0202     2.3831   129.1980     0.1605
  518.5000    15.1741    15.6373     8.1036     0.0185     2.3825   129.4478     0.1607
  518.6000    15.2480    15.6365     8.1035     0.0181     2.3825   129.4455     0.1610
  518.7000    15.2472    15.6356     8.1034     0.0154     2.3814   129.6660     0.1615
  518.8000    15.2467    15.6347     8.1033     0.0130     2.3806   129.9223     0.1618
  518.9000    15.3051    15.6339     8.1041     0.0124     2.3800   130.1787     0.1622
  519.0000    15.3515    15.6330     8.1182     0.0117     2.3791   130.5288     0.1628
  519.1000    15.3710    15.6321     8.1181     0.0104     2.3778   130.9422     0.1636
  519.2000    15.4570    15.6820     8.1180     0.0094     2.3765   130.9478     0.1643
  519.3000    15.4564    15.7702     8.1179     0.0094     2.3753   131.2387     0.1655
