~VERSION INFORMATION
 VERS.                2.0:   CWLS LOG ASCII STANDARD - VERSION 2.0
 WRAP.                 NO:   ONE LINE PER DEPTH STEP
~WELL INFORMATION
#MNEM.UNIT      DATA TYPE    INFORMATION
#----------   ------------   ------------------------------
 STRT.F           19.5000:   START DEPTH
 STOP.F          690.5000:   STOP DEPTH
 STEP.F            0.5000:   STEP LENGTH
 NULL.          -999.2500:   NO VALUE
 COMP. FENIX & SCISSON INC:   COMPANY
 WELL. 37-22 SX 11 WI #3-11:   WELL
 FLD .             TEAPOT:   FIELD
 LOC .      S11 T38N R78W:   LOCATION
 CNTY.            NATRONA:   COUNTY
 STAT.            WYOMING:   STATE
 CTRY. UNITED STATES OF AMERICA:   COUNTRY
 SRVC.      Dresser Atlas:   SERVICE COMPANY
 DATE.        11-AUG-1980:   LOGDATE
 API .       490251084400:   API NUMBER
~CURVE INFORMATION
#MNEM.UNIT       API CODE    CURVE DESCRIPTION
#----------   ------------   ------------------------------
 DEPT.F                  :   
 SPR .MV     07 010 01 00:   SPONTANEOUS POTENTIAL
 SFL .OHMM   07 220 01 00:   SHALLOW FOCUSED LOG RESISTIVITY
 ILD .OHMM   07 120 46 00:   INDUCTION LOG DEEP
 ILM .OHMM   07 120 44 00:   INDUCTION LOG MEDIUM
 GRD .GAPI   45 310 01 00:   GAMMA RAY FROM DENSITY LOG
 CALD.IN     45 280 60 00:   CALIPER
 CORR.G/C3   45 356 01 00:   DENSITY CORRECTION
 RHOB.G/C3   45 350 01 00:   BULK DENSITY
 NPHI.DEC    42 890 12 00:   NEUTRON POROSITY SANDSTONE
 DPHI.DEC    45 890 12 00:   DENSITY POROSITY SANDSTONE
~PARAMETER INFORMATION
#MNEM.UNIT          VALUE    DESCRIPTION
#----------   ------------   ------------------------------
 PD  .                 GL:   PERMANENT DATUM
 EPD .F              5191:   ELEVATION PERMANENT DATUM
 LMF .                 KB:   LOG MEASURED FROM
 DAPD.F                 5:   FEET ABOVE PERMANENT DATUM
 DMF .                 KB:   DRILLING MEASURED FROM
 EKB .F              5196:   KELLING BUSHING
 EGL .F              5191:   GROUND LEVEL
 DATE.            8-11-80:   RUN DATE
 RUN .                  1:   RUN NUMBER
 DD  .F               680:   DEPTH DRILLER
 DL  .F               689:   DEPTH LOGGER
 BLI .F               687:   BOTTOM LOG INTERVAL
 TLI .F                20:   TOP LOG INTERVAL
 CS  .IN            8.625:   CASING SIZE
 BS  .IN            7.875:   BIT SIZE
 BSD .F               680:   BIT SIZE AT DEPTH
 DFT .           CHEM GEL:   DRILLING FLUID TYPE
 DFD .                9.9:   DRILLING FLUID DENSITY
 DFV .                 52:   DRILLING FLUID VISCOSITY
 DFPH.               11.5:   DRILLING FLUID PH
 DFL .                104:   DRILLING FLUID LOSS
 MSS .           FLOWLINE:   MUD SAMPLE SOURCE
 RMS .OHMM             .2:   RESISTIVITY MUD SAMPLE
 MST .F                74:   MUD SAMPLE TEMPERATURE
 RMF .OHMM            .15:   RESISTIVITY MUD FILTRATE SAMPLE
 MFST.F                74:   MUD FILTRATE SAMPLE TEMPERATURE
 RMC .OHMM            .25:   RESISTIVITY MUD CAKE
 MCST.F                74:   MUD CAKE SAMPLE TEMPERATURE
 MFSS.               CALC:   MUD FILTRATE SAMPLE SOURCE
 MCSS.               CALC:   MUD CAKE SAMPLE SOURCE
 TCS .HRS               3:   TIME CURCULATED STOPPED
 LUN .             HL6150:   LOGGING UNIT NUMBER
 LUL .                 FM:   LOGGING UNIT LOCATION
 ENGI.            BRANNEY:   RECORDING ENGINEER
 WITN.           MCINTYRE:   WITNESSED BY
 CLNT.            A2DTECH:   CLIENT CODE
 ORIG.           5" PRINT:   ORIGIN OF DATA
 UWI .       490251084400:   UNIQUE WELL ID
 DICO. A2D Technologies, Inc.:   DIGITIZING COMPANY
~OTHER INFORMATION
~A   DEPT      SPR        SFL        ILD        ILM        GRD       CALD       CORR       RHOB       NPHI       DPHI   
   19.5000   -49.4190  -999.2500  -999.2500  -999.2500  -999.2500  -999.2500  -999.2500  -999.2500  -999.2500  -999.2500
   20.0000   -48.7190  -999.2500    21.9520    17.5280  -999.2500  -999.2500  -999.2500  -999.2500  -999.2500  -999.2500
   20.5000   -49.0410    39.9840    23.5880    17.3110  -999.2500  -999.2500  -999.2500  -999.2500  -999.2500  -999.2500
   21.0000   -49.4790    38.0120    26.0430    16.9370  -999.2500  -999.2500  -999.2500  -999.2500  -999.2500  -999.2500
   21.5000   -50.1900    36.0400    26.4720    16.1110  -999.2500  -999.2500  -999.2500  -999.2500  -999.2500  -999.2500
   22.0000   -50.8410    34.5610    24.8310    15.0090  -999.2500  -999.2500  -999.2500  -999.2500  -999.2500  -999.2500
   22.5000   -51.4950    32.5890    23.1690    13.9070  -999.2500  -999.2500  -999.2500  -999.2500  -999.2500  -999.2500
   23.0000   -52.1580    30.6660    21.5070    12.8050  -999.2500  -999.2500  -999.2500  -999.2500  -999.2500  -999.2500
   23.5000   -52.6260    27.7170    19.8450    11.7030  -999.2500  -999.2500  -999.2500  -999.2500  -999.2500  -999.2500
   24.0000   -52.5280    24.8390    18.1830    10.6560  -999.2500  -999.2500  -999.2500  -999.2500  -999.2500  -999.2500
   24.5000   -52.3940    21.9620    16.5210    10.2100  -999.2500  -999.2500  -999.2500  -999.2500  -999.2500  -999.2500
   25.0000   -52.2560    19.0840    14.8590     9.7650  -999.2500  -999.2500  -999.2500  -999.2500  -999.2500  -999.2500
   25.5000   -52.1120    16.2060    13.1970     9.2660  -999.2500  -999.2500  -999.2500  -999.2500  -999.2500  -999.2500
   26.0000   -52.2790    13.0440    11.5350     8.7680  -999.2500  -999.2500  -999.2500  -999.2500  -999.2500  -999.2500
   26.5000   -52.5360    13.1290     9.8730     8.2690  -999.2500  -999.2500  -999.2500  -999.2500  -999.2500  -999.2500
   27.0000   -52.7960    13.2230     8.0880     7.7710  -999.2500  -999.2500  -999.2500  -999.2500  -999.2500  -999.2500
   27.5000   -53.0540    13.2860     7.9810     7.2720  -999.2500  -999.2500  -999.2500  -999.2500  -999.2500  -999.2500
   28.0000   -53.2850    12.2590     7.8660     6.7740  -999.2500  -999.2500  -999.2500  -999.2500  -999.2500  -999.2500
   28.5000   -53.0830    11.4890     7.7510     6.2750  -999.2500  -999.2500  -999.2500  -999.2500  -999.2500  -999.2500
   29.0000   -52.8410    11.1330     7.4860     5.8090  -999.2500  -999.2500  -999.2500  -999.2500  -999.2500  -999.2500
   29.5000   -52.5980    11.0690     7.1750     5.7370  -999.2500  -999.2500  -999.2500  -999.2500  -999.2500  -999.2500
   30.0000   -52.3540    11.0040     6.8630     5.6340   105.4280     8.4900  -999.2500     2.1990     0.2990  -999.2500
   30.5000   -52.1110    10.8700     6.5520     5.5320   105.4280     8.4900  -999.2500     2.1480     0.2990  -999.2500
   31.0000   -51.8670    10.4710     6.3100     5.4290   105.4280     8.4900    -0.0260     2.0360     0.2730  -999.2500
   31.5000   -51.6240    10.0710     6.3100     5.3270   107.1850     8.4090    -0.0220     2.0210     0.2730  -999.2500
   32.0000   -51.3780     9.4550     6.3100     5.2240   108.3690     8.3290    -0.0110     2.0110     0.2770  -999.2500
   32.5000   -51.3150     9.4940     6.3100     5.1220   108.4220     8.2520     0.0010     2.0040     0.2820  -999.2500
   33.0000   -51.3660     9.5770     6.3100     5.1080   109.2820     8.2620     0.0090     2.0280     0.2900  -999.2500
   33.5000   -51.4180     9.6600     6.3100     5.1080   106.2810     8.2720     0.0210     2.0220     0.3000  -999.2500
   34.0000   -51.4700     9.7440     6.3100     5.1080   108.2030     8.2820     0.0180     2.0130     0.3000  -999.2500
   34.5000   -51.5230     9.8270     6.2520     5.1080   109.6470     8.2920     0.0120     2.0160     0.3000  -999.2500
   35.0000   -51.5750     9.8900     6.0520     5.0880   108.2600     8.2930     0.0060     2.0200     0.2930  -999.2500
   35.5000   -51.6290     9.4720     5.8320     4.9260   105.6090     8.2930     0.0000     2.0140     0.2990  -999.2500
   36.0000   -51.6770     9.0910     5.6130     4.7640   106.3050     8.2930    -0.0060     2.0110     0.2940  -999.2500
   36.5000   -51.3550     8.7100     5.3940     4.6020   105.6200     8.2930    -0.0030     2.0180     0.2890  -999.2500
   37.0000   -51.0860     8.3290     5.1470     4.4270   106.5180     8.2920     0.0010     2.0250     0.2930  -999.2500
   37.5000   -51.0920     7.9480     4.8780     4.2410   105.3220     8.2820     0.0050     2.0320     0.2990  -999.2500
   38.0000   -51.0920     7.8680     4.6100     4.0560   104.2500     8.2730     0.0080     2.0390  -999.2500  -999.2500
   38.5000   -51.0920     7.8680     4.3420     3.8700   104.6990     8.2640     0.0080     2.0410  -999.2500  -999.2500
   39.0000   -51.0910     7.8680     4.0740     3.6840   105.3600     8.2540     0.0080     2.0420  -999.2500  -999.2500
   39.5000   -51.0910     7.7530     3.8050     3.4990   106.0820     8.2610     0.0080     2.0460  -999.2500  -999.2500
   40.0000   -51.0880     7.4890     3.5370     3.3130   104.0560     8.2880     0.0080     2.0500  -999.2500  -999.2500
   40.5000   -51.0170     7.2250     3.2850     3.1670   101.0450     8.3130     0.0080     2.0470  -999.2500  -999.2500
   41.0000   -50.5460     6.9610     3.2290     3.0270    98.3950     8.3630     0.0080     2.0420  -999.2500  -999.2500
   41.5000   -50.0730     6.6970     3.1760     2.8870    97.4990     8.4190     0.0090     2.0390  -999.2500  -999.2500
   42.0000   -49.6010     6.4330     3.1220     2.7340    97.8220     8.4800     0.0180     2.0460  -999.2500  -999.2500
   42.5000   -49.1290     6.1690     3.0690     2.7270   101.5420     8.6770     0.0290     2.0540  -999.2500  -999.2500
   43.0000   -48.6580     5.9050     3.0160     2.7190   100.3760     8.8670     0.0410     2.0620  -999.2500  -999.2500
   43.5000   -48.1870     5.6410     2.9420     2.7090    97.6990     9.0560     0.0440     2.0610  -999.2500  -999.2500
   44.0000   -47.7000     5.3760     2.9150     2.8060    96.8420     9.2450     0.0400     2.0600  -999.2500  -999.2500
   44.5000   -46.7220     5.1550     3.2450     2.9420    99.0580     9.4340     0.0360     2.0600  -999.2500  -999.2500
   45.0000   -45.8390     5.1550     3.4890     3.2120    95.6700     9.6220     0.0310     2.0530  -999.2500  -999.2500
   45.5000   -44.9470     5.3130     3.7370     3.4920    96.3630     9.7880     0.0270     2.0440  -999.2500  -999.2500
   46.0000   -44.0550     5.5860     4.4580     3.7720    95.3900     9.6840     0.0220     2.0230  -999.2500  -999.2500
   46.5000   -43.1620     5.8590     5.1880     4.0520    97.0380     9.5900     0.0170     2.0020     0.2810  -999.2500
   47.0000   -42.2700     6.1310     5.7560     4.3320    98.5290     9.8460     0.0140     2.0010     0.2850  -999.2500
   47.5000   -41.3780     6.4040     5.3740     4.6120    95.9330    10.2120     0.0210     2.0010     0.2920  -999.2500
   48.0000   -40.4850     6.6770     5.0150     4.8780    94.1480    10.0800     0.1040     2.0010     0.2990  -999.2500
   48.5000   -39.5930     6.9490     5.7010     4.0960    93.4910     9.7830     0.1110     2.0170     0.3000  -999.2500
   49.0000   -38.7010     7.3100     6.5400     4.2000    91.8860     9.7350     0.0320     2.0010  -999.2500  -999.2500
   49.5000   -37.8090     7.0840     6.1440     4.4410    89.2680     9.8150    -0.0590  -999.2500  -999.2500  -999.2500
   50.0000   -36.9190     6.7530     5.6160     4.6590    86.5730    10.1320    -0.0660  -999.2500  -999.2500  -999.2500
   50.5000   -36.0360     6.4210     5.2500     4.1080    86.6140    10.5670     0.0240  -999.2500  -999.2500  -999.2500
   51.0000   -35.4910     6.1950     5.4840     3.5690    86.8430    10.2270     0.1130  -999.2500  -999.2500  -999.2500
   51.5000   -35.8050     6.4540     5.7560     3.7230    85.2490     9.4940     0.0720  -999.2500  -999.2500  -999.2500
   52.0000   -36.1000     6.6500     5.3690     3.9360    83.7110     8.9640     0.0260  -999.2500  -999.2500  -999.2500
   52.5000   -36.3920     6.8540     4.9560     4.1490    83.9780     9.3540     0.0260  -999.2500  -999.2500  -999.2500
