~VERSION INFORMATION
 VERS.                2.0:   CWLS LOG ASCII STANDARD - VERSION 2.0
 WRAP.                 NO:   ONE LINE PER DEPTH STEP
~WELL INFORMATION
#MNEM.UNIT      DATA TYPE    INFORMATION
#----------   ------------   ------------------------------
 STRT.F           32.0000:   START DEPTH
 STOP.F          738.0000:   STOP DEPTH
 STEP.F            0.5000:   STEP LENGTH
 NULL.          -999.2500:   NO VALUE
 COMP. FENIX & SCISSON INC:   COMPANY
 WELL.       NPR-3 #43-34:   WELL
 FLD .             TEAPOT:   FIELD
 LOC .      S34 T39N R78W:   LOCATION
 CNTY.            NATRONA:   COUNTY
 STAT.            WYOMING:   STATE
 CTRY. UNITED STATES OF AMERICA:   COUNTRY
 SRVC.            Unknown:   SERVICE COMPANY
 DATE.        26-AUG-1978:   LOGDATE
 API .       490251069900:   API NUMBER
~CURVE INFORMATION
#MNEM.UNIT       API CODE    CURVE DESCRIPTION
#----------   ------------   ------------------------------
 DEPT.F                  :   
 GRD .GAPI   45 310 01 00:   GAMMA RAY FROM DENSITY LOG
 CALD.IN     45 280 60 00:   CALIPER
 RHOB.G/C3   45 350 01 00:   BULK DENSITY
 DPHI.DEC    45 890 12 00:   DENSITY POROSITY SANDSTONE
 CORR.G/C3   45 356 01 00:   DENSITY CORRECTION
 SPR .MV     05 010 01 00:   SPONTANEOUS POTENTIAL FROM RES.
 SN  .OHMM   05 040 16 00:   SHORT NORMAL 16"
 ILD .OHMM   05 120 46 00:   INDUCTION LOG DEEP
~PARAMETER INFORMATION
#MNEM.UNIT          VALUE    DESCRIPTION
#----------   ------------   ------------------------------
 PD  .                 GL:   PERMANENT DATUM
 EPD .F              5110:   ELEVATION PERMANENT DATUM
 LMF .                 KB:   LOG MEASURED FROM
 DAPD.F                 4:   FEET ABOVE PERMANENT DATUM
 DMF .                 KB:   DRILLING MEASURED FROM
 EKB .F              5114:   KELLING BUSHING
 EGL .F              5110:   GROUND LEVEL
 DATE.            8-26-78:   RUN DATE
 RUN .                  1:   RUN NUMBER
 DD  .F               748:   DEPTH DRILLER
 DL  .F               738:   DEPTH LOGGER
 BLI .F               732:   BOTTOM LOG INTERVAL
 TLI .F                40:   TOP LOG INTERVAL
 CS  .IN            8.625:   CASING SIZE
 CBD .F                40:   CASING BOTTOM DRILLER
 CBL .F                40:   CASING BOTTOM LOGGER
 BS  .IN            7.875:   BIT SIZE
 BSD .F               748:   BIT SIZE AT DEPTH
 DFT .                KCL:   DRILLING FLUID TYPE
 DFD .                8.7:   DRILLING FLUID DENSITY
 DFV .                 33:   DRILLING FLUID VISCOSITY
 DFPH.                  9:   DRILLING FLUID PH
 DFL .                 10:   DRILLING FLUID LOSS
 MSS .          FLOW LINE:   MUD SAMPLE SOURCE
 RMS .OHMM            .36:   RESISTIVITY MUD SAMPLE
 MST .F                80:   MUD SAMPLE TEMPERATURE
 RMF .OHMM             .3:   RESISTIVITY MUD FILTRATE SAMPLE
 MFST.F                80:   MUD FILTRATE SAMPLE TEMPERATURE
 RMC .OHMM            .48:   RESISTIVITY MUD CAKE
 MCST.F                82:   MUD CAKE SAMPLE TEMPERATURE
 MFSS.               MEAS:   MUD FILTRATE SAMPLE SOURCE
 MCSS.               MEAS:   MUD CAKE SAMPLE SOURCE
 TCS .HRS               2:   TIME CURCULATED STOPPED
 LUN .               2958:   LOGGING UNIT NUMBER
 LUL .               CASP:   LOGGING UNIT LOCATION
 ENGI.             MILLER:   RECORDING ENGINEER
 WITN.              AMEND:   WITNESSED BY
 CLNT.            A2DTECH:   CLIENT CODE
 ORIG.           5" PRINT:   ORIGIN OF DATA
 UWI .       490251069900:   UNIQUE WELL ID
 DICO. A2D Technologies, Inc.:   DIGITIZING COMPANY
~OTHER INFORMATION
~A   DEPT       GRD      CALD       RHOB       DPHI       CORR        SPR         SN        ILD   
# ...
  315.5000    98.8718     7.3442     2.5146     0.0997     0.0211   -37.7323     8.2370     8.0574
  316.0000    94.9052     7.3468     2.5147     0.1028     0.0237   -38.0691     8.1374     8.0135
  316.5000    94.3746     7.3494     2.5173     0.1104     0.0271   -38.3118     8.0875     8.0135
  317.0000   100.2470     7.3520     2.5131     0.1160     0.0275   -38.3300     8.1678     8.0031
  317.5000   101.4503     7.3547     2.4999     0.1196     0.0275   -38.3492     8.2376     7.9916
  318.0000   102.7681     7.3566     2.4856     0.1220     0.0274   -38.3670     8.1925     7.9801
  318.5000   103.7905     7.3488     2.4819     0.1196     0.0290   -38.3852     8.1622     7.9685
  319.0000   102.5948     7.3408     2.4829     0.1162     0.0309   -38.4033     8.1621     7.9570
  319.5000    97.3119     7.3327     2.4872     0.1134     0.0329   -38.4215     8.1622     7.9455
  320.0000    93.5227     7.3250     2.4912     0.1112     0.0348   -38.4396     8.1622     7.9341
  320.5000    94.0710     7.3184     2.4954     0.1117     0.0367   -38.4577     8.1622     7.9226
  321.0000   101.0006     7.2972     2.4970     0.1129     0.0375   -38.4759     8.1622     7.9112
  321.5000    97.9229     7.2920     2.4968     0.1136     0.0372   -38.4942     8.1622     7.8997
  322.0000    95.5777     7.2873     2.4922     0.1091     0.0369   -38.5127     8.1622     7.8885
  322.5000    95.8648     7.2827     2.4987     0.1049     0.0366   -38.5129     8.1628     7.8722
  323.0000    94.6591     7.2781     2.5068     0.1006     0.0363   -38.4661     8.1465     7.9465
  323.5000    92.4588     7.2735     2.5133     0.0996     0.0359   -38.4193     8.1053     7.9358
  324.0000    96.3114     7.2688     2.5138     0.1053     0.0357   -38.3728     8.0870     7.9408
  324.5000   103.1411     7.2642     2.5075     0.1108     0.0370   -38.3264     8.0973     7.9402
  325.0000   104.3815     7.2597     2.5013     0.1110     0.0366   -38.2800     8.1134     7.9402
  325.5000   104.0089     7.2564     2.4958     0.1112     0.0353   -38.2337     8.1298     7.9402
  326.0000   103.3126     7.2505     2.4960     0.1114     0.0340   -38.1892     8.1461     7.9402
  326.5000   102.7534     7.2330     2.4967     0.1116     0.0335   -38.1279     8.1616     7.9402
  327.0000   103.2183     7.2157     2.4977     0.1112     0.0337   -38.3299     8.1524     7.9402
  327.5000   105.5098     7.1984     2.4985     0.1105     0.0340   -38.3160     8.1427     7.9402
  328.0000   106.3099     7.1933     2.4993     0.1108     0.0344   -38.3263     8.1331     7.9402
  328.5000   106.5720     7.1873     2.4999     0.1112     0.0347   -38.3351     8.1234     7.9402
  329.0000   106.2436     7.1814     2.4979     0.1101     0.0351   -38.3436     8.1138     7.9401
  329.5000   105.6377     7.1747     2.4964     0.1088     0.0354   -38.3521     8.1042     7.9408
  330.0000   105.6407     7.1310     2.4938     0.1057     0.0359   -38.3607     8.0946     7.9434
  330.5000   107.1965     7.0867     2.4912     0.1007     0.0378   -38.3692     8.0861     7.9326
  331.0000   105.4739     7.0549     2.4913     0.0964     0.0395   -38.3777     8.1444     8.0311
  331.5000   103.1119     7.0591     2.4999     0.0956     0.0381   -38.3863     8.2305     8.0514
  332.0000   100.7617     7.2000     2.5092     0.0947     0.0365   -38.3948     8.3175     8.0717
  332.5000    99.3450     7.2589     2.5186     0.0944     0.0358   -38.4033     8.4053     8.0921
  333.0000   101.4645     7.2652     2.5279     0.0957     0.0426   -38.4118     8.4682     8.1125
  333.5000   102.0856     7.2702     2.5269     0.0964     0.0489   -38.4204     8.4680     8.1330
  334.0000   102.0060     7.2756     2.5238     0.1004     0.0552   -38.4289     8.4680     8.1535
  334.5000   103.0706     7.2699     2.5186     0.1046     0.0613   -38.4374     8.4679     8.1741
  335.0000   104.2608     7.2614     2.5120     0.1014     0.0615   -38.4460     8.4680     8.1947
  335.5000   105.1854     7.2610     2.5108     0.1047     0.0615   -38.4545     8.4679     8.2155
  336.0000   105.1297     7.2824     2.5112     0.1152     0.0594   -38.4630     8.4679     8.2376
  336.5000   106.1848     7.3030     2.4952     0.1192     0.0478   -38.4716     8.4091     8.1622
  337.0000   107.4995     7.3173     2.4852     0.1159     0.0454   -38.4801     8.3061     8.1230
  337.5000   107.5922     7.3207     2.4865     0.1112     0.0454   -38.4886     8.2589     8.0814
  338.0000   103.5101     7.3244     2.4955     0.1065     0.0454   -38.4969     8.2113     8.0399
  338.5000   102.2457     7.3279     2.5022     0.1018     0.0455   -38.5048     8.1640     7.9987
  339.0000   101.0349     7.3315     2.5054     0.0984     0.0455   -38.5057     8.1170     7.9577
  339.5000   102.3504     7.3351     2.5176     0.1023     0.0454   -39.0087     8.0702     7.9402
  340.0000   104.7879     7.3367     2.5107     0.1066     0.0446   -39.6241     8.0237     7.8983
  340.5000   104.8937     7.3273     2.5012     0.1071     0.0423   -39.4923     7.9774     7.8554
  341.0000   104.6345     7.3119     2.5083     0.1076     0.0400   -39.4505     7.9314     7.8128
  341.5000   106.3276     7.2963     2.5111     0.1080     0.0381   -39.4191     7.8863     7.7704
  342.0000   105.9107     7.2801     2.5017     0.1124     0.0269   -39.3882     7.8384     7.7283
  342.5000   107.0759     7.2765     2.4921     0.1140     0.0216   -39.3570     7.7663     7.6863
  343.0000   113.6745     7.2765     2.4941     0.1072     0.0226   -39.3261     7.7242     7.6536
  343.5000   115.3142     7.2765     2.4998     0.1080     0.0238   -39.3067     7.8218     7.6652
  344.0000   115.3797     7.2765     2.5043     0.1105     0.0251   -39.3070     7.8477     7.6793
  344.5000   108.8109     7.2765     2.4977     0.1152     0.0237   -39.3069     7.8736     7.6935
  345.0000    99.8048     7.2765     2.4904     0.1192     0.0211   -39.3069     7.8997     7.7076
  345.5000    98.8956     7.2765     2.4828     0.1179     0.0185   -39.3069     7.9252     7.7250
  346.0000   100.6697     7.2765     2.4808     0.1143     0.0182   -39.3069     7.9821     7.7229
  346.5000   102.8252     7.2765     2.4913     0.1071     0.0194   -39.3069     8.0743     7.9130
  347.0000   102.9965     7.2765     2.5032     0.1008     0.0206   -39.3069     8.1622     8.0665
  347.5000    97.1906     7.2765     2.5146     0.1069     0.0212   -39.3069     8.1695     8.0875
  348.0000    96.9491     7.2766     2.5071     0.1160     0.0189   -39.3069     8.1965     8.0875
  348.5000   105.7449     7.2766     2.4947     0.1164     0.0178   -39.3069     8.2326     8.1622
  349.0000   106.1790     7.2764     2.4889     0.1109     0.0198   -39.3069     8.2300     8.1622
  349.5000   106.1429     7.2668     2.4922     0.1053     0.0218   -39.3069     8.4283     8.1622
  350.0000   105.7276     7.2448     2.5058     0.0997     0.0238   -39.3070     8.5461     8.1622
  350.5000   100.7269     7.2229     2.5184     0.0964     0.0255   -39.3151     8.4679     8.1622
  351.0000    98.2921     7.2010     2.5219     0.1003     0.0255   -39.3432     8.4354     8.1419
  351.5000    97.3118     7.1790     2.5160     0.1004     0.0255   -39.3710     8.3999     8.1197
  352.0000    96.9925     7.1571     2.5140     0.1026     0.0255   -39.3988     8.3660     8.0978
  352.5000    96.9910     7.1350     2.5110     0.1061     0.0255   -39.4266     8.3204     8.0875
  353.0000    96.9934     7.1155     2.5066     0.1088     0.0255   -39.4548     8.2751     8.0697
  353.5000    97.0320     7.1167     2.5022     0.1173     0.0255   -39.4839     8.2376     8.0510
  354.0000    95.2508     7.1529     2.4982     0.1271     0.0255   -39.4987     8.2376     8.0323
  354.5000    94.0219     7.2448     2.4799     0.1375     0.0253   -39.2267     8.2376     8.0137
  355.0000    94.8223     7.2568     2.4585     0.1479     0.0276   -38.9394     8.2376     7.9952
  355.5000    96.1710     7.2284     2.4437     0.1448     0.0378   -38.6527     8.2376     7.9767
