~VERSION INFORMATION
 VERS.                2.0:   CWLS LOG ASCII STANDARD - VERSION 2.0
 WRAP.                 NO:   ONE LINE PER DEPTH STEP
~WELL INFORMATION
#MNEM.UNIT      DATA TYPE    INFORMATION
#----------   ------------   ------------------------------
 STRT.F          442.0000:   START DEPTH
 STOP.F         2636.0000:   STOP DEPTH
 STEP.F            0.5000:   STEP LENGTH
 NULL.          -999.2500:   NO VALUE
 COMP. FENIX & SCISSON INC:   COMPANY
 WELL.     25 SHX 2 #25-2:   WELL
 FLD .             TEAPOT:   FIELD
 LOC .       S2 T38N R78W:   LOCATION
 CNTY.            NATRONA:   COUNTY
 STAT.            WYOMING:   STATE
 CTRY. UNITED STATES OF AMERICA:   COUNTRY
 SRVC.              Welex:   SERVICE COMPANY
 DATE.        07-JUN-1980:   LOGDATE
 API .       490251080200:   API NUMBER
~CURVE INFORMATION
#MNEM.UNIT       API CODE    CURVE DESCRIPTION
#----------   ------------   ------------------------------
 DEPT.F                  :   
 CALD.IN     45 280 60 00:   CALIPER
 GRD .GAPI   45 310 01 00:   GAMMA RAY FROM DENSITY LOG
 DPHI.DEC    45 890 12 00:   DENSITY POROSITY SANDSTONE
 CORR.G/C3   45 356 01 00:   DENSITY CORRECTION
 RHOB.G/C3   45 350 01 00:   BULK DENSITY
~PARAMETER INFORMATION
#MNEM.UNIT          VALUE    DESCRIPTION
#----------   ------------   ------------------------------
 PD  .                 GL:   PERMANENT DATUM
 EPD .F              5120:   ELEVATION PERMANENT DATUM
 LMF .                 KB:   LOG MEASURED FROM
 DAPD.F                10:   FEET ABOVE PERMANENT DATUM
 DMF .                 KB:   DRILLING MEASURED FROM
 EKB .F              5130:   KELLING BUSHING
 EGL .F              5120:   GROUND LEVEL
 DATE.             6-7-80:   RUN DATE
 RUN .                  1:   RUN NUMBER
 DD  .F              2652:   DEPTH DRILLER
 DL  .F              2638:   DEPTH LOGGER
 BLI .F              2636:   BOTTOM LOG INTERVAL
 TLI .F              1224:   TOP LOG INTERVAL
 BS  .IN             6.75:   BIT SIZE
 BSD .F              2652:   BIT SIZE AT DEPTH
 DFT .        AIR DRILLED:   DRILLING FLUID TYPE
 TCS .HRS               2:   TIME CURCULATED STOPPED
 MRT .F               125:   MAXIMUM RECORDED TEMPERATURE
 ENGI.               REIN:   RECORDING ENGINEER
 WITN.           DINSMORE:   WITNESSED BY
 CLNT.            A2DTECH:   CLIENT CODE
 ORIG.           5" PRINT:   ORIGIN OF DATA
 UWI .       490251080200:   UNIQUE WELL ID
 DICO. A2D Technologies, Inc.:   DIGITIZING COMPANY
~OTHER INFORMATION
~A   DEPT     CALD         GRD      DPHI       CORR       RHOB   
# ...
 2577.0000     8.5642    75.0697     0.0984     0.0551     2.4919
 2577.5000     8.5679    75.1911     0.0929     0.0811     2.5108
 2578.0000     8.5716    75.3091     0.0853     0.0891     2.5179
 2578.5000     8.5692    75.4274     0.0962     0.0724     2.5003
 2579.0000     8.5614    75.6079     0.1079     0.0513     2.4723
 2579.5000     8.5535    76.1920     0.1151     0.0451     2.4546
 2580.0000     8.5457    76.2121     0.1082     0.0494     2.4700
 2580.5000     8.5378    75.9248     0.1060     0.0492     2.4748
 2581.0000     8.5309    75.3326     0.1112     0.0413     2.4678
 2581.5000     8.5247    74.9692     0.1069     0.0450     2.4651
 2582.0000     8.5186    75.0735     0.1110     0.0349     2.4660
 2582.5000     8.5125    75.0696     0.1088     0.0402     2.4702
 2583.0000     8.5063    74.8695     0.1113     0.0351     2.4572
 2583.5000     8.5002    74.6709     0.1191     0.0285     2.4463
 2584.0000     8.4941    74.3662     0.1154     0.0400     2.4683
 2584.5000     8.4879    73.8659     0.1110     0.0495     2.4849
 2585.0000     8.4818    73.3849     0.1068     0.0571     2.4723
 2585.5000     8.4756    73.4685     0.1019     0.0633     2.4843
 2586.0000     8.4695    73.6257     0.0992     0.0491     2.4678
 2586.5000     8.4634    73.9797     0.1164     0.0378     2.4531
 2587.0000     8.4572    74.5693     0.1063     0.0499     2.4751
 2587.5000     8.4511    75.1520     0.0978     0.0689     2.4964
 2588.0000     8.4449    75.7199     0.0930     0.0781     2.4851
 2588.5000     8.4388    75.9318     0.0890     0.0776     2.5169
 2589.0000     8.4326    75.9290     0.0935     0.0684     2.4954
 2589.5000     8.4265    75.6458     0.0956     0.0651     2.5047
 2590.0000     8.4205    75.2065     0.0921     0.0657     2.4999
 2590.5000     8.4213    75.1654     0.0873     0.0759     2.5190
 2591.0000     8.4320    75.7154     0.0860     0.0804     2.5205
 2591.5000     8.4427    76.2573     0.0858     0.0779     2.5052
 2592.0000     8.4534    76.7985     0.0868     0.0753     2.5189
 2592.5000     8.4641    77.0723     0.0878     0.0725     2.5048
 2593.0000     8.4747    76.9840     0.0888     0.0847     2.5123
 2593.5000     8.4854    76.9279     0.0789     0.1000     2.5243
 2594.0000     8.4961    77.3381     0.0834     0.0878     2.5310
 2594.5000     8.5068    77.7500     0.0910     0.0721     2.5055
 2595.0000     8.5151    78.3071     0.0987     0.0565     2.4867
 2595.5000     8.5055    78.9245     0.1063     0.0441     2.4702
 2596.0000     8.4949    79.5469     0.1095     0.0456     2.4624
 2596.5000     8.4841    80.1693     0.1115     0.0489     2.4643
 2597.0000     8.4734    80.7934     0.1128     0.0455     2.4536
 2597.5000     8.4628    81.3691     0.1187     0.0401     2.4425
 2598.0000     8.4521    81.4314     0.1126     0.0397     2.4489
 2598.5000     8.4414    81.2790     0.1034     0.0672     2.4750
 2599.0000     8.4307    81.1279     0.0942     0.0923     2.4997
 2599.5000     8.4199    80.9791     0.0877     0.0996     2.5155
 2600.0000     8.4158    80.8552     0.0835     0.0986     2.5296
 2600.5000     8.4143    80.9286     0.0794     0.0967     2.5287
 2601.0000     8.4128    81.0024     0.0896     0.0947     2.5172
 2601.5000     8.4113    80.9094     0.0863     0.1032     2.5261
 2602.0000     8.4098    80.6357     0.0816     0.1119     2.5370
 2602.5000     8.4083    80.3625     0.0777     0.1015     2.5288
 2603.0000     8.4068    80.0871     0.0810     0.0915     2.5218
 2603.5000     8.4053    80.2018     0.0848     0.0847     2.5145
 2604.0000     8.4038    80.3656     0.0886     0.0795     2.5073
 2604.5000     8.4023    80.5293     0.0924     0.0742     2.5001
 2605.0000     8.4008    80.6895     0.0962     0.0678     2.4929
 2605.5000     8.3993    80.8744     0.0980     0.0562     2.4864
 2606.0000     8.3978    81.5385     0.0958     0.0588     2.4924
 2606.5000     8.3963    82.1064     0.0926     0.0686     2.4988
 2607.0000     8.3948    82.4119     0.0899     0.0785     2.5050
 2607.5000     8.3933    82.7160     0.0895     0.0876     2.5113
 2608.0000     8.3918    83.0207     0.0890     0.0935     2.5172
 2608.5000     8.3903    83.3259     0.0840     0.0989     2.5226
 2609.0000     8.3888    83.6276     0.0791     0.1017     2.5261
 2609.5000     8.3873    83.7074     0.0781     0.1022     2.5212
 2610.0000     8.3858    83.1211     0.0811     0.0978     2.5149
 2610.5000     8.3843    82.0117     0.0849     0.0904     2.5087
 2611.0000     8.3828    80.9111     0.0905     0.0837     2.5024
 2611.5000     8.3813    79.9280     0.0941     0.0775     2.4961
 2612.0000     8.3797    79.3827     0.0963     0.0712     2.4899
 2612.5000     8.3784    78.8340     0.0985     0.0650     2.4835
 2613.0000     8.3671    78.2843     0.1004     0.0572     2.4775
 2613.5000     8.3502    77.7354     0.0979     0.0657     2.4865
 2614.0000     8.3333    77.2377     0.0952     0.0740     2.4943
 2614.5000     8.3163    76.9527     0.0990     0.0702     2.4869
 2615.0000     8.2993    76.6672     0.1041     0.0646     2.4797
 2615.5000     8.2823    76.3988     0.1082     0.0591     2.4726
 2616.0000     8.2654    75.2115     0.1100     0.0546     2.4656
 2616.5000     8.2484    73.8326     0.1077     0.0654     2.4678
 2617.0000     8.2314    72.4482     0.1033     0.0780     2.4862
 2617.5000     8.2103    71.0664     0.1017     0.0746     2.4869
 2618.0000     8.1823    69.6964     0.1060     0.0680     2.4750
 2618.5000     8.1545  -999.2500     0.1040     0.0691     2.4679
 2619.0000     8.1266  -999.2500     0.1068     0.0744     2.4720
 2619.5000     8.0987  -999.2500     0.1054     0.0770     2.4760
 2620.0000     8.0705  -999.2500     0.1004     0.0794     2.4810
 2620.5000     8.0504  -999.2500     0.0931     0.0891     2.5019
 2621.0000     8.0321  -999.2500     0.0857     0.1021     2.5222
 2621.5000     8.0138  -999.2500     0.0833     0.0979     2.5242
 2622.0000     8.0060  -999.2500     0.0933     0.0801     2.4975
 2622.5000     8.0058  -999.2500     0.1028     0.0623     2.4755
 2623.0000     8.0058  -999.2500     0.1080     0.0583     2.4703
 2623.5000     8.0059  -999.2500     0.1031     0.0686     2.4839
 2624.0000     8.0074  -999.2500     0.0973     0.0786     2.4891
 2624.5000     8.0120  -999.2500     0.0916     0.0885     2.5002
 2625.0000     8.0166  -999.2500     0.0886     0.0984     2.5110
 2625.5000     8.0212  -999.2500     0.0834     0.1085     2.5217
 2626.0000     8.0258  -999.2500     0.0793     0.1151     2.5289
 2626.5000     8.0303  -999.2500     0.0901     0.1062     2.5119
 2627.0000     8.0349  -999.2500     0.0972     0.0949     2.4948
 2627.5000     8.0395  -999.2500     0.0916     0.1043     2.5044
 2628.0000     8.0441  -999.2500     0.0959     0.0992     2.5102
 2628.5000     8.0486  -999.2500     0.1012     0.0941     2.4858
 2629.0000     8.0533  -999.2500     0.1053     0.1128     2.4764
 2629.5000     8.0578  -999.2500     0.1038     0.1319     2.4873
 2630.0000     8.0625  -999.2500     0.1028     0.1469     2.4863
 2630.5000     7.9928  -999.2500     0.1089     0.1504     2.4688
 2631.0000     7.8587  -999.2500     0.1178     0.1404     2.4475
 2631.5000     7.7210  -999.2500     0.1280     0.1314     2.4248
 2632.0000     7.5541  -999.2500     0.1235     0.1629     2.4061
 2632.5000  -999.2500  -999.2500     0.1243     0.1797     2.4418
 2633.0000  -999.2500  -999.2500     0.1231     0.1929     2.4400
 2633.5000  -999.2500  -999.2500     0.1020     0.1986     2.5150
 2634.0000  -999.2500  -999.2500     0.1014     0.2071     2.5074
 2634.5000  -999.2500  -999.2500     0.1012     0.2296     2.5030
 2635.0000  -999.2500  -999.2500     0.0839     0.2568     2.5625
 2635.5000  -999.2500  -999.2500     0.0598     0.2836     2.6443
 2636.0000  -999.2500  -999.2500     0.0356     0.3077     2.7241
