~VERSION INFORMATION
 VERS.                2.0:   CWLS LOG ASCII STANDARD - VERSION 2.0
 WRAP.                 NO:   ONE LINE PER DEPTH STEP
~WELL INFORMATION
#MNEM.UNIT      DATA TYPE    INFORMATION
#----------   ------------   ------------------------------
 STRT.F           12.0000:   START DEPTH
 STOP.F          754.0000:   STOP DEPTH
 STEP.F            0.5000:   STEP LENGTH
 NULL.          -999.2500:   NO VALUE
 COMP. FENIX & SCISSON INC:   COMPANY
 WELL.    62 SX 34 #62-34:   WELL
 FLD .             TEAPOT:   FIELD
 LOC .      S34 T39N R78W:   LOCATION
 CNTY.            NATRONA:   COUNTY
 STAT.            WYOMING:   STATE
 CTRY. UNITED STATES OF AMERICA:   COUNTRY
 SRVC.            Unknown:   SERVICE COMPANY
 DATE.        20-AUG-1978:   LOGDATE
 API .       490251070200:   API NUMBER
~CURVE INFORMATION
#MNEM.UNIT       API CODE    CURVE DESCRIPTION
#----------   ------------   ------------------------------
 DEPT.F                  :   
 SPR .MV     05 010 01 00:   SPONTANEOUS POTENTIAL FROM RES.
 SN  .OHMM   05 040 16 00:   SHORT NORMAL 16"
 ILD .OHMM   05 120 46 00:   INDUCTION LOG DEEP
 GRD .GAPI   45 310 01 00:   GAMMA RAY FROM DENSITY LOG
 CALD.IN     45 280 60 00:   CALIPER
 RHOB.G/C3   45 350 01 00:   BULK DENSITY
 DPHI.DEC    45 890 12 00:   DENSITY POROSITY SANDSTONE
 CORR.G/C3   45 356 01 00:   DENSITY CORRECTION
~PARAMETER INFORMATION
#MNEM.UNIT          VALUE    DESCRIPTION
#----------   ------------   ------------------------------
 PD  .                 GL:   PERMANENT DATUM
 EPD .F              5039:   ELEVATION PERMANENT DATUM
 LMF .                 KB:   LOG MEASURED FROM
 DAPD.F                 4:   FEET ABOVE PERMANENT DATUM
 DMF .                 KB:   DRILLING MEASURED FROM
 EKB .F              5043:   KELLING BUSHING
 EGL .F              5039:   GROUND LEVEL
 DATE.            8-20-78:   RUN DATE
 RUN .                  1:   RUN NUMBER
 DD  .F               750:   DEPTH DRILLER
 DL  .F               755:   DEPTH LOGGER
 BLI .F               749:   BOTTOM LOG INTERVAL
 TLI .F                30:   TOP LOG INTERVAL
 CS  .IN            8.625:   CASING SIZE
 CBD .F                30:   CASING BOTTOM DRILLER
 CBL .F                34:   CASING BOTTOM LOGGER
 BS  .IN            7.875:   BIT SIZE
 BSD .F               750:   BIT SIZE AT DEPTH
 DFT .            KCL MUD:   DRILLING FLUID TYPE
 DFD .                8.6:   DRILLING FLUID DENSITY
 DFV .                 30:   DRILLING FLUID VISCOSITY
 DFPH.                9.5:   DRILLING FLUID PH
 DFL .               10.4:   DRILLING FLUID LOSS
 MSS .          FLOW LINE:   MUD SAMPLE SOURCE
 RMS .OHMM            .28:   RESISTIVITY MUD SAMPLE
 MST .F                76:   MUD SAMPLE TEMPERATURE
 RMF .OHMM            .24:   RESISTIVITY MUD FILTRATE SAMPLE
 MFST.F                80:   MUD FILTRATE SAMPLE TEMPERATURE
 RMC .OHMM            .34:   RESISTIVITY MUD CAKE
 MCST.F                82:   MUD CAKE SAMPLE TEMPERATURE
 MFSS.               MEAS:   MUD FILTRATE SAMPLE SOURCE
 MCSS.               MEAS:   MUD CAKE SAMPLE SOURCE
 BHT .F                72:   BOTTOM HOLE TEMPERATURE
 TCS .HRS               3:   TIME CURCULATED STOPPED
 MRT .F                72:   MAXIMUM RECORDED TEMPERATURE
 LUN .               2958:   LOGGING UNIT NUMBER
 LUL .               CASP:   LOGGING UNIT LOCATION
 ENGI.           REYNOLDS:   RECORDING ENGINEER
 WITN.              AMEND:   WITNESSED BY
 CLNT.            A2DTECH:   CLIENT CODE
 ORIG.           5" PRINT:   ORIGIN OF DATA
 UWI .       490251070200:   UNIQUE WELL ID
 DICO. A2D Technologies, Inc.:   DIGITIZING COMPANY
~OTHER INFORMATION
~A   DEPT      SPR         SN        ILD         GRD      CALD       RHOB       DPHI       CORR   
# ...
  133.5000   -63.3123     6.0047     6.4983    87.1610     7.7224     2.4282     0.1488     0.0272
  134.0000   -63.3532     6.0234     6.6127    83.0541     7.8410     2.4337     0.1491     0.0282
  134.5000   -63.3942     6.0473     6.7201    82.0758     7.9592     2.4334     0.1495     0.0291
  135.0000   -63.4351     5.9914     6.8163    82.4759     8.0615     2.4329     0.1498     0.0325
  135.5000   -63.4761     5.9914     6.8151    82.8876     8.0803     2.4325     0.1502     0.0377
  136.0000   -63.5171     5.9936     6.8156    83.2918     8.0772     2.4320     0.1491     0.0499
  136.5000   -63.5580     5.9917     6.8155    83.6988     8.0090     2.4344     0.1413     0.0622
  137.0000   -63.5990     5.7964     6.8157    84.0057     7.9360     2.4514     0.1335     0.0747
  137.5000   -63.6399     5.6961     6.8167    82.4060     7.8632     2.4590     0.1300     0.0721
  138.0000   -63.6809     5.5718     6.7312    80.6963     7.7914     2.4501     0.1464     0.0605
  138.5000   -63.7218     5.3566     6.6275    80.5946     7.7300     2.4170     0.1670     0.0487
  139.0000   -63.7628     5.1497     6.3199    80.5600     7.7107     2.3844     0.1875     0.0393
  139.5000   -63.8037     4.7833     5.7772    80.5178     7.6905     2.3346     0.2237     0.0340
  140.0000   -63.8447     4.3822     5.2811    80.4679     7.6707     2.2807     0.2617     0.0285
  140.5000   -63.8857     3.7580     4.4357    80.3444     7.6566     2.2267     0.2980     0.0280
  141.0000   -63.9266     3.2506     3.5731    84.3801     7.6795     2.1722     0.3069     0.0287
  141.5000   -63.9676     2.8117     3.0401    89.7121     7.7094     2.1265     0.3071     0.0296
  142.0000   -64.0085     2.4321     2.6116    95.0333     7.7395     2.0728     0.3072     0.0374
  142.5000   -64.0495     2.0798     2.2193   100.2153     7.7702     2.0760     0.3072     0.0456
  143.0000   -64.0904     2.0977     2.1554   105.2752     7.7602     2.0877     0.3074     0.0539
  143.5000   -64.1319     2.1184     2.1563   106.6544     7.7034     2.1290     0.3076     0.0620
  144.0000   -64.1750     2.1169     2.3067   104.9829     7.7618     2.1894     0.2849     0.0679
  144.5000   -64.2050     2.3707     2.5614   101.3848     7.8979     2.2525     0.2205     0.0505
  145.0000   -63.8288     2.6686     2.8443    97.2977     8.1190     2.3159     0.1922     0.0280
  145.5000   -63.4116     3.0051     3.2668    93.0130     9.4219     2.3753     0.1681     0.0209
  146.0000   -62.6962     3.1230     3.9568    88.7291     8.1383     2.4060     0.1529     0.0308
  146.5000   -61.9652     3.6563     4.7942    84.4033     8.1870     2.4223     0.1541     0.0407
  147.0000   -61.2349     4.4048     5.8092    80.0623     8.1568     2.4221     0.1555     0.0506
  147.5000   -60.5042     5.3065     7.0362    76.4513     8.1220     2.4222     0.1539     0.0615
  148.0000   -59.7769     6.3318     8.3278    74.2027     8.0213     2.4276     0.1484     0.0743
  148.5000   -59.2114     6.8599     9.0185    74.6425     7.8852     2.4459     0.1430     0.0872
  149.0000   -59.1610     7.4029     9.1489    75.2195     7.8100     2.4641     0.1376     0.0845
  149.5000   -59.1019     7.6266     9.1489    74.7252     7.7910     2.4732     0.1328     0.0674
  150.0000   -59.0408     7.7525     8.5828    73.0150     7.7732     2.4522     0.1472     0.0501
  150.5000   -59.0371     7.6815     8.2312    71.3257     7.7571     2.4332     0.1603     0.0389
  151.0000   -59.0375     7.4573     7.8939    69.6221     7.7631     2.4142     0.1721     0.0364
  151.5000   -59.0376     7.2186     7.5705    67.8881     7.7694     2.3953     0.1807     0.0349
  152.0000   -59.0376     6.9876     7.2603    68.3550     7.7753     2.3778     0.1893     0.0335
  152.5000   -59.0376     6.7640     7.0062    68.9930     7.8133     2.3693     0.1935     0.0320
  153.0000   -59.0376     6.5475     7.0191    71.1012     7.8633     2.3626     0.1898     0.0305
  153.5000   -59.0386     6.3318     7.1012    75.7646     7.9135     2.3712     0.1823     0.0276
  154.0000   -59.0429     6.3318     7.2130    82.3971     7.9638     2.3797     0.1803     0.0198
  154.5000   -59.0108     6.5080     7.4208    89.2783     8.0139     2.3827     0.1857     0.0124
  155.0000   -58.3064     6.7102     7.6345    90.4192     8.0659     2.3767     0.1892     0.0108
  155.5000   -57.3259     7.0798     7.8544    86.3574     8.1186     2.3710     0.1902     0.0097
  156.0000   -56.2294     7.4697     8.3387    81.5200     8.1727     2.3679     0.1869     0.0137
  156.5000   -55.4946     7.6352     8.9176    76.6636     8.2268     2.3730     0.1836     0.0198
  157.0000   -55.1658     7.7920     9.5367    73.1567     8.2812     2.3781     0.1819     0.0255
  157.5000   -54.8362     7.9498    10.1234    73.1187     8.3376     2.3798     0.1819     0.0266
  158.0000   -54.5070     8.1110    10.2005    73.7332     8.3101     2.3814     0.1806     0.0276
  158.5000   -54.1774     8.2756    10.3114    74.7439     8.2517     2.3830     0.1786     0.0287
  159.0000   -53.8478     8.4435    10.3114    75.7455     8.1916     2.3846     0.1796     0.0312
  159.5000   -53.5181     8.6150    10.2170    76.7580     8.1320     2.3839     0.1810     0.0388
  160.0000   -53.1885     8.7980    10.2506    77.1961     8.0723     2.3820     0.1824     0.0462
  160.5000   -52.8589     9.0049    10.2733    76.5897     8.0128     2.3801     0.1838     0.0535
  161.0000   -52.5302     9.1489    10.2961    75.9155     7.9518     2.3771     0.1852     0.0610
  161.5000   -52.1947     9.1278    10.3114    75.6658     7.8970     2.3726     0.1867     0.0628
  162.0000   -51.8082     9.1118    10.3424    75.7456     7.8863     2.3689     0.1881     0.0619
  162.5000   -51.3965     9.0959    10.3849    75.6234     7.8748     2.3655     0.1914     0.0584
  163.0000   -50.9828     9.0799    10.4276    73.5945     7.8629     2.3621     0.1951     0.0516
  163.5000   -50.5716     9.0640    10.4704    71.5052     7.8578     2.3587     0.1975     0.0449
  164.0000   -50.2747     9.0481    10.5132    72.0822     7.8576     2.3553     0.1975     0.0382
  164.5000   -50.2981     9.0323    10.5566    72.8476     7.8738     2.3542     0.1971     0.0314
  165.0000   -50.3155     9.0165    10.6000    72.6933     7.9024     2.3573     0.1963     0.0247
  165.5000   -50.3328     9.0007    10.8293    72.1771     7.9310     2.3647     0.1866     0.0179
  166.0000   -50.3499     8.9831    11.0504    72.9781     7.9597     2.3721     0.1859     0.0153
  166.5000   -50.3670     9.0095    11.2762    76.3807     7.9883     2.3696     0.1879     0.0149
  167.0000   -50.3841     9.0431    11.5066    78.2387     8.0181     2.3654     0.1898     0.0145
  167.5000   -50.4012     9.0768    11.7290    79.0657     8.0681     2.3621     0.1917     0.0142
  168.0000   -50.4184     9.1106    11.7223    79.1017     8.1200     2.3619     0.1936     0.0138
  168.5000   -50.4355     9.1440    11.7120    78.4370     8.1718     2.3616     0.1943     0.0136
  169.0000   -50.4524     9.1851    11.7018    76.8242     8.2237     2.3614     0.1943     0.0163
  169.5000   -50.4712     9.2616    11.6915    75.2239     8.2755     2.3611     0.1943     0.0213
  170.0000   -50.3908     9.3388    11.6813    73.6088     8.3294     2.3576     0.1963     0.0253
  170.5000   -50.2638     9.4165    11.6710    72.1028     8.2784     2.3534     0.1995     0.0293
  171.0000   -50.1352     9.4954    11.6608    73.7093     8.1749     2.3466     0.2082     0.0334
  171.5000   -50.0066     9.5787    11.6506    75.4865     8.0704     2.3247     0.2123     0.0379
  172.0000   -49.8781     9.6768    11.6404    77.2880     7.9660     2.3345     0.2027     0.0525
  172.5000   -49.7496     9.8109    11.6302    77.4115     7.8610     2.3567     0.1878     0.0677
  173.0000   -49.6211     9.9469    11.6216    77.1748     7.7597     2.3790     0.1728     0.0719
  173.5000   -49.4926    10.0848    11.9270    78.8811     7.7341     2.4009     0.1643     0.0691
