~VERSION INFORMATION
 VERS.                2.0:   CWLS LOG ASCII STANDARD - VERSION 2.0
 WRAP.                 NO:   ONE LINE PER DEPTH STEP
~WELL INFORMATION
#MNEM.UNIT      DATA TYPE    INFORMATION
#----------   ------------   ------------------------------
 STRT.F           29.0000:   START DEPTH
 STOP.F          503.0000:   STOP DEPTH
 STEP.F            0.5000:   STEP LENGTH
 NULL.          -999.2500:   NO VALUE
 COMP. FENIX & SCISSON INC:   COMPANY
 WELL.      78 SX 3 #78-3:   WELL
 FLD .             TEAPOT:   FIELD
 LOC .       S3 T38N R78W:   LOCATION
 CNTY.            NATRONA:   COUNTY
 STAT.            WYOMING:   STATE
 CTRY. UNITED STATES OF AMERICA:   COUNTRY
 SRVC.            Unknown:   SERVICE COMPANY
 DATE.        17-OCT-1978:   LOGDATE
 API .       490251072400:   API NUMBER
~CURVE INFORMATION
#MNEM.UNIT       API CODE    CURVE DESCRIPTION
#----------   ------------   ------------------------------
 DEPT.F                  :   
 CALD.IN     45 280 60 00:   CALIPER
 GRD .GAPI   45 310 01 00:   GAMMA RAY FROM DENSITY LOG
 CORR.G/C3   45 356 01 00:   DENSITY CORRECTION
 RHOB.G/C3   45 350 01 00:   BULK DENSITY
 DPHI.DEC    45 890 12 00:   DENSITY POROSITY SANDSTONE
 SPR .MV     05 010 01 00:   SPONTANEOUS POTENTIAL FROM RES.
 IL  .OHMM   05 120 00 00:   INDUCTION LOG
 SN  .OHMM   05 040 16 00:   SHORT NORMAL 16"
~PARAMETER INFORMATION
#MNEM.UNIT          VALUE    DESCRIPTION
#----------   ------------   ------------------------------
 PD  .                 GL:   PERMANENT DATUM
 EPD .F              5154:   ELEVATION PERMANENT DATUM
 LMF .                 KB:   LOG MEASURED FROM
 DAPD.F                 4:   FEET ABOVE PERMANENT DATUM
 DMF .                 KB:   DRILLING MEASURED FROM
 EKB .F              5158:   KELLING BUSHING
 EGL .F              5154:   GROUND LEVEL
 DATE.           10-17-78:   RUN DATE
 RUN .                  1:   RUN NUMBER
 DD  .F               498:   DEPTH DRILLER
 DL  .F               503:   DEPTH LOGGER
 BLI .F               497:   BOTTOM LOG INTERVAL
 TLI .F                46:   TOP LOG INTERVAL
 CS  .IN            8.625:   CASING SIZE
 CBD .F                40:   CASING BOTTOM DRILLER
 BS  .IN            7.875:   BIT SIZE
 BSD .F               498:   BIT SIZE AT DEPTH
 DFT .                KCL:   DRILLING FLUID TYPE
 DFD .                8.7:   DRILLING FLUID DENSITY
 DFV .                 38:   DRILLING FLUID VISCOSITY
 DFPH.                  9:   DRILLING FLUID PH
 DFL .                9.6:   DRILLING FLUID LOSS
 MSS .          FLOW LINE:   MUD SAMPLE SOURCE
 RMS .OHMM             .2:   RESISTIVITY MUD SAMPLE
 MST .F                52:   MUD SAMPLE TEMPERATURE
 RMF .OHMM            .18:   RESISTIVITY MUD FILTRATE SAMPLE
 MFST.F                58:   MUD FILTRATE SAMPLE TEMPERATURE
 RMC .OHMM            .16:   RESISTIVITY MUD CAKE
 MCST.F                64:   MUD CAKE SAMPLE TEMPERATURE
 MFSS.               MEAS:   MUD FILTRATE SAMPLE SOURCE
 MCSS.               MEAS:   MUD CAKE SAMPLE SOURCE
 TCS .HRS               1:   TIME CURCULATED STOPPED
 MRT .F                72:   MAXIMUM RECORDED TEMPERATURE
 LUN .               2958:   LOGGING UNIT NUMBER
 LUL .               CASP:   LOGGING UNIT LOCATION
 ENGI.             MILLER:   RECORDING ENGINEER
 WITN.           DINSMORE:   WITNESSED BY
 CLNT.            A2DTECH:   CLIENT CODE
 ORIG.           5" PRINT:   ORIGIN OF DATA
 UWI .       490251072400:   UNIQUE WELL ID
 DICO. A2D Technologies, Inc.:   DIGITIZING COMPANY
~OTHER INFORMATION
~A   DEPT     CALD         GRD      CORR       RHOB       DPHI        SPR         IL         SN   
# ...
  434.0000     7.9886    96.4133     0.0191     2.5148     0.0910   -10.0327    11.6150    10.1091
  434.5000     7.9869    96.4607     0.0186     2.5112     0.0897   -10.1969    11.7783    10.1091
  435.0000     7.9852    96.4505     0.0181     2.5091     0.0857   -10.5159    11.9439    10.1089
  435.5000     7.9835    95.6722     0.0177     2.5162     0.0808   -11.2750    12.1118    10.1091
  436.0000     7.9818    94.5965     0.0172     2.5198     0.0848   -11.8181    12.2820    10.1091
  436.5000     7.9801    93.4980     0.0168     2.5167     0.0898   -11.8211    12.4547    10.1091
  437.0000     7.9784    93.2879     0.0172     2.5136     0.0916   -11.8353    12.5731    10.1091
  437.5000     7.9768    93.7681     0.0192     2.5105     0.0926   -11.8476    12.6777    10.1091
  438.0000     7.9752    94.3597     0.0211     2.5107     0.0925   -11.8603    12.7832    10.1087
  438.5000     7.9731    94.9491     0.0230     2.5125     0.0922   -11.8729    12.8896    10.1091
  439.0000     7.9951    95.3488     0.0250     2.5134     0.0928   -11.8855    12.9969    10.2278
  439.5000     7.9920    95.4570     0.0269     2.5105     0.0935   -11.8982    13.1050    10.3764
  440.0000     7.9906    95.5702     0.0285     2.5076     0.0942   -11.9108    13.2141    10.5272
  440.5000     7.9891    95.6855     0.0290     2.5046     0.0949   -11.9234    13.3214    10.6028
  441.0000     7.9875    95.5788     0.0294     2.5020     0.0957   -11.9361    13.3214    10.6316
  441.5000     7.9859    95.2698     0.0298     2.5019     0.0935   -11.9487    13.3213    10.6605
  442.0000     7.9844    94.7240     0.0303     2.5023     0.0904   -11.9613    13.3214    10.6827
  442.5000     7.9828    94.1806     0.0290     2.5101     0.0874   -11.9740    13.3214    10.6310
  443.0000     7.9812    94.1024     0.0268     2.5180     0.0843   -11.9866    13.3216    10.5813
  443.5000     7.9796    94.2891     0.0245     2.5228     0.0853   -11.9993    13.3221    10.5318
  444.0000     7.9781    94.7229     0.0223     2.5165     0.0885   -12.0039    13.3235    10.4826
  444.5000     7.9765    95.1523     0.0201     2.5105     0.0918   -12.0040    13.2298    10.4336
  445.0000     7.9749    95.5832     0.0184     2.5050     0.0948   -12.0040    13.1424    10.3849
  445.5000     7.9733    96.0163     0.0182     2.5052     0.0931   -12.0040    13.0559    10.3364
  446.0000     7.9718    96.4547     0.0180     2.5100     0.0896   -12.0040    12.9701    10.2880
  446.5000     7.9702    96.1626     0.0178     2.5148     0.0862   -12.0040    12.8848    10.2400
  447.0000     7.9686    95.7711     0.0177     2.5196     0.0827   -12.0040    12.7603    10.1921
  447.5000     7.9671    95.3816     0.0175     2.5245     0.0820   -12.0040    12.5938    10.1445
  448.0000     7.9655    95.1551     0.0173     2.5248     0.0837   -12.0039    12.4287    10.0972
  448.5000     7.9639    95.4185     0.0171     2.5233     0.0852   -12.0025    12.2660    10.0492
  449.0000     7.9623    95.6450     0.0169     2.5217     0.0849   -11.9927    12.1056     9.9738
  449.5000     7.9608    96.3583     0.0167     2.5214     0.0844   -12.3828    11.9472     9.8281
  450.0000     7.9592    97.6152     0.0165     2.5224     0.0839   -12.5981    11.7909     9.6846
  450.5000     7.9576    98.8305     0.0168     2.5234     0.0834   -12.5991    11.6367     9.5432
  451.0000     7.9560    99.9679     0.0174     2.5244     0.0842   -12.5995    11.4984     9.4038
  451.5000     7.9544   100.2568     0.0180     2.5236     0.0860   -12.5992    11.4107     9.2956
  452.0000     7.9543   100.5707     0.0186     2.5193     0.0879   -12.5992    11.3135     9.2598
  452.5000     7.9543   100.8862     0.0192     2.5148     0.0874   -12.5986    11.2153     9.2240
  453.0000     7.9544   101.1896     0.0198     2.5166     0.0860   -12.5950    11.0714     9.1885
  453.5000     7.9540   101.4563     0.0204     2.5200     0.0852   -12.7326    10.9023     9.1531
  454.0000     7.9530   101.7293     0.0210     2.5225     0.0857   -12.8868    10.7372     9.1178
  454.5000     7.9738   102.2828     0.0216     2.5194     0.0867   -13.1175    10.5745     9.0826
  455.0000     7.9742   103.4159     0.0222     2.5162     0.0876   -13.6302    10.4143     9.0476
  455.5000     7.9744   103.8916     0.0215     2.5178     0.0847   -14.1257    10.2839     9.0127
  456.0000     7.9744   103.9006     0.0201     2.5224     0.0816   -14.6259    10.2339     8.9780
  456.5000     7.9744   103.9010     0.0186     2.5271     0.0800   -14.7978    10.1842     8.9433
  457.0000     7.9744   103.9002     0.0171     2.5302     0.0817   -14.8260    10.1347     8.9089
  457.5000     7.9744   103.8988     0.0156     2.5208     0.0838   -14.8517    10.0854     8.8745
  458.0000     7.9743   103.8221     0.0148     2.5100     0.0859   -14.8774    10.0364     8.8403
  458.5000     7.9729   103.6192     0.0169     2.5101     0.0880   -14.9035     9.9876     8.8062
  459.0000     7.9714   103.4199     0.0189     2.5119     0.0901   -14.9296     9.9390     8.7723
  459.5000     7.9699   103.3173     0.0209     2.5136     0.0881   -14.9557     9.8907     8.7384
  460.0000     7.9684   103.3648     0.0219     2.5182     0.0846   -14.9798     9.8433     8.6658
  460.5000     7.9669   103.4068     0.0192     2.5233     0.0820   -14.9803     9.7349     8.5706
  461.0000     7.9654   103.4438     0.0166     2.5281     0.0834   -14.9802     9.6159     8.4763
  461.5000     7.9639   103.5782     0.0139     2.5187     0.0864   -14.9802     9.4979     8.3831
  462.0000     7.9623   105.6401     0.0113     2.5082     0.0893   -14.9795     9.3815     8.2909
  462.5000     7.9608   108.2254     0.0086     2.5071     0.0905   -14.9800     9.2666     8.1998
  463.0000     7.9594   112.8573     0.0121     2.5097     0.0900   -14.9872     9.1720     8.1496
  463.5000     7.9578   120.0758     0.0163     2.5122     0.0895   -15.3422     9.0910     8.0965
  464.0000     7.9563   128.4310     0.0204     2.5142     0.0888   -16.0510     9.0108     8.0437
  464.5000     7.9548   136.7632     0.0245     2.5148     0.0879   -16.3413     8.9313     7.9912
  465.0000     7.9533   140.9768     0.0251     2.5156     0.0871   -16.6038     8.8524     7.9391
  465.5000     7.9518   142.3190     0.0227     2.5177     0.0861   -16.7516     8.7743     7.8873
  466.0000     7.9503   142.3289     0.0203     2.5218     0.0852   -16.4913     8.6190     7.8360
  466.5000     7.9488   141.9615     0.0179     2.5105     0.0906   -16.1637     8.3348     7.7461
  467.0000     7.9473   141.1696     0.0155     2.4983     0.1009   -15.9709     8.1278     7.6206
  467.5000     7.9458   137.1769     0.0153     2.4862     0.1112   -15.9699     7.9215     7.4810
  468.0000     7.9443   132.8793     0.0204     2.4743     0.1195   -15.8125     7.7200     7.3749
  468.5000     7.9428   129.3219     0.0255     2.4698     0.1058   -15.4294     7.5316     7.3258
  469.0000     7.9413   129.6155     0.0302     2.4897     0.0942   -15.0492     7.5316     7.3263
  469.5000     7.9398   137.5262     0.0271     2.5072     0.0826   -14.6676     7.5316     7.3395
  470.0000     7.9383   138.5952     0.0237     2.5245     0.0811   -14.2877     7.6935     7.3769
  470.5000     7.9368   136.6046     0.0203     2.5365     0.0820   -13.9708     7.9169     7.5464
  471.0000     7.9353   135.3191     0.0168     2.5274     0.0828   -13.9243     8.1469     7.8375
  471.5000     7.9343   137.0612     0.0212     2.5210     0.0836   -13.8729     8.4807     8.1397
  472.0000     7.9343   141.7584     0.0268     2.5269     0.0836   -13.8188     8.9190     8.4536
  472.5000     7.9343   142.9386     0.0325     2.5327     0.0766   -13.6743     9.3799     8.8063
  473.0000     7.9343   140.2169     0.0360     2.5384     0.0698   -13.4032     9.8646     8.9938
  473.5000     7.9343   138.9858     0.0384     2.5440     0.0672   -13.4733    10.1091     9.2208
  474.0000     7.9345   136.0225     0.0408     2.5488     0.0656   -13.5576    10.0986     9.2124
