~VERSION INFORMATION
 VERS.                2.0:   CWLS LOG ASCII STANDARD - VERSION 2.0
 WRAP.                 NO:   ONE LINE PER DEPTH STEP
~WELL INFORMATION
#MNEM.UNIT      DATA TYPE    INFORMATION
#----------   ------------   ------------------------------
 STRT.F            0.0000:   START DEPTH
 STOP.F          412.0000:   STOP DEPTH
 STEP.F            0.5000:   STEP LENGTH
 NULL.          -999.2500:   NO VALUE
 COMP. DEPARTMENT OF ENERGY:   COMPANY
 WELL. 65-24 SXS C-3 #65-3:   WELL
 FLD .        TEAPOT EAST:   FIELD
 LOC .       S3 T38N R78W:   LOCATION
 CNTY.            NATRONA:   COUNTY
 STAT.            WYOMING:   STATE
 CTRY. UNITED STATES OF AMERICA:   COUNTRY
 SRVC.      Dresser Atlas:   SERVICE COMPANY
 DATE.        30-JUN-1985:   LOGDATE
 API .       490251134700:   API NUMBER
~CURVE INFORMATION
#MNEM.UNIT       API CODE    CURVE DESCRIPTION
#----------   ------------   ------------------------------
 DEPT.F                  :   
 CALD.IN     45 280 60 00:   CALIPER FROM DENSITY LOG
 CNC .DEC    42 890 03 00:   NEUTRON POROSITY SANDSTONE
 CORR.G/C3   45 356 01 00:   DENSITY CORRECTION
 PORD.DEC    45 890 12 00:   POROSITY DENSITY SANDSTONE
 DEN .G/C3   45 350 01 00:   COMPENSATED BULK DENSTIY
 GRR .GAPI   07 310 01 00:   GAMMA RAY
 RILD.OHMM   07 120 46 00:   INDUCTION LOG DEEP RESISTIVITY
 RILM.OHMM   07 120 44 00:   INDUCTION LOG MEDIUM RESISTIVITY
~PARAMETER INFORMATION
#MNEM.UNIT          VALUE    DESCRIPTION
#----------   ------------   ------------------------------
 PD  .                 GL:   PERMANENT DATUM
 EPD .F              5161:   ELEVATION PERMANENT DATUM
 LMF .                 GL:   LOG MEASURED FROM
 DMF .                 GL:   DRILLING MEASURED FROM
 EGL .F              5161:   GROUND LEVEL
 DATE.        30-JUN-1985:   RUN DATE
 RUN .              1-424:   RUN NUMBER
 DD  .F               424:   DEPTH DRILLER
 DL  .F               422:   DEPTH LOGGER
 BLI .F               414:   BOTTOM LOG INTERVAL
 CS  .IN                7:   CASING SIZE
 CBD .F                80:   CASING BOTTOM DRILLER
 CBL .F                85:   CASING BOTTOM LOGGER
 BS  .IN            4.875:   BIT SIZE
 BSD .F               424:   BIT SIZE AT DEPTH
 DFT .                OIL:   DRILLING FLUID TYPE
 TCS .HRS               3:   TIME CURCULATED STOPPED
 LUN .               6274:   LOGGING UNIT NUMBER
 LUL .           GILLETTE:   LOGGING UNIT LOCATION
 ENGI.             RAUTIO:   RECORDING ENGINEER
 WITN.             GROOMS:   WITNESSED BY
 CLNT.            A2DTECH:   CLIENT CODE
 ORIG.           5" PRINT:   ORIGIN OF DATA
 UWI .       490251134700:   UNIQUE WELL ID
 DICO. A2D Technologies, Inc.:   DIGITIZING COMPANY
~OTHER INFORMATION
~A    DEPT    CALD        CNC       CORR       PORD        DEN         GRR      RILD       RILM   
# ...
  243.0000     7.4363     0.2619     0.4894     0.0660     2.5396   136.9116     2.5017     2.2644
  243.5000     7.4664     0.2594     0.5000     0.0745     2.5207   135.1025     2.6089     2.2807
  244.0000     7.4360     0.2577     0.4698     0.1007     2.4740   133.8984     2.5915     2.2652
  244.5000     7.3602     0.2577     0.3625     0.1166     2.4589   133.9101     2.5741     2.2035
  245.0000     7.3147     0.2579     0.3550     0.1193     2.4543   133.9218     2.5044     2.1099
  245.5000     7.2994     0.2576     0.3565     0.1226     2.4476   133.9334     2.3695     1.9047
  246.0000     7.2538     0.2570     0.3474     0.1298     2.4424   133.9453     2.0709     1.6807
  246.5000     7.2235     0.2636     0.3102     0.1192     2.4665   133.9597     1.7706     1.5356
  247.0000     7.2536     0.2793     0.2644     0.1080     2.4838   133.6646     1.6069     1.4128
  247.5000     7.2844     0.2896     0.2236     0.0986     2.4815   133.6792     1.4787     1.2818
  248.0000     7.3138     0.2723     0.1843     0.1485     2.4484   135.5146     1.3991     1.2469
  248.5000     7.3439     0.2231     0.2462     0.2505     2.3338   140.6934     1.3330     1.2647
  249.0000     7.3286     0.2285     0.2538     0.3561     2.0757   141.3130     1.3333     1.3098
  249.5000     7.2074     0.2614     0.1964     0.3668     2.0460   136.4644     1.3810     1.3850
  250.0000     6.6929     0.2686     0.0997     0.2799     2.1989   130.7001     1.4470     1.4852
  250.5000     6.8141     0.2553     0.0710     0.1930     2.2807   132.8336     1.5337     1.4551
  251.0000     6.6478     0.2562     0.0620     0.1782     2.3595   133.1420     1.6205     1.5286
  251.5000     6.4664     0.2586     0.0288     0.1727     2.3738   132.5400     1.7269     1.6169
  252.0000     6.4666     0.2579    -0.0104     0.1599     2.3867   133.7632     1.8135     1.7243
  252.5000     6.4667     0.2531    -0.0255     0.1485     2.4108   132.8573     1.8912     1.7968
  253.0000     6.4669     0.2512    -0.0300     0.1454     2.4123   131.0092     1.9316     1.8229
  253.5000     6.4670     0.2503    -0.0089     0.1466     2.4063   127.9605     1.9592     1.8493
  254.0000     6.4672     0.2500     0.0109     0.1517     2.3928   128.9251     1.9597     1.8246
  254.5000     6.4673     0.2499     0.0154     0.1565     2.3898   129.2335     1.9198     1.8001
  255.0000     6.4675     0.2496    -0.0088     0.1556     2.3959   128.3290     1.9061     1.7639
  255.5000     6.4676     0.2502    -0.0314     0.1504     2.4079   128.9428     1.8552     1.7283
  256.0000     6.4678     0.2508    -0.0374     0.1438     2.4162   129.2512     1.8174     1.7171
  256.5000     6.4679     0.2501    -0.0223     0.1386     2.4200   127.7388     1.8053     1.7179
  257.0000     6.4681     0.2498    -0.0071     0.1410     2.4170   125.9210     1.7809     1.7187
  257.5000     6.4682     0.2489     0.0020     0.1440     2.4133   124.4072     1.7568     1.7078
  258.0000     6.4684     0.2482     0.0082     0.1451     2.4171   125.3264     1.7211     1.6733
  258.5000     6.4685     0.2479     0.0126     0.1379     2.4278   127.1560     1.6860     1.6168
  259.0000     6.4687     0.2479     0.0202     0.1330     2.4360   128.9856     1.6289     1.5514
  259.5000     6.4688     0.2485     0.0202     0.1293     2.4390   130.2074     1.5843     1.5095
  260.0000     6.4690     0.2490     0.0172     0.1269     2.4398   131.4291     1.5402     1.4894
  260.5000     6.4691     0.2493     0.0142     0.1293     2.4338   132.0429     1.5103     1.4797
  261.0000     6.4693     0.2487     0.0203     0.1341     2.4218   131.7447     1.5107     1.4702
  261.5000     6.4543     0.2471     0.0400     0.1395     2.4105   130.2260     1.5111     1.4812
  262.0000     6.4545     0.2408     0.0600     0.1464     2.4022   125.7793     1.5115     1.5026
  262.5000     6.4546     0.2320     0.0718     0.1509     2.4071   122.3784     1.5119     1.4929
  263.0000     6.4548     0.2252     0.0778     0.1391     2.4279   119.8946     1.4914     1.4629
  263.5000     6.4549     0.2217     0.0658     0.1261     2.4490   117.7021     1.4210     1.4037
  264.0000     6.4551     0.2204     0.0537     0.1153     2.4671   115.0649     1.3352     1.2390
  264.5000     6.4552     0.2192     0.0477     0.1100     2.4649   116.8945     1.1542     1.0272
  265.0000     6.4402     0.2204     0.0583     0.1139     2.4521   119.6360     0.7823     0.8695
  265.5000     6.4101     0.2418     0.0811     0.1287     2.4340   122.9854     0.7099     0.7729
  266.0000     6.3498     0.2762     0.1066     0.1437     2.4099   126.6387     0.6858     0.7263
  266.5000     6.3348     0.2146     0.1792     0.1960     2.3482   128.7723     0.6812     0.7376
  267.0000     6.5316     0.2031     0.2578     0.3334     2.0023   128.4742     0.6910     0.8241
  267.5000     7.0310     0.1846     0.3379     0.4881     2.0023   124.0732     0.7307     0.9812
  268.0000     7.0463     0.2324     0.2775     0.4839     2.0023   116.6334     0.8576     1.1847
  268.5000     6.2598     0.2389     0.3319     0.2917     2.1372   114.5102     1.1648     1.3249
  269.0000     5.9573     0.2102     0.3833     0.1460     2.3050   115.7334     1.6789     1.5997
  269.5000     5.9575     0.2020     0.3767     0.1148     2.4417   116.0432     2.3737     1.9585
  270.0000     5.9274     0.1996     0.3124     0.1302     2.4583   115.7437     3.1721     2.5000
  270.5000     5.8973     0.2068     0.2082     0.1347     2.4356   115.7511     3.6717     2.9560
  271.0000     5.8369     0.2113     0.1297     0.1314     2.4260   115.7570     4.5559     3.4001
  271.5000     5.8219     0.2143     0.0829     0.1235     2.4365   116.0669     5.3471     3.9548
  272.0000     5.8070     0.2134     0.0769     0.1272     2.4418   115.7688     6.3637     4.8873
  272.5000     5.8071     0.2082     0.1418     0.1358     2.4298   117.9038     7.5736     6.0674
  273.0000     5.8073     0.2012     0.2083     0.1515     2.4178   123.3809     8.4668     7.7451
  273.5000     5.8074     0.1825     0.2614     0.1862     2.3997   125.5144     9.4034     8.7832
  274.0000     5.7924     0.1603     0.3111     0.2346     2.3590   120.6571    10.4622    10.0301
  274.5000     5.7774     0.1314     0.3202     0.2614     2.2663   105.7829    11.8306    11.6957
  275.0000     5.7474     0.1136     0.3278     0.2287     2.2226    91.8998    13.9823    13.4494
  275.5000     5.6870     0.0936     0.3173     0.1948     2.2853    78.0168    16.4108    16.5811
  276.0000     5.4955     0.0707     0.2055     0.1930     2.3358    67.0639    19.8042    21.4206
  276.5000     5.2637     0.0640     0.1315     0.2558     2.2951    63.2399    23.8992    32.3858
  277.0000     5.2639     0.0622     0.1331     0.2989     2.2190    64.1591    27.8558    40.7667
  277.5000     5.2488     0.0682     0.1376     0.3080     2.1407    68.7243    33.8503    50.9638
  278.0000     5.2036     0.0715     0.0893     0.3131     2.1309    73.5934    40.0067    63.7115
  278.5000     5.1735     0.0735     0.0319     0.3058     2.1430    76.6388    42.9464    86.5875
  279.0000     5.1429     0.0714     0.0244     0.3046     2.1383    76.9472    45.6831    98.8795
  279.5000     5.1284     0.0702     0.0350     0.3250     2.0978    73.3072    47.3116   101.7200
  280.0000     5.1135     0.0698     0.0441     0.3483     2.0684    74.8328    48.9982   102.4793
  280.5000     5.1136     0.0701     0.0275     0.3589     2.0519    78.2178    50.3933   103.2443
  281.0000     5.1289     0.0698     0.0108     0.3552     2.0609    78.4921    51.8282   104.7425
  281.5000     5.1291     0.0689     0.0049     0.3513     2.0685    74.5481    53.3039   105.5257
  282.0000     5.1292     0.0673    -0.0117     0.3491     2.0715    72.1209    54.8216   105.5861
  282.5000     5.1142     0.0661    -0.0267     0.3509     2.0685    72.1283    56.7759   104.8910
  283.0000     5.0992     0.0679    -0.0131     0.3614     2.0499    72.4381    58.4254   104.2128
