~VERSION INFORMATION
 VERS.                2.0:   CWLS LOG ASCII STANDARD - VERSION 2.0
 WRAP.                 NO:   ONE LINE PER DEPTH STEP
~WELL INFORMATION
#MNEM.UNIT      DATA TYPE    INFORMATION
#----------   ------------   ------------------------------
 STRT.F          714.0000:   START DEPTH
 STOP.F         2268.0000:   STOP DEPTH
 STEP.F            0.5000:   STEP LENGTH
 NULL.          -999.2500:   NO VALUE
 COMP. LAWRENCE/ALLISON INC:   COMPANY
 WELL. 25-1-STX 10 #25-10:   WELL
 FLD .             TEAPOT:   FIELD
 LOC .      S10 T38N R78W:   LOCATION
 CNTY.            NATRONA:   COUNTY
 STAT.            WYOMING:   STATE
 CTRY. UNITED STATES OF AMERICA:   COUNTRY
 SRVC.            Unknown:   SERVICE COMPANY
 DATE.        07-JUN-1991:   LOGDATE
 API .       490251091300:   API NUMBER
~CURVE INFORMATION
#MNEM.UNIT       API CODE    CURVE DESCRIPTION
#----------   ------------   ------------------------------
 DEPT.F                  :   
 TGAS.UNITS  91 830 01 00:   TOTAL GAS FROM HOTWIRE
 ROP .MIN/FT 91 810 01 00:   RATE OF DRILLING PENETRATION
~PARAMETER INFORMATION
#MNEM.UNIT          VALUE    DESCRIPTION
#----------   ------------   ------------------------------
 EKB .F              5243:   KELLING BUSHING
 EGL .F              5233:   GROUND LEVEL
 DATE.             6-8-91:   RUN DATE
 BLI .F              2280:   BOTTOM LOG INTERVAL
 TLI .F              1680:   TOP LOG INTERVAL
 CS  .IN            9.625:   CASING SIZE
 CBD .F               740:   CASING BOTTOM DRILLER
 ENGI.              TOWER:   RECORDING ENGINEER
 WITN.               HUSK:   WITNESSED BY
 CLNT.            A2DTECH:   CLIENT CODE
 ORIG.           5" PRINT:   ORIGIN OF DATA
 UWI .       490251091300:   UNIQUE WELL ID
 DICO. A2D Technologies, Inc.:   DIGITIZING COMPANY
~OTHER INFORMATION
~A   DEPT     TGAS          ROP 
# ...
 1200.0000  -999.2500     0.3762
 1200.5000  -999.2500     0.3777
 1201.0000  -999.2500     0.3789
 1201.5000  -999.2500     0.3800
 1202.0000  -999.2500     0.3812
 1202.5000  -999.2500     0.3823
 1203.0000  -999.2500     0.3834
 1203.5000  -999.2500     0.3846
 1204.0000  -999.2500     0.3568
 1204.5000  -999.2500     0.3492
 1205.0000  -999.2500     0.3128
 1205.5000  -999.2500     0.2762
 1206.0000  -999.2500     0.2773
 1206.5000  -999.2500     0.2784
 1207.0000  -999.2500     0.2795
 1207.5000  -999.2500     0.2806
 1208.0000  -999.2500     0.2817
 1208.5000  -999.2500     0.2854
 1209.0000  -999.2500     0.3217
 1209.5000  -999.2500     0.3228
 1210.0000  -999.2500     0.3239
 1210.5000  -999.2500     0.3326
 1211.0000  -999.2500     0.3551
 1211.5000  -999.2500     0.3173
 1212.0000  -999.2500     0.2908
 1212.5000  -999.2500     0.2919
 1213.0000  -999.2500     0.2930
 1213.5000  -999.2500     0.2942
 1214.0000  -999.2500     0.2953
 1214.5000  -999.2500     0.2964
 1215.0000  -999.2500     0.2976
 1215.5000  -999.2500     0.2987
 1216.0000  -999.2500     0.2998
 1216.5000  -999.2500     0.3009
 1217.0000  -999.2500     0.3021
 1217.5000  -999.2500     0.3032
 1218.0000  -999.2500     0.3043
 1218.5000  -999.2500     0.3055
 1219.0000  -999.2500     0.3066
 1219.5000  -999.2500     0.3079
 1220.0000  -999.2500     0.3090
 1220.5000  -999.2500     0.3101
 1221.0000  -999.2500     0.3112
 1221.5000  -999.2500     0.3123
 1222.0000  -999.2500     0.3134
 1222.5000  -999.2500     0.3145
 1223.0000  -999.2500     0.3156
 1223.5000  -999.2500     0.3168
 1224.0000  -999.2500     0.3179
 1224.5000  -999.2500     0.3190
 1225.0000  -999.2500     0.3202
 1225.5000  -999.2500     0.3213
 1226.0000  -999.2500     0.3224
 1226.5000  -999.2500     0.3235
 1227.0000  -999.2500     0.3247
 1227.5000  -999.2500     0.3258
 1228.0000  -999.2500     0.3269
 1228.5000  -999.2500     0.3281
 1229.0000  -999.2500     0.3292
 1229.5000  -999.2500     0.3303
 1230.0000  -999.2500     0.3126
 1230.5000  -999.2500     0.2949
 1231.0000  -999.2500     0.2960
 1231.5000  -999.2500     0.2972
 1232.0000  -999.2500     0.2983
 1232.5000  -999.2500     0.2994
 1233.0000  -999.2500     0.3006
 1233.5000  -999.2500     0.3017
 1234.0000  -999.2500     0.3028
 1234.5000  -999.2500     0.3042
 1235.0000  -999.2500     0.3053
 1235.5000  -999.2500     0.3064
 1236.0000  -999.2500     0.3451
 1236.5000  -999.2500     0.3462
 1237.0000  -999.2500     0.3473
 1237.5000  -999.2500     0.3484
 1238.0000  -999.2500     0.3495
 1238.5000  -999.2500     0.3507
 1239.0000  -999.2500     0.3518
 1239.5000  -999.2500     0.3529
 1240.0000  -999.2500     0.3540
 1240.5000  -999.2500     0.3552
 1241.0000  -999.2500     0.3563
 1241.5000  -999.2500     0.3574
 1242.0000  -999.2500     0.3586
 1242.5000  -999.2500     0.3597
 1243.0000  -999.2500     0.3608
 1243.5000  -999.2500     0.3620
 1244.0000  -999.2500     0.3468
 1244.5000  -999.2500     0.3266
 1245.0000  -999.2500     0.3277
 1245.5000  -999.2500     0.3288
 1246.0000  -999.2500     0.3299
 1246.5000  -999.2500     0.3311
 1247.0000  -999.2500     0.3322
 1247.5000  -999.2500     0.3082
 1248.0000  -999.2500     0.2968
 1248.5000  -999.2500     0.2703
 1249.0000  -999.2500     0.2614
 1249.5000  -999.2500     0.2627
 1250.0000  -999.2500     0.2229
 1250.5000  -999.2500     0.1900
 1251.0000  -999.2500     0.1921
 1251.5000  -999.2500     0.1940
 1252.0000  -999.2500     0.1959
 1252.5000  -999.2500     0.1977
 1253.0000  -999.2500     0.1996
 1253.5000  -999.2500     0.2123
 1254.0000  -999.2500     0.2411
 1254.5000  -999.2500     0.2299
 1255.0000  -999.2500     0.2072
 1255.5000  -999.2500     0.2090
 1256.0000  -999.2500     0.2109
 1256.5000  -999.2500     0.2302
 1257.0000  -999.2500     0.2524
 1257.5000  -999.2500     0.2542
 1258.0000  -999.2500     0.2561
 1258.5000  -999.2500     0.2798
 1259.0000  -999.2500     0.2976
 1259.5000  -999.2500     0.2994
 1260.0000  -999.2500     0.3013
 1260.5000  -999.2500     0.3032
 1261.0000  -999.2500     0.3051
 1261.5000  -999.2500     0.3070
 1262.0000  -999.2500     0.2793
 1262.5000  -999.2500     0.2731
 1263.0000  -999.2500     0.3129
 1263.5000  -999.2500     0.3147
 1264.0000  -999.2500     0.2789
 1264.5000  -999.2500     0.2807
 1265.0000  -999.2500     0.2826
 1265.5000  -999.2500     0.2844
 1266.0000  -999.2500     0.2863
 1266.5000  -999.2500     0.2881
 1267.0000  -999.2500     0.2900
 1267.5000  -999.2500     0.2919
 1268.0000  -999.2500     0.2938
 1268.5000  -999.2500     0.2957
 1269.0000  -999.2500     0.2976
 1269.5000  -999.2500     0.2994
 1270.0000  -999.2500     0.3013
 1270.5000  -999.2500     0.2927
 1271.0000  -999.2500     0.2674
 1271.5000  -999.2500     0.2693
 1272.0000  -999.2500     0.2712
 1272.5000  -999.2500     0.2731
 1273.0000  -999.2500     0.2750
 1273.5000  -999.2500     0.2768
 1274.0000  -999.2500     0.2787
 1274.5000  -999.2500     0.2999
 1275.0000  -999.2500     0.3202
 1275.5000  -999.2500     0.3220
 1276.0000  -999.2500     0.3239
 1276.5000  -999.2500     0.3021
 1277.0000  -999.2500     0.2900
 1277.5000  -999.2500     0.2919
 1278.0000  -999.2500     0.2938
 1278.5000  -999.2500     0.2957
 1279.0000  -999.2500     0.2976
 1279.5000  -999.2500     0.2621
 1280.0000  -999.2500     0.2640
 1280.5000  -999.2500     0.2281
 1281.0000  -999.2500     0.1923
 1281.5000  -999.2500     0.1941
 1282.0000  -999.2500     0.1959
 1282.5000  -999.2500     0.1978
 1283.0000  -999.2500     0.1996
 1283.5000  -999.2500     0.2015
 1284.0000  -999.2500     0.2034
 1284.5000  -999.2500     0.2053
 1285.0000  -999.2500     0.2072
 1285.5000  -999.2500     0.2090
 1286.0000  -999.2500     0.2178
 1286.5000  -999.2500     0.2505
 1287.0000  -999.2500     0.2524
 1287.5000  -999.2500     0.2542
 1288.0000  -999.2500     0.2561
 1288.5000  -999.2500     0.2456
 1289.0000  -999.2500     0.2087
 1289.5000  -999.2500     0.1864
 1290.0000  -999.2500     0.1883
 1290.5000  -999.2500     0.1902
 1291.0000  -999.2500     0.1921
 1291.5000  -999.2500     0.1940
 1292.0000  -999.2500     0.1959
 1292.5000  -999.2500     0.1977
 1293.0000  -999.2500     0.1996
 1293.5000  -999.2500     0.2015
 1294.0000  -999.2500     0.2034
 1294.5000  -999.2500     0.2053
 1295.0000  -999.2500     0.2072
 1295.5000  -999.2500     0.2090
 1296.0000  -999.2500     0.2109
 1296.5000  -999.2500     0.2132
 1297.0000  -999.2500     0.2150
 1297.5000  -999.2500     0.2168
 1298.0000  -999.2500     0.2187
 1298.5000  -999.2500     0.2205
 1299.0000  -999.2500     0.2223
 1299.5000  -999.2500     0.2242
 1300.0000  -999.2500     0.2261
 1300.5000  -999.2500     0.2282
 1301.0000  -999.2500     0.2305
 1301.5000  -999.2500     0.2328
 1302.0000  -999.2500     0.2554
 1302.5000  -999.2500     0.2750
 1303.0000  -999.2500     0.2772
 1303.5000  -999.2500     0.2795
 1304.0000  -999.2500     0.2817
 1304.5000  -999.2500     0.2840
 1305.0000  -999.2500     0.2863
 1305.5000  -999.2500     0.2885
 1306.0000  -999.2500     0.2908
 1306.5000  -999.2500     0.3311
 1307.0000  -999.2500     0.3333
 1307.5000  -999.2500     0.3355
 1308.0000  -999.2500     0.3000
 1308.5000  -999.2500     0.3022
 1309.0000  -999.2500     0.3044
 1309.5000  -999.2500     0.3443
 1310.0000  -999.2500     0.3088
 1310.5000  -999.2500     0.3111
 1311.0000  -999.2500     0.3134
 1311.5000  -999.2500     0.3156
 1312.0000  -999.2500     0.3179
 1312.5000  -999.2500     0.3202
 1313.0000  -999.2500     0.3224
 1313.5000  -999.2500     0.3153
 1314.0000  -999.2500     0.2893
 1314.5000  -999.2500     0.2915
 1315.0000  -999.2500     0.2938
 1315.5000  -999.2500     0.2960
 1316.0000  -999.2500     0.2983
 1316.5000  -999.2500     0.3006
 1317.0000  -999.2500     0.3203
 1317.5000  -999.2500     0.3427
 1318.0000  -999.2500     0.3450
 1318.5000  -999.2500     0.3473
 1319.0000  -999.2500     0.3495
 1319.5000  -999.2500     0.3518
 1320.0000  -999.2500     0.3540
 1320.5000  -999.2500     0.3563
 1321.0000  -999.2500     0.3586
