~VERSION INFORMATION
 VERS.                2.0:   CWLS LOG ASCII STANDARD - VERSION 2.0
 WRAP.                 NO:   ONE LINE PER DEPTH STEP
~WELL INFORMATION
#MNEM.UNIT      DATA TYPE    INFORMATION
#----------   ------------   ------------------------------
 STRT.F          717.0000:   START DEPTH
 STOP.F         2448.0000:   STOP DEPTH
 STEP.F            0.5000:   STEP LENGTH
 NULL.          -999.2500:   NO VALUE
 COMP.   FLUOR DANIEL INC:   COMPANY
 WELL. NAVAL PETROLEUM RESERVE 3X27 #34-27:   WELL
 FLD .             TEAPOT:   FIELD
 LOC .      S27 T39N R78W:   LOCATION
 CNTY.            NATRONA:   COUNTY
 STAT.            WYOMING:   STATE
 CTRY. UNITED STATES OF AMERICA:   COUNTRY
 SRVC.            Unknown:   SERVICE COMPANY
 DATE.        17-MAY-1996:   LOGDATE
 API .       490252279300:   API NUMBER
~CURVE INFORMATION
#MNEM.UNIT       API CODE    CURVE DESCRIPTION
#----------   ------------   ------------------------------
 DEPT.F                  :   
 TGAS.TC/CC  91 830 01 00:   TOTAL GAS UNIT
 ROP .FT/HR  91 810 01 00:   RAT OF DRILLING PENETRATION
~PARAMETER INFORMATION
#MNEM.UNIT          VALUE    DESCRIPTION
#----------   ------------   ------------------------------
 EPD .F              5039:   ELEVATION PERMANENT DATUM
 EKB .F              5049:   KELLING BUSHING
 EGL .F              5039:   GROUND LEVEL
 DATE.        17-MAY-1996:   RUN DATE
 RUN .                  1:   RUN NUMBER
 ENGI.     R.HUSK/C.TOWER:   RECORDING ENGINEER
 CLNT.            A2DTECH:   CLIENT CODE
 ORIG.           5" PRINT:   ORIGIN OF DATA
 UWI .       490252279300:   UNIQUE WELL ID
 DICO. A2D Technologies, Inc.:   DIGITIZING COMPANY
~OTHER INFORMATION
~A   DEPT       TGAS        ROP 
# ...
 1324.5000     3.8714     0.8319
 1325.0000     4.0661     0.8318
 1325.5000     4.2607     0.8317
 1326.0000     4.2663     0.8289
 1326.5000     4.2718     0.8204
 1327.0000     4.2774     0.8120
 1327.5000     4.2829     0.8167
 1328.0000     4.2885     0.8353
 1328.5000     4.1048     2.1979
 1329.0000     4.1105     2.1977
 1329.5000     3.5489     2.1975
 1330.0000     3.1512     2.1973
 1330.5000     2.4269     1.6332
 1331.0000     2.0530     1.6331
 1331.5000     1.8694     1.6235
 1332.0000     1.8764     0.5613
 1332.5000     1.8820     0.5611
 1333.0000     1.8875     0.5609
 1333.5000     1.8931     0.5607
 1334.0000     1.8986     0.5605
 1334.5000     1.9040     0.5603
 1335.0000     1.9098     0.5696
 1335.5000     1.9153     0.5693
 1336.0000     1.9210     0.5786
 1336.5000     1.9267     0.7476
 1337.0000     1.9334     0.7474
 1337.5000     1.9390     0.7472
 1338.0000     1.9437     0.7480
 1338.5000     1.7610     1.0664
 1339.0000     1.7666     1.0567
 1339.5000     1.7721     1.0472
 1340.0000     1.7777     0.9060
 1340.5000     1.7832     0.9058
 1341.0000     1.7888     0.9056
 1341.5000     1.7943     0.9054
 1342.0000     1.8000     0.9053
 1342.5000     1.7931     0.9145
 1343.0000     1.6223     0.9049
 1343.5000     1.8180     0.9047
 1344.0000     1.8227     0.9045
 1344.5000     1.8291     0.9043
 1345.0000     1.8347     0.9041
 1345.5000     1.8397     0.9134
 1346.0000     1.8454     0.5560
 1346.5000     2.0404     0.5558
 1347.0000     2.0465     0.5556
 1347.5000     2.2405     0.5555
 1348.0000     2.2462     0.5553
 1348.5000     2.2519     0.5645
 1349.0000     2.2576     0.5737
 1349.5000     2.2643     0.5735
 1350.0000     2.2686     0.5827
 1350.5000     2.2707     0.5731
 1351.0000     2.0832     0.5729
 1351.5000     2.0856     0.5821
 1352.0000     2.0874     0.7418
 1352.5000     2.0893     0.7321
 1353.0000     2.0912     0.7320
 1353.5000     1.9039     0.7318
 1354.0000     1.7167     0.7315
 1354.5000     1.5295     0.7408
 1355.0000     1.3427     0.7406
 1355.5000     1.3446     0.7404
 1356.0000     1.3464     0.7778
 1356.5000     1.3483     0.7776
 1357.0000     1.3501     0.7774
 1357.5000     1.3520     0.7773
 1358.0000     1.5429     0.7771
 1358.5000     1.5447     0.7769
 1359.0000     1.5466     0.7767
 1359.5000     1.7376     0.7765
 1360.0000     1.7395     0.7763
 1360.5000     1.9308     0.9923
 1361.0000     1.9324     0.9921
 1361.5000     1.9345     1.0014
 1362.0000     1.9364     1.0011
 1362.5000     1.9383     1.5390
 1363.0000     1.9401     1.5295
 1363.5000     1.7529     1.5388
 1364.0000     1.7546     1.7549
 1364.5000     1.7565     1.7548
 1365.0000     1.5693     1.7547
 1365.5000     1.5712     1.7546
 1366.0000     1.3840     1.0308
 1366.5000     1.3859     1.0307
 1367.0000     1.3878     1.0306
 1367.5000     1.5791     1.0305
 1368.0000     1.5807     1.0305
 1368.5000     1.5826     1.0304
 1369.0000     1.5847     1.0302
 1369.5000     1.5866     1.0302
 1370.0000     1.5882     0.8327
 1370.5000     1.5903     0.7950
 1371.0000     1.5920     0.7761
 1371.5000     1.4049     0.7760
 1372.0000     1.4067     0.7759
 1372.5000     1.4086     0.7758
 1373.0000     1.4105     0.7758
 1373.5000     1.4124     0.7757
 1374.0000     1.4147     0.7755
 1374.5000     1.4162     0.7755
 1375.0000     1.4181     0.7754
 1375.5000     1.4202     0.7753
 1376.0000     1.4221     0.9632
 1376.5000     1.4239     0.9631
 1377.0000     1.4258     0.9630
 1377.5000     1.4277     0.9629
 1378.0000     1.4295     0.9613
 1378.5000     1.6204     0.9533
 1379.0000     1.8113     0.9532
 1379.5000     1.8132     0.9061
 1380.0000     1.8151     0.6428
 1380.5000     1.8170     0.6522
 1381.0000     1.6297     0.6427
 1381.5000     1.6321     0.6426
 1382.0000     1.4444     0.6425
 1382.5000     1.4467     0.6330
 1383.0000     1.4483     0.6329
 1383.5000     1.6393     0.6328
 1384.0000     1.6413     0.6421
 1384.5000     1.6432     0.6326
 1385.0000     1.6450     0.6325
 1385.5000     1.6468     0.6418
 1386.0000     1.6488     0.6417
 1386.5000     1.6506     0.6416
 1387.0000     1.6525     0.6415
 1387.5000     1.6544     0.6414
 1388.0000     1.8454     0.9985
 1388.5000     1.8476     0.9984
 1389.0000     1.8494     0.9983
 1389.5000     1.6620     0.9982
 1390.0000     1.6641     0.9981
 1390.5000     1.4767     1.0074
 1391.0000     1.4786     1.0073
 1391.5000     1.4805     1.0166
 1392.0000     1.4824     2.2383
 1392.5000     1.4843     2.2288
 1393.0000     1.4861     2.2382
 1393.5000     1.4880     2.2381
 1394.0000     1.4899     1.3639
 1394.5000     1.4922     1.3638
 1395.0000     1.4940     1.3731
 1395.5000     1.4956     1.3542
 1396.0000     1.4975     0.5835
 1396.5000     1.4994     0.5833
 1397.0000     1.3119     0.5833
 1397.5000     1.3142     0.5832
 1398.0000     1.3160     0.5925
 1398.5000     1.3179     0.6018
 1399.0000     1.2322     0.6111
 1399.5000     1.1326     0.6110
 1400.0000     1.2480     0.5263
 1400.5000     1.4041     0.5168
 1401.0000     1.5601     0.5167
 1401.5000     1.7309     0.5166
 1402.0000     1.5511     0.5165
 1402.5000     1.5603     0.5164
 1403.0000     1.3803     0.5164
 1403.5000     1.3897     0.5163
 1404.0000     1.3992     0.5161
 1404.5000     1.4086     0.6289
 1405.0000     1.4198     0.6287
 1405.5000     1.4290     0.6287
 1406.0000     1.4382     0.6286
 1406.5000     1.4475     0.6379
 1407.0000     1.4567     0.6378
 1407.5000     1.4660     0.6377
 1408.0000     1.6643     0.6282
 1408.5000     1.6735     0.6281
 1409.0000     3.0063     0.6280
 1409.5000     1.8611     0.6279
 1410.0000     1.7012     1.7463
 1410.5000     1.5237     1.7461
 1411.0000     1.5329     1.7460
 1411.5000     1.5422     1.7460
 1412.0000     1.5514     0.6556
 1412.5000     1.3693     0.6555
 1413.0000     1.3808     0.6554
 1413.5000     1.2006     0.6553
 1414.0000     1.2102     0.6552
 1414.5000     1.2195     0.6552
 1415.0000     1.0399     0.6551
 1415.5000     1.0494     0.6550
 1416.0000     1.0604     1.0214
 1416.5000     1.0683     1.0119
 1417.0000     1.0789     1.0118
 1417.5000     1.0881     1.0117
 1418.0000     1.0973     1.0116
 1418.5000     1.1061     1.0115
 1419.0000     1.2044     1.0115
 1419.5000     1.3141     1.5189
 1420.0000     1.3235     1.5188
 1420.5000     1.3330     1.5187
 1421.0000     1.3424     1.5186
 1421.5000     1.3534     1.5185
 1422.0000     1.3626     0.7470
 1422.5000     1.1805     0.6536
 1423.0000     1.1920     0.6442
 1423.5000     1.2020     0.6441
 1424.0000     1.2101     0.6440
 1424.5000     1.2198     0.6439
 1425.0000     1.0399     0.6466
 1425.5000     1.0494     0.6505
 1426.0000     0.8697     0.6544
 1426.5000     0.6895     0.6583
 1427.0000     0.7010     0.6688
 1427.5000     0.7103     0.6692
 1428.0000     0.7195     0.6601
 1428.5000     0.7287     0.6606
 1429.0000     0.7380     0.6609
 1429.5000     0.7468     0.6613
 1430.0000     0.7563     0.6617
 1430.5000     0.7658     0.6620
 1431.0000     0.7752     0.6530
 1431.5000     0.7865     0.6534
 1432.0000     0.7957     0.6538
 1432.5000     0.8036     0.6542
 1433.0000     0.8130     0.6546
 1433.5000     1.0125     0.6549
 1434.0000     0.8327     0.6553
 1434.5000     0.8414     0.6557
 1435.0000     0.8511     0.6654
 1435.5000     0.8603     0.6658
 1436.0000     0.8697     0.6662
 1436.5000     0.8792     0.6665
 1437.0000     1.0777     0.6684
 1437.5000     1.0887     0.6768
 1438.0000     1.0980     0.6676
 1438.5000     1.1072     0.6681
 1439.0000     1.3055     0.6497
 1439.5000     1.1234     0.6500
 1440.0000     1.3240     0.5188
 1440.5000     1.3332     0.5286
 1441.0000     1.3425     0.5290
 1441.5000     1.3519     0.5293
 1442.0000     1.3613     0.5297
 1442.5000     1.3725     0.5301
 1443.0000     1.3817     0.5305
 1443.5000     1.3910     0.5309
 1444.0000     1.4002     0.5312
 1444.5000     1.4094     0.5316
 1445.0000     1.2273     0.5320
 1445.5000     1.0494     0.5323
