~VERSION INFORMATION
 VERS.                2.0:   CWLS LOG ASCII STANDARD - VERSION 2.0
 WRAP.                 NO:   ONE LINE PER DEPTH STEP
~WELL INFORMATION
#MNEM.UNIT      DATA TYPE    INFORMATION
#----------   ------------   ------------------------------
 STRT.F            4.0000:   START DEPTH
 STOP.F          584.0000:   STOP DEPTH
 STEP.F            0.1000:   STEP LENGTH
 NULL.          -999.2500:   NO VALUE
 COMP.       F D SERV INC:   COMPANY
 WELL. N P R 3 SX-3 #62-3:   WELL
 FLD .             TEAPOT:   FIELD
 LOC .       S3 T38N R78W:   LOCATION
 CNTY.            NATRONA:   COUNTY
 STAT.            WYOMING:   STATE
 CTRY. UNITED STATES OF AMERICA:   COUNTRY
 SRVC.     Atlas Wireline:   SERVICE COMPANY
 DATE.        17-APR-1992:   LOGDATE
 API .       490252251600:   API NUMBER
~CURVE INFORMATION
#MNEM.UNIT       API CODE    CURVE DESCRIPTION
#----------   ------------   ------------------------------
 DEPT.F                  :   
 GRR .GAPI   07 310 01 00:   GAMMA RAY
 RILD.OHMM   07 120 46 00:   INDUCTION LOG DEEP RESISTIVITY
 RILM.OHMM   07 120 44 00:   INDUCTION LOG MEDIUM RESISTIVITY
~PARAMETER INFORMATION
#MNEM.UNIT          VALUE    DESCRIPTION
#----------   ------------   ------------------------------
 PD  .                 GL:   PERMANENT DATUM
 EPD .F              5135:   ELEVATION PERMANENT DATUM
 LMF .                 KB:   LOG MEASURED FROM
 DAPD.F                 5:   FEET ABOVE PERMANENT DATUM
 DMF .                 KB:   DRILLING MEASURED FROM
 EKB .F              5140:   KELLING BUSHING
 EDF .F              5139:   DRILLING FLOOR
 EGL .F              5135:   GROUND LEVEL
 DATE.        17-APR-1992:   RUN DATE
 RUN .                  1:   RUN NUMBER
 DD  .F               589:   DEPTH DRILLER
 DL  .F               590:   DEPTH LOGGER
 BLI .F               584:   BOTTOM LOG INTERVAL
 TLI .F                48:   TOP LOG INTERVAL
 CS  .IN            8.625:   CASING SIZE
 CBD .F                48:   CASING BOTTOM DRILLER
 CBL .F                48:   CASING BOTTOM LOGGER
 BS  .IN            7.875:   BIT SIZE
 BSD .F               589:   BIT SIZE AT DEPTH
 DFT .                AIR:   DRILLING FLUID TYPE
 TCS .HRS               2:   TIME CURCULATED STOPPED
 MRT .F                85:   MAXIMUM RECORDED TEMPERATURE
 LUN .            HL-6274:   LOGGING UNIT NUMBER
 LUL .             CASPER:   LOGGING UNIT LOCATION
 ENGI.             RAUTIO:   RECORDING ENGINEER
 WITN.        GARY STRONG:   WITNESSED BY
 CLNT.            A2DTECH:   CLIENT CODE
 ORIG.           5" PRINT:   ORIGIN OF DATA
 UWI .       490252251600:   UNIQUE WELL ID
 DICO. A2D Technologies, Inc.:   DIGITIZING COMPANY
~OTHER INFORMATION
~A    DEPT      GRR      RILD       RILM   
# ...
  313.4000   137.7104     5.9696     5.6688
  313.5000   137.2042     5.8885     5.5630
  313.6000   136.7221     5.8602     5.4551
  313.7000   136.2280     5.8060     5.3847
  313.8000   135.8620     5.7638     5.3487
  313.9000   135.5421     5.7577     5.2829
  314.0000   135.0640     5.7218     5.2266
  314.1000   134.7762     5.6905     5.1666
  314.2000   134.5688     5.6342     5.1073
  314.3000   134.3210     5.6006     5.0486
  314.4000   133.9787     5.5911     4.9905
  314.5000   133.5612     5.5552     4.9225
  314.6000   133.5600     5.4436     4.9220
  314.7000   133.5589     5.4429     4.9214
  314.8000   134.4214     5.4232     4.9208
  314.9000   135.3026     5.3797     4.9202
  315.0000   135.6732     5.3225     4.9195
  315.1000   135.6764     5.2895     4.9448
  315.2000   135.9218     5.2887     5.0124
  315.3000   136.1671     5.2879     5.1123
  315.4000   136.5512     5.3022     5.2072
  315.5000   136.9603     5.3234     5.2370
  315.6000   137.2055     5.3242     5.3085
  315.7000   137.4800     5.3589     5.3323
  315.8000   136.8279     5.3839     5.3622
  315.9000   136.0872     5.4140     5.4032
  316.0000   134.9273     5.4320     5.4604
  316.1000   133.1516     5.4312     5.4939
  316.2000   131.1201     5.4303     5.4932
  316.3000   130.1622     5.4888     5.4926
  316.4000   129.5413     5.5281     5.5063
  316.5000   128.9200     5.5589     5.5447
  316.6000   128.2502     5.5808     5.6068
  316.7000   127.7562     5.5839     5.6061
  316.8000   127.1792     5.6575     5.6307
  316.9000   127.5886     5.6841     5.6440
  317.0000   128.2297     5.7158     5.6768
  317.1000   129.0612     5.7477     5.7660
  317.2000   130.0457     5.7856     5.8017
  317.3000   131.1067     5.8543     5.8010
  317.4000   132.0152     5.8855     5.8678
  317.5000   133.1716     5.9433     5.9377
  317.6000   134.2877     6.0108     5.9632
  317.7000   135.2130     6.0587     5.9625
  317.8000   135.9514     6.0650     6.0652
  317.9000   136.6901     6.1851     6.1144
  318.0000   137.0408     6.2446     6.1881
  318.1000   137.0110     6.3384     6.2701
  318.2000   136.6820     6.4320     6.3131
  318.3000   136.1877     6.5049     6.4339
  318.4000   135.6319     6.5816     6.4658
  318.5000   134.9833     6.6903     6.5767
  318.6000   134.4026     6.7475     6.6938
  318.7000   133.9084     6.8055     6.7615
  318.8000   133.4617     6.8710     6.7997
  318.9000   133.2054     6.9064     6.7988
  319.0000   133.2042     6.9051     6.7980
  319.1000   133.0212     6.9380     6.7972
  319.2000   133.0250     6.9515     6.8088
  319.3000   133.4099     6.9668     6.8507
  319.4000   134.1622     7.0133     6.9384
  319.5000   135.3160     7.0955     7.0073
  319.6000   135.9275     7.1338     7.0869
  319.7000   136.9620     7.1737     7.1499
  319.8000   138.1011     7.2356     7.1899
  319.9000   139.0860     7.3049     7.2311
  320.0000   140.1512     7.3423     7.3116
  320.1000   140.8292     7.3409     7.3628
  320.2000   141.5674     7.4127     7.4040
  320.3000   142.4198     7.4694     7.4323
  320.4000   143.3466     7.5110     7.4314
  320.5000   144.0826     7.5447     7.4303
  320.6000   144.5746     7.5433     7.4662
  320.7000   145.0663     7.5422     7.5081
  320.8000   145.6945     7.5736     7.5501
  320.9000   146.3525     7.6392     7.5842
  321.0000   146.8682     7.7121     7.5831
  321.1000   147.7021     7.7513     7.6242
  321.2000   148.3449     7.7499     7.6344
  321.3000   148.9247     7.7488     7.6334
  321.4000   149.4165     7.7477     7.6324
  321.5000   149.8618     7.7653     7.6314
  321.6000   150.1167     7.7996     7.6304
  321.7000   149.6421     7.7984     7.6296
  321.8000   149.1477     7.7972     7.6560
  321.9000   148.4041     7.7960     7.6989
  322.0000   147.4171     7.8188     7.7342
  322.1000   146.4297     7.8482     7.7330
  322.2000   145.2682     7.8470     7.7321
  322.3000   144.4554     7.8457     7.7635
  322.4000   143.7620     7.8839     7.7843
  322.5000   143.2678     7.8984     7.7833
  322.6000   142.7735     7.8972     7.7823
  322.7000   142.2365     7.8960     7.7812
  322.8000   141.7851     7.8948     7.7804
  322.9000   141.2909     7.8936     7.7794
  323.0000   140.7968     7.8924     7.7784
  323.1000   140.3594     7.8911     7.7774
  323.2000   140.1111     7.8899     7.7764
  323.3000   139.6166     7.8887     7.7755
  323.4000   139.3138     7.8873     7.7746
  323.5000   139.0661     7.8863     7.7736
  323.6000   138.7392     7.8851     7.7726
  323.7000   138.2682     7.8839     7.7716
  323.8000   137.9871     7.8826     7.7705
  323.9000   137.9860     7.8814     7.7697
  324.0000   137.9849     7.8802     7.7687
  324.1000   137.8824     7.8790     7.7677
  324.2000   137.6801     7.8778     7.7667
  324.3000   137.9812     7.8766     7.7657
  324.4000   138.2156     7.8754     7.7648
  324.5000   138.8200     7.8740     7.7638
  324.6000   139.4348     7.8729     7.7413
  324.7000   139.9265     7.8717     7.6848
  324.8000   140.4071     7.8706     7.5999
  324.9000   140.6969     7.8693     7.5987
  325.0000   141.0994     7.8681     7.5626
  325.1000   141.4455     7.8221     7.5441
  325.2000   141.5117     7.8109     7.5116
  325.3000   141.2639     7.8097     7.4313
  325.4000   140.9935     7.8085     7.3847
  325.5000   140.7685     7.8074     7.3839
  325.6000   140.6887     7.8060     7.3829
  325.7000   140.5757     7.8049     7.3820
  325.8000   140.3836     7.8037     7.3811
  325.9000   140.3825     7.8025     7.3802
  326.0000   140.6273     7.8013     7.3790
  326.1000   140.6826     7.8001     7.3783
  326.2000   140.9492     7.7989     7.4019
  326.3000   141.3632     7.7977     7.4434
  326.4000   141.6301     7.7965     7.4850
  326.5000   142.1905     7.7953     7.5307
  326.6000   142.6138     7.7942     7.5299
  326.7000   142.9494     7.7928     7.5289
  326.8000   143.0947     7.7917     7.5479
  326.9000   143.1813     7.7905     7.5798
  327.0000   143.6974     7.7893     7.5789
  327.1000   143.4619     7.7881     7.5779
  327.2000   143.0358     7.7870     7.5769
  327.3000   142.4194     7.7858     7.5760
  327.4000   141.6128     7.7845     7.5751
  327.5000   140.6556     7.7833     7.5741
  327.6000   140.3617     7.7822     7.5730
  327.7000   139.9597     7.7809     7.5722
  327.8000   139.6099     7.7796     7.5712
  327.9000   139.5388     7.7786     7.5703
  328.0000   139.7842     7.7774     7.5693
  328.1000   140.0531     7.7762     7.5684
  328.2000   140.2748     7.7750     7.5674
  328.3000   140.5200     7.7738     7.5665
  328.4000   141.0967     7.7725     7.5656
  328.5000   142.0818     7.7714     7.5646
  328.6000   143.0729     7.7702     7.5636
  328.7000   143.8065     7.7690     7.5626
  328.8000   144.7338     7.7678     7.5617
  328.9000   145.4529     7.7665     7.5607
  329.0000   145.9446     7.7655     7.5598
  329.1000   146.4158     7.7643     7.5589
  329.2000   146.6964     7.7630     7.5579
  329.3000   146.9064     7.7618     7.6000
  329.4000   146.6867     7.7607     7.6426
  329.5000   146.0937     7.7592     7.6854
  329.6000   145.3957     7.7583     7.7142
  329.7000   144.8750     7.7313     7.7132
  329.8000   144.4072     7.6860     7.7121
  329.9000   144.0903     7.6470     7.7112
  330.0000   143.7216     7.6458     7.6816
  330.1000   143.2923     7.6447     7.6183
  330.2000   143.0447     7.6132     7.5396
  330.3000   142.7495     7.5686     7.4949
  330.4000   142.7485     7.5134     7.4105
  330.5000   142.7473     7.4280     7.3571
  330.6000   142.8334     7.3763     7.3143
  330.7000   143.0786     7.3413     7.2461
  330.8000   143.3487     7.2739     7.1255
  330.9000   143.5692     7.2051     7.0326
  331.0000   143.8145     7.1629     6.9288
  331.1000   144.0598     7.1177     6.8103
  331.2000   144.3050     7.0419     6.7254
  331.3000   144.5531     6.9887     6.6716
  331.4000   144.7956     6.9099     6.5539
  331.5000   144.8533     6.7812     6.4810
