~VERSION INFORMATION
 VERS.                2.0:   CWLS LOG ASCII STANDARD - VERSION 2.0
 WRAP.                 NO:   ONE LINE PER DEPTH STEP
~WELL INFORMATION
#MNEM.UNIT      DATA TYPE    INFORMATION
#----------   ------------   ------------------------------
 STRT.F           43.0000:   START DEPTH
 STOP.F          620.0000:   STOP DEPTH
 STEP.F            0.5000:   STEP LENGTH
 NULL.          -999.2500:   NO VALUE
 COMP. FENIX & SCISSON INC:   COMPANY
 WELL.      16 SX 2 #16-2:   WELL
 FLD .             TEAPOT:   FIELD
 LOC .       S2 T38N R78W:   LOCATION
 CNTY.            NATRONA:   COUNTY
 STAT.            WYOMING:   STATE
 CTRY. UNITED STATES OF AMERICA:   COUNTRY
 SRVC.            Unknown:   SERVICE COMPANY
 DATE.        11-OCT-1978:   LOGDATE
 API .       490251071400:   API NUMBER
~CURVE INFORMATION
#MNEM.UNIT       API CODE    CURVE DESCRIPTION
#----------   ------------   ------------------------------
 DEPT.F                  :   
 SPR .MV     05 010 01 00:   SPONTANEOUS POTENTIAL FROM RES.
 SN  .OHMM   05 040 16 00:   SHORT NORMAL 16"
 ILD .OHMM   05 120 46 00:   INDUCTION LOG DEEP
 CALD.IN     45 280 60 00:   CALIPER
 GRD .GAPI   45 310 01 00:   GAMMA RAY FROM DENSITY LOG
 DPHI.DEC    45 890 12 00:   DENSITY POROSITY SANDSTONE
 RHOB.G/C3   45 350 01 00:   BULK DENSITY
 DRHO.G/C3   45 356 01 00:   DENSITY CORRECTION
~PARAMETER INFORMATION
#MNEM.UNIT          VALUE    DESCRIPTION
#----------   ------------   ------------------------------
 PD  .                 GL:   PERMANENT DATUM
 EPD .F              5135:   ELEVATION PERMANENT DATUM
 LMF .                 KB:   LOG MEASURED FROM
 DAPD.F                 4:   FEET ABOVE PERMANENT DATUM
 DMF .                 KB:   DRILLING MEASURED FROM
 EKB .F              5139:   KELLING BUSHING
 EGL .F              5135:   GROUND LEVEL
 DATE.           10-11-78:   RUN DATE
 RUN .                  1:   RUN NUMBER
 DD  .F               620:   DEPTH DRILLER
 DL  .F               620:   DEPTH LOGGER
 BLI .F               614:   BOTTOM LOG INTERVAL
 TLI .F                40:   TOP LOG INTERVAL
 CS  .IN            8.625:   CASING SIZE
 CBD .F                40:   CASING BOTTOM DRILLER
 CBL .F                40:   CASING BOTTOM LOGGER
 BS  .IN            7.875:   BIT SIZE
 BSD .F               620:   BIT SIZE AT DEPTH
 DFT .                KCL:   DRILLING FLUID TYPE
 RMS .OHMM            .16:   RESISTIVITY MUD SAMPLE
 MST .F                66:   MUD SAMPLE TEMPERATURE
 RMF .OHMM            .16:   RESISTIVITY MUD FILTRATE SAMPLE
 MFST.F                70:   MUD FILTRATE SAMPLE TEMPERATURE
 RMC .OHMM             .2:   RESISTIVITY MUD CAKE
 MCST.F                71:   MUD CAKE SAMPLE TEMPERATURE
 TCS .HRS               1:   TIME CURCULATED STOPPED
 MRT .F                70:   MAXIMUM RECORDED TEMPERATURE
 LUN .               2958:   LOGGING UNIT NUMBER
 LUL .               CASP:   LOGGING UNIT LOCATION
 ENGI.             MILLER:   RECORDING ENGINEER
 WITN.              AMEND:   WITNESSED BY
 CLNT.            A2DTECH:   CLIENT CODE
 ORIG.           5" PRINT:   ORIGIN OF DATA
 UWI .       490251071400:   UNIQUE WELL ID
 DICO. A2D Technologies, Inc.:   DIGITIZING COMPANY
~OTHER INFORMATION
~A   DEPT      SPR         SN        ILD       CALD         GRD      DPHI       RHOB       DRHO   
# ...
  326.5000   -50.4982     6.4661     7.1205     7.7910   110.9585     0.1143     2.4961     0.0160
  327.0000   -50.4980     6.3419     7.0503     7.7892   112.4221     0.1132     2.4977     0.0143
  327.5000   -50.4980     6.2201     6.9797     7.7873   115.4104     0.1121     2.4993     0.0127
  328.0000   -50.4980     6.1007     6.8655     7.7854   118.4336     0.1126     2.5007     0.0111
  328.5000   -50.4980     5.9835     6.5970     7.7835   121.5294     0.1171     2.4934     0.0095
  329.0000   -50.4980     5.8686     6.3415     7.7816   122.2735     0.1246     2.4813     0.0097
  329.5000   -50.4980     5.7558     6.0954     7.7796   124.3627     0.1322     2.4693     0.0134
  330.0000   -50.4980     5.6453     5.8590     7.7886   126.8630     0.1397     2.4573     0.0170
  330.5000   -50.4983     5.5369     5.6318     7.8052   126.6373     0.1472     2.4452     0.0206
  331.0000   -50.4986     5.5013     5.4134     7.8220   126.0635     0.1548     2.4336     0.0242
  331.5000   -50.4962     5.5523     5.3022     7.8388   126.0676     0.1446     2.4434     0.0243
  332.0000   -50.3555     5.7042     5.3022     7.8557   127.8216     0.1342     2.4604     0.0189
  332.5000   -49.9374     5.8488     5.3513     7.8586   127.7516     0.1239     2.4774     0.0136
  333.0000   -49.5239     5.9971     5.3506     7.8586   124.8185     0.1098     2.4942     0.0106
  333.5000   -49.1097     6.1492     5.7955     7.8586   125.3973     0.1125     2.5009     0.0090
  334.0000   -48.6966     6.3051     6.4283     7.8586   127.3931     0.1169     2.4934     0.0097
  334.5000   -48.2806     6.4650     7.1215     7.8587   131.3334     0.1201     2.4860     0.0104
  335.0000   -48.0521     6.6290     8.0285     7.8612   135.1669     0.1157     2.4899     0.0111
  335.5000   -47.9495     6.7971     8.0175     7.8637   139.8740     0.1123     2.4970     0.0118
  336.0000   -47.8497     6.9694     8.0034     7.8662   135.2794     0.1088     2.5043     0.0125
  336.5000   -47.7491     7.1217     7.9874     7.8687   131.8690     0.1053     2.5109     0.0125
  337.0000   -47.7098     7.1055     7.9721     7.8713   132.5800     0.1058     2.5090     0.0125
  337.5000   -47.7091     7.0914     7.9570     7.8738   133.2856     0.1084     2.5061     0.0125
  338.0000   -47.7091     7.0772     7.9420     7.8763   133.5322     0.1109     2.5031     0.0124
  338.5000   -47.7092     7.0631     7.9270     7.8779   133.7505     0.1121     2.5002     0.0126
  339.0000   -47.7092     7.0491     7.9120     7.8726   133.9709     0.1094     2.5054     0.0216
  339.5000   -47.7092     7.0350     7.8970     7.8672   134.4242     0.1065     2.5114     0.0316
  340.0000   -47.7092     7.0210     7.8821     7.8618   135.5546     0.1035     2.5176     0.0385
  340.5000   -47.7091     7.0070     7.8672     7.8565   140.7576     0.1010     2.5188     0.0384
  341.0000   -47.7087     6.9931     7.8523     7.8512   146.3507     0.1009     2.5179     0.0384
  341.5000   -47.7271     6.9791     7.8375     7.8458   153.1523     0.1007     2.5170     0.0384
  342.0000   -47.7489     6.9652     7.8226     7.8405   147.3203     0.1015     2.5161     0.0384
  342.5000   -47.7706     6.9513     7.8078     7.8351   137.0087     0.1031     2.5152     0.0382
  343.0000   -47.7924     6.9375     7.7931     7.8298   126.7163     0.1046     2.5143     0.0473
  343.5000   -47.8141     6.9236     7.7783     7.8245   119.6298     0.1050     2.5161     0.0587
  344.0000   -47.8359     6.9099     7.7636     7.8191   117.6088     0.1035     2.5216     0.0702
  344.5000   -47.8575     6.8962     7.7490     7.8138   116.4444     0.0998     2.5271     0.0716
  345.0000   -47.8797     6.8828     7.7235     7.8085   115.8925     0.0961     2.5326     0.0564
  345.5000   -47.8990     6.8686     7.6668     7.8031   115.6983     0.0923     2.5377     0.0414
  346.0000   -48.0490     6.7668     7.2777     7.7978   115.6492     0.0956     2.5382     0.0266
  346.5000   -48.2550     6.6198     6.9240     7.7924   118.4597     0.1081     2.5225     0.0116
  347.0000   -48.4636     6.4759     6.5876     7.7871   126.9803     0.1206     2.4989     0.0065
  347.5000   -48.6729     6.3352     6.2675     7.7815   123.6474     0.1331     2.4750     0.0103
  348.0000   -48.8802     6.1976     5.9630     7.7650   118.2050     0.1456     2.4511     0.0160
  348.5000   -48.9050     6.0629     5.7609     7.7348   116.5419     0.1572     2.4296     0.0219
  349.0000   -48.9048     5.9312     5.6556     7.7049   123.7916     0.1473     2.4313     0.0165
  349.5000   -48.9044     5.8142     5.6037     7.6748   128.7206     0.1360     2.4577     0.0107
  350.0000   -48.9044     5.8205     5.6396     7.6448   133.5230     0.1247     2.4762     0.0134
  350.5000   -48.9044     5.8263     5.6799     7.6147   138.3931     0.1134     2.4947     0.0162
  351.0000   -48.9044     5.8320     5.7080     7.6013   143.1146     0.1076     2.5048     0.0189
  351.5000   -48.9045     5.8377     5.6905     7.6048   145.2993     0.1073     2.5065     0.0217
  352.0000   -48.9044     5.8435     5.6659     7.6081   133.6500     0.1071     2.5082     0.0206
  352.5000   -48.9047     5.8492     5.6413     7.6116   125.6009     0.1087     2.5098     0.0180
  353.0000   -48.8143     5.8550     5.6169     7.6150   121.1165     0.1088     2.5115     0.0154
  353.5000   -48.6420     5.8607     5.5926     7.6183   118.0777     0.1055     2.5096     0.0128
  354.0000   -48.4697     5.8663     5.5684     7.6301   115.1216     0.1021     2.5063     0.0105
  354.5000   -48.2972     5.9220     5.5523     7.6450   105.0905     0.1139     2.5045     0.0108
  355.0000   -48.1245     5.9966     5.6376     7.6617    95.4217     0.1093     2.5100     0.0110
  355.5000   -47.9464     6.0722     5.8864     7.7129    90.1234     0.1055     2.5154     0.0113
  356.0000   -47.9085     6.1486     6.1463     7.7586   100.3403     0.1018     2.5144     0.0116
  356.5000   -47.9079     6.2260     6.4176     7.7643   109.3529     0.1030     2.5127     0.0118
  357.0000   -47.9083     6.3044     6.7009     7.7688   118.3600     0.1048     2.5109     0.0121
  357.5000   -47.9084     6.3837     6.9961     7.7735   128.9993     0.1065     2.5092     0.0124
  358.0000   -47.9084     6.4348     7.2585     7.7783   140.9473     0.1076     2.5080     0.0126
  358.5000   -47.9084     6.4011     7.2582     7.7830   152.1063     0.1056     2.5084     0.0129
  359.0000   -47.9084     6.3758     6.8563     7.7877   152.6810     0.1038     2.5087     0.0132
  359.5000   -47.9084     6.2784     6.5791     7.7924   140.0752     0.1108     2.5074     0.0134
  360.0000   -47.9084     6.1794     6.3130     7.7974   120.9266     0.1218     2.4926     0.0137
  360.5000   -47.9084     6.0821     6.0577     7.7914   115.6281     0.1328     2.4776     0.0140
  361.0000   -47.9084     5.9863     5.8128     7.7805   116.5286     0.1437     2.4626     0.0142
  361.5000   -47.9084     5.8920     5.5777     7.7694   118.6092     0.1492     2.4476     0.0142
  362.0000   -47.9084     5.7989     5.3001     7.7584   121.0584     0.1465     2.4418     0.0122
  362.5000   -47.9084     5.7080     5.3025     7.7474   123.2777     0.1418     2.4568     0.0101
  363.0000   -47.9084     5.7080     5.3029     7.7389   122.3486     0.1332     2.4720     0.0080
  363.5000   -47.9085     5.7516     5.2992     7.7390   121.7510     0.1246     2.4872     0.0059
  364.0000   -47.9098     5.9670     5.8521     7.7390   122.6468     0.1159     2.5024     0.0038
  364.5000   -47.9192     6.1902     6.2775     7.7390   121.9577     0.1073     2.5137     0.0017
  365.0000   -47.5006     6.4221     6.7338     7.7390   119.1477     0.1049     2.5097    -0.0004
  365.5000   -47.0010     6.6625     7.2233     7.7390   118.4072     0.1088     2.5058    -0.0025
  366.0000   -46.4998     6.9120     7.7484     7.7390   119.4591     0.1126     2.5020    -0.0028
  366.5000   -46.0018     7.1707     8.1779     7.7390   122.8343     0.1136     2.5029    -0.0010
