~VERSION INFORMATION
 VERS.                2.0:   CWLS LOG ASCII STANDARD - VERSION 2.0
 WRAP.                 NO:   ONE LINE PER DEPTH STEP
~WELL INFORMATION
#MNEM.UNIT      DATA TYPE    INFORMATION
#----------   ------------   ------------------------------
 STRT.F            0.0000:   START DEPTH
 STOP.F          547.0000:   STOP DEPTH
 STEP.F            0.1000:   STEP LENGTH
 NULL.          -999.2500:   NO VALUE
 COMP.     BROWN JOHN E&C:   COMPANY
 WELL.    NPR 3 #86-1-X-3:   WELL
 FLD .             TEAPOT:   FIELD
 LOC .       S3 T38N R78W:   LOCATION
 CNTY.            NATRONA:   COUNTY
 STAT.            WYOMING:   STATE
 CTRY. UNITED STATES OF AMERICA:   COUNTRY
 SRVC.     Atlas Wireline:   SERVICE COMPANY
 DATE.        09-FEB-1992:   LOGDATE
 API .       490252249800:   API NUMBER
~CURVE INFORMATION
#MNEM.UNIT       API CODE    CURVE DESCRIPTION
#----------   ------------   ------------------------------
 DEPT.F                  :   
 GRR .GAPI   07 310 01 00:   GAMMA RAY
 RFOC.OHMM   07 220 04 00:   RESISTIVITY FOCUSED LOG
 RILD.OHMM   07 120 46 00:   INDUCTION LOG DEEP RESISTIVITY
 RILM.OHMM   07 120 44 00:   INDUCTION LOG MEDIUM RESISTIVITY
 SPR .MV     07 010 01 00:   SPONTANEOUS POTENTIAL
~PARAMETER INFORMATION
#MNEM.UNIT          VALUE    DESCRIPTION
#----------   ------------   ------------------------------
 PD  .                 GL:   PERMANENT DATUM
 EPD .F              5145:   ELEVATION PERMANENT DATUM
 LMF .                 KB:   LOG MEASURED FROM
 DAPD.F                10:   FEET ABOVE PERMANENT DATUM
 DMF .                 KB:   DRILLING MEASURED FROM
 EKB .F              5155:   KELLING BUSHING
 EDF .F              5154:   DRILLING FLOOR
 EGL .F              5145:   GROUND LEVEL
 DATE.        09-FEB-1992:   RUN DATE
 RUN .                  1:   RUN NUMBER
 DD  .F               562:   DEPTH DRILLER
 DL  .F               550:   DEPTH LOGGER
 BLI .F               547:   BOTTOM LOG INTERVAL
 CS  .IN            8.625:   CASING SIZE
 CBD .F               183:   CASING BOTTOM DRILLER
 CBL .F               181:   CASING BOTTOM LOGGER
 BS  .IN            7.875:   BIT SIZE
 BSD .F               562:   BIT SIZE AT DEPTH
 DFT .            GEL BAR:   DRILLING FLUID TYPE
 DFD .               17.8:   DRILLING FLUID DENSITY
 DFV .                 52:   DRILLING FLUID VISCOSITY
 DFPH.                  9:   DRILLING FLUID PH
 DFL .                5.2:   DRILLING FLUID LOSS
 MSS .           FLOWLINE:   MUD SAMPLE SOURCE
 RMS .OHMM           1.78:   RESISTIVITY MUD SAMPLE
 MST .F                68:   MUD SAMPLE TEMPERATURE
 RMF .OHMM          1.335:   RESISTIVITY MUD FILTRATE SAMPLE
 MFST.F                68:   MUD FILTRATE SAMPLE TEMPERATURE
 RMC .OHMM          2.225:   RESISTIVITY MUD CAKE
 MCST.F                68:   MUD CAKE SAMPLE TEMPERATURE
 MFSS.               MEAS:   MUD FILTRATE SAMPLE SOURCE
 MCSS.               MEAS:   MUD CAKE SAMPLE SOURCE
 TCS .HRS               3:   TIME CURCULATED STOPPED
 LUN .            HL 6274:   LOGGING UNIT NUMBER
 LUL .             CASPER:   LOGGING UNIT LOCATION
 ENGI.       P. RASMUSSEN:   RECORDING ENGINEER
 WITN.          G. STRONG:   WITNESSED BY
 CLNT.            A2DTECH:   CLIENT CODE
 ORIG.           5" PRINT:   ORIGIN OF DATA
 UWI .       490252249800:   UNIQUE WELL ID
 DICO. A2D Technologies, Inc.:   DIGITIZING COMPANY
~OTHER INFORMATION
~A    DEPT      GRR      RFOC       RILD       RILM        SPR   
# ...
  390.4000    67.8509    15.6143    19.7758    17.1999   -37.9512
  390.5000    68.3688    15.6136    19.7752    17.1644   -37.9517
  390.6000    69.2636    15.6130    19.7374    17.0794   -37.9523
  390.7000    69.5269    15.5942    19.6366    17.0789   -37.9529
  390.8000    70.0045    15.5029    19.6360    16.9847   -37.9535
  390.9000    70.3189    15.5023    19.6355    16.9592   -37.9541
  391.0000    70.5694    15.5741    19.6350    16.9587   -37.9548
  391.1000    70.8198    15.5553    19.6344    16.8912   -37.9554
  391.2000    71.0350    15.5003    19.6339    16.7228   -37.9560
  391.3000    71.0321    15.4997    19.6333    16.7223   -38.0232
  391.4000    71.0298    15.4990    19.6327    16.7219   -38.1496
  391.5000    71.0274    15.4983    19.6322    16.7214   -38.2594
  391.6000    71.0249    15.4977    19.6317    16.7209   -38.2601
  391.7000    71.0225    15.4431    19.6311    16.7205   -38.2606
  391.8000    71.0201    15.3885    19.6306    16.7200   -38.2612
  391.9000    71.0175    15.3879    19.6300    16.7195   -38.2618
  392.0000    71.0152    15.3872    19.6294    16.7191   -38.2624
  392.1000    71.0128    15.2793    19.6289    16.7186   -38.2802
  392.2000    71.0103    15.2079    19.6284    16.7693   -38.4145
  392.3000    71.0898    15.1718    19.6278    16.8347   -38.4151
  392.4000    71.3402    15.1711    19.6273    16.8462   -38.5086
  392.5000    71.6107    15.1529    19.6267    16.9516   -38.5671
  392.6000    71.8411    15.0642    19.6262    16.9512   -38.5677
  392.7000    72.2732    15.0636    19.6256    16.9507   -38.5861
  392.8000    72.5155    15.0630    19.6251    17.0012   -38.7198
  392.9000    72.5925    15.0623    19.6245    17.0684   -38.8389
  393.0000    72.8149    15.0969    19.6240    17.0791   -38.8718
  393.1000    72.8119    15.1668    19.6235    17.1869   -38.8724
  393.2000    73.0399    15.1660    19.6229    17.1865   -38.8730
  393.3000    73.1112    15.2540    19.5147    17.1860   -38.8736
  393.4000    72.9808    15.3425    19.4010    17.2873   -38.8742
  393.5000    72.8024    15.3776    19.3493    17.4266   -38.9940
  393.6000    72.8000    15.4129    19.3488    17.4261   -39.0262
  393.7000    72.7973    15.4841    19.3483    17.4255   -38.9578
  393.8000    72.3396    15.4834    19.3477    17.4251   -38.8766
  393.9000    72.0081    15.5733    19.3472    17.4246   -38.8772
  394.0000    71.7528    15.5907    19.3466    17.4241   -38.8779
  394.1000    71.5720    15.6447    19.2841    17.4236   -38.8784
  394.2000    71.5226    15.7354    19.2111    17.4138   -38.6896
  394.3000    70.9590    15.8082    19.2105    17.3015   -38.5780
  394.4000    70.7315    15.8075    19.2100    17.3011   -38.5339
  394.5000    70.6505    15.8067    19.2094    17.2316   -38.4087
  394.6000    70.5249    15.8062    19.1247    17.1798   -38.2782
  394.7000    70.2695    15.8055    19.0748    17.1793   -38.0380
  394.8000    69.9932    15.8048    19.0743    17.1788   -37.8823
  394.9000    69.4246    15.7858    19.0737    17.1783   -37.7572
  395.0000    69.1996    15.6935    19.0732    17.1779   -37.6320
  395.1000    68.7724    15.5834    19.0727    17.1099   -37.5068
  395.2000    68.3850    15.5829    19.0722    17.0575   -37.3768
  395.3000    68.1297    15.5280    19.0716    17.0570   -37.2564
  395.4000    67.8743    15.4371    19.0310    17.0493   -37.1312
  395.5000    67.5863    15.3647    18.9380    16.9374   -37.0769
  395.6000    67.5842    15.3640    18.9374    16.9370   -37.0775
  395.7000    67.7512    15.2742    18.8309    16.9365   -37.0573
  395.8000    67.8833    15.1849    18.8047    16.9360   -36.9279
  395.9000    68.0155    15.1489    18.8042    16.9356   -36.9285
  396.0000    68.5187    15.1131    18.7636    16.9288   -36.8326
  396.1000    69.0915    15.0247    18.6541    16.8168   -36.7789
  396.2000    69.1041    14.9367    18.5420    16.9009   -36.7795
  396.3000    69.4004    14.9361    18.5415    16.9337   -36.7801
  396.4000    69.9198    14.9355    18.5410    16.9332   -36.7807
  396.5000    70.4103    14.9349    18.4180    16.9327   -36.9035
  396.6000    70.9153    14.9342    18.2830    16.9323   -37.0299
  396.7000    71.4202    14.9336    18.2825    16.9317   -37.0842
  396.8000    71.9252    14.9330    18.2820    16.9313   -37.0848
  396.9000    72.3862    14.9322    18.2815    16.9950   -37.0854
  397.0000    72.6456    14.9317    18.2810    17.0489   -37.0860
  397.1000    72.8929    14.9311    18.2805    17.0729   -37.0866
  397.2000    73.3417    14.9305    18.2800    17.1673   -36.9894
  397.3000    73.7013    14.9299    18.2795    17.1668   -36.8643
  397.4000    73.9548    14.9292    18.2789    17.3356   -36.7391
  397.5000    74.2082    14.9285    18.2784    17.4071   -36.6139
  397.6000    74.4664    14.9280    18.2779    17.4512   -36.4863
  397.7000    74.7149    14.9274    18.2774    17.5522   -36.4869
  397.8000    74.5750    14.9267    18.3177    17.6503   -36.3891
  397.9000    74.3252    14.9261    18.4240    17.6497   -36.2640
  398.0000    73.9789    14.9255    18.5327    17.8213   -36.1388
  398.1000    73.4774    14.9247    18.5322    17.8968   -36.0136
  398.2000    72.9690    14.9940    18.5317    17.9411   -35.8866
  398.3000    72.4749    15.0809    18.5946    18.0450   -35.7632
  398.4000    71.9735    15.1330    18.7025    18.1522   -35.6380
  398.5000    71.6199    15.1679    18.7906    18.4012   -35.5128
  398.6000    71.3701    15.3447    18.7900    18.4891   -35.3876
  398.7000    71.1203    15.4337    18.8980    18.5962   -35.2862
  398.8000    70.8682    15.5960    19.0078    18.7039   -35.2869
  398.9000    70.6208    15.7781    19.1844    18.8363   -35.1629
  399.0000    70.5701    15.9999    19.4083    19.0537   -35.0377
  399.1000    70.5719    16.3592    19.6349    19.1847   -34.9870
  399.2000    70.5738    17.0362    19.8654    19.3669   -34.9382
  399.3000    70.5267    18.4944    20.0962    19.7338   -34.8130
  399.4000    70.2757    19.5985    20.2369    20.0993   -34.6872
  399.5000    70.0272    20.5793    20.4969    20.3833   -34.6878
  399.6000    69.7774    21.3534    20.8086    20.8597   -34.6884
  399.7000    69.5276    21.8550    21.0515    21.2979   -34.6890
  399.8000    69.1777    22.3679    21.2974    21.5990   -34.6896
  399.9000    68.5762    22.6816    21.6720    21.9006   -34.6902
  400.0000    67.5716    23.0011    22.0534    22.2078   -34.6908
  400.1000    66.3672    23.3233    22.3623    22.5969   -34.6915
  400.2000    64.7565    23.5955    22.6234    22.9939   -34.6920
  400.3000    63.0485    23.8989    22.9149    23.2612   -34.7683
  400.4000    61.7436    24.3184    23.3170    23.5324   -34.8440
  400.5000    60.5339    24.6594    23.8081    23.8066   -34.8446
  400.6000    58.5255    24.8899    24.0319    24.0839   -34.8459
  400.7000    56.7249    25.1805    24.3126    24.3642   -34.9968
  400.8000    55.9155    25.4147    24.5965    24.6514   -34.9973
  400.9000    55.2163    25.6223    24.9140    24.9353   -34.9216
  401.0000    54.9201    26.0720    25.3513    25.1108   -34.8477
  401.1000    54.9219    26.4376    25.8831    25.2563   -34.8220
  401.2000    54.9285    26.8101    26.0047    25.4593   -34.6980
  401.3000    55.5292    27.2816    26.1558    25.7557   -34.6988
  401.4000    56.1424    27.6957    26.3711    26.0622   -34.6992
  401.5000    57.2067    28.0188    26.6789    26.0615   -34.6229
  401.6000    58.4665    28.3455    26.9860    26.2971   -34.4978
  401.7000    59.6188    28.6767    26.9851    26.5146   -34.3994
  401.8000    60.3790    29.1480    26.9845    26.6106   -34.3982
  401.9000    61.5732    29.6605    26.9838    26.6098   -34.2499
  402.0000    61.9849    30.0403    26.9180    26.6091   -34.1478
  402.1000    62.4899    30.2500    26.7610    26.6083   -34.1002
  402.2000    62.9949    30.6026    26.6022    26.4897   -34.0483
  402.3000    63.3900    31.0318    26.2380    26.4219   -33.9231
  402.4000    63.3967    31.1758    25.9892    26.3108   -33.8003
  402.5000    63.6956    31.4668    25.6878    25.9586   -33.8010
