~VERSION INFORMATION
 VERS.                2.0:   CWLS LOG ASCII STANDARD - VERSION 2.0
 WRAP.                 NO:   ONE LINE PER DEPTH STEP
~WELL INFORMATION
#MNEM.UNIT      DATA TYPE    INFORMATION
#----------   ------------   ------------------------------
 STRT.F           30.0000:   START DEPTH
 STOP.F         2441.0000:   STOP DEPTH
 STEP.F            0.5000:   STEP LENGTH
 NULL.          -999.2500:   NO VALUE
 COMP. FENIX & SCISSON INC:   COMPANY
 WELL.      NPR 3 #81 S-4:   WELL
 FLD .             TEAPOT:   FIELD
 LOC .       S4 T38N R78W:   LOCATION
 CNTY.            NATRONA:   COUNTY
 STAT.            WYOMING:   STATE
 CTRY. UNITED STATES OF AMERICA:   COUNTRY
 SRVC.            Unknown:   SERVICE COMPANY
 DATE.        28-MAR-1978:   LOGDATE
 API .       490251060700:   API NUMBER
~CURVE INFORMATION
#MNEM.UNIT       API CODE    CURVE DESCRIPTION
#----------   ------------   ------------------------------
 DEPT.F                  :   
 CALD.IN     45 280 60 00:   CALIPER
 RHOB.G/C3   45 350 01 00:   BULK DENSITY
 DPHI.DEC    45 890 12 00:   DENSITY POROSITY SANDSTONE
 CORR.G/C3   45 356 01 00:   DENSITY CORRECTION
 GRD .GAPI   45 310 01 00:   GAMMA RAY FROM DENSITY LOG
~PARAMETER INFORMATION
#MNEM.UNIT          VALUE    DESCRIPTION
#----------   ------------   ------------------------------
 PD  .                 GL:   PERMANENT DATUM
 EPD .F              5169:   ELEVATION PERMANENT DATUM
 LMF .                 KB:   LOG MEASURED FROM
 DAPD.F                10:   FEET ABOVE PERMANENT DATUM
 DMF .                 KB:   DRILLING MEASURED FROM
 EKB .F              5179:   KELLING BUSHING
 EGL .F              5169:   GROUND LEVEL
 DATE.          3-28-1978:   RUN DATE
 RUN .                  1:   RUN NUMBER
 DD  .F              2454:   DEPTH DRILLER
 DL  .F              2443:   DEPTH LOGGER
 BLI .F              2441:   BOTTOM LOG INTERVAL
 TLI .F                40:   TOP LOG INTERVAL
 CS  .IN            9.625:   CASING SIZE
 CBD .F               660:   CASING BOTTOM DRILLER
 CBL .F               660:   CASING BOTTOM LOGGER
 BS  .IN             8.75:   BIT SIZE
 BSD .F              2454:   BIT SIZE AT DEPTH
 DFT .           AIR MIST:   DRILLING FLUID TYPE
 TCS .HRS               2:   TIME CURCULATED STOPPED
 LUN .               2958:   LOGGING UNIT NUMBER
 LUL .               CASP:   LOGGING UNIT LOCATION
 ENGI.             MILLER:   RECORDING ENGINEER
 CLNT.            A2DTECH:   CLIENT CODE
 ORIG.       2"  5" PRINT:   ORIGIN OF DATA
 UWI .       490251060700:   UNIQUE WELL ID
 DICO. A2D Technologies, Inc.:   DIGITIZING COMPANY
~OTHER INFORMATION
~A   DEPT     CALD       RHOB       DPHI       CORR        GRD   
# ...
 1250.0000    10.3315     2.5653     0.0495     0.0599   143.7932
 1250.5000    10.3315     2.5496     0.0646     0.0906   147.5139
 1251.0000    10.3315     2.5206     0.0948     0.0971   149.4689
 1251.5000    10.3336     2.4907     0.1037     0.0481   150.8231
 1252.0000    10.3401     2.4863     0.1013     0.0357   149.9260
 1252.5000    10.3466     2.4853     0.0994     0.0329   148.3244
 1253.0000    10.3531     2.4891     0.1009     0.0316   147.4967
 1253.5000    10.3596     2.4908     0.1017     0.0303   146.6121
 1254.0000    10.3660     2.4857     0.0999     0.0236   145.7232
 1254.5000    10.3709     2.4818     0.1058     0.0208   145.3360
 1255.0000    10.3688     2.4826     0.1058     0.0192   149.0526
 1255.5000    10.3668     2.4847     0.1031     0.0179   152.6407
 1256.0000    10.3648     2.4918     0.1003     0.0209   153.0565
 1256.5000    10.3629     2.4931     0.0994     0.0247   152.8097
 1257.0000    10.3609     2.4908     0.1014     0.0285   152.5791
 1257.5000    10.3589     2.4888     0.1012     0.0288   152.3445
 1258.0000    10.3570     2.4993     0.0968     0.0271   153.7561
 1258.5000    10.3550     2.5050     0.0939     0.0254   154.8436
 1259.0000    10.3531     2.5022     0.0961     0.0237   151.8930
 1259.5000    10.3502     2.4995     0.0982     0.0219   148.9405
 1260.0000    10.3415     2.4969     0.0990     0.0202   146.2469
 1260.5000    10.3328     2.4963     0.0961     0.0200   145.6410
 1261.0000    10.3241     2.5007     0.0946     0.0200   144.9779
 1261.5000    10.3153     2.5018     0.0973     0.0199   144.3070
 1262.0000    10.3117     2.5080     0.0866     0.0238   143.6567
 1262.5000    10.3117     2.5134     0.0866     0.0292   144.0906
 1263.0000    10.3117     2.5011     0.0946     0.0299   145.6593
 1263.5000    10.3117     2.4795     0.1054     0.0262   148.3844
 1264.0000    10.3117     2.4946     0.0918     0.0321   151.1351
 1264.5000    10.3117     2.5045     0.0980     0.0364   151.4898
 1265.0000    10.3117     2.4833     0.1042     0.0265   148.4193
 1265.5000    10.3117     2.4778     0.1071     0.0164   146.4381
 1266.0000    10.3117     2.4683     0.1094     0.0163   146.6386
 1266.5000    10.3114     2.4718     0.1094     0.0190   147.1070
 1267.0000    10.3062     2.4727     0.1086     0.0217   146.7178
 1267.5000    10.3012     2.4835     0.1040     0.0257   146.4226
 1268.0000    10.2962     2.4997     0.0971     0.0360   148.6847
 1268.5000    10.2911     2.5102     0.0863     0.0401   151.1817
 1269.0000    10.2861     2.5129     0.0908     0.0428   153.6790
 1269.5000    10.2811     2.5014     0.0986     0.0403   156.1831
 1270.0000    10.2761     2.4920     0.0983     0.0312   156.5798
 1270.5000    10.2711     2.4916     0.1022     0.0271   147.4899
 1271.0000    10.2661     2.4990     0.1008     0.0247   143.3065
 1271.5000    10.2610     2.5008     0.0998     0.0226   141.3218
 1272.0000    10.2560     2.4865     0.1206     0.0208   143.5746
 1272.5000    10.2516     2.4754     0.1167     0.0000   145.2574
 1273.0000    10.2703     2.4783     0.1108    -0.0006   145.4971
 1273.5000    10.2918     2.4844     0.1048     0.0024   146.6196
 1274.0000    10.3115     2.4872     0.1014     0.0032   151.1803
 1274.5000    10.3118     2.4813     0.1042     0.0015   154.7008
 1275.0000    10.3117     2.4850     0.1033    -0.0002   154.5601
 1275.5000    10.3117     2.4943     0.1015    -0.0019   154.1690
 1276.0000    10.3117     2.4945     0.1002    -0.0035   153.7862
 1276.5000    10.3117     2.4856     0.1018    -0.0052   153.3953
 1277.0000    10.3117     2.4843     0.1034    -0.0055   152.3631
 1277.5000    10.3117     2.4898     0.1013    -0.0022   149.9867
 1278.0000    10.3117     2.4982     0.0952     0.0010   147.6847
 1278.5000    10.3117     2.5125     0.0850     0.0147   147.8774
 1279.0000    10.3117     2.5143     0.0873     0.0313   148.7153
 1279.5000    10.3117     2.5110     0.0938     0.0297   150.2926
 1280.0000    10.3117     2.5130     0.0926     0.0286   153.0920
 1280.5000    10.3117     2.5227     0.0798     0.0325   154.1418
 1281.0000    10.3117     2.5237     0.0798     0.0335   155.0748
 1281.5000    10.3117     2.5180     0.0881     0.0280   156.0271
 1282.0000    10.3117     2.4969     0.0975     0.0228   156.2570
 1282.5000    10.3117     2.4752     0.1069     0.0181   154.7216
 1283.0000    10.3117     2.4712     0.1098     0.0218   153.3004
 1283.5000    10.3117     2.4927     0.1027     0.0312   151.8768
 1284.0000    10.3117     2.4975     0.0981     0.0398   150.4343
 1284.5000    10.3117     2.5011     0.0910     0.0382   150.6942
 1285.0000    10.3117     2.5167     0.0802     0.0400   153.3407
 1285.5000    10.3117     2.5322     0.0733     0.0537   155.8221
 1286.0000    10.3117     2.5398     0.0699     0.0659   152.1335
 1286.5000    10.3117     2.5185     0.0889     0.0541   147.9939
 1287.0000    10.3117     2.5148     0.0906     0.0409   147.2031
 1287.5000    10.3117     2.5075     0.0950     0.0368   147.2005
 1288.0000    10.3117     2.4986     0.0966     0.0256   147.5879
 1288.5000    10.3085     2.4920     0.0983     0.0179   148.7489
 1289.0000    10.3036     2.4919     0.1018     0.0180   149.1708
 1289.5000    10.2985     2.4863     0.1018     0.0197   149.1615
 1290.0000    10.2935     2.4965     0.0951     0.0233   150.1346
 1290.5000    10.2885     2.5090     0.0806     0.0337   151.1547
 1291.0000    10.2835     2.5198     0.0806     0.0472   151.2338
 1291.5000    10.2785     2.5148     0.0902     0.0442   151.2871
 1292.0000    10.2735     2.4895     0.0958     0.0342   151.3434
 1292.5000    10.2685     2.4854     0.0935     0.0185   151.4005
 1293.0000    10.2634     2.5020     0.0960     0.0173   151.4561
 1293.5000    10.2584     2.5048     0.0982     0.0161   151.5133
 1294.0000    10.2535     2.5079     0.0894     0.0147   151.7009
 1294.5000    10.2437     2.4987     0.0959     0.0115   152.6452
 1295.0000    10.2326     2.4899     0.1006     0.0052   153.5902
 1295.5000    10.2214     2.4713     0.1102    -0.0010   154.4361
 1296.0000    10.2103     2.4692     0.1061    -0.0019   151.3684
 1296.5000    10.1992     2.4863     0.0994     0.0019   147.6175
 1297.0000    10.1923     2.4997     0.0975     0.0111   143.8225
 1297.5000    10.1915     2.5001     0.0975     0.0178   143.2209
 1298.0000    10.1906     2.5017     0.0884     0.0216   143.7018
 1298.5000    10.1897     2.5069     0.0839     0.0256   145.9971
 1299.0000    10.1888     2.5095     0.0946     0.0235   150.0481
 1299.5000    10.1879     2.5066     0.0886     0.0228   151.5980
 1300.0000    10.1870     2.5025     0.0958     0.0215   151.3939
 1300.5000    10.1861     2.5006     0.0990     0.0216   151.2076
 1301.0000    10.1853     2.5064     0.0870     0.0272   151.6171
 1301.5000    10.1844     2.5130     0.0836     0.0333   152.0213
 1302.0000    10.1835     2.5229     0.0807     0.0426   152.0402
 1302.5000    10.1826     2.5320     0.0722     0.0520   149.6759
 1303.0000    10.1817     2.5369     0.0697     0.0590   147.2858
 1303.5000    10.1808     2.5417     0.0687     0.0617   147.2021
 1304.0000    10.1799     2.5450     0.0691     0.0625   149.9072
 1304.5000    10.1790     2.5196     0.0876     0.0529   149.9216
 1305.0000    10.1782     2.5026     0.0957     0.0409   149.8242
 1305.5000    10.1773     2.5034     0.0982     0.0322   149.7302
 1306.0000    10.1764     2.4939     0.0929     0.0350   149.6286
 1306.5000    10.1755     2.5017     0.0901     0.0400   149.6780
 1307.0000    10.1746     2.5138     0.0897     0.0449   152.0060
 1307.5000    10.1737     2.5270     0.0735     0.0498   154.3409
 1308.0000    10.1729     2.5317     0.0719     0.0539   155.7789
 1308.5000    10.1729     2.5184     0.0875     0.0412   156.2875
 1309.0000    10.1729     2.5143     0.0846     0.0269   156.7145
 1309.5000    10.1729     2.5131     0.0931     0.0245   154.8702
 1310.0000    10.1729     2.5120     0.0896     0.0259   152.8505
 1310.5000    10.1729     2.5069     0.0874     0.0274   153.1902
