~VERSION INFORMATION
 VERS.                2.0:   CWLS LOG ASCII STANDARD - VERSION 2.0
 WRAP.                 NO:   ONE LINE PER DEPTH STEP
~WELL INFORMATION
#MNEM.UNIT      DATA TYPE    INFORMATION
#----------   ------------   ------------------------------
 STRT.F           20.0000:   START DEPTH
 STOP.F          626.0000:   STOP DEPTH
 STEP.F            0.5000:   STEP LENGTH
 NULL.          -999.2500:   NO VALUE
 COMP. FENIX & SCISSON INC:   COMPANY
 WELL. NPR-3  38-S-34 #38-34:   WELL
 FLD .             TEAPOT:   FIELD
 LOC .      S34 T39N R78W:   LOCATION
 CNTY.            NATRONA:   COUNTY
 STAT.            WYOMING:   STATE
 CTRY. UNITED STATES OF AMERICA:   COUNTRY
 SRVC.           BIRDWELL:   SERVICE COMPANY
 DATE.        08-AUG-1978:   LOGDATE
 API .       490251068300:   API NUMBER
~CURVE INFORMATION
#MNEM.UNIT       API CODE    CURVE DESCRIPTION
#----------   ------------   ------------------------------
 DEPT.F                  :   
 SPR .MV     05 010 01 00:   SPONTANEOUS POTENTIAL FROM RES.
 SN  .OHMM   05 040 16 00:   SHORT NORMAL 16"
 IL  .OHMM   05 120 00 00:   INDUCTION LOG
 RHOB.G/C3   45 350 01 00:   BULK DENSITY
 DPHI.DEC    45 890 12 00:   DENSITY POROSITY SANDSTONE
 CORR.G/C3   45 356 01 00:   DENSITY CORRECTION
 GRD .GAPI   45 310 01 00:   GAMMA RAY FROM DENSITY LOG
 CALD.IN     45 280 60 00:   CALIPER
~PARAMETER INFORMATION
#MNEM.UNIT          VALUE    DESCRIPTION
#----------   ------------   ------------------------------
 PD  .                 GL:   PERMANENT DATUM
 EPD .F              5213:   ELEVATION PERMANENT DATUM
 LMF .                 KB:   LOG MEASURED FROM
 DAPD.F                 4:   FEET ABOVE PERMANENT DATUM
 DMF .                 KB:   DRILLING MEASURED FROM
 EKB .F              5217:   KELLING BUSHING
 EGL .F              5213:   GROUND LEVEL
 DATE.             8-8-78:   RUN DATE
 RUN .                  1:   RUN NUMBER
 DD  .F               620:   DEPTH DRILLER
 DL  .F               632:   DEPTH LOGGER
 BLI .F               626:   BOTTOM LOG INTERVAL
 TLI .F                35:   TOP LOG INTERVAL
 CS  .IN            8.625:   CASING SIZE
 CBL .F                35:   CASING BOTTOM LOGGER
 BS  .IN            7.875:   BIT SIZE
 BSD .F               620:   BIT SIZE AT DEPTH
 DFT .                KCL:   DRILLING FLUID TYPE
 DFD .                8.7:   DRILLING FLUID DENSITY
 DFV .                 33:   DRILLING FLUID VISCOSITY
 DFPH.                  9:   DRILLING FLUID PH
 DFL .                  5:   DRILLING FLUID LOSS
 MSS .          FLOW LINE:   MUD SAMPLE SOURCE
 RMS .OHMM            .12:   RESISTIVITY MUD SAMPLE
 MST .F                80:   MUD SAMPLE TEMPERATURE
 RMF .OHMM            .13:   RESISTIVITY MUD FILTRATE SAMPLE
 MFST.F                83:   MUD FILTRATE SAMPLE TEMPERATURE
 RMC .OHMM            .16:   RESISTIVITY MUD CAKE
 MCST.F                84:   MUD CAKE SAMPLE TEMPERATURE
 MFSS.               MEAS:   MUD FILTRATE SAMPLE SOURCE
 TCS .HRS               1:   TIME CURCULATED STOPPED
 LUN .               3006:   LOGGING UNIT NUMBER
 LUL .               CASP:   LOGGING UNIT LOCATION
 ENGI.             MILLER:   RECORDING ENGINEER
 WITN.           MCGINLEY:   WITNESSED BY
 CLNT.            A2DTECH:   CLIENT CODE
 ORIG.           5" PRINT:   ORIGIN OF DATA
 UWI .       490251068300:   UNIQUE WELL ID
 DICO. A2D Technologies, Inc.:   DIGITIZING COMPANY
~OTHER INFORMATION
~A   DEPT      SPR         SN         IL       RHOB       DPHI       CORR         GRD      CALD   
   20.0000  -999.2500  -999.2500  -999.2500  -999.2500  -999.2500  -999.2500    63.7322  -999.2500
   20.5000  -999.2500  -999.2500  -999.2500  -999.2500  -999.2500  -999.2500    66.0030  -999.2500
   21.0000  -999.2500  -999.2500  -999.2500  -999.2500  -999.2500  -999.2500    66.3418  -999.2500
   21.5000  -999.2500  -999.2500  -999.2500  -999.2500  -999.2500  -999.2500    66.5832  -999.2500
   22.0000  -999.2500  -999.2500  -999.2500  -999.2500  -999.2500  -999.2500    67.1178  -999.2500
   22.5000  -999.2500  -999.2500  -999.2500  -999.2500  -999.2500  -999.2500    66.8155  -999.2500
   23.0000  -999.2500  -999.2500  -999.2500  -999.2500  -999.2500  -999.2500    63.4787  -999.2500
   23.5000  -999.2500  -999.2500  -999.2500  -999.2500  -999.2500  -999.2500    60.2536  -999.2500
   24.0000  -999.2500  -999.2500  -999.2500  -999.2500  -999.2500  -999.2500    60.0846  -999.2500
   24.5000  -999.2500  -999.2500  -999.2500  -999.2500  -999.2500  -999.2500    60.3269  -999.2500
   25.0000  -999.2500  -999.2500  -999.2500  -999.2500  -999.2500  -999.2500    60.9592  -999.2500
   25.5000  -999.2500  -999.2500  -999.2500  -999.2500  -999.2500  -999.2500    61.5894  -999.2500
   26.0000  -999.2500  -999.2500  -999.2500  -999.2500  -999.2500  -999.2500    61.9795  -999.2500
   26.5000  -999.2500  -999.2500  -999.2500  -999.2500  -999.2500  -999.2500    61.5068  -999.2500
   27.0000  -999.2500  -999.2500  -999.2500  -999.2500  -999.2500  -999.2500    60.6635  -999.2500
   27.5000  -999.2500  -999.2500  -999.2500  -999.2500  -999.2500  -999.2500    59.3392  -999.2500
   28.0000  -999.2500  -999.2500  -999.2500  -999.2500  -999.2500  -999.2500    58.9831  -999.2500
   28.5000  -999.2500  -999.2500  -999.2500  -999.2500  -999.2500  -999.2500    62.5855  -999.2500
   29.0000  -999.2500  -999.2500  -999.2500  -999.2500  -999.2500  -999.2500    63.0833  -999.2500
   29.5000  -999.2500  -999.2500  -999.2500  -999.2500  -999.2500  -999.2500    63.7105  -999.2500
   30.0000  -999.2500  -999.2500  -999.2500  -999.2500  -999.2500  -999.2500    64.3808  -999.2500
   30.5000  -999.2500  -999.2500  -999.2500  -999.2500  -999.2500  -999.2500    65.9737  -999.2500
   31.0000  -999.2500  -999.2500  -999.2500  -999.2500  -999.2500  -999.2500    67.6083  -999.2500
   31.5000  -999.2500  -999.2500  -999.2500  -999.2500  -999.2500  -999.2500    69.2420  -999.2500
   32.0000  -999.2500  -999.2500  -999.2500  -999.2500  -999.2500  -999.2500    70.7235  -999.2500
   32.5000  -999.2500  -999.2500  -999.2500  -999.2500  -999.2500  -999.2500    70.1650  -999.2500
   33.0000  -999.2500  -999.2500  -999.2500  -999.2500  -999.2500  -999.2500    69.5268  -999.2500
   33.5000  -999.2500  -999.2500  -999.2500  -999.2500  -999.2500  -999.2500    68.8907  -999.2500
   34.0000  -999.2500  -999.2500  -999.2500  -999.2500  -999.2500  -999.2500    68.1990  -999.2500
   34.5000  -999.2500  -999.2500  -999.2500  -999.2500  -999.2500  -999.2500    70.1930  -999.2500
   35.0000    -0.3875     7.2748  -999.2500     2.1144     0.2978     0.1953    72.8237     7.7504
   35.5000    -0.3133     7.2653  -999.2500     2.2999     0.2165     0.1786    75.4679     7.5734
   36.0000    -0.2392     7.2564  -999.2500     2.3940     0.1627     0.1537    78.1195     7.3913
   36.5000    -0.1652     7.2427    10.7252     2.4017     0.1682     0.1341    80.0243     7.3469
   37.0000    -0.0766     7.4140    10.2717     2.3850     0.1835     0.1103    79.4296     7.3612
   37.5000     0.0977     7.7500    10.0899     2.3633     0.1959     0.0952    76.5742     7.3769
   38.0000     0.3013     8.1000    10.0499     2.3495     0.1942     0.0797    73.6949     7.3955
   38.5000    -0.0852     8.3904    10.1247     2.3349     0.2103     0.0641    73.0100     7.2555
   39.0000    -0.5872     8.3646    10.2017     2.3254     0.2113     0.0487    73.6770     7.0862
   39.5000    -0.8439     8.3390    10.2785     2.3194     0.2135     0.0382    73.3718     7.1967
   40.0000    -0.6813     8.3135    10.4615     2.3141     0.2151     0.0426    71.6444     7.3190
   40.5000    -1.5267     8.2881    10.3197     2.3184     0.2091     0.0429    71.2858     7.3305
   41.0000    -2.5373     8.2628    10.1141     2.3335     0.2007     0.0342    75.9934     7.3175
   41.5000    -3.0988     8.2375     9.9127     2.3524     0.1922     0.0259    83.5313     7.3041
   42.0000    -3.0764     8.2124     9.7152     2.3609     0.1887     0.0300    82.2936     7.2980
   42.5000    -3.0585     8.1871     9.5217     2.3612     0.1879     0.0349    80.7954     7.4283
   43.0000    -3.0389     8.1643     9.2817     2.3602     0.1871     0.0398    79.5708     7.5689
   43.5000    -3.0201     7.9489     9.1663     2.3587     0.1876     0.0432    80.0721     7.6631
   44.0000    -3.0013     7.6924     9.1118     2.3585     0.1881     0.0417    80.8102     7.4474
   44.5000    -2.9825     7.4437     9.0585     2.3603     0.1886     0.0403    80.4364     8.4463
   45.0000    -2.9638     7.2031     9.0055     2.3619     0.1892     0.0455    77.9481     8.0910
   45.5000    -2.9447     7.1187     8.9480     2.3588     0.1897     0.0579    79.0354     7.9297
   46.0000    -2.9265     7.0540     8.9480     2.3557     0.1899     0.0702    80.2178     8.0154
   46.5000    -2.9052     6.9899     9.2194     2.3531     0.1880     0.0826    79.2870     8.0959
   47.0000    -3.1068     6.9264     9.5804     2.3564     0.1859     0.0855    77.7689     8.0633
   47.5000    -3.4422     6.8635     9.8095     2.3682     0.1839     0.0745    79.2718     7.9433
   48.0000    -3.7809     6.8011    11.0923     2.3672     0.1848     0.0637    80.9662     7.8219
   48.5000    -4.1204     6.7294    12.5537     2.3655     0.1891     0.0579    82.6555     7.7006
   49.0000    -4.4596     6.7399    12.8061     2.3510     0.1931     0.0603    82.8468     7.5793
   49.5000    -4.4568     6.7524    11.4681     2.3497     0.1904     0.0627    81.0111     7.4580
   50.0000    -4.4037     6.7649     9.9854     2.3635     0.1863     0.0549    79.2525     7.3366
   50.5000    -4.3442     6.7774     8.6945     2.3703     0.1823     0.0420    79.9010     7.2165
   51.0000    -4.3304     6.7900     8.1622     2.3711     0.1827     0.0289    80.7931     7.1233
   51.5000    -5.7019     6.8026     8.6500     2.3647     0.1887     0.0158    79.6751     7.0869
   52.0000    -7.1837     6.8152     9.4518     2.3541     0.1982     0.0035    78.4828     7.0493
   52.5000    -7.6635     6.8276     9.2100     2.3434     0.2078     0.0115    78.0753     7.0118
   53.0000    -7.6034     6.8400     8.9470     2.3260     0.2173     0.0212    78.1775     6.9771
   53.5000    -7.5316     6.8542     9.1984     2.3091     0.2268     0.0363    78.8367     6.9825
   54.0000    -7.4856     7.0265     8.7066     2.2922     0.2363     0.0524    79.3168     7.0708
   54.5000    -7.7503     7.3671     9.0299     2.2766     0.2351     0.0665    73.7527     7.4315
   55.0000    -9.2763     7.8676     9.6635     2.2770     0.2283     0.0499    67.5650     7.7242
   55.5000   -10.5214     7.7399    10.3360     2.3041     0.2075     0.0318    72.5409     7.5806
   56.0000   -10.6764     7.5355    11.1567     2.3403     0.1859     0.0268    72.3257     7.4177
   56.5000   -10.8741     7.3366    10.4656     2.3717     0.1847     0.0269    72.4832     7.3641
   57.0000   -11.1267     7.1429     9.5297     2.3663     0.1871     0.0294    71.6243     7.4202
   57.5000   -13.0528     6.9814     8.6578     2.3584     0.1906     0.0320    70.5010     7.4764
   58.0000   -14.8510     6.9520     8.4573     2.3500     0.1943     0.0345    72.2733     7.5330
   58.5000   -15.4479     6.9212     8.3969     2.3499     0.1918     0.0370    77.5220     7.5892
   59.0000   -16.1760     6.8906     8.3369     2.3523     0.1899     0.0395    78.0139     7.6450
   59.5000   -17.3615     6.8601     8.2773     2.3545     0.1880     0.0421    78.6596     7.6553
   60.0000   -18.5123     6.8297     8.2181     2.3655     0.1826     0.0427    80.6391     7.6189
