~VERSION INFORMATION
 VERS.                2.0:   CWLS LOG ASCII STANDARD - VERSION 2.0
 WRAP.                 NO:   ONE LINE PER DEPTH STEP
~WELL INFORMATION
#MNEM.UNIT      DATA TYPE    INFORMATION
#----------   ------------   ------------------------------
 STRT.F           30.0000:   START DEPTH
 STOP.F          562.0000:   STOP DEPTH
 STEP.F            0.5000:   STEP LENGTH
 NULL.          -999.2500:   NO VALUE
 COMP. LAWRENCE/ALLISON INC:   COMPANY
 WELL. NPR 3 #53-16-SX-10:   WELL
 FLD .             TEAPOT:   FIELD
 LOC .      S10 T38N R78W:   LOCATION
 CNTY.            NATRONA:   COUNTY
 STAT.            WYOMING:   STATE
 CTRY. UNITED STATES OF AMERICA:   COUNTRY
 SRVC.      Dresser Atlas:   SERVICE COMPANY
 DATE.        27-AUG-1984:   LOGDATE
 API .       490251098200:   API NUMBER
~CURVE INFORMATION
#MNEM.UNIT       API CODE    CURVE DESCRIPTION
#----------   ------------   ------------------------------
 DEPT.F                  :   
 RILD.OHMM   07 120 46 00:   INDUCTION LOG DEEP RESISTIVITY
 RILM.OHMM   07 120 44 00:   INDUCTION LOG MEDIUM RESISTIVITY
 RFOC.OHMM   07 220 04 00:   RESISTIVITY FOCUSED LOG
 SPR .MV     07 010 01 00:   SPONTANEOUS POTENTIAL
 AC  .US/F   60 520 00 00:   ACOUSTIC SONIC
 DEN .G/C3   45 350 01 00:   COMPENSATED BULK DENSTIY
 CORR.G/C3   45 356 01 00:   DENSITY CORRECTION
 CNC .DEC    42 890 01 00:   NEUTRON POROSITY LIMESTONE
 CALD.IN     45 280 60 00:   CALIPER
 GRD .GAPI   45 310 01 00:   GAMMA RAY FROM DENSITY LOG
 PORD.DEC    45 890 10 00:   POROSITY DENSITY LIMESTONE
~PARAMETER INFORMATION
#MNEM.UNIT          VALUE    DESCRIPTION
#----------   ------------   ------------------------------
 PD  .                 GL:   PERMANENT DATUM
 EPD .F              5199:   ELEVATION PERMANENT DATUM
 LMF .                 GL:   LOG MEASURED FROM
 DMF .                 GL:   DRILLING MEASURED FROM
 EGL .F              5199:   GROUND LEVEL
 DATE.            8-27-84:   RUN DATE
 RUN .                  1:   RUN NUMBER
 DD  .F               550:   DEPTH DRILLER
 DL  .F               549:   DEPTH LOGGER
 BLI .F               547:   BOTTOM LOG INTERVAL
 TLI .F                30:   TOP LOG INTERVAL
 CS  .IN            9.625:   CASING SIZE
 CBD .F                40:   CASING BOTTOM DRILLER
 CBL .F                44:   CASING BOTTOM LOGGER
 BS  .IN            7.875:   BIT SIZE
 BSD .F               550:   BIT SIZE AT DEPTH
 DFT .          KCL/WATER:   DRILLING FLUID TYPE
 MSS .           MUD TANK:   MUD SAMPLE SOURCE
 RMS .OHMM            .28:   RESISTIVITY MUD SAMPLE
 MST .F                78:   MUD SAMPLE TEMPERATURE
 TCS .HRS               4:   TIME CURCULATED STOPPED
 LUN .               4082:   LOGGING UNIT NUMBER
 LUL .          ROOSEVELT:   LOGGING UNIT LOCATION
 ENGI.            FRANCIS:   RECORDING ENGINEER
 WITN.              FIVAS:   WITNESSED BY
 CLNT.            A2DTECH:   CLIENT CODE
 ORIG.       2", 5" PRINT:   ORIGIN OF DATA
 UWI .       490251098200:   UNIQUE WELL ID
 DICO. A2D Technologies, Inc.:   DIGITIZING COMPANY
~OTHER INFORMATION
~A   DEPT     RILD       RILM       RFOC        SPR         AC        DEN       CORR          CNC     CALD         GRD      PORD   
   30.0000  -999.2500  -999.2500  -999.2500  -999.2500  -999.2500  -999.2500  -999.2500     0.2492  -999.2500    80.2817  -999.2500
   30.5000  -999.2500  -999.2500  -999.2500  -999.2500  -999.2500  -999.2500  -999.2500     0.2492  -999.2500    80.2817  -999.2500
   31.0000  -999.2500  -999.2500  -999.2500  -999.2500  -999.2500  -999.2500  -999.2500     0.2492  -999.2500    80.2817  -999.2500
   31.5000  -999.2500  -999.2500  -999.2500  -999.2500  -999.2500  -999.2500  -999.2500     0.2364  -999.2500    80.2684  -999.2500
   32.0000  -999.2500  -999.2500  -999.2500  -999.2500  -999.2500  -999.2500  -999.2500     0.2399  -999.2500    79.3420  -999.2500
   32.5000  -999.2500  -999.2500  -999.2500  -999.2500  -999.2500  -999.2500  -999.2500     0.2365  -999.2500    76.8859  -999.2500
   33.0000  -999.2500  -999.2500  -999.2500  -999.2500  -999.2500  -999.2500  -999.2500     0.2460  -999.2500    74.8229  -999.2500
   33.5000  -999.2500  -999.2500  -999.2500  -999.2500  -999.2500  -999.2500  -999.2500     0.2540  -999.2500    74.4500  -999.2500
   34.0000  -999.2500  -999.2500  -999.2500  -999.2500  -999.2500  -999.2500  -999.2500     0.2566  -999.2500    79.0011  -999.2500
   34.5000  -999.2500  -999.2500  -999.2500  -999.2500  -999.2500  -999.2500  -999.2500     0.2561  -999.2500    83.6997  -999.2500
   35.0000  -999.2500  -999.2500  -999.2500  -999.2500  -999.2500  -999.2500  -999.2500     0.2549  -999.2500    83.5043  -999.2500
   35.5000  -999.2500  -999.2500  -999.2500  -999.2500  -999.2500  -999.2500  -999.2500     0.2444  -999.2500    81.8709  -999.2500
   36.0000  -999.2500  -999.2500  -999.2500  -999.2500  -999.2500  -999.2500  -999.2500     0.2498  -999.2500    80.2336  -999.2500
   36.5000  -999.2500  -999.2500  -999.2500  -999.2500  -999.2500  -999.2500  -999.2500     0.2571  -999.2500    77.4527  -999.2500
   37.0000  -999.2500  -999.2500  -999.2500  -999.2500  -999.2500  -999.2500  -999.2500     0.2573  -999.2500    74.4298  -999.2500
   37.5000  -999.2500  -999.2500  -999.2500  -999.2500  -999.2500  -999.2500  -999.2500     0.2553  -999.2500    71.8276  -999.2500
   38.0000  -999.2500  -999.2500  -999.2500  -999.2500  -999.2500  -999.2500  -999.2500     0.2659  -999.2500    73.8441  -999.2500
   38.5000  -999.2500  -999.2500  -999.2500  -999.2500  -999.2500  -999.2500  -999.2500     0.2766  -999.2500    75.8657  -999.2500
   39.0000  -999.2500  -999.2500  -999.2500  -999.2500  -999.2500  -999.2500  -999.2500     0.2860  -999.2500    72.8007  -999.2500
   39.5000  -999.2500  -999.2500  -999.2500  -999.2500  -999.2500  -999.2500  -999.2500     0.2915     8.9620    70.5678  -999.2500
   40.0000  1918.5620   246.7765     0.2245    94.8589  -999.2500  -999.2500  -999.2500     0.2946     8.9517    72.4200  -999.2500
   40.5000  1918.5620   246.7765     0.2245    94.8589  -999.2500  -999.2500  -999.2500     0.2827     8.9413    75.2863  -999.2500
   41.0000  1918.5620   246.7765     0.2245    94.8589  -999.2500  -999.2500  -999.2500     0.2659     8.9327    78.2009  -999.2500
   41.5000  1936.2325   248.5392     0.2244    94.8608  -999.2500  -999.2500  -999.2500     0.2517     8.9046    81.1020  -999.2500
   42.0000  1918.5620   246.7765     0.2245    94.8807  -999.2500  -999.2500  -999.2500     0.2544     8.8548    84.0040  -999.2500
   42.5000  1910.2899   247.0695     0.2245    95.1026  -999.2500  -999.2500  -999.2500     0.2573     8.8053    87.0445  -999.2500
   43.0000  1889.0758   247.9908     0.4095    86.5256  -999.2500  -999.2500  -999.2500     0.2552     8.7555    92.4431  -999.2500
   43.5000  2044.8164   246.7765     0.8589    76.7707   237.4389  -999.2500    -0.0070     0.2483     8.7058    98.4430  -999.2500
   44.0000 10640.3369    60.9483     1.8016    67.0424   215.6358     2.5195     0.0833     0.2404     8.6650   109.0015     0.0908
   44.5000  8236.2197    19.4533     3.7792    57.1433   140.1503     2.5306     0.0817     0.2425     8.6659   117.7971     0.0898
   45.0000    11.5963     4.2758     6.2016    54.6880   162.4626     2.5226     0.0742     0.2457     8.6648   123.2522     0.0950
   45.5000     3.7640     3.8272     7.2292    52.4628   190.7539     2.5210     0.0626     0.2489     8.6620   122.6895     0.0974
   46.0000     2.3673     3.8985     7.3977    50.1937   219.3940     2.5180     0.0653     0.2471     8.6592   119.5763     0.0959
   46.5000     3.6317     4.5505     7.5711    47.9049   239.8497     2.5195     0.0693     0.2436     8.6564   116.6041     0.0956
   47.0000     5.1765     5.1157     7.7220    45.5550   239.8497     2.5081     0.0598     0.2420     8.6536   113.9632     0.1015
   47.5000     7.3757     5.7511     7.7214    44.0750   239.8497     2.5063     0.0494     0.2449     8.6508   113.6827     0.1044
   48.0000     9.6400     6.4655     7.4561    42.5948   166.4085     2.5085     0.0469     0.2484     8.6481   113.3500     0.1019
   48.5000     8.2390     7.1729     7.0466    41.1194   121.2415     2.5104     0.0515     0.2443     8.6458   112.9830     0.1009
   49.0000     8.4823     6.6459     6.7237    39.2468   107.5852     2.5084     0.0578     0.2396     8.6459   114.5792     0.1020
   49.5000     8.7535     6.3027     7.0556    37.2911   107.5066     2.5063     0.0649     0.2436     8.6459   116.8888     0.1031
   50.0000     8.9533     6.5721     7.7495    35.2782   107.5583     2.4982     0.0712     0.2466     8.6459   117.6481     0.1070
   50.5000     8.7778     6.8426     8.5116    35.1143   107.4497     2.4884     0.0587     0.2438     8.6459   117.5334     0.1113
   51.0000     8.6437     7.3988     9.0701    35.0741   107.3271     2.4906     0.0447     0.2410     8.6459   117.4063     0.1140
   51.5000     8.5110     8.2464     9.1637    35.0207   107.1975     2.5027     0.0312     0.2389     8.6459   116.6915     0.1085
   52.0000     8.3805     8.2440     9.2903    34.9565   107.7219     2.5110     0.0251     0.2391     8.6459   113.3537     0.1015
   52.5000     8.2390     8.2657     9.2324    34.8550   108.3822     2.5004     0.0284     0.2410     8.6459   111.1657     0.1069
   53.0000     8.2474     8.2804     9.1434    34.7564   108.3146     2.4873     0.0351     0.2445     8.6459   112.1330     0.1137
   53.5000     8.2639     8.2951     9.0552    34.6576   107.9924     2.4799     0.0420     0.2472     8.6459   113.5663     0.1189
   54.0000     8.2804     8.3153     9.0238    34.5569   107.6348     2.4746     0.0391     0.2464     8.6459   114.9999     0.1216
   54.5000     8.2970     8.2828     9.0022    34.4566   107.2984     2.4786     0.0331     0.2357     8.6459   116.4281     0.1229
   55.0000     8.3155     8.2291     8.9806    34.4942   106.9551     2.4887     0.0441     0.2338     8.6459   117.6549     0.1188
   55.5000     8.2255     8.1761     8.9596    35.4418   106.9871     2.4981     0.0618     0.2389     8.6458   117.2505     0.1121
   56.0000     8.1250     8.1235     8.7987    36.3881   107.4232     2.4958     0.0785     0.2490     8.6458   117.0746     0.1080
   56.5000     8.0258     8.0712     8.5892    37.3330   107.8599     2.4745     0.0616     0.2592     8.6490   118.2242     0.1164
   57.0000     7.9277     8.0193     8.4868    38.2749   108.2966     2.4598     0.0190     0.2612     8.6663   119.3381     0.1243
   57.5000     7.8308     7.9677     8.4096    39.2231   108.4901     2.4685     0.0034     0.2475     8.6832   118.5637     0.1305
   58.0000     7.7351     7.9165     8.3332    39.6109   108.4872     2.4738     0.0011     0.2373     8.7001   116.2317     0.1254
   58.5000     7.6396     7.8653     8.2574    39.6187   108.4872     2.4688     0.0038     0.2338     8.7170   116.5063     0.1225
   59.0000     7.5821     7.8144     8.2161    39.6177   108.4872     2.4639     0.0061     0.2313     8.7339   118.7964     0.1251
   59.5000     7.6857     7.7947     8.1858    39.6178   108.4868     2.4683     0.0162     0.2288     8.7464   120.9165     0.1281
   60.0000     7.7632     7.9359     8.1632    39.6236   108.4295     2.4807     0.0296     0.2311     8.7381   121.5426     0.1248
