~VERSION INFORMATION
 VERS.                2.0:   CWLS LOG ASCII STANDARD - VERSION 2.0
 WRAP.                 NO:   ONE LINE PER DEPTH STEP
~WELL INFORMATION
#MNEM.UNIT      DATA TYPE    INFORMATION
#----------   ------------   ------------------------------
 STRT.F           40.0000:   START DEPTH
 STOP.F          821.0000:   STOP DEPTH
 STEP.F            0.5000:   STEP LENGTH
 NULL.          -999.2500:   NO VALUE
 COMP. FENIX & SCISSON INC:   COMPANY
 WELL. NPR 3 -68 SX #68-27:   WELL
 FLD .             TEAPOT:   FIELD
 LOC .      S27 T39N R78W:   LOCATION
 CNTY.            NATRONA:   COUNTY
 STAT.            WYOMING:   STATE
 CTRY. UNITED STATES OF AMERICA:   COUNTRY
 SRVC.           BIRDWELL:   SERVICE COMPANY
 DATE.        11-SEP-1978:   LOGDATE
 API .       490251069500:   API NUMBER
~CURVE INFORMATION
#MNEM.UNIT       API CODE    CURVE DESCRIPTION
#----------   ------------   ------------------------------
 DEPT.F                  :   
 SPR .MV     05 010 01 00:   SPONTANEOUS POTENTIAL FROM RES.
 SN  .OHMM   05 040 16 00:   SHORT NORMAL 16"
 ILD .OHMM   05 120 46 00:   INDUCTION LOG DEEP
 GRD .GAPI   45 310 01 00:   GAMMA RAY FROM DENSITY LOG
 CALD.IN     45 280 60 00:   CALIPER
 RHOB.G/C3   45 350 01 00:   BULK DENSITY
 CORR.G/C3   45 356 01 00:   DENSITY CORRECTION
 DPHI.DEC    45 890 12 00:   DENSITY POROSITY SANDSTONE
~PARAMETER INFORMATION
#MNEM.UNIT          VALUE    DESCRIPTION
#----------   ------------   ------------------------------
 PD  .                 GL:   PERMANENT DATUM
 EPD .F              5032:   ELEVATION PERMANENT DATUM
 LMF .                 GL:   LOG MEASURED FROM
 DAPD.F                 4:   FEET ABOVE PERMANENT DATUM
 DMF .                 GL:   DRILLING MEASURED FROM
 EKB .F              5036:   KELLING BUSHING
 EGL .F              5032:   GROUND LEVEL
 DATE.            9-11-78:   RUN DATE
 RUN .                  1:   RUN NUMBER
 DD  .F               820:   DEPTH DRILLER
 DL  .F               822:   DEPTH LOGGER
 BLI .F               818:   BOTTOM LOG INTERVAL
 TLI .F                40:   TOP LOG INTERVAL
 CS  .IN            8.625:   CASING SIZE
 CBD .F                40:   CASING BOTTOM DRILLER
 CBL .F                40:   CASING BOTTOM LOGGER
 BS  .IN            7.875:   BIT SIZE
 BSD .F               820:   BIT SIZE AT DEPTH
 DFT .                KCL:   DRILLING FLUID TYPE
 DFD .                8.6:   DRILLING FLUID DENSITY
 DFV .                 34:   DRILLING FLUID VISCOSITY
 DFPH.                  9:   DRILLING FLUID PH
 DFL .                  8:   DRILLING FLUID LOSS
 MSS .           FLOWLINE:   MUD SAMPLE SOURCE
 RMS .OHMM            .24:   RESISTIVITY MUD SAMPLE
 MST .F                62:   MUD SAMPLE TEMPERATURE
 RMF .OHMM            .18:   RESISTIVITY MUD FILTRATE SAMPLE
 MFST.F                64:   MUD FILTRATE SAMPLE TEMPERATURE
 RMC .OHMM             .3:   RESISTIVITY MUD CAKE
 MCST.F                66:   MUD CAKE SAMPLE TEMPERATURE
 MFSS.               MEAS:   MUD FILTRATE SAMPLE SOURCE
 MCSS.               MEAS:   MUD CAKE SAMPLE SOURCE
 RMB .OHMM            .22:   RESISTIVITY MUD AT BHT
 BHT .F                68:   BOTTOM HOLE TEMPERATURE
 TCS .HRS               1:   TIME CURCULATED STOPPED
 MRT .F                68:   MAXIMUM RECORDED TEMPERATURE
 LUN .               3006:   LOGGING UNIT NUMBER
 LUL .               CASP:   LOGGING UNIT LOCATION
 ENGI.            POINTER:   RECORDING ENGINEER
 WITN.              AMEND:   WITNESSED BY
 CLNT.            A2DTECH:   CLIENT CODE
 ORIG.           5" PRINT:   ORIGIN OF DATA
 UWI .       490251069500:   UNIQUE WELL ID
 DICO. A2D Technologies, Inc.:   DIGITIZING COMPANY
~OTHER INFORMATION
~A   DEPT       SPR        SN        ILD         GRD        CALD     RHOB       CORR       DPHI   
# ...
  728.5000   -31.1623    16.3968    16.9145    94.3350     7.4300     2.3563     0.0154     0.1971
  729.0000   -31.1623    16.3162    16.8296    91.4440     7.4392     2.3551     0.0160     0.1971
  729.5000   -31.1622    16.2360    16.7451    88.5139     7.4821     2.3584     0.0168     0.1966
  730.0000   -31.1606    16.1561    16.6611    87.7318     7.5237     2.3572     0.0175     0.1963
  730.5000   -31.1600    16.0767    16.5774    92.5453     7.5654     2.3562     0.0183     0.1992
  731.0000   -31.2660    15.9976    16.4942    95.8087     7.6072     2.3579     0.0190     0.2022
  731.5000   -32.0542    15.9190    16.3726    97.8654     7.6480     2.3659     0.0193     0.2051
  732.0000   -32.8309    15.8407    16.6766    96.8135     7.6185     2.4068     0.0189     0.2075
  732.5000   -33.5595    15.7629    17.0647    97.7261     7.5300     2.4496     0.0185     0.1922
  733.0000   -33.5652    15.6855    17.2629   101.2000     7.4419     2.4902     0.0182     0.1446
  733.5000   -33.5395    15.6082    17.1692   104.6185     7.4102     2.4780     0.0177     0.1076
  734.0000   -33.5170    15.4593    17.0971   104.9991     7.4328     2.4576     0.0172     0.1231
  734.5000   -33.4953    15.3040    17.0255    98.2128     7.5667     2.4372     0.0233     0.1381
  735.0000   -33.4735    15.1502    16.9544    92.7643     7.7030     2.4166     0.0309     0.1530
  735.5000   -33.4517    14.9980    16.8837    91.0750     7.8390     2.3964     0.0434     0.1680
  736.0000   -33.4298    14.8473    16.8138    93.4185     7.9779     2.3931     0.0620     0.1732
  736.5000   -33.4075    14.6981    16.5879    88.0768     8.0689     2.3941     0.0908     0.1772
  737.0000   -33.3851    14.5503    16.2993    85.1474     8.0622     2.3969     0.1196     0.1813
  737.5000   -33.4016    14.4040    16.0157    92.0678     8.0544     2.4093     0.1489     0.1855
  738.0000   -33.7323    14.3605    15.7373    99.3678     8.0386     2.4266     0.1578     0.1851
  738.5000   -34.0638    14.2883    15.6000   101.7665     7.9781     2.4441     0.1358     0.1693
  739.0000   -34.6122    14.2084    15.6005   103.2168     7.9208     2.4615     0.1103     0.1455
  739.5000   -35.2441    14.1289    15.6005   103.3460     7.8038     2.4722     0.0847     0.1253
  740.0000   -35.8797    14.0498    15.6005   101.9420     7.6782     2.4675     0.0592     0.1282
  740.5000   -36.5071    13.9712    15.6005    98.2223     7.6259     2.4598     0.0338     0.1310
  741.0000   -36.5753    13.8931    15.6005    94.0576     7.5803     2.4520     0.0194     0.1358
  741.5000   -36.5741    13.8153    15.0634    90.8031     7.5499     2.4358     0.0195     0.1431
  742.0000   -36.5730    13.7380    14.4883    97.9096     7.5529     2.4116     0.0195     0.1699
  742.5000   -36.5659    13.6446    14.0341   102.6712     7.5552     2.3959     0.0195     0.1758
  743.0000   -36.9745    13.5049    13.8646   103.7972     7.5577     2.3827     0.0195     0.1821
  743.5000   -37.4389    13.3667    13.7159   105.8731     7.5601     2.3715     0.0195     0.1879
  744.0000   -37.6347    13.2299    13.5688   107.0495     7.5625     2.3671     0.0195     0.1935
  744.5000   -37.8368    13.0945    13.4233   102.5482     7.5648     2.3687     0.0188     0.1963
  745.0000   -38.1334    12.9605    13.2793    98.5099     7.5670     2.3813     0.0175     0.1934
  745.5000   -38.6775    12.8279    13.1369    94.3845     7.5742     2.3998     0.0163     0.1905
  746.0000   -39.2242    12.6966    12.9960    91.1150     7.6203     2.4183     0.0150     0.1858
  746.5000   -39.3767    12.5666    12.8567    87.9377     7.6634     2.4350     0.0137     0.1733
  747.0000   -39.4057    12.4380    12.7188    86.6544     7.7059     2.4429     0.0125     0.1546
  747.5000   -39.4421    12.3107    12.5824    87.4852     7.7483     2.4429     0.0115     0.1463
  748.0000   -39.4789    12.1847    12.4474    88.1627     7.7909     2.4373     0.0115     0.1486
  748.5000   -39.5156    12.0600    12.3139    86.5946     7.8334     2.4320     0.0115     0.1522
  749.0000   -39.5520    11.9366    12.1819    85.0310     7.8762     2.4364     0.0115     0.1551
  749.5000   -39.6098    11.8144    12.0573    85.8177     7.8800     2.4390     0.0115     0.1556
  750.0000   -39.9059    11.6935    12.0099    90.1977     7.8591     2.4389     0.0115     0.1550
  750.5000   -40.0215    11.5738    11.9585    93.4439     7.8380     2.4412     0.0116     0.1483
  751.0000   -40.1074    11.4835    11.9069    93.4530     7.8169     2.4587     0.0128     0.1397
  751.5000   -40.1645    11.4213    11.8555    92.4690     7.7962     2.4747     0.0140     0.1311
  752.0000   -40.4257    11.3594    11.8043    91.2229     7.7756     2.4746     0.0152     0.1252
  752.5000   -41.4428    11.2978    11.7533    90.1400     7.7516     2.4714     0.0155     0.1267
  753.0000   -42.6959    11.2366    11.7285    91.5460     7.7567     2.4683     0.0153     0.1287
  753.5000   -43.1785    11.1758    11.7943    93.2617     7.7621     2.4660     0.0251     0.1308
  754.0000   -43.4521    11.1152    11.8657    94.6127     7.7684     2.4672     0.0372     0.1328
  754.5000   -43.7268    11.0869    11.9375    93.7584     7.7835     2.4739     0.0495     0.1332
  755.0000   -43.8019    11.0704    12.0096    90.7336     7.8457     2.4883     0.0511     0.1293
  755.5000   -43.8229    11.0539    12.0573    88.4824     7.9109     2.5025     0.0506     0.1213
  756.0000   -43.8422    11.0375    11.9325    89.6585     7.9683     2.5129     0.0501     0.1133
  756.5000   -43.8620    11.0211    11.8967    93.4444     7.9915     2.5125     0.0497     0.1044
  757.0000   -43.8819    11.0046    11.8635    93.4219     8.0086     2.5119     0.0522     0.1072
  757.5000   -43.9019    10.9883    11.8341    93.5571     8.0450     2.5139     0.0577     0.1096
  758.0000   -43.9218    10.9719    11.6660    97.2922     8.0824     2.5212     0.0602     0.1092
  758.5000   -43.9417    10.9556    11.2874    97.2774     8.0900     2.5287     0.0492     0.1039
  759.0000   -43.9616    10.9392    11.1999    96.9208     8.0879     2.5364     0.0383     0.0981
  759.5000   -43.9815    10.9230    11.2020   102.6006     8.0746     2.5379     0.0293     0.0940
  760.0000   -44.0015    10.9067    11.2015   103.0359     8.0615     2.5371     0.0217     0.0942
  760.5000   -44.0214    10.8905    11.2016   102.1264     8.0485     2.5310     0.0155     0.0944
  761.0000   -44.0413    10.8743    11.2016    99.3475     8.0355     2.5176     0.0135     0.0984
  761.5000   -44.0612    10.8581    11.2016    99.3365     8.0225     2.5096     0.0131     0.1025
  762.0000   -44.0812    10.8419    11.2016    93.5813     8.0095     2.5015     0.0127     0.1065
  762.5000   -44.1011    10.8258    11.2017    96.1528     7.9965     2.4934     0.0124     0.1096
  763.0000   -44.1210    10.8096    11.2021    99.6827     7.9623     2.4867     0.0120     0.1171
  763.5000   -44.1409    10.7969    11.2049    99.1576     7.9075     2.4859     0.0117     0.1208
  764.0000   -44.1605    10.5212    11.0792    93.2321     7.8528     2.4850     0.0113     0.1176
  764.5000   -44.1823    10.3114    10.9298    88.7515     7.7982     2.4840     0.0110     0.1198
  765.0000   -44.1796    10.2830    10.7823    84.2904     7.7433     2.4831     0.0106     0.1220
  765.5000   -44.6717    10.2483    10.6980    82.4849     7.6950     2.4832     0.0103     0.1241
  766.0000   -45.3075    10.2137    10.6511    90.6030     7.6852     2.4834     0.0100     0.1252
  766.5000   -45.9606    10.1792    10.5944    90.7188     7.6659     2.4836     0.0096     0.1230
  767.0000   -46.2040    10.1449    10.5381    90.5452     7.6347     2.4838     0.0093     0.1201
  767.5000   -46.2309    10.1107    10.4821    94.6448     7.6150     2.4839     0.0089     0.1172
  768.0000   -46.2537    10.0766    10.4264    96.1541     7.5956     2.4804     0.0086     0.1172
  768.5000   -46.2764    10.0426    10.4067    96.1925     7.5916     2.4703     0.0082     0.1221
