~VERSION INFORMATION
 VERS.                2.0:   CWLS LOG ASCII STANDARD - VERSION 2.0
 WRAP.                 NO:   ONE LINE PER DEPTH STEP
~WELL INFORMATION
#MNEM.UNIT      DATA TYPE    INFORMATION
#----------   ------------   ------------------------------
 STRT.F           24.0000:   START DEPTH
 STOP.F          472.0000:   STOP DEPTH
 STEP.F            0.5000:   STEP LENGTH
 NULL.          -999.2500:   NO VALUE
 COMP. FENIX & SCISSON INC:   COMPANY
 WELL. 55-66 SX-3-FP #55-3:   WELL
 FLD .             WLDCAT:   FIELD
 LOC .       S3 T38N R78W:   LOCATION
 CNTY.            NATRONA:   COUNTY
 STAT.            WYOMING:   STATE
 CTRY. UNITED STATES OF AMERICA:   COUNTRY
 SRVC.              Welex:   SERVICE COMPANY
 DATE.        11-JUN-1980:   LOGDATE
 API .       490251082200:   API NUMBER
~CURVE INFORMATION
#MNEM.UNIT       API CODE    CURVE DESCRIPTION
#----------   ------------   ------------------------------
 DEPT.F                  :   
 SPR .MV     07 010 01 00:   SPONTANEOUS POTENTIAL
 GURD.OHMM   07 220 05 00:   GUARD RESISTIVITY
 ILD .OHMM   07 120 46 00:   INDUCTION LOG DEEP RESISTIVITY
 ILM .OHMM   07 120 44 00:   INDUCTION LOG MEDIUM
 DPHI.DEC    45 890 12 00:   DENSITY POROSITY SANDSTONE
 NPHI.DEC    42 890 03 00:   NEUTRON POROSITY SANDSTONE
 CORR.G/C3   45 356 01 00:   DENSITY CORRECTION
 RHOB.G/C3   45 350 01 00:   BULK DENSITY
 CALD.IN     45 280 60 00:   CALIPER
 GRD .GAPI   45 310 01 00:   GAMMA RAY FROM DENSITY LOG
~PARAMETER INFORMATION
#MNEM.UNIT          VALUE    DESCRIPTION
#----------   ------------   ------------------------------
 PD  .                 GL:   PERMANENT DATUM
 EPD .F              5169:   ELEVATION PERMANENT DATUM
 LMF .                 KB:   LOG MEASURED FROM
 DAPD.F                 5:   FEET ABOVE PERMANENT DATUM
 DMF .                 KB:   DRILLING MEASURED FROM
 EKB .F              5174:   KELLING BUSHING
 EGL .F              5169:   GROUND LEVEL
 DATE.            6-11-80:   RUN DATE
 RUN .                  1:   RUN NUMBER
 DD  .F               472:   DEPTH DRILLER
 DL  .F               472:   DEPTH LOGGER
 BLI .F               470:   BOTTOM LOG INTERVAL
 TLI .F                30:   TOP LOG INTERVAL
 BS  .IN            9.875:   BIT SIZE
 BSD .F               472:   BIT SIZE AT DEPTH
 DFT .                KCL:   DRILLING FLUID TYPE
 DFD .                9.5:   DRILLING FLUID DENSITY
 DFV .                 47:   DRILLING FLUID VISCOSITY
 DFPH.                 12:   DRILLING FLUID PH
 DFL .                7.2:   DRILLING FLUID LOSS
 MSS .           MUD TANK:   MUD SAMPLE SOURCE
 RMS .OHMM            .26:   RESISTIVITY MUD SAMPLE
 MST .F                75:   MUD SAMPLE TEMPERATURE
 RMF .OHMM            .21:   RESISTIVITY MUD FILTRATE SAMPLE
 MFST.F                75:   MUD FILTRATE SAMPLE TEMPERATURE
 RMC .OHMM            .31:   RESISTIVITY MUD CAKE
 MCST.F                75:   MUD CAKE SAMPLE TEMPERATURE
 MFSS.           MEASURED:   MUD FILTRATE SAMPLE SOURCE
 MCSS.           MEASURED:   MUD CAKE SAMPLE SOURCE
 RMB .OHMM            .26:   RESISTIVITY MUD AT BHT
 BHT .F                75:   BOTTOM HOLE TEMPERATURE
 TCS .HRS             1.5:   TIME CURCULATED STOPPED
 MRT .F                75:   MAXIMUM RECORDED TEMPERATURE
 LUN .               9685:   LOGGING UNIT NUMBER
 LUL .             CASPER:   LOGGING UNIT LOCATION
 ENGI.               REIN:   RECORDING ENGINEER
 WITN.          DINSMOORE:   WITNESSED BY
 CLNT.            A2DTECH:   CLIENT CODE
 ORIG.           5" PRINT:   ORIGIN OF DATA
 UWI .       490251082200:   UNIQUE WELL ID
 DICO. A2D Technologies, Inc.:   DIGITIZING COMPANY
~OTHER INFORMATION
~A   DEPT      SPR       GURD        ILD        ILM         DPHI       NPHI     CORR       RHOB        CALD       GRD   
# ...
   91.0000   -56.4818    11.7590     8.1510     9.6252     0.1116     0.2975     0.0725     2.4527    10.1044    99.0526
   91.5000   -56.3304    12.0249     8.4373     9.8935     0.1166     0.2975     0.0612     2.4646    10.1042    97.9845
   92.0000   -56.1791    12.5434     8.7657    10.1690     0.1212     0.2989     0.0503     2.4399    10.1041    96.9517
   92.5000   -56.0277    13.0853     9.1069    10.4527     0.1058     0.3022     0.0533     2.4355    10.1039    95.9188
   93.0000   -55.8764    14.5462     9.4614    10.7918     0.1032     0.2962     0.0779     2.4686    10.1038    94.8859
   93.5000   -55.7251    16.4996     9.8478    11.4097     0.1033     0.2870     0.0716     2.4784    10.1036    93.8518
   94.0000   -55.5738    17.9093     9.9388    11.1288     0.1075     0.2835     0.0796     2.4830    10.1035    92.8212
   94.5000   -55.4225    12.7179     9.7902    10.8412     0.1097     0.2828     0.0665     2.4640    10.1033    91.7817
   95.0000   -55.2709    12.5551     9.5952    10.5611     0.1057     0.2857     0.0558     2.4562    10.1032    91.5485
   95.5000   -55.1143    12.3943     9.4034    10.2881     0.0990     0.2905     0.0746     2.4780    10.1031    91.8621
   96.0000   -55.0799    12.2356     9.2161    10.1314     0.1012     0.2921     0.0975     2.4842    10.1029    92.1805
   96.5000   -55.0793    12.0789     9.0305     9.9730     0.1049     0.2947     0.1033     2.4766    10.1028    93.1952
   97.0000   -55.0796    11.9243     8.8337     9.8172     0.0978     0.2978     0.1045     2.4712    10.1026    94.6755
   97.5000   -55.0797    11.7290     8.6337     9.6637     0.0943     0.2944     0.1107     2.4906    10.1025    96.1649
   98.0000   -55.0797    11.8455     8.4381     9.5127     0.1056     0.2898     0.0991     2.4778    10.1023    97.6580
   98.5000   -55.0797    12.0563     8.2470     9.3641     0.1085     0.2879     0.0873     2.4616    10.1022    99.1332
   99.0000   -55.0797    11.6720     8.1175     9.2335     0.0935     0.2863     0.1025     2.4806    10.1020    99.4698
   99.5000   -55.0797    11.1423     8.1478     9.2335     0.0963     0.2844     0.1096     2.4911    10.1019    99.3768
  100.0000   -55.0797    10.9974     8.1908     9.2335     0.0988     0.2899     0.0921     2.4864    10.1017    96.7987
  100.5000   -55.0797    11.4245     8.2341     9.2335     0.0961     0.2904     0.1084     2.4823    10.1016    93.8219
  101.0000   -55.0798    11.7290     8.2776     9.2335     0.0969     0.2912     0.1029     2.4852    10.1014    92.0748
  101.5000   -55.0799    11.4012     8.3215     9.2082     0.1086     0.2941     0.0902     2.4731    10.1013    91.8499
  102.0000   -55.0721    10.9913     8.3656     9.1656     0.1179     0.2966     0.0795     2.4479    10.1011    92.0449
  102.5000   -55.0068    11.3873     8.4226     9.0606     0.1054     0.3013     0.1060     2.4636    10.1010    92.8519
  103.0000   -54.9410    11.9550     8.2986     9.2944     0.1026     0.3026     0.0946     2.4739    10.1009    94.3051
  103.5000   -54.8754    12.5506     8.0677     9.5796     0.0964     0.2966     0.1043     2.4879    10.1007    95.0819
  104.0000   -54.8098    13.2193     7.8431     9.4400     0.0947     0.2932     0.1129     2.4808    10.1005    94.1760
  104.5000   -54.7442    11.4753     7.6089     9.1825     0.1040     0.2896     0.0831     2.4734    10.1004    94.2937
  105.0000   -54.6787    10.6980     7.6094     8.9292     0.1101     0.2892     0.0832     2.4684    10.1003    95.2758
  105.5000   -54.6131    11.1579     7.7701     8.7177     0.1101     0.2919     0.1013     2.4538    10.1001    96.2474
  106.0000   -54.5475    11.3052     7.8965     8.6546     0.1079     0.2945     0.1063     2.4518    10.1000    97.2017
  106.5000   -54.4819    10.6587     7.8357     8.5933     0.1059     0.2972     0.1151     2.4672    10.0998    97.6907
  107.0000   -54.4162    10.3114     7.7263     8.5782     0.1038     0.2976     0.1081     2.4651    10.0997    96.3990
  107.5000   -54.3501    10.4050     7.6185     8.6872     0.1026     0.2969     0.1096     2.4680    10.0995    95.1150
  108.0000   -54.2862    10.6705     7.5121     8.8026     0.1026     0.2969     0.1180     2.4724    10.0994    95.0421
  108.5000   -54.3208    10.8967     7.4039     8.8998     0.1069     0.2975     0.1020     2.4679    10.0992    95.3928
  109.0000   -54.3613    10.7157     7.3305     8.8998     0.1065     0.2967     0.1021     2.4661    10.0991    95.0394
  109.5000   -54.4014    10.4053     7.3152     8.8777     0.1034     0.2934     0.1124     2.4659    10.0989    94.2573
  110.0000   -54.4414    10.2170     7.3000     8.8549     0.1087     0.2915     0.1048     2.4622    10.0988    94.1277
  110.5000   -54.4814    10.6000     7.2848     8.8322     0.1136     0.2943     0.0846     2.4585    10.0986    93.6986
  111.0000   -54.5214    10.4576     7.2697     8.7971     0.1089     0.2975     0.1023     2.4561    10.0985    92.6793
  111.5000   -54.5614    10.2170     7.2546     8.6850     0.1128     0.2986     0.1088     2.4545    10.0983    91.6508
  112.0000   -54.6015    10.2170     7.2395     8.5743     0.1185     0.2964     0.0976     2.4465    10.0982    92.3076
  112.5000   -54.6420    10.8967     7.2245     8.4650     0.1218     0.2936     0.0831     2.4289    10.0981    93.1937
  113.0000   -54.6788    10.5594     7.2094     8.3571     0.1092     0.2920     0.1086     2.4563    10.0979    94.0873
  113.5000   -54.6372    10.1529     7.1945     8.2505     0.0974     0.2914     0.1178     2.4880    10.0978    94.7118
  114.0000   -54.5923     9.7620     7.1795     8.1453     0.0858     0.2904     0.1329     2.5036    10.0976    95.1831
  114.5000   -54.5478     9.3861     7.1646     8.0431     0.0844     0.2885     0.1160     2.5058    10.0975    94.4274
  115.0000   -54.5033     9.3188     7.1497     8.0157     0.0978     0.2867     0.1150     2.4895    10.0973    94.4712
  115.5000   -54.4589     9.6313     7.1348     7.9888     0.1053     0.2856     0.1004     2.4658    10.0972    95.4121
  116.0000   -54.4144     9.9388     7.1200     7.9621     0.1019     0.2862     0.1035     2.4731    10.0970    94.5459
  116.5000   -54.3698     9.9388     7.1052     7.9354     0.0974     0.2886     0.1213     2.4757    10.0969    95.3960
  117.0000   -54.3247     9.5806     7.0904     7.9088     0.1043     0.2910     0.1212     2.4812    10.0967    96.5304
  117.5000   -54.2869     9.3379     7.0757     7.8822     0.1101     0.2935     0.0971     2.4504    10.0966    96.5786
  118.0000   -54.3652     9.0651     7.0610     7.8558     0.1080     0.2959     0.1005     2.4434    10.0964    95.2150
  118.5000   -54.4459     9.1193     7.0462     7.8294     0.1049     0.2982     0.1097     2.4669    10.0963    94.3789
  119.0000   -54.5255     9.2040     7.0316     7.8034     0.1044     0.2977     0.1168     2.4697    10.0962    94.2390
  119.5000   -54.6032     9.2894     7.0175     7.7784     0.1061     0.2966     0.1195     2.4643    10.0960    94.6736
  120.0000   -54.6995     9.3756     6.9578     7.7525     0.1168     0.2955     0.1027     2.4466    10.0958    96.5321
  120.5000   -55.1421     9.4050     6.7736     7.4832     0.1223     0.2968     0.0911     2.4352    10.0957    98.5594
  121.0000   -55.5838     9.1093     6.5944     7.2377     0.1248     0.2982     0.0776     2.4235    10.0956   100.4278
  121.5000   -56.0210     8.7788     6.4198     7.0008     0.1314     0.3001     0.0678     2.4039    10.0954    99.8157
  122.0000   -56.0768     8.4330     6.2499     6.8762     0.1227     0.3041     0.0770     2.4153    10.0953    98.9101
  122.5000   -56.0766     7.9783     6.0849     6.7615     0.1250     0.3081     0.0888     2.4343    10.0951    98.6585
  123.0000   -56.0758     7.6708     5.9369     6.6981     0.1237     0.3116     0.0837     2.4271    10.0950    99.6192
  123.5000   -56.0757     8.0826     5.8298     6.6365     0.1210     0.3054     0.0959     2.4396    10.0948   100.5600
  124.0000   -56.0757     8.7276     5.7327     6.6299     0.1245     0.2996     0.0811     2.4181    10.0947   101.2352
