~VERSION INFORMATION
 VERS.                2.0:   CWLS LOG ASCII STANDARD - VERSION 2.0
 WRAP.                 NO:   ONE LINE PER DEPTH STEP
~WELL INFORMATION
#MNEM.UNIT      DATA TYPE    INFORMATION
#----------   ------------   ------------------------------
 STRT.F            4.0000:   START DEPTH
 STOP.F          468.5000:   STOP DEPTH
 STEP.F            0.1000:   STEP LENGTH
 NULL.          -999.2500:   NO VALUE
 COMP. BROWN JOHN E&C INC:   COMPANY
 WELL.  SX-10 #1-14-SX-10:   WELL
 FLD .        N.P.R. No.3:   FIELD
 LOC .      S10 T38N R78W:   LOCATION
 CNTY.            NATRONA:   COUNTY
 STAT.            WYOMING:   STATE
 CTRY. UNITED STATES OF AMERICA:   COUNTRY
 SRVC.     Atlas Wireline:   SERVICE COMPANY
 DATE.        21-SEP-1991:   LOGDATE
 API .       490251125800:   API NUMBER
~CURVE INFORMATION
#MNEM.UNIT       API CODE    CURVE DESCRIPTION
#----------   ------------   ------------------------------
 DEPT.F                  :   
 GRR .GAPI   07 310 01 00:   GAMMA RAY FROM RES. LOG.
 ILD .OHMM   07 120 46 00:   INDUCTION LOG DEEP
 RILM.OHMM   07 120 44 00:   INDUCTION LOG MEDIUM RESISTIVITY
~PARAMETER INFORMATION
#MNEM.UNIT          VALUE    DESCRIPTION
#----------   ------------   ------------------------------
 PD  .                 GL:   PERMANENT DATUM
 EPD .F              5183:   ELEVATION PERMANENT DATUM
 LMF .                 KB:   LOG MEASURED FROM
 DAPD.F                10:   FEET ABOVE PERMANENT DATUM
 DMF .                 KB:   DRILLING MEASURED FROM
 EKB .F              5193:   KELLING BUSHING
 EGL .F              5183:   GROUND LEVEL
 DATE.            9-21-91:   RUN DATE
 RUN .                  1:   RUN NUMBER
 DD  .F               480:   DEPTH DRILLER
 DL  .F               478:   DEPTH LOGGER
 BLI .F               470:   BOTTOM LOG INTERVAL
 CS  .IN                7:   CASING SIZE
 CBD .F                90:   CASING BOTTOM DRILLER
 CBL .F                90:   CASING BOTTOM LOGGER
 BS  .IN             6.25:   BIT SIZE
 BSD .F               480:   BIT SIZE AT DEPTH
 DFT .                AIR:   DRILLING FLUID TYPE
 TCS .HRS               1:   TIME CURCULATED STOPPED
 MRT .F                80:   MAXIMUM RECORDED TEMPERATURE
 LUN .            HL-6307:   LOGGING UNIT NUMBER
 LUL .             CASPER:   LOGGING UNIT LOCATION
 ENGI.             RAUTIO:   RECORDING ENGINEER
 WITN.             STRONG:   WITNESSED BY
 CLNT.            A2DTECH:   CLIENT CODE
 ORIG.        2" 5" PRINT:   ORIGIN OF DATA
 UWI .       490251125800:   UNIQUE WELL ID
 DICO. A2D Technologies, Inc.:   DIGITIZING COMPANY
~OTHER INFORMATION
~A    DEPT       GRR      ILD       RILM   
# ...
  186.0000   142.8562     7.3813     7.6736
  186.1000   143.2936     7.4378     7.6976
  186.2000   143.7310     7.4943     7.7216
  186.3000   144.1685     7.5508     7.7457
  186.4000   144.6059     7.6073     7.7697
  186.5000   145.0433     7.6639     7.7937
  186.6000   145.5486     7.6516     7.8110
  186.7000   146.0539     7.6393     7.8283
  186.8000   146.5592     7.6270     7.8456
  186.9000   147.0645     7.6147     7.8629
  187.0000   147.5698     7.6024     7.8802
  187.1000   147.5559     7.5794     7.8422
  187.2000   147.5420     7.5564     7.8041
  187.3000   147.5282     7.5334     7.7661
  187.4000   147.5143     7.5105     7.7280
  187.5000   147.5004     7.4875     7.6899
  187.6000   147.1698     7.4577     7.6610
  187.7000   146.8393     7.4278     7.6320
  187.8000   146.5087     7.3980     7.6030
  187.9000   146.1782     7.3682     7.5740
  188.0000   145.8476     7.3384     7.5450
  188.1000   145.4934     7.3092     7.5166
  188.2000   145.1392     7.2799     7.4881
  188.3000   144.7850     7.2507     7.4597
  188.4000   144.4308     7.2215     7.4312
  188.5000   144.0766     7.1922     7.4028
  188.6000   144.0923     7.1636     7.3749
  188.7000   144.1080     7.1349     7.3470
  188.8000   144.1237     7.1063     7.3191
  188.9000   144.1394     7.0777     7.2912
  189.0000   144.1551     7.0490     7.2633
  189.1000   144.3104     7.0291     7.2359
  189.2000   144.4658     7.0092     7.2085
  189.3000   144.6211     6.9892     7.1811
  189.4000   144.7765     6.9693     7.1537
  189.5000   144.9318     6.9494     7.1264
  189.6000   144.7431     6.9299     7.0995
  189.7000   144.5543     6.9105     7.0726
  189.8000   144.3655     6.8911     7.0458
  189.9000   144.1768     6.8717     7.0189
  190.0000   143.9880     6.8522     6.9920
  190.1000   143.4958     6.8298     6.9643
  190.2000   143.0035     6.8075     6.9366
  190.3000   142.5113     6.7851     6.9089
  190.4000   142.0190     6.7627     6.8812
  190.5000   141.5268     6.7403     6.8535
  190.6000   141.4379     6.6714     6.8022
  190.7000   141.3491     6.6025     6.7509
  190.8000   141.2603     6.5336     6.6996
  190.9000   141.1715     6.4648     6.6483
  191.0000   141.0827     6.3959     6.5970
  191.1000   141.6334     6.3309     6.5449
  191.2000   142.1841     6.2659     6.4929
  191.3000   142.7349     6.2009     6.4409
  191.4000   143.2856     6.1359     6.3888
  191.5000   143.8363     6.0710     6.3368
  191.6000   144.4305     6.0092     6.2830
  191.7000   145.0247     5.9475     6.2292
  191.8000   145.6190     5.8858     6.1754
  191.9000   146.2132     5.8240     6.1216
  192.0000   146.8074     5.7623     6.0678
  192.1000   147.3358     5.7037     5.9987
  192.2000   147.8641     5.6452     5.9295
  192.3000   148.3925     5.5866     5.8604
  192.4000   148.9208     5.5281     5.7912
  192.5000   149.4492     5.4695     5.7221
  192.6000   149.6191     5.4139     5.6568
  192.7000   149.7890     5.3583     5.5916
  192.8000   149.9589     5.3027     5.5264
  192.9000   150.1288     5.2471     5.4612
  193.0000   150.2987     5.1916     5.3960
  193.1000   150.3532     5.1388     5.3345
  193.2000   150.4076     5.0860     5.2730
  193.3000   150.4620     5.0333     5.2115
  193.4000   150.5164     4.9805     5.1500
  193.5000   150.5709     4.9278     5.0885
  193.6000   150.5935     4.8779     5.0390
  193.7000   150.6161     4.8280     4.9895
  193.8000   150.6387     4.7781     4.9399
  193.9000   150.6613     4.7282     4.8904
  194.0000   150.6839     4.6783     4.8409
  194.1000   150.3727     4.6696     4.8254
  194.2000   150.0616     4.6610     4.8098
  194.3000   149.7504     4.6523     4.7943
  194.4000   149.4392     4.6436     4.7788
  194.5000   149.1281     4.6350     4.7633
  194.6000   148.3115     4.6488     4.7631
  194.7000   147.4949     4.6627     4.7630
  194.8000   146.6783     4.6766     4.7629
  194.9000   145.8617     4.6904     4.7628
  195.0000   145.0452     4.7043     4.7627
  195.1000   144.2254     4.7215     4.8122
  195.2000   143.4056     4.7388     4.8617
  195.3000   142.5859     4.7560     4.9113
  195.4000   141.7661     4.7733     4.9608
  195.5000   140.9464     4.7905     5.0104
  195.6000   140.5892     4.8078     5.0871
  195.7000   140.2320     4.8252     5.1638
  195.8000   139.8748     4.8425     5.2405
  195.9000   139.5176     4.8598     5.3172
  196.0000   139.1605     4.8772     5.3939
  196.1000   139.6187     4.8916     5.4765
  196.2000   140.0770     4.9061     5.5590
  196.3000   140.5352     4.9206     5.6416
  196.4000   140.9935     4.9350     5.7242
  196.5000   141.4517     4.9495     5.8067
  196.6000   142.0647     5.0357     5.8956
  196.7000   142.6777     5.1219     5.9845
  196.8000   143.2907     5.2081     6.0734
  196.9000   143.9037     5.2943     6.1623
  197.0000   144.5168     5.3805     6.2512
  197.1000   144.8210     5.4707     6.3216
  197.2000   145.1252     5.5609     6.3919
  197.3000   145.4294     5.6510     6.4622
  197.4000   145.7336     5.7412     6.5326
  197.5000   146.0378     5.8314     6.6029
  197.6000   146.2770     5.9291     6.6461
  197.7000   146.5161     6.0268     6.6893
  197.8000   146.7553     6.1245     6.7325
  197.9000   146.9944     6.2222     6.7757
  198.0000   147.2336     6.3200     6.8188
  198.1000   147.6609     6.4259     6.8609
  198.2000   148.0883     6.5318     6.9029
  198.3000   148.5156     6.6377     6.9450
  198.4000   148.9430     6.7436     6.9871
  198.5000   149.3703     6.8495     7.0291
  198.6000   149.8843     6.8719     7.0725
  198.7000   150.3984     6.8943     7.1158
  198.8000   150.9124     6.9168     7.1592
  198.9000   151.4264     6.9392     7.2025
  199.0000   151.9405     6.9616     7.2459
  199.1000   151.9076     6.9717     7.2817
  199.2000   151.8748     6.9818     7.3174
  199.3000   151.8419     6.9919     7.3532
  199.4000   151.8091     7.0020     7.3890
  199.5000   151.7763     7.0120     7.4248
  199.6000   151.7310     7.0192     7.4572
  199.7000   151.6857     7.0263     7.4896
  199.8000   151.6405     7.0334     7.5220
  199.9000   151.5952     7.0406     7.5544
  200.0000   151.5499     7.0477     7.5868
  200.1000   151.5136     7.0237     7.6166
  200.2000   151.4773     6.9996     7.6464
  200.3000   151.4409     6.9756     7.6761
  200.4000   151.4046     6.9516     7.7059
  200.5000   151.3683     6.9275     7.7357
  200.6000   151.5150     6.9060     7.7375
  200.7000   151.6616     6.8845     7.7394
  200.8000   151.8083     6.8630     7.7413
  200.9000   151.9549     6.8415     7.7432
  201.0000   152.1016     6.8200     7.7450
  201.1000   152.2633     6.7891     7.7472
  201.2000   152.4251     6.7581     7.7494
  201.3000   152.5868     6.7272     7.7516
  201.4000   152.7485     6.6962     7.7538
  201.5000   152.9103     6.6653     7.7560
  201.6000   153.0740     6.6677     7.7581
  201.7000   153.2377     6.6702     7.7603
  201.8000   153.4014     6.6726     7.7624
  201.9000   153.5651     6.6751     7.7645
  202.0000   153.7289     6.6775     7.7667
  202.1000   153.5935     6.6829     7.7688
  202.2000   153.4582     6.6883     7.7710
  202.3000   153.3228     6.6937     7.7731
  202.4000   153.1875     6.6991     7.7753
  202.5000   153.0522     6.7046     7.7774
  202.6000   152.6538     6.7098     7.7796
  202.7000   152.2555     6.7151     7.7817
  202.8000   151.8572     6.7203     7.7838
  202.9000   151.4589     6.7255     7.7860
  203.0000   151.0606     6.7308     7.7881
  203.1000   150.8854     6.7361     7.7903
  203.2000   150.7101     6.7414     7.7925
  203.3000   150.5349     6.7466     7.7947
  203.4000   150.3596     6.7519     7.7969
  203.5000   150.1844     6.7572     7.7991
  203.6000   150.3951     6.7624     7.8007
  203.7000   150.6059     6.7676     7.8023
  203.8000   150.8166     6.7728     7.8039
  203.9000   151.0274     6.7779     7.8055
  204.0000   151.2381     6.7831     7.8071
  204.1000   151.8840     6.8091     7.8002
