~VERSION INFORMATION
 VERS.                2.0:   CWLS LOG ASCII STANDARD - VERSION 2.0
 WRAP.                 NO:   ONE LINE PER DEPTH STEP
~WELL INFORMATION
#MNEM.UNIT      DATA TYPE    INFORMATION
#----------   ------------   ------------------------------
 STRT.F            0.0000:   START DEPTH
 STOP.F          516.0000:   STOP DEPTH
 STEP.F            0.5000:   STEP LENGTH
 NULL.          -999.2500:   NO VALUE
 COMP.       F D SERV INC:   COMPANY
 WELL. NAVAL PETROLEUM RESERVE 3 SX-3 #77-2-3:   WELL
 FLD .             TEAPOT:   FIELD
 LOC .       S3 T38N R78W:   LOCATION
 CNTY.            NATRONA:   COUNTY
 STAT.            WYOMING:   STATE
 CTRY. UNITED STATES OF AMERICA:   COUNTRY
 SRVC.      Western Atlas:   SERVICE COMPANY
 DATE.        22-OCT-1992:   LOGDATE
 API .       490252255600:   API NUMBER
~CURVE INFORMATION
#MNEM.UNIT       API CODE    CURVE DESCRIPTION
#----------   ------------   ------------------------------
 DEPT.F                  :   
 GRR .GAPI   06 310 01 00:   GAMMA RAY FROM RESISTIVITY
 RILD.OHMM   06 120 46 00:   DEEP INDUCTION RESISTIVITY
 RILM.OHMM   06 120 44 00:   INDUCTION LOG MEDIUM RESISTIVITY
~PARAMETER INFORMATION
#MNEM.UNIT          VALUE    DESCRIPTION
#----------   ------------   ------------------------------
 PD  .                 GL:   PERMANENT DATUM
 EPD .F              5139:   ELEVATION PERMANENT DATUM
 LMF .                 KB:   LOG MEASURED FROM
 DAPD.F                10:   FEET ABOVE PERMANENT DATUM
 DMF .                 KB:   DRILLING MEASURED FROM
 EKB .F              5149:   KELLING BUSHING
 EDF .F              5148:   DRILLING FLOOR
 EGL .F              5139:   GROUND LEVEL
 DATE.        22-DEC-1992:   RUN DATE
 RUN .                  1:   RUN NUMBER
 DD  .F               525:   DEPTH DRILLER
 DL  .F               524:   DEPTH LOGGER
 CS  .IN            8.625:   CASING SIZE
 CBL .F                98:   CASING BOTTOM LOGGER
 BS  .IN            9.875:   BIT SIZE
 BSD .F               525:   BIT SIZE AT DEPTH
 DFT .           AIR FOAM:   DRILLING FLUID TYPE
 TCS .HRS               2:   TIME CURCULATED STOPPED
 LUN .            HL-6274:   LOGGING UNIT NUMBER
 LUL .             CASPER:   LOGGING UNIT LOCATION
 ENGI.             RASTIC:   RECORDING ENGINEER
 WITN.        GARY STRONG:   WITNESSED BY
 CLNT.            A2DTECH:   CLIENT CODE
 ORIG.           5" PRINT:   ORIGIN OF DATA
 UWI .       490252255600:   UNIQUE WELL ID
 DICO. A2D Technologies, Inc.:   DIGITIZING COMPANY
~OTHER INFORMATION
~A    DEPT      GRR      RILD       RILM   
# ...
  455.0000   115.9217    12.5365    12.3136
  455.5000   116.5101    12.6235    12.4014
  456.0000   115.8963    12.6235    12.4085
  456.5000   115.5852    12.7112    12.5795
  457.0000   116.7733    12.8883    12.7571
  457.5000   120.0603    13.0679    12.8481
  458.0000   117.0477    13.0679    12.8506
  458.5000   112.8386    13.2500    12.8537
  459.0000   108.0297    13.3420    12.8563
  459.5000   105.8751    13.3420    12.9479
  460.0000   105.3057    13.3420    12.9505
  460.5000   106.4938    13.3420    12.9531
  461.0000   109.1811    13.3420    13.0460
  461.5000   109.7696    13.3420    13.0486
  462.0000   110.0553    13.0679    12.6080
  462.5000   112.7427    12.8883    12.5236
  463.0000   113.6312    12.9778    12.7010
  463.5000   111.8178    13.0679    12.5291
  464.0000   109.7075    12.7994    12.5316
  464.5000   111.4954    12.8883    12.5340
  465.0000   115.3821    12.8883    12.5366
  465.5000   117.1699    12.8883    12.5396
  466.0000   113.5576    12.7112    12.6290
  466.5000   109.0486    12.7112    12.5439
  467.0000   106.9384    12.5365    12.3717
  467.5000   110.5225    12.5365    12.0404
  468.0000   113.8096    12.1942    11.8769
  468.5000   117.0966    12.0266    11.7162
  469.0000   120.0840    11.7671    11.3996
  469.5000   119.4700    11.3789    11.0916
  470.0000   120.6582    11.2225    11.0168
  470.5000   121.8463    11.0683    10.7935
  471.0000   121.8350    10.7661    10.5013
  471.5000   121.5211    10.6181    10.2823
  472.0000   122.1095    10.3283    10.0788
  472.5000   125.0967    10.1161    10.0114
  473.0000   128.3838    10.0463     9.9444
  473.5000   126.5706     9.9082     9.8783
  474.0000   124.4603     9.9082     9.8122
  474.5000   124.7489     9.9082     9.7466
  475.0000   127.1364     9.9082     9.8166
  475.5000   125.9229     9.9082     9.7508
  476.0000   125.3120     9.9082     9.6856
  476.5000   124.4011     9.8399     9.6880
  477.0000   122.5788     9.8399     9.8248
  477.5000   119.2783     9.7720     9.8267
  478.0000   119.2670     9.7047     9.6920
  478.5000   119.2557     9.6377     9.4313
  479.0000   119.5522     9.5053     9.4336
  479.5000   122.2289     9.3746     9.1783
  480.0000   124.6164     9.3100     8.9918
  480.5000   127.6036     9.1187     8.8090
  481.0000   130.6147     8.9314     8.6898
  481.5000   132.3758     8.6875     8.5723
  482.0000   132.3645     8.6276     8.5149
  482.5000   129.9545     8.6276     8.4583
  483.0000   127.8442     8.6276     8.4604
  483.5000   130.5316     8.5090     8.3459
  484.0000   130.5175     8.3921     8.2330
  484.5000   128.7071     8.2680     8.1216
  485.0000   128.0961     7.9401     7.7937
  485.5000   129.8840     7.6172     7.4787
  486.0000   128.6705     7.4093     7.2762
  486.5000   127.4598     7.2070     7.0793
  487.0000   128.7436     7.0102     6.9354
  487.5000   131.9322     7.0589     6.9852
  488.0000   132.2235     7.1573     7.0838
  488.5000   131.0100     7.3582     7.3342
  489.0000   130.0710     7.5692     7.6476
  489.5000   129.7853     7.8854     8.0827
  490.0000   130.3737     8.2767     8.3685
  490.5000   131.8617     8.7479     8.7244
  491.0000   135.1487     9.3100     9.4152
  491.5000   133.6354     9.9770     9.8257
  492.0000   128.5266    10.1863     9.9547
  492.5000   124.3175    10.2571     9.9566
  493.0000   124.7498    10.3283    10.0276
  493.5000   130.5889    10.3283    10.0333
  494.0000   129.6781    10.3283    10.2422
  494.5000   127.2680    10.2571    10.2442
  495.0000   127.5962    10.3283    10.2462
  495.5000   129.0446    10.0463    10.2482
  496.0000   127.5312    10.0463    10.1796
  496.5000   128.1196    10.0463    10.1821
  497.0000   129.6076    10.0463    10.0444
  497.5000   129.5935    10.0463     9.9085
  498.0000   129.2834    10.0463     9.8422
  498.5000  -999.2500     9.9082     9.8446
  499.0000  -999.2500     9.9082     9.8465
  499.5000  -999.2500     9.9082     9.9167
  500.0000  -999.2500     9.9082     9.8504
  500.5000  -999.2500     9.9082     9.9187
  501.0000  -999.2500     9.9770     9.5819
  501.5000  -999.2500    10.1161     9.3853
  502.0000  -999.2500     9.9082     9.1928
  502.5000  -999.2500     9.7047     9.0042
  503.0000  -999.2500     9.3746     8.7587
  503.5000  -999.2500     8.7479     8.4030
  504.0000  -999.2500     8.2197     7.9866
  504.5000  -999.2500     7.7770     7.4718
  505.0000  -999.2500     7.3074     6.9729
  505.5000  -999.2500     6.9519     6.5525
  506.0000  -999.2500     6.2755     6.1563
  506.5000  -999.2500     5.4644     5.3258
  507.0000  -999.2500     4.7582     4.3890
  507.5000  -999.2500     4.2301     3.6673
  508.0000  -999.2500     3.4610     3.1720
  508.5000  -999.2500     3.1852     2.9987
  509.0000  -999.2500     3.0769     2.9807
  509.5000  -999.2500     3.0556     3.1069
  510.0000  -999.2500     3.1004     3.3755
  510.5000  -999.2500     3.3202     3.7732
  511.0000  -999.2500     3.5336     4.2694
  511.5000  -999.2500     3.8130     4.5120
  512.0000  -999.2500     4.4990     4.9703
  512.5000  -999.2500  -999.2500     5.7068
  513.0000  -999.2500  -999.2500     6.4752
  513.5000  -999.2500  -999.2500     7.1190
  514.0000  -999.2500  -999.2500     7.5236
  514.5000  -999.2500  -999.2500     7.8420
  515.0000  -999.2500  -999.2500     7.8964
  515.5000  -999.2500  -999.2500     7.9511
  516.0000  -999.2500  -999.2500     7.9776
