~VERSION INFORMATION
 VERS.                2.0:   CWLS LOG ASCII STANDARD - VERSION 2.0
 WRAP.                 NO:   ONE LINE PER DEPTH STEP
~WELL INFORMATION
#MNEM.UNIT      DATA TYPE    INFORMATION
#----------   ------------   ------------------------------
 STRT.F            0.0000:   START DEPTH
 STOP.F          446.0000:   STOP DEPTH
 STEP.F            0.5000:   STEP LENGTH
 NULL.          -999.2500:   NO VALUE
 COMP.       F D SERV INC:   COMPANY
 WELL. NAVAL PETROLEUM RESERVE 3 SX-1 #63-5-10:   WELL
 FLD .            WILDCAT:   FIELD
 LOC .      S10 T38N R78W:   LOCATION
 CNTY.            NATRONA:   COUNTY
 STAT.            WYOMING:   STATE
 CTRY. UNITED STATES OF AMERICA:   COUNTRY
 SRVC.     Atlas Wireline:   SERVICE COMPANY
 DATE.        02-FEB-1993:   LOGDATE
 API .       490252257100:   API NUMBER
~CURVE INFORMATION
#MNEM.UNIT       API CODE    CURVE DESCRIPTION
#----------   ------------   ------------------------------
 DEPT.F                  :   
 GRR .GAPI   07 310 01 00:   GAMMA RAY
 RILD.OHMM   07 120 46 00:   INDUCTION LOG DEEP RESISTIVITY
 RILM.OHMM   07 120 44 00:   RESITIVITY LONG MEDIUM
 PORZ.DEC    45 890 12 00:   DENSITY POROSITY SANDSTONE
 ZCOR.G/C3   45 356 01 00:   DENSITY CORRECTION
 ZDEN.G/C3   45 350 01 00:   BULK DENSITY
 NPHI.DEC    42 890 03 00:   NEUTRON POROSITY SANDSTONE
 C13 .IN     45 280 13 00:   CALIPER X
~PARAMETER INFORMATION
#MNEM.UNIT          VALUE    DESCRIPTION
#----------   ------------   ------------------------------
 PD  .                 GL:   PERMANENT DATUM
 EPD .F              5182:   ELEVATION PERMANENT DATUM
 LMF .                 KB:   LOG MEASURED FROM
 DAPD.F                10:   FEET ABOVE PERMANENT DATUM
 DMF .                 KB:   DRILLING MEASURED FROM
 EKB .F              5192:   KELLING BUSHING
 EDF .F              5191:   DRILLING FLOOR
 EGL .F              5182:   GROUND LEVEL
 DATE.        02-FEB-1993:   RUN DATE
 RUN .                  1:   RUN NUMBER
 DD  .F               450:   DEPTH DRILLER
 DL  .F               450:   DEPTH LOGGER
 BLI .F               442:   BOTTOM LOG INTERVAL
 CS  .IN            8.625:   CASING SIZE
 CBD .F                84:   CASING BOTTOM DRILLER
 CBL .F                84:   CASING BOTTOM LOGGER
 BS  .IN            7.875:   BIT SIZE
 BSD .F               450:   BIT SIZE AT DEPTH
 DFT .                AIR:   DRILLING FLUID TYPE
 MRT .F                51:   MAXIMUM RECORDED TEMPERATURE
 LUN .            HL 6274:   LOGGING UNIT NUMBER
 LUL .             CASPER:   LOGGING UNIT LOCATION
 ENGI.       P. RASMUSSEN:   RECORDING ENGINEER
 WITN.          G. STRONG:   WITNESSED BY
 CLNT.            A2DTECH:   CLIENT CODE
 ORIG.           5" PRINT:   ORIGIN OF DATA
 UWI .       490252257100:   UNIQUE WELL ID
 DICO. A2D Technologies, Inc.:   DIGITIZING COMPANY
~OTHER INFORMATION
~A    DEPT      GRR      RILD       RILM       PORZ       ZCOR       ZDEN       NPHI        C13   
# ...
  405.0000   139.1552     5.8911     5.8105     0.1161     0.0077     2.4467     0.2875     8.0691
  405.5000   136.2155     6.0579     6.0545     0.1029     0.0076     2.4782     0.2679     8.0231
  406.0000   133.7911     6.3969     6.4413     0.0939     0.0030     2.5008     0.2658     8.0072
  406.5000   128.9171     6.6661     6.9010     0.0872    -0.0045     2.5068     0.2701     8.0063
  407.0000   124.4144     6.9950     7.3424     0.0879    -0.0136     2.5007     0.2710     8.0053
  407.5000   125.3082     7.7576     7.9754     0.0936    -0.0182     2.4916     0.2704     8.0044
  408.0000   128.9169     8.3112     8.4856     0.0969    -0.0107     2.4916     0.2695     8.0036
  408.5000   130.1124     8.9661     9.0283     0.0966     0.0042     2.4901     0.2677     8.0027
  409.0000   131.0034     9.4084     9.4084     0.0982     0.0192     2.4878     0.2653     8.0016
  409.5000   132.5004     9.6029     9.6028     0.1012     0.0252     2.4832     0.2629     8.0008
  410.0000   128.8665     9.7329     9.8012     0.1033     0.0266     2.4810     0.2611     7.9999
  410.5000   124.6321     9.8727    10.0029     0.0946     0.0235     2.4877     0.2627     7.9991
  411.0000   125.8276    10.0685    10.2088     0.0919     0.0160     2.4944     0.2641     7.9982
  411.5000   129.9728    10.2056    10.3478     0.0904    -0.0006     2.5012     0.2627     7.9972
  412.0000   138.4720    10.3446    10.4165     0.0886    -0.0082     2.5034     0.2609     7.9963
  412.5000   137.8575    10.4855    10.5583     0.0838     0.0022     2.5086     0.2576     7.9954
  413.0000   134.1539    10.7022    10.7021     0.0814     0.0097     2.5124     0.2561     7.9946
  413.5000   128.7825    10.9225    10.9223     0.0800     0.0142     2.5154     0.2534     7.9935
  414.0000   124.2465    11.3028    10.9997     0.0791     0.0125     2.5176     0.2500     7.9776
  414.5000   122.1207    11.4576    11.2219     0.0803     0.0035     2.5183     0.2483     7.9768
  415.0000   125.7296    11.6934    11.4528     0.0848     0.0019     2.5168     0.2513     7.9759
  415.5000   129.0366    11.8527    11.6088     0.0890     0.0019     2.5100     0.2564     7.9901
  416.0000   128.7238    11.9312    11.9301     0.0900     0.0018     2.5031     0.2573     7.9890
  416.5000   128.7098    12.1768    12.1766     0.0858     0.0048     2.5039     0.2553     7.9882
  417.0000   130.2069    12.2654    12.2574     0.0825     0.0077     2.5091     0.2559     7.9873
  417.5000   132.9106    12.3387    12.4242     0.0828     0.0077     2.5129     0.2577     7.9863
  418.0000   134.7094    12.4205    12.5065     0.0864     0.0046     2.5128     0.2631     7.9854
  418.5000   130.7738    12.5017    12.5894     0.0903     0.0000     2.5090     0.2637     7.9846
  419.0000   125.6344    12.5846    12.6718     0.0934    -0.0030     2.5022     0.2619     7.9837
  419.5000   122.6063    12.6669    12.6667     0.0961    -0.0031     2.4954     0.2604     7.9828
  420.0000   121.9893    12.8395    12.7516     0.1003    -0.0032     2.4864     0.2598     7.9818
  420.5000   121.0731    12.8343    12.8351     0.1006     0.0028     2.4833     0.2620     7.9962
  421.0000   121.0558    12.8302    12.9201     0.0985     0.0087     2.4833     0.2653     7.9951
  421.5000   120.4446    12.7375    12.7372     0.0976     0.0087     2.4855     0.2707     7.9943
  422.0000   120.1317    12.6445    12.6453     0.0965     0.0026     2.4885     0.2734     7.9932
  422.5000   121.6288    12.6405    12.5529     0.0938    -0.0037     2.4922     0.2753     7.9924
  423.0000   126.1397    12.6364    12.5489     0.0902    -0.0065     2.4975     0.2765     7.9916
  423.5000   128.5418    12.6323    12.5448     0.0845     0.0009     2.5065     0.2777     7.9907
  424.0000   128.8326    12.6273    12.5407     0.0836     0.0129     2.5102     0.2780     7.9898
  424.5000  -999.2500    12.5361    12.5358     0.0902     0.0127     2.5048     0.2774     7.9889
  425.0000  -999.2500    12.4456    12.6188     0.0926     0.0037     2.4989     0.2771     7.9879
  425.5000  -999.2500    12.3547    12.6147     0.0926    -0.0038     2.4973     0.2768     7.9870
  426.0000  -999.2500    12.4376    12.5226     0.0945    -0.0099     2.4973     0.2768     8.0012
  426.5000  -999.2500    12.4326    12.4322     0.0978    -0.0115     2.4920     0.2766     8.0002
  427.0000  -999.2500    12.3418    12.2573     0.1018    -0.0115     2.4837     0.2760     7.9993
  427.5000  -999.2500    12.2527    12.0838     0.1035    -0.0131     2.4784     0.2757     7.9985
  428.0000  -999.2500    12.1642    11.9966     0.1017    -0.0131     2.4814     0.2757     8.0127
  428.5000  -999.2500    11.9093    11.9099     0.1014    -0.0057     2.4821     0.2769     7.9965
  429.0000  -999.2500    11.7417    11.7423     0.1049    -0.0118     2.4723     0.2782     7.9957
  429.5000  -999.2500    11.4966    11.4963     0.1099    -0.0118     2.4662  -999.2500     7.9948
  430.0000  -999.2500    11.2514    11.3345     0.1114    -0.0119     2.4655  -999.2500     7.9940
  430.5000  -999.2500    11.0207    11.0979     0.1102    -0.0134     2.4692  -999.2500     8.0082
  431.0000  -999.2500    10.8657    10.8653     0.1076    -0.0165     2.4753  -999.2500     8.0224
  431.5000  -999.2500    10.7128    10.6385     0.1061    -0.0181     2.4804  -999.2500     8.0214
  432.0000  -999.2500    10.4883    10.3445     0.1040    -0.0121     2.4834  -999.2500     8.0355
  432.5000  -999.2500    10.4126    10.1277     0.1022    -0.0062     2.4864  -999.2500     8.0345
  433.0000  -999.2500    10.2660     9.9852     0.0995    -0.0047     2.4903  -999.2500     8.0336
  433.5000  -999.2500    10.0509     9.9820     0.0959    -0.0018     2.5006  -999.2500     8.0177
  434.0000  -999.2500    10.0477     9.9099     0.0929    -0.0003     2.5074  -999.2500     8.0168
  434.5000  -999.2500     9.9751     9.9059     0.0886     0.0026     2.5118  -999.2500     8.0160
  435.0000  -999.2500     9.8347     9.9027     0.0833     0.0180     2.5103  -999.2500     8.0149
  435.5000  -999.2500     9.8308     9.8312     0.0827     0.0356     2.5035  -999.2500     8.0141
  436.0000  -999.2500     9.7598     9.8273     0.0882     0.0491     2.5087  -999.2500     8.0132
  436.5000  -999.2500     0.2000     9.8241     0.0871     0.0430     2.5170  -999.2500     8.0123
  437.0000  -999.2500     0.2000     9.8209     0.0813     0.0260     2.5230  -999.2500     8.0113
  437.5000  -999.2500  -999.2500     9.8852     0.0768     0.0053     2.5252  -999.2500     8.0104
  438.0000  -999.2500  -999.2500     9.8820     0.0774     0.0022     2.5214  -999.2500     7.9891
  438.5000  -999.2500  -999.2500     9.8788     0.0783     0.0052     2.5206  -999.2500     7.9786
  439.0000  -999.2500  -999.2500     9.8711     0.0777     0.0098     2.5236  -999.2500     7.9928
  439.5000  -999.2500  -999.2500    10.1366     0.0762     0.0185     2.5243  -999.2500     7.9917
  440.0000  -999.2500  -999.2500     9.9414     0.0753     0.0185     2.5243  -999.2500     7.9909
  440.5000  -999.2500  -999.2500     9.7550     0.0790     0.0154     2.5183  -999.2500     7.9900
  441.0000  -999.2500  -999.2500     9.5685     0.0844     0.0063     2.5077  -999.2500     7.9892
  441.5000  -999.2500  -999.2500     9.3821     0.0871     0.0033     2.5100  -999.2500     8.0034
  442.0000  -999.2500  -999.2500     9.1956     0.0843     0.0032     2.5189  -999.2500     8.0023
  442.5000  -999.2500  -999.2500  -999.2500     0.0742     0.0032     2.5324  -999.2500     8.0015
  443.0000  -999.2500  -999.2500  -999.2500     0.0685     0.0031     2.5377  -999.2500     8.0006
  443.5000  -999.2500  -999.2500  -999.2500     0.0661     0.0030     2.5391  -999.2500     7.9995
  444.0000  -999.2500  -999.2500  -999.2500     0.0658     0.0030     2.5399  -999.2500     7.9988
  444.5000  -999.2500  -999.2500  -999.2500  -999.2500     0.0044     2.5406  -999.2500     7.9979
  445.0000  -999.2500  -999.2500  -999.2500  -999.2500     0.0059     2.5398  -999.2500     7.9970
