~VERSION INFORMATION
 VERS.                2.0:   CWLS LOG ASCII STANDARD - VERSION 2.0
 WRAP.                 NO:   ONE LINE PER DEPTH STEP
~WELL INFORMATION
#MNEM.UNIT      DATA TYPE    INFORMATION
#----------   ------------   ------------------------------
 STRT.F         1596.0000:   START DEPTH
 STOP.F         3210.0000:   STOP DEPTH
 STEP.F            0.5000:   STEP LENGTH
 NULL.          -999.2500:   NO VALUE
 COMP.   FLUOR DANIEL INC:   COMPANY
 WELL. NAVAL PETROLEUM RESERVE 3 X-23 #73-23:   WELL
 FLD .             TEAPOT:   FIELD
 LOC .      S23 T38N R78W:   LOCATION
 CNTY.            NATRONA:   COUNTY
 STAT.            WYOMING:   STATE
 CTRY. UNITED STATES OF AMERICA:   COUNTRY
 SRVC.            Unknown:   SERVICE COMPANY
 DATE.        29-JAN-1995:   LOGDATE
 API .       490252265000:   API NUMBER
~CURVE INFORMATION
#MNEM.UNIT       API CODE    CURVE DESCRIPTION
#----------   ------------   ------------------------------
 DEPT.F                  :   
 TGAS.TC/CC  91 830 01 00:   TOTAL GAS UNIT
 ROP .FT/HR  91 810 01 00:   RAT OF DRILLING PENETRATION
~PARAMETER INFORMATION
#MNEM.UNIT          VALUE    DESCRIPTION
#----------   ------------   ------------------------------
 EKB .F              5433:   KELLING BUSHING
 EGL .F              5423:   GROUND LEVEL
 DATE.        29-JAN-1995:   RUN DATE
 RUN .                  1:   RUN NUMBER
 BLI .F              3210:   BOTTOM LOG INTERVAL
 TLI .F              1600:   TOP LOG INTERVAL
 WITN.     C.TOWER/R.HUSK:   WITNESSED BY
 CLNT.            A2DTECH:   CLIENT CODE
 ORIG.           5" PRINT:   ORIGIN OF DATA
 UWI .       490252265000:   UNIQUE WELL ID
 DICO. A2D Technologies, Inc.:   DIGITIZING COMPANY
~OTHER INFORMATION
~A  DEPT        TGAS        ROP 
 1596.0000     1.6981     0.5205
 1596.5000     1.5094     0.5132
 1597.0000     1.6981     0.5094
 1597.5000     1.6981     0.5098
 1598.0000     1.8868     0.5189
 1598.5000     2.0755     0.5189
 1599.0000     2.0755     0.5189
 1599.5000     2.0755     0.5189
 1600.0000     2.0755     0.4717
 1600.5000     2.2642     0.4811
 1601.0000     1.3208     0.4717
 1601.5000     1.3208     0.4811
 1602.0000     1.3208     0.5660
 1602.5000     1.1321     0.6132
 1603.0000     1.3208     0.6038
 1603.5000     1.1321     0.5943
 1604.0000     0.9434     0.5943
 1604.5000     0.7547     0.5849
 1605.0000     0.9434     0.5849
 1605.5000     0.9434     0.5849
 1606.0000     0.9434     0.5755
 1606.5000     1.1321     0.5755
 1607.0000     1.1321     0.5755
 1607.5000     1.1321     0.5755
 1608.0000     1.1321     0.5755
 1608.5000     1.3208     0.5755
 1609.0000     1.3208     0.5755
 1609.5000     1.3208     0.5755
 1610.0000     1.3208     0.5755
 1610.5000     1.5094     0.5755
 1611.0000     1.5094     0.5755
 1611.5000     1.5094     0.5755
 1612.0000     1.6981     0.5755
 1612.5000     1.8868     0.5755
 1613.0000     1.8868     0.5795
 1613.5000     1.6981     0.5849
 1614.0000     1.6981     0.5849
 1614.5000     1.6981     0.5849
 1615.0000     1.6981     0.5849
 1615.5000     1.5094     0.5862
 1616.0000     1.5094     0.7170
 1616.5000     1.5094     0.7547
 1617.0000     1.5094     0.7453
 1617.5000     1.5094     0.7453
 1618.0000     1.5094     0.7453
 1618.5000     1.5094     0.7453
 1619.0000     1.3208     0.7453
 1619.5000     1.3208     0.9623
 1620.0000     1.5094     1.0377
 1620.5000     1.5094     1.0377
 1621.0000     1.5094     1.0377
 1621.5000     1.5094     1.0377
 1622.0000     1.5094     0.8679
 1622.5000     1.5094     0.8774
 1623.0000     1.6981     0.8774
 1623.5000     1.6981     0.8774
 1624.0000     1.6981     0.8679
 1624.5000     1.5094     0.8679
 1625.0000     1.6981     0.8774
 1625.5000     1.6981     0.8774
 1626.0000     1.8868     0.8774
 1626.5000     1.8868     0.8868
 1627.0000     1.6981     0.8868
 1627.5000     1.5094     0.8868
 1628.0000     1.5094     0.8868
 1628.5000     1.8868     0.7636
 1629.0000     1.8868     0.7736
 1629.5000     1.8868     0.7642
 1630.0000     2.0755     0.7626
 1630.5000     2.0755     0.7547
 1631.0000     2.0755     0.7453
 1631.5000     2.0692     0.7453
 1632.0000     2.0755     0.7547
 1632.5000     2.0755     0.7547
 1633.0000     2.0755     0.7547
 1633.5000     1.8868     0.7547
 1634.0000     1.8868     0.7453
 1634.5000     1.8868     0.7453
 1635.0000     1.8868     0.7358
 1635.5000     2.0755     0.7358
 1636.0000     2.0755     0.7484
 1636.5000     1.8868     0.9906
 1637.0000     1.8868     1.0000
 1637.5000     1.6981     1.0094
 1638.0000     1.6981     1.0189
 1638.5000     1.6981     0.7830
 1639.0000     1.8868     0.7925
 1639.5000     1.8868     0.7925
 1640.0000     1.8868     0.6415
 1640.5000     1.8868     0.6321
 1641.0000     1.8868     0.6226
 1641.5000     1.6981     0.6169
 1642.0000     1.6981     0.6088
 1642.5000     1.6981     0.6061
 1643.0000     1.6981     0.6067
 1643.5000     1.6981     0.6071
 1644.0000     1.6981     0.7868
 1644.5000     1.6981     0.7777
 1645.0000     1.6981     0.7783
 1645.5000     1.6981     0.7788
 1646.0000     1.6981     0.7887
 1646.5000     1.6590     0.7986
 1647.0000     1.6186     0.7991
 1647.5000     1.5782     0.7995
 1648.0000     1.5378     0.8000
 1648.5000     1.4974     0.5363
 1649.0000     1.4570     0.5470
 1649.5000     1.4110     0.5561
 1650.0000     1.4157     0.5566
 1650.5000     1.2305     0.5476
 1651.0000     1.4250     0.5482
 1651.5000     1.4296     0.5391
 1652.0000     1.4343     0.5397
 1652.5000     1.4389     0.5402
 1653.0000     1.4436     0.5406
 1653.5000     1.4482     0.5411
 1654.0000     1.4529     0.5510
 1654.5000     1.6462     0.5515
 1655.0000     1.6509     0.5519
 1655.5000     1.4668     0.5524
 1656.0000     1.4726     0.5529
 1656.5000     1.4773     0.5533
 1657.0000     1.4819     0.5632
 1657.5000     1.4866     0.5637
 1658.0000     1.4912     0.5547
 1658.5000     1.4959     0.5552
 1659.0000     1.5005     0.5557
 1659.5000     1.3153     0.5561
 1660.0000     1.3211     0.5566
 1660.5000     1.3258     0.5522
 1661.0000     1.3304     0.5481
 1661.5000     1.3351     0.5391
 1662.0000     1.3397     0.5396
 1662.5000     1.3444     0.5496
 1663.0000     1.5377     0.5405
 1663.5000     1.5425     0.5506
 1664.0000     1.5472     0.6547
 1664.5000     1.5528     0.6234
 1665.0000     1.5575     0.6137
 1665.5000     1.3734     0.6064
 1666.0000     1.3781     0.6066
 1666.5000     1.1929     0.6163
 1667.0000     1.1987     0.6165
 1667.5000     1.2034     0.6171
 1668.0000     0.6421     0.6264
 1668.5000     0.8355     0.6267
 1669.0000     1.0276     0.6363
 1669.5000     1.0335     0.6366
 1670.0000     1.0381     0.6368
 1670.5000     1.2315     0.6370
 1671.0000     1.2361     0.6373
 1671.5000     1.2408     0.6375
 1672.0000     1.2454     0.6378
 1672.5000     1.4388     0.6380
 1673.0000     1.4434     0.6382
 1673.5000     1.2594     0.6385
 1674.0000     1.2515     0.6293
 1674.5000     1.2689     0.6295
 1675.0000     1.2736     0.6392
 1675.5000     1.2792     0.6394
 1676.0000     1.4726     0.5358
 1676.5000     1.2874     0.5361
 1677.0000     1.2932     0.5363
 1677.5000     1.2978     0.5271
 1678.0000     1.3025     0.5179
 1678.5000     1.3072     0.5276
 1679.0000     1.5005     0.5279
 1679.5000     1.5052     0.5375
 1680.0000     1.5098     0.5378
 1680.5000     1.3246     0.5380
 1681.0000     1.1406     0.5382
 1681.5000     0.9575     0.5385
 1682.0000     0.9624     0.5387
 1682.5000     0.9671     0.5389
 1683.0000     0.9717     0.5392
 1683.5000     0.9764     0.5394
 1684.0000     0.9811     0.5396
 1684.5000     0.9858     0.5755
 1685.0000     1.0221     0.5660
 1685.5000     1.1849     0.6792
 1686.0000     1.1895     0.6887
 1686.5000     1.3817     0.6792
 1687.0000     1.3597     0.6792
 1687.5000     1.3393     0.6887
 1688.0000     1.3189     0.6887
 1688.5000     1.2984     0.6887
 1689.0000     1.3035     0.6887
 1689.5000     1.1240     0.6887
 1690.0000     1.1332     0.5000
 1690.5000     1.1424     0.5000
 1691.0000     1.1516     0.5000
 1691.5000     1.3495     0.5094
 1692.0000     1.3586     0.5189
 1692.5000     1.5566     0.5283
 1693.0000     1.5660     0.5283
 1693.5000     1.7659     0.5283
 1694.0000     1.7750     0.5189
 1694.5000     1.5378     0.5189
 1695.0000     1.3895     0.5189
 1695.5000     1.2413     0.5189
 1696.0000     1.0931     0.5189
 1696.5000     0.9448     0.5189
 1697.0000     0.6973     0.5283
 1697.5000     0.7088     0.5377
 1698.0000     0.7180     0.5472
 1698.5000     0.5362     0.5472
 1699.0000     0.5477     0.5472
 1699.5000     0.5569     0.5566
 1700.0000     0.5660     0.5566
 1700.5000     0.5755     0.5566
 1701.0000     0.5867     0.5566
 1701.5000     0.5959     0.5472
 1702.0000     0.4164     0.5472
 1702.5000     0.6143     0.5566
 1703.0000     0.4325     0.5566
 1703.5000     0.4440     0.5566
 1704.0000     0.4531     0.5566
 1704.5000     0.4623     0.5566
 1705.0000     0.4717     0.5555
 1705.5000     0.4830     0.5489
 1706.0000     0.4922     0.5423
 1706.5000     0.5014     0.5357
 1707.0000     0.5105     0.5291
 1707.5000     0.7084     0.5225
 1708.0000     0.7176     0.5189
 1708.5000     0.9155     0.5189
 1709.0000     0.9246     0.5283
 1709.5000     1.1226     0.5189
 1710.0000     1.1321     0.5189
 1710.5000     1.3319     0.5283
 1711.0000     1.3410     0.5283
 1711.5000     1.1592     0.5377
 1712.0000     1.1684     0.6698
 1712.5000     1.1225     0.6604
 1713.0000     1.0824     0.6604
 1713.5000     1.0423     0.6698
 1714.0000     1.0021     0.6698
 1714.5000     0.9620     0.6698
 1715.0000     0.9434     0.6698
 1715.5000     0.9434     0.6604
 1716.0000     0.9434     0.6604
 1716.5000     0.9434     0.6698
 1717.0000     0.9434     0.6698
