~VERSION INFORMATION
 VERS.                2.0:   CWLS LOG ASCII STANDARD - VERSION 2.0
 WRAP.                 NO:   ONE LINE PER DEPTH STEP
~WELL INFORMATION
#MNEM.UNIT      DATA TYPE    INFORMATION
#----------   ------------   ------------------------------
 STRT.F           40.0000:   START DEPTH
 STOP.F          950.5000:   STOP DEPTH
 STEP.F            0.5000:   STEP LENGTH
 NULL.          -999.2500:   NO VALUE
 COMP. FENIX & SCISSON INC:   COMPANY
 WELL.       NPR 3 #44-14:   WELL
 FLD .             TEAPOT:   FIELD
 LOC .      S14 T38N R78W:   LOCATION
 CNTY.            NATRONA:   COUNTY
 STAT.            WYOMING:   STATE
 CTRY. UNITED STATES OF AMERICA:   COUNTRY
 SRVC.            Unknown:   SERVICE COMPANY
 DATE.        05-JAN-1979:   LOGDATE
 API .       490251076100:   API NUMBER
~CURVE INFORMATION
#MNEM.UNIT       API CODE    CURVE DESCRIPTION
#----------   ------------   ------------------------------
 DEPT.F                  :   
 SPR .MV     05 010 01 00:   SPONTANEOUS POTENTIAL FROM RES.
 SN  .OHMM   05 040 16 00:   SHORT NORMAL 16"
 IL  .OHMM   05 120 00 00:   INDUCTION LOG
 CALD.IN     45 280 60 00:   CALIPER
 GRD .GAPI   45 310 01 00:   GAMMA RAY FROM DENSITY LOG
 RHOB.G/C3   45 350 01 00:   BULK DENSITY
 DPHI.DEC    45 890 12 00:   DENSITY POROSITY SANDSTONE
 CORR.G/C3   45 356 01 00:   DENSITY CORRECTION
~PARAMETER INFORMATION
#MNEM.UNIT          VALUE    DESCRIPTION
#----------   ------------   ------------------------------
 PD  .                 GL:   PERMANENT DATUM
 EPD .F              5266:   ELEVATION PERMANENT DATUM
 LMF .                 KB:   LOG MEASURED FROM
 DAPD.F                 4:   FEET ABOVE PERMANENT DATUM
 DMF .                 KB:   DRILLING MEASURED FROM
 EKB .F              5270:   KELLING BUSHING
 EGL .F              5266:   GROUND LEVEL
 DATE.             1-5-79:   RUN DATE
 RUN .                  1:   RUN NUMBER
 DD  .F               950:   DEPTH DRILLER
 DL  .F               943:   DEPTH LOGGER
 BLI .F               937:   BOTTOM LOG INTERVAL
 TLI .F                40:   TOP LOG INTERVAL
 CS  .IN            8.625:   CASING SIZE
 CBL .F                40:   CASING BOTTOM LOGGER
 BS  .IN            7.875:   BIT SIZE
 BSD .F               950:   BIT SIZE AT DEPTH
 DFT .                KCL:   DRILLING FLUID TYPE
 DFV .                 42:   DRILLING FLUID VISCOSITY
 DFL .               10.5:   DRILLING FLUID LOSS
 MSS .           FLOWLINE:   MUD SAMPLE SOURCE
 RMS .OHMM            .23:   RESISTIVITY MUD SAMPLE
 RMF .OHMM            .23:   RESISTIVITY MUD FILTRATE SAMPLE
 RMC .OHMM             .2:   RESISTIVITY MUD CAKE
 MFSS.           MEASURED:   MUD FILTRATE SAMPLE SOURCE
 MCSS.           MEASURED:   MUD CAKE SAMPLE SOURCE
 RMB .OHMM             .2:   RESISTIVITY MUD AT BHT
 BHT .F                70:   BOTTOM HOLE TEMPERATURE
 TCS .HRS               5:   TIME CURCULATED STOPPED
 MRT .F                70:   MAXIMUM RECORDED TEMPERATURE
 LUL .             CASPER:   LOGGING UNIT LOCATION
 ENGI.             MILLER:   RECORDING ENGINEER
 WITN.           DINSMORE:   WITNESSED BY
 CLNT.            A2DTECH:   CLIENT CODE
 ORIG.           5" PRINT:   ORIGIN OF DATA
 UWI .       490251076100:   UNIQUE WELL ID
 DICO. A2D Technologies, Inc.:   DIGITIZING COMPANY
~OTHER INFORMATION
~A   DEPT      SPR           SN         IL     CALD        GRD       RHOB       DPHI       CORR   
   40.0000  -999.2500     3.6750     9.2210  -999.2500  -999.2500  -999.2500  -999.2500  -999.2500
   40.5000  -999.2500     3.9020     9.2210  -999.2500  -999.2500  -999.2500  -999.2500  -999.2500
   41.0000    -9.1370     4.6040     0.9770  -999.2500  -999.2500  -999.2500  -999.2500  -999.2500
   41.5000   -13.6520     5.3500     4.1720  -999.2500  -999.2500  -999.2500  -999.2500  -999.2500
   42.0000   -18.1680     5.3290     1.8960  -999.2500  -999.2500  -999.2500  -999.2500  -999.2500
   42.5000   -21.0120     6.2090     2.9470  -999.2500  -999.2500  -999.2500  -999.2500  -999.2500
   43.0000   -23.1630     6.3150     3.0860  -999.2500  -999.2500  -999.2500  -999.2500  -999.2500
   43.5000   -25.3510     6.4870     3.1720  -999.2500  -999.2500  -999.2500  -999.2500  -999.2500
   44.0000   -27.5670     6.6600     5.8220  -999.2500  -999.2500  -999.2500  -999.2500  -999.2500
   44.5000   -31.2110     6.9330     5.7130  -999.2500  -999.2500  -999.2500  -999.2500  -999.2500
   45.0000   -34.8140     6.8880     5.4770  -999.2500  -999.2500  -999.2500  -999.2500  -999.2500
   45.5000   -37.6290     6.7790     5.2420  -999.2500  -999.2500  -999.2500  -999.2500  -999.2500
   46.0000   -38.8200     6.6690     5.0070     7.3640    98.0860  -999.2500     0.2230  -999.2500
   46.5000   -35.1470     6.5600     4.7990     7.3850    94.9000     2.3360     0.2210  -999.2500
   47.0000   -40.0550     6.4500     4.7990     7.4230   102.1140     2.3340     0.2160  -999.2500
   47.5000   -32.0040     6.3240     4.8580     7.4840   112.4660     2.3090     0.2390  -999.2500
   48.0000   -33.3420     6.3980     4.9130     7.5480   109.0430     2.2710     0.2530     0.0224
   48.5000   -35.1070     6.5700     4.9680     7.6330   101.7890     2.2740     0.2530     0.0175
   49.0000   -30.0050     6.7420     5.0250     7.7180    96.8760     2.2790     0.2440     0.0103
   49.5000   -30.6630     6.9140     5.2210     7.8020    95.9710     2.3180     0.2120     0.0080
   50.0000   -31.3450     7.0860     5.4810     7.8870    99.7940     2.3630     0.1960     0.0090
   50.5000   -32.2510     7.2580     5.7410     7.9710   101.6880     2.3750     0.1920     0.0100
   51.0000   -33.1710     7.4300     5.8500     7.9960   102.9510     2.3870     0.1840     0.0120
   51.5000   -34.1170     7.6020     5.9070     8.0120   103.2230     2.3940     0.1810     0.0120
   52.0000   -35.1900     7.7740     5.9640     8.0290   101.9950     2.3940     0.1800     0.0110
   52.5000   -35.7350     7.9460     6.0210     8.0450   107.6110     2.3950     0.1800     0.0110
   53.0000   -36.2420     8.1070     6.1610     8.0580   105.0900     2.4020     0.1720     0.0100
   53.5000   -36.7500     8.3340     6.3420     8.1350   101.9380     2.4030     0.1730     0.0160
   54.0000   -37.2670     8.5470     6.5240     8.2200   101.9880     2.4040     0.1700     0.0260
   54.5000   -37.3300     8.7610     6.7050     8.3050   105.3920     2.4160     0.1670     0.0360
   55.0000   -37.2810     8.9740     6.8860     8.3900   107.9030     2.4160     0.1690     0.0320
   55.5000   -37.2280     9.1870     7.0680     8.4400    98.9970     2.4130     0.1690     0.0270
   56.0000   -37.2040     9.4010     7.2490     8.3340    91.3560     2.4150     0.1660     0.0230
   56.5000   -37.3960     9.5660     7.4630     8.2310    90.4240     2.4200     0.1670     0.0240
   57.0000   -37.5460     9.2780     7.4140     8.1280    91.5060     2.4160     0.1680     0.0390
   57.5000   -37.0590     8.9950     7.3350     8.0250    91.6080     2.4040     0.1750     0.0520
   58.0000   -37.0630     8.7130     7.2560     7.9220    95.2020     2.3890     0.1820     0.0670
   58.5000   -37.1420     8.4310     7.1930     7.8190    97.7830     2.4080     0.1640     0.1180
   59.0000   -37.6580     8.1480     7.1390     7.7160   106.0860     2.4380     0.1500     0.1750
   59.5000   -38.4190     7.9490     7.0860     7.6120   112.9420     2.4760     0.1340     0.2320
   60.0000   -39.1930     7.8060     7.0320     7.5070   113.6540     2.5260     0.1140     0.2890
   60.5000   -39.1780     7.6640     6.9780     7.4430   111.7280     2.5880     0.0800     0.3280
   61.0000   -38.9770     7.5220     6.9320     7.3790   108.3020     2.5610     0.0980     0.2270
   61.5000   -38.7710     7.3790     6.9270     7.3140   102.3490     2.4910     0.1330     0.1260
   62.0000   -38.9290     7.2600     6.9230     7.2480    96.3280     2.4460     0.1620     0.0660
   62.5000   -39.1130     7.2360     6.9180     7.2640    98.3710     2.4070     0.1800     0.0330
   63.0000   -39.2990     7.2120     6.9130     7.2870   100.6290     2.3950     0.1800     0.0280
   63.5000   -39.4930     7.1880     6.9080     7.3490   100.4790     2.3960     0.1810     0.0240
   64.0000   -39.4050     7.1640     6.9030     7.4080   101.0060     2.3870     0.1860     0.0160
   64.5000   -39.1990     7.1400     6.8980     7.4670   103.9540     2.3760     0.1960     0.0120
   65.0000   -38.9850     7.1160     6.8930     7.5280   106.2740     2.3680     0.1960     0.0180
   65.5000   -39.1890     7.0920     6.8880     7.6590   105.0000     2.3710     0.1940     0.0220
   66.0000   -39.7330     7.0670     6.8830     7.7880   106.9280     2.3770     0.1910     0.0150
   66.5000   -40.1120     7.0430     6.8780     7.9160   109.2940     2.3840     0.1860     0.0070
   67.0000   -40.3400     7.0190     6.8730     8.0400   111.7220     2.3970     0.1800     0.0060
   67.5000   -40.5630     6.9950     6.8560     8.1260   106.8000     2.4100     0.1700     0.0140
   68.0000   -40.7880     6.9710     6.8110     8.2080   109.9420     2.4240     0.1680     0.0230
   68.5000   -41.0130     6.9470     6.7650     8.2260   108.2070     2.4120     0.1720     0.0200
   69.0000   -41.0920     6.9230     6.7190     8.1420   103.1110     2.3960     0.1860     0.0140
   69.5000   -40.4910     6.8980     6.6740     8.0600    97.4310     2.3740     0.1930     0.0120
   70.0000   -39.9470     6.8740     6.6280     7.9630   102.7700     2.3930     0.1790     0.0740
   70.5000   -39.7820     6.8500     6.5820     7.8650   105.8460     2.4290     0.1520     0.1410
   71.0000   -39.6340     6.8260     6.5370     7.7660   105.0170     2.4660     0.1220     0.2020
   71.5000   -39.4840     6.8020     6.4910     7.6670   106.5480     2.4910     0.1190     0.2150
   72.0000   -39.3350     6.7780     6.4450     7.5660   108.9540     2.4670     0.1380     0.1780
   72.5000   -39.1860     6.7470     6.3820     7.5480    99.7730     2.4450     0.1560     0.1270
   73.0000   -39.0360     6.7680     6.4230     7.5510    94.6460     2.4230     0.1670     0.0780
   73.5000   -38.8880     6.8060     6.5200     7.5560    97.0350     2.4060     0.1720     0.0500
   74.0000   -38.8900     6.8440     6.6160     7.5610    97.7950     2.4070     0.1720     0.0230
   74.5000   -39.5460     6.8810     6.7120     7.5760    96.7910     2.4080     0.1730     0.0120
   75.0000   -39.6490     6.9190     6.8080     7.6250    97.6420     2.4100     0.1720     0.0120
   75.5000   -39.4740     6.9570     6.9040     7.6720    97.8360     2.4040     0.1750     0.0150
   76.0000   -39.2850     6.9940     7.0000     7.7180    96.4870     2.3930     0.1870     0.0170
   76.5000   -39.0290     7.0320     7.0960     7.7660    99.2730     2.3870     0.1850     0.0200
   77.0000   -39.0640     7.0700     7.1930     7.8680   103.2160     2.3900     0.1800     0.0220
   77.5000   -39.2220     7.1070     7.2890     7.9670   102.1590     2.3920     0.1800     0.0250
   78.0000   -39.3850     7.1450     7.3850     8.0660   101.1070     2.3940     0.1790     0.0300
   78.5000   -39.5170     7.1830     7.4810     8.1640   104.3590     2.3990     0.1760     0.0370
   79.0000   -38.7540     7.2200     7.5770     8.2620   105.7620     2.4050     0.1740     0.0410
   79.5000   -37.9390     7.2580     7.6260     8.3600   109.6400     2.3980     0.1770     0.0420
   80.0000   -37.7590     7.2960     7.6600     8.3520   110.6980     2.3860     0.1850     0.0310
