~VERSION INFORMATION
 VERS.                2.0:   CWLS LOG ASCII STANDARD - VERSION 2.0
 WRAP.                 NO:   ONE LINE PER DEPTH STEP
~WELL INFORMATION
#MNEM.UNIT      DATA TYPE    INFORMATION
#----------   ------------   ------------------------------
 STRT.F           20.0000:   START DEPTH
 STOP.F          632.0000:   STOP DEPTH
 STEP.F            0.5000:   STEP LENGTH
 NULL.          -999.2500:   NO VALUE
 COMP. FENIX & SCISSON INC:   COMPANY
 WELL.    58 SX 34 #34-34:   WELL
 FLD .             TEAPOT:   FIELD
 LOC .      S34 T39N R78W:   LOCATION
 CNTY.            NATRONA:   COUNTY
 STAT.            WYOMING:   STATE
 CTRY. UNITED STATES OF AMERICA:   COUNTRY
 SRVC.            Unknown:   SERVICE COMPANY
 DATE.        30-JAN-1979:   LOGDATE
 API .       490251077300:   API NUMBER
~CURVE INFORMATION
#MNEM.UNIT       API CODE    CURVE DESCRIPTION
#----------   ------------   ------------------------------
 DEPT.F                  :   
 SPR .MV     05 010 01 00:   SPONTANEOUS POTENTIAL FROM RES.
 SN  .OHMM   05 040 16 00:   SHORT NORMAL 16"
 ILD .OHMM   05 120 46 00:   INDUCTION LOG DEEP
 CALD.IN     45 280 60 00:   CALIPER
 CORR.G/C3   45 356 01 00:   DENSITY CORRECTION
 RHOB.G/C3   45 350 01 00:   BULK DENSITY
 GRD .GAPI   45 310 01 00:   GAMMA RAY FROM DENSITY LOG
 DPHI.DEC    45 890 12 00:   DENSITY POROSITY SANDSTONE
~PARAMETER INFORMATION
#MNEM.UNIT          VALUE    DESCRIPTION
#----------   ------------   ------------------------------
 PD  .                 GL:   PERMANENT DATUM
 LMF .                 KB:   LOG MEASURED FROM
 DAPD.F                 4:   FEET ABOVE PERMANENT DATUM
 DMF .                 KB:   DRILLING MEASURED FROM
 DATE.            1-30-79:   RUN DATE
 RUN .                  1:   RUN NUMBER
 DD  .F               635:   DEPTH DRILLER
 DL  .F               632:   DEPTH LOGGER
 BLI .F               626:   BOTTOM LOG INTERVAL
 TLI .F                35:   TOP LOG INTERVAL
 CS  .IN            8.625:   CASING SIZE
 CBD .F                40:   CASING BOTTOM DRILLER
 CBL .F                35:   CASING BOTTOM LOGGER
 BS  .IN            7.875:   BIT SIZE
 BSD .F               635:   BIT SIZE AT DEPTH
 DFT .                KCL:   DRILLING FLUID TYPE
 DFD .                8.9:   DRILLING FLUID DENSITY
 DFV .                230:   DRILLING FLUID VISCOSITY
 DFPH.                  8:   DRILLING FLUID PH
 DFL .                 30:   DRILLING FLUID LOSS
 MSS .           FLOWLINE:   MUD SAMPLE SOURCE
 RMS .OHMM            .18:   RESISTIVITY MUD SAMPLE
 MST .F                62:   MUD SAMPLE TEMPERATURE
 RMF .OHMM            .14:   RESISTIVITY MUD FILTRATE SAMPLE
 MFST.F                59:   MUD FILTRATE SAMPLE TEMPERATURE
 RMC .OHMM            .24:   RESISTIVITY MUD CAKE
 MCST.F                60:   MUD CAKE SAMPLE TEMPERATURE
 MFSS.           MEASURED:   MUD FILTRATE SAMPLE SOURCE
 MCSS.           MEASURED:   MUD CAKE SAMPLE SOURCE
 RMB .OHMM            .17:   RESISTIVITY MUD AT BHT
 BHT .F                70:   BOTTOM HOLE TEMPERATURE
 TCS .HRS               4:   TIME CURCULATED STOPPED
 MRT .F                70:   MAXIMUM RECORDED TEMPERATURE
 LUN .               3006:   LOGGING UNIT NUMBER
 LUL .             CASPER:   LOGGING UNIT LOCATION
 ENGI.            ROLLINS:   RECORDING ENGINEER
 WITN.              AMEND:   WITNESSED BY
 CLNT.            A2DTECH:   CLIENT CODE
 ORIG.         2.5" PRINT:   ORIGIN OF DATA
 UWI .       490251077300:   UNIQUE WELL ID
 DICO. A2D Technologies, Inc.:   DIGITIZING COMPANY
~OTHER INFORMATION
~A   DEPT      SPR         SN        ILD       CALD       CORR       RHOB         GRD      DPHI   
# ...
  222.5000   -40.0856     7.2235     9.2627     8.0551     0.0687     2.4344   120.1274     0.1394
  223.0000   -40.1674     7.2176     9.2779     8.0833     0.0853     2.4440   119.8726     0.1338
  223.5000   -40.2492     7.2122     9.2944     8.1162     0.0997     2.4569   118.5201     0.1282
  224.0000   -40.3311     7.1994     9.3121     8.1394     0.0969     2.4698   115.8789     0.1222
  224.5000   -40.4130     7.2028     9.3294     8.1496     0.0949     2.4753   113.3023     0.1214
  225.0000   -40.4950     7.1986     9.4925     7.9840     0.0844     2.4685   110.7626     0.1265
  225.5000   -40.5769     7.1839     9.6630     7.8182     0.0734     2.4570   108.1778     0.1333
  226.0000   -40.6589     7.5606     9.8385     7.8534     0.0695     2.4457   105.6044     0.1400
  226.5000   -40.7410     7.9237    10.0172     7.9068     0.0695     2.4338   103.0909     0.1430
  227.0000   -40.8230     8.1875    10.1992     7.9710     0.0719     2.4282   100.5135     0.1436
  227.5000   -40.9048     8.1824    10.3844     8.0278     0.0738     2.4287   100.6008     0.1446
  228.0000   -40.9874     8.1731    10.4500     8.0854     0.0760     2.4295   101.6849     0.1454
  228.5000   -41.0691     8.1637    10.4787     8.1484     0.0741     2.4331   102.7737     0.1454
  229.0000   -41.1501     8.1544    10.5075     8.1463     0.0646     2.4370   103.5169     0.1448
  229.5000   -41.2356     8.1451    10.5364     8.1070     0.0507     2.4385   103.3152     0.1427
  230.0000   -41.2459     8.1358    10.5653     8.0724     0.0372     2.4376   103.0789     0.1406
  230.5000   -41.2137     8.1265    10.5943     8.0473     0.0312     2.4369   103.2987     0.1386
  231.0000   -41.1850     8.1172    10.6234     8.0769     0.0304     2.4406   103.5632     0.1365
  231.5000   -41.1576     8.1079    10.6526     8.1005     0.0294     2.4455   103.8662     0.1344
  232.0000   -41.1287     8.0986    10.6819     8.1228     0.0283     2.4504   102.6883     0.1323
  232.5000   -41.1005     8.0892    10.7112     8.0940     0.0280     2.4550   101.1697     0.1301
  233.0000   -41.0722     8.0799    10.7406     8.0727     0.0281     2.4604    99.7637     0.1301
  233.5000   -41.0435     8.0707    10.7701     8.0483     0.0282     2.4619    95.5742     0.1334
  234.0000   -41.0152     8.0616    10.7997     8.1211     0.0315     2.4578    90.1931     0.1375
  234.5000   -40.9868     8.0525    10.8234     8.2003     0.0347     2.4523    87.7800     0.1417
  235.0000   -40.9578     8.0433    10.8234     8.2345     0.0381     2.4414    88.6882     0.1455
  235.5000   -40.9307     7.9905    10.6458     8.1772     0.0414     2.4327    91.6264     0.1487
  236.0000   -40.9009     7.8180    10.3786     8.1283     0.0447     2.4278    94.8240     0.1518
  236.5000   -40.8695     7.6493    10.1181     8.1178     0.0480     2.4231    98.1532     0.1526
  237.0000   -40.9080     7.4842     9.8664     8.0990     0.0513     2.4235   101.4738     0.1534
  237.5000   -41.1188     7.3226     9.6184     8.0834     0.0546     2.4245   104.6910     0.1534
  238.0000   -41.3248     7.3226     9.3768     8.0671     0.0583     2.4227   106.8609     0.1534
  238.5000   -41.5346     7.3226     9.1525     8.0539     0.0623     2.4204   105.9213     0.1534
  239.0000   -41.7443     7.3226     9.1556     8.0072     0.0678     2.4141   104.3928     0.1530
  239.5000   -41.9532     7.3226     9.1554     7.9341     0.0739     2.4116   100.0390     0.1523
  240.0000   -42.1628     7.3226     9.1550     7.8479     0.0805     2.4106    96.2540     0.1516
  240.5000   -42.3718     7.2958     9.1547     7.7173     0.0878     2.4108    96.6015     0.1509
  241.0000   -42.5820     7.2492     9.1545     7.6273     0.0986     2.4132    96.5364     0.1502
  241.5000   -42.7903     7.2030     9.1545     7.6016     0.1009     2.4153    96.1453     0.1495
  242.0000   -42.9980     7.1572     9.1545     7.6124     0.1116     2.4182    95.8188     0.1482
  242.5000   -43.2135     7.1115     9.1545     7.6201     0.1205     2.4221    97.0852     0.1466
  243.0000   -43.3002     7.0655     9.1545     7.6253     0.1299     2.4263   101.4115     0.1450
  243.5000   -43.2926     7.0540     9.1545     7.6354     0.1349     2.4295   102.1984     0.1435
  244.0000   -43.2921     7.0175     9.1545     7.6470     0.1377     2.4310   102.6378     0.1419
  244.5000   -43.2936     6.9812     9.1545     7.7223     0.1403     2.4329   102.0163     0.1404
  245.0000   -43.2902     6.9441     9.1545     7.7965     0.1373     2.4371   101.0823     0.1390
  245.5000   -43.2931     6.9056     9.1545     7.8238     0.1349     2.4414   100.1641     0.1390
  246.0000   -43.2927     6.8700     9.0434     7.8572     0.1306     2.4437    99.8826     0.1398
  246.5000   -43.2797     6.8335     8.8915     7.9002     0.1271     2.4446   100.2520     0.1407
  247.0000   -43.4420     6.7974     8.7421     7.9489     0.1007     2.4412   100.6545     0.1422
  247.5000   -43.8333     6.6721     8.5952     7.9443     0.0932     2.4383   100.6923     0.1445
  248.0000   -44.2152     6.6048     8.4508     7.9034     0.0848     2.4351   100.6648     0.1468
  248.5000   -44.5921     6.5260     8.3088     7.8648     0.0768     2.4320   100.6608     0.1491
  249.0000   -44.9112     6.4481     8.1875     7.8233     0.0757     2.4290   101.2244     0.1514
  249.5000   -44.9157     6.3712     7.9103     7.8263     0.0745     2.4259   103.9659     0.1537
  250.0000   -44.9228     6.3099     7.6732     7.9093     0.0738     2.4228   105.7880     0.1560
  250.5000   -44.9198     6.2298     7.4433     7.9878     0.0730     2.4197   104.6326     0.1582
  251.0000   -44.9196     6.1935     7.1876     8.0383     0.0713     2.4166   103.6528     0.1582
  251.5000   -44.9198     6.1935     7.1876     8.0167     0.0675     2.4135   103.0639     0.1582
  252.0000   -44.9187     6.1935     7.1876     7.9913     0.0638     2.4119   103.6691     0.1562
  252.5000   -44.9187     6.1935     7.1876     7.9522     0.0600     2.4109   104.5272     0.1545
  253.0000   -44.9170     6.2366     7.1876     7.9129     0.0563     2.4125   103.9406     0.1528
  253.5000   -44.9185     6.2963     7.1876     7.8941     0.0525     2.4158   102.8872     0.1511
  254.0000   -44.9189     6.3565     7.2943     7.9413     0.0487     2.4210   101.9244     0.1494
  254.5000   -44.9097     6.4284     7.4346     7.9882     0.0450     2.4261   102.2802     0.1477
  255.0000   -45.0079     6.5491     7.5777     8.0342     0.0412     2.4313   101.3207     0.1462
  255.5000   -45.2123     6.5491     7.7430     8.0817     0.0388     2.4331    99.1500     0.1469
  256.0000   -45.4071     6.5346     7.7430     8.0730     0.0372     2.4334    97.8446     0.1475
  256.5000   -45.6007     6.5180     7.7430     8.0630     0.0354     2.4337    98.2764     0.1481
  257.0000   -45.7973     6.5014     7.7430     8.0505     0.0337     2.4341    99.2981     0.1486
  257.5000   -45.9922     6.4844     7.7430     8.0391     0.0322     2.4345   101.9783     0.1485
  258.0000   -46.1875     6.4681     7.7430     8.0275     0.0321     2.4346   104.7990     0.1482
  258.5000   -46.3829     6.4518     7.7430     8.0158     0.0321     2.4339   105.4124     0.1479
  259.0000   -46.5780     6.4353     7.7430     8.0038     0.0321     2.4333   103.9546     0.1479
  259.5000   -46.7732     6.4189     7.7430     7.9928     0.0321     2.4327   102.6907     0.1481
  260.0000   -46.9683     6.4026     7.7430     7.9813     0.0321     2.4321   101.5918     0.1483
  260.5000   -47.1642     6.3863     7.7430     7.9672     0.0321     2.4315   101.5598     0.1485
  261.0000   -47.3586     6.3700     7.7430     7.9846     0.0312     2.4309   103.3991     0.1486
  261.5000   -47.5537     6.3538     7.7430     8.0342     0.0302     2.4307   105.5870     0.1478
  262.0000   -47.7528     6.3376     7.7430     8.0819     0.0291     2.4307   107.7662     0.1470
  262.5000   -47.9392     6.3214     7.7430     8.1293     0.0281     2.4317   109.9623     0.1463
