~VERSION INFORMATION
 VERS.                2.0:   CWLS LOG ASCII STANDARD - VERSION 2.0
 WRAP.                 NO:   ONE LINE PER DEPTH STEP
~WELL INFORMATION
#MNEM.UNIT      DATA TYPE    INFORMATION
#----------   ------------   ------------------------------
 STRT.F           28.0000:   START DEPTH
 STOP.F          563.0000:   STOP DEPTH
 STEP.F            0.1000:   STEP LENGTH
 NULL.          -999.2500:   NO VALUE
 COMP.       F D SERV INC:   COMPANY
 WELL.    SX-3 62-4 #62-3:   WELL
 FLD .          N.P.R. #3:   FIELD
 LOC .       S3 T38N R78W:   LOCATION
 CNTY.            NATRONA:   COUNTY
 STAT.            WYOMING:   STATE
 CTRY. UNITED STATES OF AMERICA:   COUNTRY
 SRVC.     Atlas Wireline:   SERVICE COMPANY
 DATE.        03-MAY-1992:   LOGDATE
 API .       490252252100:   API NUMBER
~CURVE INFORMATION
#MNEM.UNIT       API CODE    CURVE DESCRIPTION
#----------   ------------   ------------------------------
 DEPT.F                  :   
 RILD.OHMM   07 120 46 00:   INDUCTION LOG DEEP RESISTIVITY
 RILM.OHMM   07 120 44 00:   INDUCTION LOG MEDIUM RESISTIVITY
 CALD.IN     45 280 60 00:   CALIPER FROM DENSITY LOG
 CORR.G/C3   45 356 01 00:   DENSITY CORRECTION
 DEN .G/C3   45 350 01 00:   COMPENSATED BULK DENSTIY
 GRD .GAPI   45 310 01 00:   GAMMA RAY FROM DENSITY LOG
 PORD.DEC    45 890 12 00:   POROSITY DENSITY SANDSTONE
~PARAMETER INFORMATION
#MNEM.UNIT          VALUE    DESCRIPTION
#----------   ------------   ------------------------------
 PD  .                 GL:   PERMANENT DATUM
 EPD .F              5156:   ELEVATION PERMANENT DATUM
 LMF .                 KB:   LOG MEASURED FROM
 DAPD.F                 5:   FEET ABOVE PERMANENT DATUM
 DMF .                 KB:   DRILLING MEASURED FROM
 EKB .F              5161:   KELLING BUSHING
 EGL .F              5156:   GROUND LEVEL
 DATE.        03-MAY-1992:   RUN DATE
 RUN .                  1:   RUN NUMBER
 DD  .F               565:   DEPTH DRILLER
 DL  .F               566:   DEPTH LOGGER
 BLI .F               564:   BOTTOM LOG INTERVAL
 TLI .F                50:   TOP LOG INTERVAL
 CS  .IN            8.625:   CASING SIZE
 CBD .F                49:   CASING BOTTOM DRILLER
 CBL .F                50:   CASING BOTTOM LOGGER
 BS  .IN            7.875:   BIT SIZE
 BSD .F               565:   BIT SIZE AT DEPTH
 DFT .        AIR DRILLED:   DRILLING FLUID TYPE
 LUN .             HL 632:   LOGGING UNIT NUMBER
 LUL .           RK. SPGS:   LOGGING UNIT LOCATION
 ENGI.               RALL:   RECORDING ENGINEER
 WITN.             STRONG:   WITNESSED BY
 CLNT.            A2DTECH:   CLIENT CODE
 ORIG.           5" PRINT:   ORIGIN OF DATA
 UWI .       490252252100:   UNIQUE WELL ID
 DICO. A2D Technologies, Inc.:   DIGITIZING COMPANY
~OTHER INFORMATION
~A   DEPT     RILD       RILM       CALD       CORR        DEN        GRD       PORD   
# ...
  246.4000     8.7029     9.0654     8.2471     0.0016     2.4696   155.0207     0.1098
  246.5000     8.6453     9.0258     8.2469     0.0016     2.4696   155.2478     0.1095
  246.6000     8.6452     9.0253     8.2467     0.0020     2.4696   155.3201     0.1093
  246.7000     8.6451     9.0248     8.2520     0.0035     2.4696   155.1956     0.1089
  246.8000     8.6450     9.0243     8.2614     0.0076     2.4688   154.8744     0.1085
  246.9000     8.6449     9.0238     8.2612     0.0087     2.4688   154.3932     0.1082
  247.0000     8.6448     9.0233     8.2610     0.0108     2.4684   154.1084     0.1082
  247.1000     8.6446     9.0228     8.2609     0.0127     2.4678   153.6775     0.1083
  247.2000     8.6445     9.0223     8.2682     0.0136     2.4673   153.5029     0.1084
  247.3000     8.6444     9.0218     8.2755     0.0136     2.4673   153.5017     0.1087
  247.4000     8.6169     9.0213     8.2754     0.0136     2.4673   153.4429     0.1090
  247.5000     8.5844     9.0208     8.2752     0.0136     2.4673   153.1926     0.1095
  247.6000     8.5843     9.0203     8.2750     0.0136     2.4673   152.8945     0.1097
  247.7000     8.5842     9.0198     8.2844     0.0136     2.4673   152.8935     0.1102
  247.8000     8.5841     9.0193     8.2897     0.0134     2.4673   152.8923     0.1104
  247.9000     8.5445     9.0188     8.2895     0.0121     2.4673   152.8911     0.1103
  248.0000     8.5245     9.0182     8.2893     0.0121     2.4679   152.9342     0.1101
  248.1000     8.5039     9.0178     8.2891     0.0111     2.4685   153.1903     0.1098
  248.2000     8.4653     8.9848     8.2890     0.0099     2.4691   153.9120     0.1096
  248.3000     8.4652     8.9320     8.2888     0.0091     2.4697   154.8467     0.1090
  248.4000     8.4651     8.8670     8.2886     0.0091     2.4704   155.2983     0.1084
  248.5000     8.4233     8.7635     8.2884     0.0091     2.4710   155.2971     0.1079
  248.6000     8.3741     8.6478     8.2882     0.0079     2.4722   155.2650     0.1074
  248.7000     8.3481     8.5175     8.2880     0.0076     2.4730   154.9930     0.1068
  248.8000     8.3343     8.4355     8.2879     0.0082     2.4733   154.9919     0.1062
  248.9000     8.2857     8.3621     8.2877     0.0091     2.4736   154.9906     0.1054
  249.0000     8.2328     8.2790     8.2875     0.0091     2.4748   154.9894     0.1048
  249.1000     8.2327     8.2358     8.2873     0.0091     2.4755   154.9882     0.1042
  249.2000     8.1983     8.2353     8.2872     0.0102     2.4761   154.9870     0.1035
  249.3000     8.1756     8.1906     8.2870     0.0114     2.4767   154.9856     0.1029
  249.4000     8.1593     8.1775     8.2868     0.0121     2.4773   154.9846     0.1025
  249.5000     8.1117     8.1770     8.2866     0.0124     2.4781   154.9834     0.1021
  249.6000     8.0626     8.1766     8.2864     0.0136     2.4793   154.9822     0.1019
  249.7000     8.0174     8.1681     8.2863     0.0136     2.4793   154.9810     0.1016
  249.8000     7.9707     8.1192     8.2861     0.0146     2.4793   154.9842     0.1011
  249.9000     7.9242     8.0633     8.2859     0.0151     2.4797   155.2800     0.1011
  250.0000     7.8780     8.0064     8.2857     0.0151     2.4823   155.2790     0.0999
  250.1000     7.8320     8.0060     8.2930     0.0153     2.4823   155.4465     0.1003
  250.2000     7.7872     8.0056     8.3079     0.0155     2.4823   155.7282     0.1008
  250.3000     7.7866     7.9790     8.3154     0.0157     2.4823   156.0098     0.1013
  250.4000     7.7861     7.9331     8.3153     0.0159     2.4818   156.2789     0.1018
  250.5000     7.7432     7.8940     8.3152     0.0161     2.4811   156.5781     0.1021
  250.6000     7.6988     7.8935     8.3151     0.0162     2.4805   157.0817     0.1025
  250.7000     7.6314     7.8512     8.3149     0.0164     2.4799   157.0805     0.1030
  250.8000     7.5580     7.8381     8.3148     0.0166     2.4792   157.2788     0.1035
  250.9000     7.5145     7.8151     8.3221     0.0168     2.4780   157.5288     0.1037
  251.0000     7.4668     7.7831     8.3296     0.0170     2.4777   157.6802     0.1042
  251.1000     7.4285     7.7826     8.3295     0.0172     2.4773   157.6310     0.1047
  251.2000     7.3858     7.7821     8.3294     0.0174     2.4769   157.3762     0.1052
  251.3000     7.3631     7.7818     8.3293     0.0175     2.4768   157.1262     0.1056
  251.4000     7.3628     7.7525     8.3291     0.0177     2.4762   156.6756     0.1059
  251.5000     7.3606     7.7271     8.3290     0.0179     2.4755   156.3198     0.1061
  251.6000     7.3112     7.7169     8.3289     0.0180     2.4749   155.8727     0.1062
  251.7000     7.2763     7.6729     8.3311     0.0180     2.4743   155.0712     0.1063
  251.8000     7.2345     7.6724     8.3437     0.0180     2.4739   154.0507     0.1065
  251.9000     7.2097     7.6720     8.3436     0.0192     2.4737   153.5544     0.1065
  252.0000     7.2014     7.6461     8.3336     0.0195     2.4731   152.8537     0.1065
  252.1000     7.1592     7.6181     8.3283     0.0195     2.4731   152.2456     0.1065
  252.2000     7.1589     7.6177     8.3282     0.0195     2.4736   151.8381     0.1065
  252.3000     7.1273     7.6173     8.3281     0.0195     2.4738   151.5857     0.1065
  252.4000     7.0863     7.6169     8.3279     0.0195     2.4738   151.3285     0.1065
  252.5000     7.0595     7.6165     8.3155     0.0195     2.4739   151.3273     0.1066
  252.6000     7.0539     7.6160     8.3127     0.0186     2.4746   151.3261     0.1066
  252.7000     7.0101     7.6156     8.3053     0.0180     2.4752   151.4703     0.1064
  252.8000     7.0098     7.6152     8.2927     0.0180     2.4753   151.8151     0.1063
  252.9000     7.0095     7.6147     8.2800     0.0178     2.4757   152.3608     0.1063
  253.0000     7.0092     7.6143     8.2671     0.0165     2.4760   153.1312     0.1062
  253.1000     6.9977     7.6139     8.2669     0.0141     2.4761   154.3558     0.1060
  253.2000     6.9602     7.6330     8.2571     0.0126     2.4768   155.2212     0.1060
  253.3000     6.9598     7.6661     8.2445     0.0113     2.4768   155.9735     0.1058
  253.4000     6.9596     7.6656     8.2365     0.0096     2.4768   156.6321     0.1055
  253.5000     6.9850     7.6651     8.2342     0.0073     2.4771   157.1333     0.1053
  253.6000     7.0075     7.6648     8.2212     0.0059     2.4775   157.6488     0.1051
  253.7000     7.0072     7.6644     8.2090     0.0048     2.4775   158.1356     0.1051
  253.8000     7.0069     7.6639     8.2060     0.0026     2.4775   158.6367     0.1048
  253.9000     7.0066     7.6635     8.2058     0.0008     2.4775   158.8519     0.1048
  254.0000     7.0063     7.6631     8.2057    -0.0001     2.4775   158.7582     0.1046
  254.1000     7.0060     7.6627     8.2056    -0.0003     2.4775   158.5058     0.1045
  254.2000     7.0205     7.6622     8.2055    -0.0016     2.4772   158.2449     0.1045
  254.3000     7.0542     7.6618     8.2054    -0.0028     2.4767   157.7582     0.1045
  254.4000     7.0539     7.6614     8.2052    -0.0040     2.4767   157.0624     0.1042
  254.5000     7.0917     7.6610     8.2051    -0.0047     2.4767   156.4495     0.1044
  254.6000     7.1024     7.6605     8.2050    -0.0047     2.4767   155.9459     0.1045
  254.7000     7.1231     7.6601     8.2049    -0.0047     2.4763   155.4831     0.1046
  254.8000     7.1512     7.6597     8.2047    -0.0047     2.4759   155.2211     0.1048
  254.9000     7.1509     7.6793     8.2046    -0.0036     2.4758   154.9784     0.1048
  255.0000     7.1506     7.7121     8.2045    -0.0032     2.4751   154.5349     0.1048
  255.1000     7.1864     7.7130     8.2044    -0.0032     2.4751   154.1719     0.1050
  255.2000     7.1998     7.7649     8.2043    -0.0028     2.4746   154.0097     0.1051
  255.3000     7.1995     7.7645     8.2042    -0.0017     2.4744   154.0085     0.1051
  255.4000     7.2091     7.7641     8.2040    -0.0017     2.4746   154.0072     0.1050
