~VERSION INFORMATION
 VERS.                2.0:   CWLS LOG ASCII STANDARD - VERSION 2.0
 WRAP.                 NO:   ONE LINE PER DEPTH STEP
~WELL INFORMATION
#MNEM.UNIT      DATA TYPE    INFORMATION
#----------   ------------   ------------------------------
 STRT.F            4.0000:   START DEPTH
 STOP.F          528.0000:   STOP DEPTH
 STEP.F            0.1000:   STEP LENGTH
 NULL.          -999.2500:   NO VALUE
 COMP. BROWN JOHN E&C INC:   COMPANY
 WELL.    84-1 SHX- #84-3:   WELL
 FLD .        TEAPOT DOME:   FIELD
 LOC .       S3 T38N R78W:   LOCATION
 CNTY.            NATRONA:   COUNTY
 STAT.            WYOMING:   STATE
 CTRY. UNITED STATES OF AMERICA:   COUNTRY
 SRVC.     Atlas Wireline:   SERVICE COMPANY
 DATE.        18-JAN-1992:   LOGDATE
 API .       490252249900:   API NUMBER
~CURVE INFORMATION
#MNEM.UNIT       API CODE    CURVE DESCRIPTION
#----------   ------------   ------------------------------
 DEPT.F                  :   
 GRR .GAPI   07 310 01 00:   GAMMA RAY
 RILD.OHMM   07 120 46 00:   INDUCTION LOG DEEP RESISTIVITY
 RILM.OHMM   07 120 44 00:   INDUCTION LOG MEDIUM RESISTIVITY
~PARAMETER INFORMATION
#MNEM.UNIT          VALUE    DESCRIPTION
#----------   ------------   ------------------------------
 PD  .                 GL:   PERMANENT DATUM
 EPD .F              5147:   ELEVATION PERMANENT DATUM
 LMF .                 KB:   LOG MEASURED FROM
 DAPD.F                10:   FEET ABOVE PERMANENT DATUM
 DMF .                 KB:   DRILLING MEASURED FROM
 EKB .F              5157:   KELLING BUSHING
 EDF .F              5156:   DRILLING FLOOR
 EGL .F              5147:   GROUND LEVEL
 DATE.        18-JAN-1992:   RUN DATE
 RUN .                  1:   RUN NUMBER
 DD  .F               842:   DEPTH DRILLER
 DL  .F               837:   DEPTH LOGGER
 BLI .F               835:   BOTTOM LOG INTERVAL
 TLI .F                 4:   TOP LOG INTERVAL
 CS  .IN            8.625:   CASING SIZE
 CBD .F                39:   CASING BOTTOM DRILLER
 CBL .F                56:   CASING BOTTOM LOGGER
 BS  .IN             8.75:   BIT SIZE
 BSD .F               842:   BIT SIZE AT DEPTH
 DFT .                AIR:   DRILLING FLUID TYPE
 LUN .           HL- 6272:   LOGGING UNIT NUMBER
 LUL .             CASPER:   LOGGING UNIT LOCATION
 ENGI.       P. RASMUSSEN:   RECORDING ENGINEER
 WITN.          G. STRONG:   WITNESSED BY
 CLNT.            A2DTECH:   CLIENT CODE
 ORIG.           5" PRINT:   ORIGIN OF DATA
 UWI .       490252249900:   UNIQUE WELL ID
 DICO. A2D Technologies, Inc.:   DIGITIZING COMPANY
~OTHER INFORMATION
~A    DEPT      GRR      RILD       RILM   
# ...
  113.2000   149.5797     7.7941     7.8814
  113.3000   149.1876     7.7937     7.8813
  113.4000   148.8766     7.7933     7.8975
  113.5000   148.8459     7.7929     7.9361
  113.6000   148.5765     7.8142     7.9360
  113.7000   148.5781     7.8466     7.9359
  113.8000   148.5799     7.8461     7.9358
  113.9000   148.6879     7.8456     7.9357
  114.0000   148.9361     7.8453     7.9356
  114.1000   149.1934     7.8448     7.9355
  114.2000   149.4326     7.8608     7.9787
  114.3000   149.5009     7.8989     8.0238
  114.4000   149.5027     7.8984     8.0691
  114.5000   149.5046     7.9394     8.1146
  114.6000   149.4990     7.9528     8.1604
  114.7000   149.2545     7.9737     8.2064
  114.8000   149.0100     8.0076     8.2528
  114.9000   148.4883     8.0081     8.2994
  115.0000   147.5887     8.0534     8.3463
  115.1000   146.3354     8.0623     8.3888
  115.2000   144.6543     8.0882     8.3887
  115.3000   143.3819     8.1179     8.4295
  115.4000   142.0600     8.1231     8.4470
  115.5000   140.3432     8.1738     8.4658
  115.6000   137.8418     8.1734     8.5135
  115.7000   134.9369     8.2044     8.5651
  115.8000   132.8813     8.2297     8.5650
  115.9000   130.8362     8.2398     8.5649
  116.0000   129.4344     8.2864     8.5648
  116.1000   128.8650     8.2859     8.5757
  116.2000   128.8669     8.2854     8.6244
  116.3000   128.8687     8.3111     8.6242
  116.4000   128.8705     8.3425     8.6241
  116.5000   129.0020     8.3469     8.6240
  116.6000   129.2503     8.3999     8.6239
  116.7000   129.4839     8.3995     8.6238
  116.8000   129.4860     8.3991     8.6236
  116.9000   129.6910     8.4192     8.6235
  117.0000   129.9392     8.4569     8.6234
  117.1000   130.1875     8.4564     8.6233
  117.2000   130.4356     8.5034     8.6232
  117.3000   130.7108     8.5147     8.6230
  117.4000   130.9321     8.5142     8.6229
  117.5000   131.0182     8.5287     8.6228
  117.6000   131.1246     8.5729     8.6227
  117.7000   131.3255     8.5723     8.6226
  117.8000   131.0238     8.5719     8.6224
  117.9000   129.8459     8.5715     8.6223
  118.0000   128.9726     8.5710     8.6222
  118.1000   128.3560     8.5705     8.6221
  118.2000   127.9282     8.5700     8.6345
  118.3000   127.6893     8.5695     8.6821
  118.4000   127.9431     8.5690     8.6819
  118.5000   127.9970     8.5686     8.7206
  118.6000   128.1358     8.5681     8.7424
  118.7000   128.3840     8.5602     8.7582
  118.8000   128.6542     8.4670     8.8032
  118.9000   129.2203     8.4664     8.8030
  119.0000   129.4326     8.4185     8.8029
  119.1000   129.6808     8.4078     8.8028
  119.2000   130.0247     8.4078     8.8027
  119.3000   130.4814     8.4076     8.8026
  119.4000   130.7491     8.4075     8.8024
  119.5000   130.9778     8.4074     8.7567
  119.6000   131.5650     8.4073     8.7411
  119.7000   131.9702     8.4072     8.7187
  119.8000   131.9720     8.4070     8.6803
  119.9000   131.9739     8.4069     8.6801
  120.0000   131.9757     8.4068     8.6319
  120.1000   131.7919     8.4067     8.6197
  120.2000   131.5473     8.4065     8.5944
  120.3000   131.2322     8.4065     8.5459
  120.4000   130.7411     8.4064     8.4976
  120.5000   130.1614     8.4062     8.4410
  120.6000   129.7592     8.4061     8.4409
  120.7000   129.4125     8.4060     8.4130
  120.8000   129.3414     8.4059     8.3821
  120.9000   129.5605     8.3920     8.3764
  121.0000   129.5625     8.3473     8.3237
  121.1000   129.7821     8.3471     8.2822
  121.2000   130.0304     8.3082     8.2355
  121.3000   130.1757     8.2613     8.2083
  121.4000   130.1322     8.2146     8.1997
  121.5000   129.8755     8.1741     8.1511
  121.6000   129.6430     8.1739     8.1510
  121.7000   129.5751     8.1738     8.1509
  121.8000   129.4577     8.1432     8.1508
  121.9000   129.2748     8.1366     8.1622
  122.0000   129.2766     8.1735     8.2075
  122.1000   129.2784     8.1734     8.2074
  122.2000   129.2803     8.1732     8.2437
  122.3000   129.4174     8.2071     8.2902
  122.4000   129.6657     8.2302     8.3371
  122.5000   129.9543     8.2425     8.3802
  122.6000   130.8076     8.2891     8.3800
  122.7000   131.6456     8.3453     8.4202
  122.8000   132.6331     8.3832     8.4677
  122.9000   133.7148     8.4034     8.5155
  123.0000   134.8753     8.4033     8.5564
  123.1000   135.6798     8.4081     8.5563
  123.2000   136.3574     8.4618     8.5562
  123.3000   137.2661     8.4617     8.5890
  123.4000   138.0332     8.4922     8.6157
  123.5000   138.5279     8.5402     8.6156
  123.6000   139.0323     8.5801     8.6155
  123.7000   139.2757     8.5799     8.6153
  123.8000   139.1559     8.5798     8.6152
  123.9000   138.7848     8.5797     8.6402
  124.0000   138.2937     8.5796     8.6889
  124.1000   137.8028     8.5795     8.7380
  124.2000   137.2198     8.5793     8.7965
  124.3000   136.8209     8.5792     8.7964
  124.4000   136.1873     8.5415     8.7963
  124.5000   135.5350     8.4932     8.8134
  124.6000   135.0163     8.4601     8.8575
  124.7000   134.1893     8.4600     8.8574
  124.8000   133.3251     8.4599     8.8573
  124.9000   132.5003     8.4598     8.8571
  125.0000   131.7629     8.4597     8.8570
  125.1000   131.1130     8.4596     8.8569
  125.2000   130.8548     8.4595     8.8568
  125.3000   130.8566     8.4593     8.8566
  125.4000   130.8584     8.4592     8.8565
  125.5000   130.9777     8.4591     8.8564
  125.6000   131.2858     8.4590     8.8563
  125.7000   131.7782     8.4589     8.8562
  125.8000   132.0263     8.4587     8.8560
  125.9000   132.0833     8.4586     8.8559
  126.0000   132.3526     8.4585     8.8288
  126.1000   132.8472     8.4334     8.7942
  126.2000   133.3794     8.3996     8.7941
  126.3000   134.5225     8.3966     8.7940
  126.4000   134.7316     8.3410     8.7939
  126.5000   135.1298     8.3409     8.7938
  126.6000   135.6242     8.3408     8.7936
  126.7000   136.0492     8.3406     8.7935
  126.8000   136.0512     8.3405     8.7934
  126.9000   136.0529     8.3404     8.8385
  127.0000   136.0547     8.3403     8.8546
  127.1000   136.0565     8.3402     8.8325
  127.2000   136.0584     8.3401     8.7929
  127.3000   136.0602     8.3400     8.7928
  127.4000   136.0620     8.3398     8.7926
  127.5000   135.8814     8.3397     8.7925
  127.6000   135.7617     8.3396     8.7924
  127.7000   135.8307     8.3395     8.7788
  127.8000   136.0693     8.3394     8.7293
  127.9000   136.0715     8.3393     8.6705
  128.0000   136.4700     8.3391     8.6704
  128.1000   136.9646     8.3390     8.6703
  128.2000   137.4594     8.3389     8.6536
  128.3000   137.9280     8.3388     8.6099
  128.4000   138.2081     8.3337     8.6097
  128.5000   138.6393     8.2806     8.6096
  128.6000   139.1340     8.2805     8.6095
  128.7000   139.4292     8.2506     8.6094
  128.8000   139.3889     8.2228     8.6093
  128.9000   139.1290     8.2146     8.6091
  129.0000   139.1307     8.1655     8.6090
  129.1000   138.7857     8.1654     8.6089
  129.2000   138.4106     8.1653     8.6088
  129.3000   137.9909     8.1652     8.6087
  129.4000   137.0074     8.1651     8.6085
  129.5000   136.0231     8.1649     8.6084
  129.6000   135.2292     8.1648     8.6083
  129.7000   134.6239     8.1647     8.6082
  129.8000   134.1328     8.1646     8.6081
  129.9000   133.6420     8.1645     8.6079
  130.0000   133.0702     8.1644     8.6078
  130.1000   132.6599     8.1642     8.6077
  130.2000   132.3174     8.1641     8.6076
  130.3000   132.0729     8.1640     8.5896
  130.4000   131.8612     8.1639     8.5476
  130.5000   132.1674     8.1708     8.5475
  130.6000   132.1690     8.2208     8.5474
  130.7000   132.4999     8.2207     8.5151
  130.8000   132.9945     8.2205     8.4878
  130.9000   133.4398     8.2416     8.4877
  131.0000   133.6961     8.2778     8.4876
  131.1000   134.4130     8.2777     8.4875
  131.2000   135.1539     8.2775     8.4874
  131.3000   135.7716     8.2774     8.4873
