~VERSION INFORMATION
 VERS.                2.0:   CWLS LOG ASCII STANDARD - VERSION 2.0
 WRAP.                 NO:   ONE LINE PER DEPTH STEP
~WELL INFORMATION
#MNEM.UNIT      DATA TYPE    INFORMATION
#----------   ------------   ------------------------------
 STRT.F            0.0000:   START DEPTH
 STOP.F          596.0000:   STOP DEPTH
 STEP.F            0.1000:   STEP LENGTH
 NULL.          -999.2500:   NO VALUE
 COMP. BROWN JOHN E&C INC:   COMPANY
 WELL.    72-5 SX-3 #72-3:   WELL
 FLD .             TEAPOT:   FIELD
 LOC .       S3 T38N R78W:   LOCATION
 CNTY.            NATRONA:   COUNTY
 STAT.            WYOMING:   STATE
 CTRY. UNITED STATES OF AMERICA:   COUNTRY
 SRVC.      Western Atlas:   SERVICE COMPANY
 DATE.        15-APR-1992:   LOGDATE
 API .       490252250900:   API NUMBER
~CURVE INFORMATION
#MNEM.UNIT       API CODE    CURVE DESCRIPTION
#----------   ------------   ------------------------------
 DEPT.F                  :   
 GRR .GAPI   07 310 01 00:   GAMMA RAY
 RILD.OHMM   07 120 46 00:   INDUCTION LOG DEEP RESISTIVITY
 RILM.OHMM   07 120 44 00:   INDUCTION LOG MEDIUM RESISTIVITY
~PARAMETER INFORMATION
#MNEM.UNIT          VALUE    DESCRIPTION
#----------   ------------   ------------------------------
 PD  .                 GL:   PERMANENT DATUM
 EPD .F              5132:   ELEVATION PERMANENT DATUM
 LMF .                 KB:   LOG MEASURED FROM
 DAPD.F                 5:   FEET ABOVE PERMANENT DATUM
 DMF .                 KB:   DRILLING MEASURED FROM
 EKB .F              5137:   KELLING BUSHING
 EDF .F              5136:   DRILLING FLOOR
 EGL .F              5132:   GROUND LEVEL
 DATE.        15-APR-1992:   RUN DATE
 RUN .                  1:   RUN NUMBER
 DD  .F               605:   DEPTH DRILLER
 DL  .F               599:   DEPTH LOGGER
 BLI .F               596:   BOTTOM LOG INTERVAL
 TLI .F                46:   TOP LOG INTERVAL
 CS  .IN            8.625:   CASING SIZE
 CBD .F                48:   CASING BOTTOM DRILLER
 CBL .F                46:   CASING BOTTOM LOGGER
 BS  .IN            7.875:   BIT SIZE
 BSD .F               605:   BIT SIZE AT DEPTH
 DFT .                AIR:   DRILLING FLUID TYPE
 LUN .            HL-6321:   LOGGING UNIT NUMBER
 LUL .        RK. SPRINGS:   LOGGING UNIT LOCATION
 ENGI.            TRIBBLE:   RECORDING ENGINEER
 WITN.             STRONG:   WITNESSED BY
 CLNT.            A2DTECH:   CLIENT CODE
 ORIG.           5" PRINT:   ORIGIN OF DATA
 UWI .       490252250900:   UNIQUE WELL ID
 DICO. A2D Technologies, Inc.:   DIGITIZING COMPANY
~OTHER INFORMATION
~A    DEPT     GRR       RILD       RILM   
# ...
  546.0000   104.1090     8.2545     8.3665
  546.1000   105.1717     8.1726     8.3028
  546.2000   106.4040     8.1040     8.2140
  546.3000   107.5859     8.0444     8.1618
  546.4000   108.5939     7.9531     8.1208
  546.5000   109.3154     7.8483     8.0150
  546.6000   110.2386     7.7741     7.8982
  546.7000   111.0942     7.6860     7.8088
  546.8000   111.8326     7.5989     7.7173
  546.9000   112.5533     7.5127     7.5913
  547.0000   113.1207     7.4206     7.4941
  547.1000   113.7442     7.3435     7.3881
  547.2000   114.3298     7.2603     7.2630
  547.3000   114.7241     7.1412     7.1379
  547.4000   115.0089     6.9892     6.9487
  547.5000   115.5301     6.8706     6.8209
  547.6000   115.7592     6.7163     6.6457
  547.7000   116.0032     6.5654     6.4722
  547.8000   116.2472     6.4177     6.3310
  547.9000   116.4913     6.2731     6.2133
  548.0000   116.7274     6.1289     6.1187
  548.1000   116.7237     5.9318     6.0152
  548.2000   116.9204     5.8183     5.8988
  548.3000   117.1645     5.6874     5.7728
  548.4000   117.4958     5.5472     5.6733
  548.5000   117.9556     5.3816     5.5482
  548.6000   118.2239     5.1574     5.4236
  548.7000   118.4436     5.0226     5.2861
  548.8000   118.8540     4.8627     5.1378
  548.9000   119.2347     4.7245     4.9898
  549.0000   119.5880     4.6436     4.7638
  549.1000   120.3303     4.6439     4.6965
  549.2000   120.8186     4.6703     4.6809
  549.3000   122.0690     4.6968     4.7278
  549.4000   123.8160     4.7385     4.8047
  549.5000   126.1780     4.7925     4.8639
  549.6000   129.3862     4.8444     4.9149
  549.7000   133.0390     4.8755     4.9709
  549.8000   137.0816     4.8995     5.0276
  549.9000   139.7327     4.9453     5.0848
  550.0000   140.6059     4.9853     5.1427
  550.1000   140.6023     5.0023     5.1719
  550.2000   140.5987     5.0192     5.2012
  550.3000   140.5952     5.0361     5.2304
  550.4000   140.4040     5.0675     5.2702
  550.5000   140.2848     5.1216     5.3303
  550.6000   140.1228     5.1532     5.3971
  550.7000   139.5714     5.2352     5.4812
  550.8000   138.4553     5.2829     5.5537
  550.9000   137.5732     5.3279     5.6171
  551.0000   135.7463     5.3890     5.6974
  551.1000   133.7253     5.4508     5.8277
  551.2000   132.0937     5.5238     5.9478
  551.3000   130.8425     5.5501     6.0305
  551.4000   129.3457     5.6217     6.1344
  551.5000   127.8483     5.6924     6.2400
  551.6000   126.2072     5.7371     6.3419
  551.7000   124.2824     5.8394     6.4196
  551.8000   121.9690     5.9375     6.4877
  551.9000   119.0215     6.0668     6.6156
  552.0000   116.9457     6.2268     6.7491
  552.1000   115.4067     6.4076     6.8652
  552.2000   114.2805     6.5974     6.9813
  552.3000   113.3489     6.8547     7.0747
  552.4000   112.5987     6.9600     7.1759
  552.5000   111.7267     7.0806     7.2996
  552.6000   111.3065     7.2031     7.4253
  552.7000   110.8052     7.3176     7.5455
  552.8000   110.4041     7.4023     7.6358
  552.9000   110.1056     7.5560     7.7188
  553.0000   109.5878     7.6257     7.8070
  553.1000   109.3434     7.7134     7.8962
  553.2000   108.9043     7.8187     7.9999
  553.3000   108.4028     7.9539     8.1306
  553.4000   107.8228     8.1002     8.1832
  553.5000   107.0726     8.1874     8.3037
  553.6000   106.2323     8.3160     8.3854
  553.7000   105.3532     8.4108     8.4528
  553.8000   104.1891     8.4727     8.5493
  553.9000   103.1625     8.5699     8.6492
  554.0000   102.4122     8.6828     8.7457
  554.1000   101.6666     8.6823     8.8073
  554.2000   101.4141     8.7135     8.8570
  554.3000   101.3588     8.7419     8.9069
  554.4000   101.4982     8.7413     8.9572
  554.5000   101.7435     8.7407     9.0139
  554.6000   102.0233     8.7401     9.0586
  554.7000   102.5561     8.7009     9.0754
  554.8000   103.0117     8.6780     9.0518
  554.9000   103.5059     8.6774     8.9992
  555.0000   104.0000     8.6829     8.9469
  555.1000   104.4941     8.7370     8.8950
  555.2000   104.9882     8.7364     8.8434
  555.3000   105.5642     8.7705     8.8203
  555.4000   105.9767     8.8204     8.8194
  555.5000   106.4706     8.8706     8.8185
  555.6000   106.8654     8.9190     8.8176
  555.7000   107.1107     8.9183     8.8625
  555.8000   107.3647     8.9600     8.9126
  555.9000   107.8411     9.0426     8.9629
  556.0000   107.9636     9.1054     9.0135
  556.1000   108.0918     9.1139     9.0643
  556.2000   108.2594     9.1680     9.1255
  556.3000   108.2792     9.1674     9.1670
  556.4000   108.5547     9.2058     9.2187
  556.5000   108.5515     9.2582     9.2707
  556.6000   108.7118     9.2944     9.3153
  556.7000   108.8473     9.2986     9.3142
  556.8000   108.8994     9.3582     9.3630
  556.9000   109.1431     9.4048     9.4158
  557.0000   109.1394     9.4583     9.4690
  557.1000   109.1357     9.4880     9.5077
  557.2000   109.1321     9.4996     9.5094
  557.3000   109.1285     9.5536     9.5723
  557.4000   109.1248     9.6080     9.5715
  557.5000   109.1209     9.6627     9.6041
  557.6000   109.1176     9.6856     9.6583
  557.7000   109.1139     9.7050     9.7128
  557.8000   109.1103     9.7523     9.7703
  557.9000   109.1067     9.7515     9.7694
  558.0000   109.1152     9.8028     9.8095
  558.1000   109.4018     9.8586     9.8359
  558.2000   109.3988     9.8867     9.8515
  558.3000   109.3951     9.9017     9.9070
  558.4000   109.3915     9.9547     9.9712
  558.5000   109.3879     9.9538    10.0192
  558.6000   109.3841     9.9532    10.0758
  558.7000   109.3806     9.9525    10.1086
  558.8000   109.5620     9.9519    10.1076
  558.9000   109.6764     9.9622    10.1066
  559.0000   109.6727    10.0202    10.1623
  559.1000   109.6691    10.0195    10.1754
  559.2000   109.6650    10.0188    10.2058
  559.3000   109.4444    10.0495    10.2634
  559.4000   109.3551    10.0877    10.3156
  559.5000   109.2424    10.0870    10.3144
  559.6000   108.9351    10.0862    10.3655
  559.7000   108.4337    10.1375    10.3848
  559.8000   107.9321    10.1556    10.3837
  559.9000   107.6262    10.1818    10.3958
  560.0000   107.0909    10.2254    10.4545
  560.1000   106.3405    10.2247    10.5135
  560.2000   105.6233    10.2238    10.5257
  560.3000   105.0797    10.2710    10.5586
  560.4000   105.3041    10.3294    10.5973
  560.5000   105.3758    10.3657    10.6037
  560.6000   105.7309    10.3746    10.6694
  560.7000   106.4084    10.4369    10.6685
  560.8000   106.9138    10.4930    10.6674
  560.9000   107.7848    10.5086    10.6664
  561.0000   108.4002    10.5079    10.6803
  561.1000   108.9910    10.5250    10.7390
  561.2000   109.5828    10.5802    10.7378
  561.3000   110.2388    10.5793    10.7866
  561.4000   110.4944    10.5786    10.8111
  561.5000   110.4909    10.6172    10.8328
  561.6000   110.4873    10.6513    10.8849
  561.7000   110.3535    10.6506    10.8836
  561.8000   110.1770    10.6498    10.8826
  561.9000   110.1733    10.7102    10.9258
  562.0000   110.1692    10.7230    10.9567
  562.1000   110.1661    10.7570    10.9556
  562.2000   110.0001    10.7967    10.9546
  562.3000   109.8558    10.7959    10.9533
  562.4000   109.7980    10.7951    10.9524
  562.5000   109.5455    10.8512    10.9514
  562.6000   109.5418    10.8694    10.9503
  562.7000   109.5382    10.8686    10.9600
  562.8000   109.3939    10.8843    11.0248
  562.9000   109.2279    10.9433    11.0238
  563.0000   109.1919    10.9424    11.0227
  563.1000   108.9173    10.9418    11.0216
  563.2000   108.9139    10.9410    11.0206
  563.3000   108.9103    10.9652    11.0195
  563.4000   108.9067    11.0163    11.0182
  563.5000   108.9030    11.0154    11.0173
  563.6000   108.8888    11.0147    11.0564
  563.7000   108.5921    11.0613    11.0924
  563.8000   108.5891    11.0903    11.0913
  563.9000   108.4342    11.0896    11.0902
  564.0000   108.0848    11.0888    11.0891
  564.1000   107.6691    11.0879    11.0880
