~VERSION INFORMATION
 VERS.                2.0:   CWLS LOG ASCII STANDARD - VERSION 2.0
 WRAP.                 NO:   ONE LINE PER DEPTH STEP
~WELL INFORMATION
#MNEM.UNIT      DATA TYPE    INFORMATION
#----------   ------------   ------------------------------
 STRT.F           20.0000:   START DEPTH
 STOP.F          632.0000:   STOP DEPTH
 STEP.F            0.5000:   STEP LENGTH
 NULL.          -999.2500:   NO VALUE
 COMP. FENIX & SCISSON INC:   COMPANY
 WELL.    58 SX 34 #34-34:   WELL
 FLD .             TEAPOT:   FIELD
 LOC .      S34 T39N R78W:   LOCATION
 CNTY.            NATRONA:   COUNTY
 STAT.            WYOMING:   STATE
 CTRY. UNITED STATES OF AMERICA:   COUNTRY
 SRVC.            Unknown:   SERVICE COMPANY
 DATE.        30-JAN-1979:   LOGDATE
 API .       490251077300:   API NUMBER
~CURVE INFORMATION
#MNEM.UNIT       API CODE    CURVE DESCRIPTION
#----------   ------------   ------------------------------
 DEPT.F                  :   
 SPR .MV     05 010 01 00:   SPONTANEOUS POTENTIAL FROM RES.
 SN  .OHMM   05 040 16 00:   SHORT NORMAL 16"
 ILD .OHMM   05 120 46 00:   INDUCTION LOG DEEP
 CALD.IN     45 280 60 00:   CALIPER
 CORR.G/C3   45 356 01 00:   DENSITY CORRECTION
 RHOB.G/C3   45 350 01 00:   BULK DENSITY
 GRD .GAPI   45 310 01 00:   GAMMA RAY FROM DENSITY LOG
 DPHI.DEC    45 890 12 00:   DENSITY POROSITY SANDSTONE
~PARAMETER INFORMATION
#MNEM.UNIT          VALUE    DESCRIPTION
#----------   ------------   ------------------------------
 PD  .                 GL:   PERMANENT DATUM
 LMF .                 KB:   LOG MEASURED FROM
 DAPD.F                 4:   FEET ABOVE PERMANENT DATUM
 DMF .                 KB:   DRILLING MEASURED FROM
 DATE.            1-30-79:   RUN DATE
 RUN .                  1:   RUN NUMBER
 DD  .F               635:   DEPTH DRILLER
 DL  .F               632:   DEPTH LOGGER
 BLI .F               626:   BOTTOM LOG INTERVAL
 TLI .F                35:   TOP LOG INTERVAL
 CS  .IN            8.625:   CASING SIZE
 CBD .F                40:   CASING BOTTOM DRILLER
 CBL .F                35:   CASING BOTTOM LOGGER
 BS  .IN            7.875:   BIT SIZE
 BSD .F               635:   BIT SIZE AT DEPTH
 DFT .                KCL:   DRILLING FLUID TYPE
 DFD .                8.9:   DRILLING FLUID DENSITY
 DFV .                230:   DRILLING FLUID VISCOSITY
 DFPH.                  8:   DRILLING FLUID PH
 DFL .                 30:   DRILLING FLUID LOSS
 MSS .           FLOWLINE:   MUD SAMPLE SOURCE
 RMS .OHMM            .18:   RESISTIVITY MUD SAMPLE
 MST .F                62:   MUD SAMPLE TEMPERATURE
 RMF .OHMM            .14:   RESISTIVITY MUD FILTRATE SAMPLE
 MFST.F                59:   MUD FILTRATE SAMPLE TEMPERATURE
 RMC .OHMM            .24:   RESISTIVITY MUD CAKE
 MCST.F                60:   MUD CAKE SAMPLE TEMPERATURE
 MFSS.           MEASURED:   MUD FILTRATE SAMPLE SOURCE
 MCSS.           MEASURED:   MUD CAKE SAMPLE SOURCE
 RMB .OHMM            .17:   RESISTIVITY MUD AT BHT
 BHT .F                70:   BOTTOM HOLE TEMPERATURE
 TCS .HRS               4:   TIME CURCULATED STOPPED
 MRT .F                70:   MAXIMUM RECORDED TEMPERATURE
 LUN .               3006:   LOGGING UNIT NUMBER
 LUL .             CASPER:   LOGGING UNIT LOCATION
 ENGI.            ROLLINS:   RECORDING ENGINEER
 WITN.              AMEND:   WITNESSED BY
 CLNT.            A2DTECH:   CLIENT CODE
 ORIG.         2.5" PRINT:   ORIGIN OF DATA
 UWI .       490251077300:   UNIQUE WELL ID
 DICO. A2D Technologies, Inc.:   DIGITIZING COMPANY
~OTHER INFORMATION
~A   DEPT      SPR         SN        ILD       CALD       CORR       RHOB         GRD      DPHI   
# ...
  263.0000   -48.1570     6.3053     7.7430     8.1598     0.0271     2.4344   109.7914     0.1444
  263.5000   -48.1893     6.2892     7.7430     8.1365     0.0260     2.4370   107.2494     0.1425
  264.0000   -48.2200     6.2732     7.7430     8.1145     0.0250     2.4387   105.5193     0.1406
  264.5000   -48.2404     6.2572     7.7430     8.0910     0.0240     2.4388   105.5383     0.1387
  265.0000   -48.2659     6.2413     7.7431     8.0742     0.0229     2.4350   105.5118     0.1405
  265.5000   -48.2909     6.2253     7.7433     8.0607     0.0219     2.4298   105.5219     0.1437
  266.0000   -48.3149     6.2095     7.7432     8.0467     0.0208     2.4246   105.4725     0.1470
  266.5000   -48.3396     6.1937     7.7432     8.0322     0.0201     2.4191   106.2735     0.1494
  267.0000   -48.3641     6.1797     7.7439     8.0194     0.0201     2.4176   109.5945     0.1494
  267.5000   -48.3888     6.1656     7.7453     8.0056     0.0201     2.4197   113.3019     0.1486
  268.0000   -48.4135     6.1516     7.7420     8.0303     0.0201     2.4233   117.0911     0.1470
  268.5000   -48.4382     6.1377     7.6784     8.0580     0.0201     2.4286   117.1476     0.1450
  269.0000   -48.4628     6.1238     7.6058     8.0870     0.0200     2.4338   115.0384     0.1433
  269.5000   -48.4875     6.1099     7.5343     8.1152     0.0213     2.4390   112.3635     0.1416
  270.0000   -48.5122     6.0961     7.4638     8.1439     0.0245     2.4436   109.8689     0.1398
  270.5000   -48.5369     6.0823     7.3942     8.1720     0.0275     2.4465   107.3200     0.1383
  271.0000   -48.5616     6.0685     7.3255     8.2005     0.0305     2.4496   104.7756     0.1371
  271.5000   -48.5862     6.0547     7.2851     8.2309     0.0337     2.4509   102.7796     0.1365
  272.0000   -48.6109     6.0409     7.2176     8.2449     0.0366     2.4508   103.2332     0.1365
  272.5000   -48.6356     6.0271     7.1534     8.2355     0.0399     2.4509   103.2432     0.1365
  273.0000   -48.6603     6.0141     7.0898     8.2282     0.0394     2.4508   102.4470     0.1365
  273.5000   -48.6849     6.0007     7.0268     8.2211     0.0386     2.4507   101.6073     0.1357
  274.0000   -48.7096     5.9873     6.9643     8.2136     0.0377     2.4477   103.5232     0.1365
  274.5000   -48.7343     5.9738     6.9251     8.2062     0.0369     2.4445   104.8087     0.1380
  275.0000   -48.7590     5.9208     6.8053     8.1981     0.0360     2.4388   104.5988     0.1410
  275.5000   -48.7836     5.8406     6.6848     8.1912     0.0351     2.4323   104.3834     0.1441
  276.0000   -48.8083     5.7615     6.5665     8.1848     0.0342     2.4282   104.1860     0.1471
  276.5000   -48.8330     5.6833     6.4502     8.1729     0.0334     2.4266   103.9791     0.1501
  277.0000   -48.8578     5.6062     6.3360     8.1738     0.0326     2.4247   103.9249     0.1510
  277.5000   -48.8824     5.5393     6.2239     8.0984     0.0310     2.4248   104.2888     0.1510
  278.0000   -48.9071     5.6647     6.1762     7.9624     0.0287     2.4249   104.7346     0.1513
  278.5000   -48.9325     5.8421     6.1524     8.1228     0.0265     2.4250   104.2393     0.1515
  279.0000   -48.9563     6.0249     6.1287     8.1281     0.0243     2.4251   103.3173     0.1517
  279.5000   -48.9823     6.2135     6.1050     8.1022     0.0220     2.4252   102.6431     0.1519
  280.0000   -48.9851     6.4080     6.0815     8.0509     0.0201     2.4253   103.1953     0.1521
  280.5000   -48.9844     6.6086     6.0581     8.0587     0.0201     2.4254   104.2772     0.1523
  281.0000   -48.9828     6.7974     6.0347     8.0810     0.0200     2.4255   105.0973     0.1526
  281.5000   -48.9936     6.7974     6.0114     8.1095     0.0201     2.4256   105.0896     0.1526
  282.0000   -48.8922     6.7872     5.9883     8.1421     0.0193     2.4257   105.4028     0.1526
  282.5000   -48.7171     6.7761     5.9652     8.1742     0.0180     2.4258   106.3897     0.1526
  283.0000   -48.5527     6.7649     5.9422     8.2057     0.0166     2.4259   107.4737     0.1526
  283.5000   -48.3909     6.7538     5.9193     8.2379     0.0166     2.4260   107.5793     0.1526
  284.0000   -48.2255     6.7428     5.8964     8.2381     0.0178     2.4262   108.2956     0.1518
  284.5000   -48.0616     6.7317     5.8738     8.2260     0.0190     2.4262   108.5508     0.1519
  285.0000   -47.8976     6.7207     5.8523     8.2140     0.0200     2.4264   107.7290     0.1521
  285.5000   -47.7332     6.7096     5.8337     8.2058     0.0201     2.4265   107.1085     0.1522
  286.0000   -47.5690     6.6986     5.8152     8.2058     0.0201     2.4266   107.7220     0.1524
  286.5000   -47.4058     6.6876     5.7969     8.2056     0.0201     2.4268   109.0745     0.1525
  287.0000   -47.2407     6.6721     5.7788     8.2055     0.0200     2.4251   110.4594     0.1526
  287.5000   -47.0755     6.7974     5.7600     8.2071     0.0200     2.4213   111.2576     0.1554
  288.0000   -46.9517     6.4842     5.7210     8.2112     0.0208     2.4173   111.0073     0.1578
  288.5000   -46.9519     6.1150     5.6533     8.2152     0.0239     2.4132   110.6851     0.1602
  289.0000   -46.9496     5.7668     5.5864     8.2192     0.0269     2.3997   110.3509     0.1626
  289.5000   -46.9505     5.4384     5.5203     8.2232     0.0302     2.3821   109.6609     0.1647
  290.0000   -46.9509     5.1288     5.4549     8.2273     0.0353     2.3766   109.0848     0.1662
  290.5000   -46.9507     5.0472     5.3903     8.2314     0.0441     2.3764   106.4409     0.1663
  291.0000   -46.9510     5.0472     5.3369     8.2352     0.0534     2.3816   103.9165     0.1649
  291.5000   -46.9511     5.0934     5.3337     8.2395     0.0538     2.4207   101.6833     0.1630
  292.0000   -46.9512     5.2162     5.3945     8.2441     0.0484     2.4357   103.6429     0.1622
  292.5000   -46.9511     5.3419     5.4981     8.2382     0.0436     2.4386   106.8533     0.1493
  293.0000   -46.9509     5.4707     5.6871     8.2121     0.0389     2.4382   110.6506     0.1463
  293.5000   -46.9510     5.6025     5.9304     8.1852     0.0341     2.4388   109.8391     0.1434
  294.0000   -46.9504     5.7376     6.1847     8.1632     0.0307     2.4389   108.3375     0.1422
  294.5000   -46.9500     5.8759     6.4500     8.1166     0.0285     2.4388   108.9257     0.1422
  295.0000   -46.9511     6.0175     6.7235     8.0498     0.0261     2.4387   108.2115     0.1423
  295.5000   -46.9493     6.1625     7.0097     8.0815     0.0239     2.4381   108.6600     0.1423
  296.0000   -47.0324     6.3110     7.1876     8.1219     0.0196     2.4376   109.0726     0.1424
  296.5000   -47.1491     6.4606     7.2142     8.1642     0.0160     2.4370   109.5618     0.1425
  297.0000   -47.2645     6.6694     7.2407     8.2037     0.0122     2.4369   108.6631     0.1426
  297.5000   -47.4340     6.6836     7.2673     8.2050     0.0126     2.4375   107.4995     0.1427
  298.0000   -47.7645     6.7053     7.2940     8.2064     0.0130     2.4380   106.3989     0.1427
  298.5000   -48.0912     6.7273     7.3226     8.2057     0.0136     2.4385   105.1474     0.1428
  299.0000   -48.4219     6.7493     7.4317     8.2058     0.0141     2.4390   105.7292     0.1429
  299.5000   -48.7521     6.7712     7.5509     8.2066     0.0146     2.4395   107.0645     0.1426
  300.0000   -49.0813     6.7974     7.6720     8.2052     0.0152     2.4401   106.7932     0.1414
  300.5000   -49.4113     6.8068     7.7950     8.2034     0.0156     2.4404   106.9391     0.1402
  301.0000   -49.7410     6.8184     7.9200     8.1591     0.0169     2.4416   109.0755     0.1390
  301.5000   -50.0707     6.8300     8.0366     8.1154     0.0202     2.4430   110.8035     0.1363
  302.0000   -50.4002     6.8417     8.0134     8.0701     0.0233     2.4467   109.4799     0.1333
  302.5000   -50.7295     6.8534     7.9802     8.0261     0.0266     2.4506   113.0452     0.1303
  303.0000   -51.0601     6.8651     7.9471     7.9794     0.0298     2.4586   114.4088     0.1273
