~VERSION INFORMATION
 VERS.                2.0:   CWLS LOG ASCII STANDARD - VERSION 2.0
 WRAP.                 NO:   ONE LINE PER DEPTH STEP
~WELL INFORMATION
#MNEM.UNIT      DATA TYPE    INFORMATION
#----------   ------------   ------------------------------
 STRT.F            0.0000:   START DEPTH
 STOP.F          633.0000:   STOP DEPTH
 STEP.F            0.5000:   STEP LENGTH
 NULL.          -999.2500:   NO VALUE
 COMP.       F D SERV INC:   COMPANY
 WELL.    82-1 SX-3 #82-3:   WELL
 FLD .          NPR NO. 3:   FIELD
 LOC .       S3 T38N R78W:   LOCATION
 CNTY.            NATRONA:   COUNTY
 STAT.            WYOMING:   STATE
 CTRY. UNITED STATES OF AMERICA:   COUNTRY
 SRVC.     Atlas Wireline:   SERVICE COMPANY
 DATE.        14-APR-1992:   LOGDATE
 API .       490252250600:   API NUMBER
~CURVE INFORMATION
#MNEM.UNIT       API CODE    CURVE DESCRIPTION
#----------   ------------   ------------------------------
 DEPT.F                  :   
 GRR .GAPI   07 310 01 00:   GAMMA RAY FROM RES
 RILD.OHMM   07 120 46 00:   INDUCTION LOG DEEP RESISTIVITY
 RILM.OHMM   07 120 44 00:   INDUCTION LOG MEDIUM RESISTIVITY
~PARAMETER INFORMATION
#MNEM.UNIT          VALUE    DESCRIPTION
#----------   ------------   ------------------------------
 PD  .                 GL:   PERMANENT DATUM
 EPD .F              5120:   ELEVATION PERMANENT DATUM
 LMF .                 KB:   LOG MEASURED FROM
 DAPD.F                 5:   FEET ABOVE PERMANENT DATUM
 DMF .                 KB:   DRILLING MEASURED FROM
 EKB .F              5125:   KELLING BUSHING
 EDF .F              5124:   DRILLING FLOOR
 EGL .F              5120:   GROUND LEVEL
 DATE.        14-APR-1992:   RUN DATE
 RUN .                  1:   RUN NUMBER
 DD  .F               640:   DEPTH DRILLER
 DL  .F               636:   DEPTH LOGGER
 BLI .F               633:   BOTTOM LOG INTERVAL
 CS  .IN            8.625:   CASING SIZE
 CBD .F                43:   CASING BOTTOM DRILLER
 CBL .F                42:   CASING BOTTOM LOGGER
 BS  .IN            7.875:   BIT SIZE
 BSD .F               640:   BIT SIZE AT DEPTH
 DFT .                AIR:   DRILLING FLUID TYPE
 LUN .           HL- 6321:   LOGGING UNIT NUMBER
 LUL .        RK. SPRINGS:   LOGGING UNIT LOCATION
 ENGI.            TRIBBLE:   RECORDING ENGINEER
 WITN.             STRONG:   WITNESSED BY
 CLNT.            A2DTECH:   CLIENT CODE
 ORIG.           5" PRINT:   ORIGIN OF DATA
 UWI .       490252250600:   UNIQUE WELL ID
 DICO. A2D Technologies, Inc.:   DIGITIZING COMPANY
~OTHER INFORMATION
~A    DEPT     GRR       RILD       RILM   
# ...
  182.0000   117.7094     8.5537     8.5583
  182.5000   116.4824     8.4946     8.5572
  183.0000   117.3797     8.5549     8.5560
  183.5000   120.0951     8.6156     8.6152
  184.0000   122.2044     8.6163     8.6137
  184.5000   124.3138     8.6169     8.6125
  185.0000   125.5141     8.6175     8.6114
  185.5000   125.5022     8.5580     8.6068
  186.0000   126.0964     8.4396     8.4893
  186.5000   126.9937     8.4402     8.4287
  187.0000   127.8909     8.3819     8.4275
  187.5000   126.2878     8.3824     8.4264
  188.0000   123.5717     8.3830     8.4252
  188.5000   122.7008     8.3837     8.4241
  189.0000   123.2951     8.3843     8.4229
  189.5000   125.1014     8.3849     8.4218
  190.0000   126.3017     8.3854     8.4206
  190.5000   124.1686     8.3860     8.4195
  191.0000   117.7931     8.3866     8.4183
  191.5000   115.6600     8.3872     8.3584
  192.0000   115.9512     8.3877     8.3570
  192.5000   117.1515     8.3298     8.3559
  193.0000   119.9556     8.3304     8.3547
  193.5000   123.5404     8.2728     8.3536
  194.0000   124.0856     8.2158     8.2942
  194.5000   120.4344     8.1589     8.2931
  195.0000   123.1498     8.0461     8.1767
  195.5000   128.2895     7.9905     8.0619
  196.0000   130.3988     7.9353     7.9488
  196.5000   127.6597     7.9360     7.9456
  197.0000   124.3145     7.9366     7.8911
  197.5000   124.6057     7.8817     7.8898
  198.0000   126.1090     7.8273     7.8887
  198.5000   128.2566     7.8280     7.8877
  199.0000   129.7677     7.8835     7.9422
  199.5000   130.0128     7.8840     7.9967
  200.0000   128.5314     7.9399     8.0107
  200.5000   125.4152     7.9968     8.1072
  201.0000   123.1455     8.1676     8.2203
  201.5000   119.9615     8.1688     8.2769
  202.0000   119.6496     8.2273     8.3339
  202.5000   122.0590     8.3502     8.3913
  203.0000   125.9865     8.5229     8.5682
  203.5000   126.5837     8.6442     8.7485
  204.0000   124.7507     8.8288     8.8709
  204.5000   125.6479     8.8920     8.9944
  205.0000   130.7876     8.8933     9.0566
  205.5000   135.0182     8.9570     9.1190
  206.0000   132.9939     8.9582     9.0538
  206.5000   121.6546     8.8966     8.9268
  207.0000   116.4948     8.7745     8.8633
  207.5000   118.9072     8.5933     8.6779
  208.0000   121.3195     8.4128     8.5466
  208.5000   124.0350     8.2342     8.2029
  209.0000   125.8413     8.0158     7.9754
  209.5000   125.5264     7.8506     7.8086
  210.0000   125.2115     7.6885     7.6453
  210.5000   126.7148     7.5298     7.4854
  211.0000   130.0363     7.4261     7.4322
  211.5000   132.7517     7.3751     7.4312
  212.0000   130.1212     7.3247     7.4302
  212.5000   125.7554     7.3259     7.4291
  213.0000   124.8344     7.3269     7.4803
  213.5000   124.2165     7.3797     7.4790
  214.0000   123.5986     7.4845     7.5308
  214.5000   121.7685     7.5381     7.5826
  215.0000   118.1203     7.5923     7.6882
  215.5000   115.3812     7.7004     7.7411
  216.0000   116.8845     7.7555     7.7947
  216.5000   121.4181     7.8659     7.9032
  217.0000   124.1335     7.9222     7.9576
  217.5000   120.8636     7.9790     8.0125
  218.0000   115.6220     8.0361     8.0676
  218.5000   114.7040     8.1505     8.1232
  219.0000   118.6286     8.1516     8.1788
  219.5000   124.3743     8.2100     8.1777
  220.0000   126.7867     8.2111     8.2343
  220.5000   124.6536     8.2702     8.2910
  221.0000   121.6115     8.2134     8.2896
  221.5000   122.2057     8.2148     8.2306
  222.0000   121.5878     8.1017     8.1721
  222.5000   121.2729     8.0460     8.1140
  223.0000   123.7273     7.9910     8.1129
  223.5000   125.1886     7.9366     8.1087
  224.0000   123.0525     7.9377     8.0541
  224.5000   122.4346     7.9388     7.9966
  225.0000   125.7561     7.9399     7.9397
  225.5000   129.9867     7.9458     7.9386
  226.0000   131.1899     7.9979     7.9375
  226.5000   123.2030     7.9992     7.9922
  227.0000   119.6491     8.1131     8.1037
  227.5000   125.9979     8.2286     8.1598
  228.0000   129.0193     8.3457     8.3315
  228.5000   126.2772     8.4645     8.4478
  229.0000   124.4472     8.6453     8.6259
  229.5000   121.7080     8.8299     8.8077
  230.0000   118.3628     8.9556     8.9930
  230.5000   117.6919     9.1469     9.1826
  231.0000   123.7937     9.2797     9.3111
  231.5000   125.9030     9.4753     9.5738
  232.0000   122.1980     9.7459     9.7074
  232.5000   120.1188     9.8847     9.9120
  233.0000   118.2888    10.0254    10.1210
  233.5000   113.4284    10.2395    10.2622
  234.0000   112.8105    10.3852    10.4055
  234.5000   111.8896    10.6070    10.6248
  235.0000   110.6656    10.8336    10.7731
  235.5000   111.2598    10.9878    10.9998
  236.0000   113.0661    11.1442    11.1533
  236.5000   113.6606    11.3029    11.3090
  237.0000   113.0424    11.4638    11.3868
  237.5000   111.4899    11.5459    11.4653
  238.0000   109.9884    11.5478    11.5446
  238.5000   113.9130    11.5494    11.5426
  239.0000   114.5101    11.5510    11.5410
  239.5000   112.3741    11.5526    11.4590
  240.0000   109.9380    11.4732    11.3669
  240.5000   112.0474    11.2367    11.2174
  241.0000   115.0658    11.1599    11.0600
  241.5000   115.9660    11.0062    10.9048
  242.0000   114.7391    10.8547    10.7517
  242.5000   111.0909    10.7029    10.6753
  243.0000   108.9578    10.6233    10.5994
  243.5000   112.0748    10.5594    10.5240
  244.0000   114.3886    10.5612    10.6709
  244.5000   108.6162    10.5627    10.7444
  245.0000    99.8165    10.7131    10.8943
  245.5000    97.3804    10.7898    10.9694
  246.0000   100.7019    10.9434    11.0449
  246.5000   104.0234    11.0991    11.1990
  247.0000   104.3175    11.2571    11.2762
  247.5000   100.6663    11.2587    11.3538
  248.0000    94.5939    11.1817    11.1160
  248.5000    91.8547    11.0278    10.8835
  249.0000    96.3173    10.8639    10.6560
  249.5000   104.2523    10.5775    10.4331
  250.0000   113.3770    10.4057    10.1437
  250.5000   119.5192    10.0889     9.7949
  251.0000   121.4737     9.6602     9.5245
  251.5000   117.2054     9.4600     9.4581
  252.0000   115.9726     9.2642     9.3266
  252.5000   117.7701     9.2001     9.1970
  253.0000   118.9615     9.1366     9.0691
  253.5000   118.0317     9.1373     9.0691
  254.0000   112.5564     9.1380     9.0059
  254.5000   112.2327     9.1386     9.0059
  255.0000   113.4241     9.0755     9.0059
  255.5000   112.1717     9.0761     9.0059
  256.0000   108.8969     9.0769     9.0059
  256.5000   104.8719     9.0775     9.0059
  257.0000   107.5785     9.1419     9.0059
  257.5000   111.1941     9.2067     9.0059
  258.0000   112.3907     9.2073     9.0059
  258.5000   108.4254     9.2079     9.0691
  259.0000   106.2835     9.2086     9.0691
  259.5000   106.2628     9.2092     9.0691
  260.0000   108.6663     9.2098     9.0691
  260.5000   110.7758     9.2105     9.0691
  261.0000   111.9960     9.1469     9.0691
  261.5000   112.2405     9.1476     9.1328
  262.0000   110.3965     9.0843     9.0691
  262.5000   107.6485     9.1489     9.0059
  263.0000   106.4157     9.0223     8.9418
  263.5000   108.2131     8.8975     8.7497
  264.0000   109.4045     8.7133     8.3386
  264.5000   106.9596     8.4142     8.1084
  265.0000   104.5146     8.0125     7.8295
  265.5000   104.1898     7.7321     7.5603
  266.0000   109.5191     7.4720     7.3516
  266.5000   117.1746     7.3685     7.3003
  267.0000   118.0682     7.3692     7.2494
  267.5000   115.0120     7.3697     7.3003
  268.0000   108.0216     7.3702     7.3543
  268.5000   106.7887     7.4224     7.4552
  269.0000   106.7680     7.5276     7.5603
  269.5000   106.7473     7.5810     7.6134
  270.0000   107.9387     7.6347     7.7207
  270.5000   110.6453     7.7429     7.7749
  271.0000   113.0488     7.7979     7.7749
  271.5000   113.9839     7.9084     7.8295
  272.0000   115.4264     8.0204     7.8845
  272.5000   116.9209     8.0773     7.9399
