~VERSION INFORMATION
 VERS.                2.0:   CWLS LOG ASCII STANDARD - VERSION 2.0
 WRAP.                 NO:   ONE LINE PER DEPTH STEP
~WELL INFORMATION
#MNEM.UNIT      DATA TYPE    INFORMATION
#----------   ------------   ------------------------------
 STRT.F           12.0000:   START DEPTH
 STOP.F          793.0000:   STOP DEPTH
 STEP.F            0.5000:   STEP LENGTH
 NULL.          -999.2500:   NO VALUE
 COMP.   FLUOR DANIEL INC:   COMPANY
 WELL.   35-1-X-10 #35-10:   WELL
 FLD .            WILDCAT:   FIELD
 LOC .      S10 T38N R78W:   LOCATION
 CNTY.            NATRONA:   COUNTY
 STAT.            WYOMING:   STATE
 CTRY. UNITED STATES OF AMERICA:   COUNTRY
 SRVC.      Western Atlas:   SERVICE COMPANY
 DATE.        20-AUG-1996:   LOGDATE
 API .       490252282200:   API NUMBER
~CURVE INFORMATION
#MNEM.UNIT       API CODE    CURVE DESCRIPTION
#----------   ------------   ------------------------------
 DEPT.F                  :   
 RFOC.OHMM   07 220 04 00:   RESISTIVITY FOCUSED LOG
 RILD.OHMM   07 120 46 00:   INDUCTION LOG DEEP RESISTIVITY
 RILM.OHMM   07 120 44 00:   INDUCTION LOG MEDIUM RESISTIVITY
 SPR .MV     07 010 01 00:   SPONTANEOUS POTENTIAL
 CALD.IN     45 280 60 00:   CALIPER FROM DENSITY LOG
 GRD .GAPI   45 310 01 00:   GAMMA RAY FROM DENSITY LOG
 ZCOR.G/C3   45 356 01 00:   DENSITY CORRECTION
 ZDEN.G/C3   45 350 01 00:   BULK DENSITY
 PORZ.DEC    45 890 12 00:   DENSITY POROSITY SANDSTONE
 CNC .DEC    42 890 03 00:   NEUTRON POROSITY SANDSTONE
~PARAMETER INFORMATION
#MNEM.UNIT          VALUE    DESCRIPTION
#----------   ------------   ------------------------------
 PD  .                 GL:   PERMANENT DATUM
 EPD .F              5228:   ELEVATION PERMANENT DATUM
 LMF .                 KB:   LOG MEASURED FROM
 DAPD.F                10:   FEET ABOVE PERMANENT DATUM
 DMF .                 KB:   DRILLING MEASURED FROM
 EKB .F              5238:   KELLING BUSHING
 EGL .F              5228:   GROUND LEVEL
 DATE.        20-AUG-1996:   RUN DATE
 RUN .                  1:   RUN NUMBER
 DD  .F               794:   DEPTH DRILLER
 DL  .F               794:   DEPTH LOGGER
 BLI .F               793:   BOTTOM LOG INTERVAL
 TLI .F                12:   TOP LOG INTERVAL
 CS  .IN           13.375:   CASING SIZE
 CBD .F                58:   CASING BOTTOM DRILLER
 CBL .F                59:   CASING BOTTOM LOGGER
 BS  .IN            12.25:   BIT SIZE
 BSD .F               794:   BIT SIZE AT DEPTH
 DFT .           SPUD MUD:   DRILLING FLUID TYPE
 DFD .                9.2:   DRILLING FLUID DENSITY
 DFV .                 50:   DRILLING FLUID VISCOSITY
 DFPH.                  9:   DRILLING FLUID PH
 DFL .               13.8:   DRILLING FLUID LOSS
 MSS .              CIRC.:   MUD SAMPLE SOURCE
 RMS .OHMM           1.14:   RESISTIVITY MUD SAMPLE
 MST .F                77:   MUD SAMPLE TEMPERATURE
 RMF .OHMM           0.90:   RESISTIVITY MUD FILTRATE SAMPLE
 MFST.F                77:   MUD FILTRATE SAMPLE TEMPERATURE
 RMC .OHMM            1.4:   RESISTIVITY MUD CAKE
 MCST.F                77:   MUD CAKE SAMPLE TEMPERATURE
 MFSS.               CALC:   MUD FILTRATE SAMPLE SOURCE
 MCSS.               CALC:   MUD CAKE SAMPLE SOURCE
 RMB .OHMM            .84:   RESISTIVITY MUD AT BHT
 BHT .F               104:   BOTTOM HOLE TEMPERATURE
 TCS .HRS               3:   TIME CURCULATED STOPPED
 MRT .F               104:   MAXIMUM RECORDED TEMPERATURE
 LUN .            HL-6530:   LOGGING UNIT NUMBER
 LUL .             CASPER:   LOGGING UNIT LOCATION
 ENGI.           BROWNLOW:   RECORDING ENGINEER
 WITN.      SCHULTE/HARDY:   WITNESSED BY
 CLNT.            A2DTECH:   CLIENT CODE
 ORIG.           5" PRINT:   ORIGIN OF DATA
 UWI .       490252282200:   UNIQUE WELL ID
 DICO. A2D Technologies, Inc.:   DIGITIZING COMPANY
~OTHER INFORMATION
~A   DEPT     RFOC       RILD       RILM        SPR       CALD        GRD       ZCOR       ZDEN       PORZ        CNC   
# ...
  280.0000     7.9842     8.3930     7.9401   -11.4977    12.4471    69.4261     0.0368     2.4662     0.1083     0.4491
  280.5000     8.0390     8.3919     7.8294   -11.3464    12.4471    71.8538     0.0383     2.4639     0.1125     0.4479
  281.0000     7.8117     8.4492     7.7743   -11.3333    12.4471    73.6750     0.0368     2.4632     0.1134     0.4400
  281.5000     7.5494     8.3894     7.7733   -11.1952    12.4471    74.8921     0.0338     2.4640     0.1119     0.4311
  282.0000     7.3927     8.3883     7.8264   -11.0439    12.4320    75.5049     0.0278     2.4662     0.1107     0.4303
  282.5000     7.3918     8.3872     7.8798   -11.0439    12.4320    75.8358     0.0248     2.4662     0.1119     0.4294
  283.0000     7.3908     8.3861     7.8785   -11.0439    12.4320    75.5220     0.0248     2.4625     0.1161     0.4279
  283.5000     7.5452     8.3847     7.9325   -11.0439    12.4320    74.0222     0.0278     2.4527     0.1209     0.4246
  284.0000     7.7030     8.3836     7.9312   -11.0439    12.4320    73.1223     0.0309     2.4429     0.1251     0.4207
  284.5000     7.7560     8.3825     7.9896   -11.1952    12.4320    72.5287     0.0311     2.4429     0.1257     0.4194
  285.0000     7.7547     8.3814     8.0959   -11.1952    12.4320    72.5395     0.0324     2.4520     0.1212     0.4240
  285.5000     7.7537     8.3801     7.9830   -11.1952    12.4320    71.9438     0.0340     2.4641     0.1173     0.4258
  286.0000     7.6987     8.3790     7.9268   -11.1952    12.4320    71.0461     0.0355     2.4656     0.1131     0.4224
  286.5000     7.6445     8.3779     7.8166   -11.3464    12.4320    70.7523     0.0370     2.4626     0.1112     0.4200
  287.0000     7.5905     8.2614     7.8153   -11.3464    12.4320    71.3977     0.0370     2.4611     0.1140     0.4224
  287.5000     7.5895     8.0855     7.7603   -11.3464    12.4471    72.8866     0.0370     2.4626     0.1146     0.4257
  288.0000     7.5358     7.9774     7.6524   -11.3464    12.4471    74.1037     0.0386     2.4672     0.1139     0.4263
  288.5000     7.4826     7.9764     7.5460   -11.3464    12.4471    75.0186     0.0401     2.4717     0.1118     0.4266
  289.0000     7.4816     7.9753     7.4410   -11.3464    12.4320    75.6314     0.0326     2.4747     0.1088     0.4311
  289.5000     7.4289     7.9743     7.3884   -11.3464    12.4320    75.6421     0.0235     2.4717     0.1061     0.4396
  290.0000     7.3765     7.9730     7.3364   -11.3464    12.4320    75.9528     0.0205     2.4672     0.1076     0.4399
  290.5000     7.3242     7.9719     7.3354   -11.3464    12.4320    77.1698     0.0311     2.4703     0.1100     0.4401
  291.0000     7.3233     7.9709     7.4369   -11.1952    12.4320    77.7827     0.0438     2.4756     0.1100     0.4468
  291.5000     7.3736     7.9627     7.5395   -11.0439    12.4320    77.7472     0.0583     2.4771     0.1073     0.4504
  292.0000     7.4258     7.9688     7.5385   -10.8926    12.4320    76.5935     0.0583     2.4688     0.1058     0.4471
  292.5000     7.4225     7.9675     7.5375   -10.7413    12.4320    75.0915     0.0538     2.4620     0.1079     0.4394
  293.0000     7.4216     7.9664     7.4845   -10.5900    12.4320    73.5895     0.0507     2.4613     0.1127     0.4338
  293.5000     7.3692     7.9654     7.3804   -10.4387    12.4471    72.3736     0.0433     2.4703     0.1151     0.4344
  294.0000     7.3682     7.9093     7.3282   -10.4387    12.4471    70.8898     0.0387     2.4817     0.1115     0.4368
  294.5000     7.2654     7.8533     7.2263   -10.2874    12.4471    71.8047     0.0342     2.4855     0.1015     0.4395
  295.0000     7.1642     7.6906     7.1258   -10.2874    12.4169    72.7196     0.0312     2.4847     0.0994     0.4307
  295.5000     7.1137     7.5313     7.0267   -10.2874    12.3867    73.3324     0.0267     2.4825     0.1006     0.4241
  296.0000     7.0146     7.2736     6.8809   -10.2874    12.3565    73.0410     0.0297     2.4765     0.1018     0.4241
  296.5000     6.8653     6.9712     6.6918   -10.2874    12.3414    73.0496     0.0403     2.4620     0.1058     0.4265
  297.0000     6.6798     6.7375     6.4182   -10.2874    12.3112    72.7539     0.0630     2.4395     0.1151     0.4243
  297.5000     6.5411     6.2416     6.0710   -10.2874    12.2961    72.4622     0.0918     2.4184     0.1296     0.4192
  298.0000     6.4501     6.0281     5.9865   -10.2874    12.2659    72.7734     0.0948     2.4138     0.1401     0.4080
  298.5000     6.4492     6.1115     6.0272   -10.4387    12.2356    73.3882     0.0827     2.4146     0.1426     0.4043
  299.0000     6.5384     6.2826     6.1960   -10.7413    12.2205    74.0010     0.0802     2.4222     0.1392     0.4120
  299.5000     6.6292     6.4634     6.4137   -10.7413    12.2205    75.2180     0.0818     2.4403     0.1320     0.4240
  300.0000     6.7210     6.7229     6.5208   -10.7509    12.2256    76.7372     0.0909     2.4517     0.1196     0.4360
  300.5000     6.7209     6.8734     6.6397   -10.8737    12.2509    77.3467     0.0925     2.4585     0.1160     0.4373
  301.0000     6.8149     6.9727     6.7798   -10.9964    12.2662    76.4461     0.0985     2.4539     0.1172     0.4372
  301.5000     6.9584     7.1160     6.8749   -11.0439    12.2814    76.7555     0.1064     2.4374     0.1229     0.4415
  302.0000     7.0069     7.3162     6.9232   -10.8926    12.2664    77.0634     0.1016     2.4268     0.1308     0.4460
  302.5000     7.0557     7.5220     6.9719   -10.7413    12.2515    74.3516     0.0941     2.4193     0.1390     0.4466
  303.0000     7.1049     7.6801     7.0287   -10.5689    12.2517    73.7517     0.0926     2.4185     0.1398     0.4426
  303.5000     7.1049     7.6801     7.1691   -10.2874    12.2367    74.9674     0.0987     2.4216     0.1368     0.4300
  304.0000     7.0557     7.6801     7.2194   -10.1362    12.2369    76.1816     0.1108     2.4279     0.1317     0.4125
  304.5000     7.0069     7.5743     7.2702    -9.9849    12.2370    76.4895     0.0979     2.4307     0.1311     0.4062
  305.0000     6.9584     7.5220     7.2706    -9.8336    12.2372    76.1932     0.0791     2.4208     0.1380     0.4116
  305.5000     6.8089     7.3671     7.2711    -9.8336    12.2373    76.5025     0.0867     2.3967     0.1534     0.4212
  306.0000     6.6743     7.2121     7.1714    -9.8336    12.2375    76.8104     0.0898     2.3854     0.1601     0.4309
  306.5000     6.5823     6.9695     6.9758    -9.8336    12.2376    77.1169     0.0792     2.3855     0.1555     0.4308
  307.0000     6.5823     6.8734     6.8326    -9.8336    12.2378    76.2175     0.0565     2.4013     0.1452     0.4270
  307.5000     6.5367     6.6854     6.6461    -9.8336    12.2228    75.9114     0.0262     2.4119     0.1459     0.4227
  308.0000     6.3978     6.4575     6.4605    -9.6823    12.2079    76.5329     0.0278     2.3990     0.1543     0.4263
  308.5000     6.2699     6.3216     6.2883    -9.5310    12.1627    78.9556     0.0384     2.3832     0.1679     0.4351
  309.0000     6.1834     5.9832     5.9907    -9.3797    12.0408    79.5656     0.0809     2.3641     0.1807     0.4411
  309.5000     6.1406     5.6212     5.3992    -9.3797    11.7401    79.5714     0.1188     2.3251     0.1977     0.4327
  310.0000     6.0981     5.5437     4.8999    -9.3797    11.4381    79.8792     0.1658     2.2866     0.2273     0.3998
  310.5000     5.5601     5.5437     5.0423    -9.5310    11.2116    82.3706     0.2264     2.2737     0.2246     0.3866
  311.0000     5.2339     5.5437     5.4003    -9.6823    11.1212    86.5388     0.2257     2.3002     0.2086     0.3696
  311.5000     5.7285     5.6603     5.5913    -9.8336    11.0911    89.5657     0.1916     2.3432     0.1817     0.3527
  312.0000     6.3576     5.8195     5.7489    -9.9849    11.1086    90.4778     0.1583     2.3772     0.1513     0.3419
  312.5000     6.8149     6.0248     5.9110    -9.9849    11.2576    90.7857     0.1462     2.4196     0.1328     0.3346
  313.0000     6.8149     6.2374     6.1223    -9.9849    11.4390    91.3958     0.1417     2.4468     0.1190     0.3361
