~VERSION INFORMATION
 VERS.                2.0:   CWLS LOG ASCII STANDARD - VERSION 2.0
 WRAP.                 NO:   ONE LINE PER DEPTH STEP
~WELL INFORMATION
#MNEM.UNIT      DATA TYPE    INFORMATION
#----------   ------------   ------------------------------
 STRT.F           20.0000:   START DEPTH
 STOP.F          626.0000:   STOP DEPTH
 STEP.F            0.5000:   STEP LENGTH
 NULL.          -999.2500:   NO VALUE
 COMP. FENIX & SCISSON INC:   COMPANY
 WELL. NPR-3  38-S-34 #38-34:   WELL
 FLD .             TEAPOT:   FIELD
 LOC .      S34 T39N R78W:   LOCATION
 CNTY.            NATRONA:   COUNTY
 STAT.            WYOMING:   STATE
 CTRY. UNITED STATES OF AMERICA:   COUNTRY
 SRVC.           BIRDWELL:   SERVICE COMPANY
 DATE.        08-AUG-1978:   LOGDATE
 API .       490251068300:   API NUMBER
~CURVE INFORMATION
#MNEM.UNIT       API CODE    CURVE DESCRIPTION
#----------   ------------   ------------------------------
 DEPT.F                  :   
 SPR .MV     05 010 01 00:   SPONTANEOUS POTENTIAL FROM RES.
 SN  .OHMM   05 040 16 00:   SHORT NORMAL 16"
 IL  .OHMM   05 120 00 00:   INDUCTION LOG
 RHOB.G/C3   45 350 01 00:   BULK DENSITY
 DPHI.DEC    45 890 12 00:   DENSITY POROSITY SANDSTONE
 CORR.G/C3   45 356 01 00:   DENSITY CORRECTION
 GRD .GAPI   45 310 01 00:   GAMMA RAY FROM DENSITY LOG
 CALD.IN     45 280 60 00:   CALIPER
~PARAMETER INFORMATION
#MNEM.UNIT          VALUE    DESCRIPTION
#----------   ------------   ------------------------------
 PD  .                 GL:   PERMANENT DATUM
 EPD .F              5213:   ELEVATION PERMANENT DATUM
 LMF .                 KB:   LOG MEASURED FROM
 DAPD.F                 4:   FEET ABOVE PERMANENT DATUM
 DMF .                 KB:   DRILLING MEASURED FROM
 EKB .F              5217:   KELLING BUSHING
 EGL .F              5213:   GROUND LEVEL
 DATE.             8-8-78:   RUN DATE
 RUN .                  1:   RUN NUMBER
 DD  .F               620:   DEPTH DRILLER
 DL  .F               632:   DEPTH LOGGER
 BLI .F               626:   BOTTOM LOG INTERVAL
 TLI .F                35:   TOP LOG INTERVAL
 CS  .IN            8.625:   CASING SIZE
 CBL .F                35:   CASING BOTTOM LOGGER
 BS  .IN            7.875:   BIT SIZE
 BSD .F               620:   BIT SIZE AT DEPTH
 DFT .                KCL:   DRILLING FLUID TYPE
 DFD .                8.7:   DRILLING FLUID DENSITY
 DFV .                 33:   DRILLING FLUID VISCOSITY
 DFPH.                  9:   DRILLING FLUID PH
 DFL .                  5:   DRILLING FLUID LOSS
 MSS .          FLOW LINE:   MUD SAMPLE SOURCE
 RMS .OHMM            .12:   RESISTIVITY MUD SAMPLE
 MST .F                80:   MUD SAMPLE TEMPERATURE
 RMF .OHMM            .13:   RESISTIVITY MUD FILTRATE SAMPLE
 MFST.F                83:   MUD FILTRATE SAMPLE TEMPERATURE
 RMC .OHMM            .16:   RESISTIVITY MUD CAKE
 MCST.F                84:   MUD CAKE SAMPLE TEMPERATURE
 MFSS.               MEAS:   MUD FILTRATE SAMPLE SOURCE
 TCS .HRS               1:   TIME CURCULATED STOPPED
 LUN .               3006:   LOGGING UNIT NUMBER
 LUL .               CASP:   LOGGING UNIT LOCATION
 ENGI.             MILLER:   RECORDING ENGINEER
 WITN.           MCGINLEY:   WITNESSED BY
 CLNT.            A2DTECH:   CLIENT CODE
 ORIG.           5" PRINT:   ORIGIN OF DATA
 UWI .       490251068300:   UNIQUE WELL ID
 DICO. A2D Technologies, Inc.:   DIGITIZING COMPANY
~OTHER INFORMATION
~A   DEPT      SPR         SN         IL       RHOB       DPHI       CORR         GRD      CALD   
# ...
  182.0000   -33.3072     7.1636     6.6854     2.4794     0.1181     0.0199   102.7460     7.6342
  182.5000   -33.3209     7.1299     6.6763     2.4801     0.1169     0.0237   100.0527     7.6342
  183.0000   -33.3346     7.0964     6.6672     2.4799     0.1164     0.0275    97.3168     7.6342
  183.5000   -33.3483     7.0630     6.6582     2.4887     0.1124     0.0294    96.1211     7.6339
  184.0000   -33.3620     7.0298     6.6491     2.5001     0.1092     0.0294   101.0606     7.6355
  184.5000   -33.3757     6.9967     6.6401     2.4999     0.1088     0.0293   105.9148     7.6740
  185.0000   -33.3894     6.9638     6.6310     2.4945     0.1133     0.0292   105.4862     7.7138
  185.5000   -33.4030     6.9312     6.6220     2.4889     0.1155     0.0291   101.7056     7.7512
  186.0000   -33.4167     6.9096     6.6130     2.4831     0.1155     0.0291   100.1680     7.7067
  186.5000   -33.4304     6.8965     6.6040     2.4827     0.1149     0.0290   100.2791     7.6573
  187.0000   -33.4441     6.8832     6.5950     2.4835     0.1143     0.0289   100.3482     7.6061
  187.5000   -33.4578     6.8700     6.5861     2.4843     0.1137     0.0288   101.0194     7.6027
  188.0000   -33.4717     6.8568     6.5771     2.4852     0.1132     0.0287   103.1032     7.6141
  188.5000   -33.4868     6.8436     6.5682     2.4859     0.1165     0.0287   104.0193     7.6258
  189.0000   -33.4968     6.8305     6.5592     2.4830     0.1199     0.0286   102.4679     7.6374
  189.5000   -33.2040     6.8174     6.5503     2.4796     0.1234     0.0285   102.7043     7.6489
  190.0000   -32.8800     6.8043     6.5124     2.4692     0.1250     0.0284   104.2712     7.6605
  190.5000   -32.7072     6.7910     6.4516     2.4670     0.1258     0.0283   103.8746     7.6721
  191.0000   -32.7264     6.7403     6.3914     2.4670     0.1266     0.0282   103.6359     7.6830
  191.5000   -32.7442     6.6906     6.3317     2.4663     0.1275     0.0282   106.5397     7.6967
  192.0000   -32.7627     6.6413     6.2726     2.4647     0.1253     0.0281   106.5122     7.7106
  192.5000   -32.7809     6.5924     6.2139     2.4639     0.1227     0.0280   107.9047     7.7245
  193.0000   -32.7990     6.5437     6.1560     2.4708     0.1208     0.0279   108.3488     7.7386
  193.5000   -32.8172     6.4952     6.0823     2.4707     0.1221     0.0279   106.6700     7.7527
  194.0000   -32.8354     6.4274     6.1186     2.4692     0.1236     0.0278   105.9356     7.7302
  194.5000   -32.8536     6.4757     6.1887     2.4676     0.1222     0.0277   106.7850     7.7040
  195.0000   -32.8717     6.5641     6.2596     2.4660     0.1206     0.0276   107.7311     7.6779
  195.5000   -32.8898     6.6532     6.3312     2.4703     0.1228     0.0275   107.0157     7.6519
  196.0000   -32.9001     6.7433     6.4038     2.4689     0.1223     0.0273   105.6968     7.6259
  196.5000   -32.9000     6.8354     6.4771     2.4676     0.1198     0.0266   106.3618     7.5999
  197.0000   -32.9000     6.8582     6.5513     2.4783     0.1172     0.0259   108.5760     7.5739
  197.5000   -32.9000     6.8635     6.6102     2.4763     0.1204     0.0252   110.7734     7.5572
  198.0000   -32.9000     6.8687     6.6222     2.4687     0.1236     0.0245   110.9322     7.5715
  198.5000   -32.9000     6.8739     6.6344     2.4704     0.1179     0.0238   106.7250     7.5849
  199.0000   -32.9000     6.8791     6.6466     2.4858     0.1144     0.0243   103.8049     7.5983
  199.5000   -32.9000     6.8843     6.6589     2.4854     0.1156     0.0256   101.9106     7.6117
  200.0000   -32.9000     6.8895     6.6712     2.4833     0.1168     0.0270   100.5964     7.6249
  200.5000   -32.9000     6.8947     6.6835     2.4811     0.1181     0.0283    99.2914     7.6352
  201.0000   -32.9000     6.8999     6.6959     2.4810     0.1180     0.0297    97.9856     7.6378
  201.5000   -32.9000     6.9051     6.7083     2.4810     0.1170     0.0310    96.6620     7.6405
  202.0000   -32.9000     6.9104     6.7207     2.4810     0.1160     0.0324    95.3052     7.6432
  202.5000   -32.9000     6.9160     6.7331     2.4810     0.1172     0.0337    93.9146     7.6460
  203.0000   -32.9000     6.9520     6.7455     2.4810     0.1184     0.0351    92.5122     7.6487
  203.5000   -32.9000     7.0088     6.7579     2.4810     0.1168     0.0365    91.7606     7.6516
  204.0000   -32.9002     7.0658     6.7703     2.4809     0.1153     0.0373    92.6034     7.6533
  204.5000   -32.8920     7.1233     6.7829     2.4854     0.1138     0.0327    94.7178     7.6331
  205.0000   -32.8827     7.1816     6.7910     2.4907     0.1130     0.0280    98.3143     7.6127
  205.5000   -32.8735     7.2429     6.6865     2.4865     0.1188     0.0234   101.1854     7.5925
  206.0000   -32.8643     7.1907     6.6483     2.4755     0.1210     0.0194   104.0797     7.5721
  206.5000   -32.8551     7.1215     6.6103     2.4763     0.1147     0.0232   106.9854     7.5518
  207.0000   -32.8459     7.0530     6.5725     2.4860     0.1102     0.0270   106.8638     7.5382
  207.5000   -32.8367     6.9851     6.5350     2.4958     0.1057     0.0264   100.4420     7.5667
  208.0000   -32.8275     6.9179     6.4977     2.5055     0.1034     0.0183    94.7676     7.5930
  208.5000   -32.8182     6.8512     6.4606     2.5133     0.1017     0.0102    89.3194     7.5714
  209.0000   -32.8091     6.7915     6.4271     2.5091     0.1100     0.0134    88.5835     7.5475
  209.5000   -32.7998     6.8001     6.4421     2.4984     0.1093     0.0216    90.4647     7.5239
  210.0000   -32.7906     6.8083     6.4559     2.4841     0.1181     0.0135    93.4232     7.5002
  210.5000   -32.7814     6.8163     6.4697     2.4685     0.1296     0.0066    93.2353     7.4763
  211.0000   -32.7722     6.8243     6.4835     2.4611     0.1275     0.0178    93.3529     7.4570
  211.5000   -32.7630     6.8323     6.4974     2.4653     0.1243     0.0292    96.8092     7.4899
  212.0000   -32.7538     6.8403     6.5113     2.4710     0.1211     0.0308   100.1943     7.5223
  212.5000   -32.7446     6.8484     6.5251     2.4766     0.1191     0.0298   101.9341     7.5539
  213.0000   -32.7354     6.8544     6.5392     2.4792     0.1207     0.0289   102.3856     7.5718
  213.5000   -32.7262     6.8543     6.5462     2.4744     0.1223     0.0279   102.7010     7.5628
  214.0000   -32.7169     6.8543     6.5375     2.4701     0.1239     0.0269   102.4735     7.5558
  214.5000   -32.7077     6.8542     6.5316     2.4704     0.1230     0.0260   102.2801     7.5849
  215.0000   -32.7011     6.8542     6.5256     2.4709     0.1210     0.0250   102.9448     7.6155
  215.5000   -32.7106     6.8542     6.5196     2.4696     0.1242     0.0241   107.0163     7.6459
  216.0000   -32.7198     6.8542     6.5137     2.4675     0.1252     0.0240   108.8681     7.6763
  216.5000   -32.7291     6.8542     6.5078     2.4671     0.1228     0.0257   103.9562     7.7067
  217.0000   -32.7383     6.8542     6.5018     2.4705     0.1172     0.0274   101.8872     7.7352
  217.5000   -32.7475     6.8542     6.4959     2.4803     0.1170     0.0291   103.7089     7.7418
  218.0000   -32.7567     6.8542     6.4900     2.4822     0.1168     0.0308   105.5114     7.7491
  218.5000   -32.7659     6.8542     6.4841     2.4825     0.1166     0.0325   105.6548     7.7565
  219.0000   -32.7751     6.8542     6.4782     2.4827     0.1164     0.0343   104.4987     7.7639
  219.5000   -32.7843     6.8542     6.4722     2.4829     0.1151     0.0352   105.3565     7.7712
  220.0000   -32.7935     6.8542     6.4664     2.4873     0.1123     0.0297   106.5126     7.7786
  220.5000   -32.8027     6.8542     6.4605     2.4936     0.1125     0.0243   104.3158     7.7859
  221.0000   -32.8119     6.8542     6.4546     2.4889     0.1190     0.0190   100.2756     7.7933
  221.5000   -32.8211     6.8542     6.4487     2.4775     0.1229     0.0154    99.4179     7.8007
  222.0000   -32.8303     6.8542     6.4428     2.4681     0.1229     0.0155   105.3936     7.8079
