~VERSION INFORMATION
 VERS.                2.0:   CWLS LOG ASCII STANDARD - VERSION 2.0
 WRAP.                 NO:   ONE LINE PER DEPTH STEP
~WELL INFORMATION
#MNEM.UNIT      DATA TYPE    INFORMATION
#----------   ------------   ------------------------------
 STRT.F           30.0000:   START DEPTH
 STOP.F          515.0000:   STOP DEPTH
 STEP.F            0.5000:   STEP LENGTH
 NULL.          -999.2500:   NO VALUE
 COMP. FENIX & SCISSON INC:   COMPANY
 WELL.      FP SX-3 #63-3:   WELL
 FLD .              NPR 3:   FIELD
 LOC .       S3 T38N R78W:   LOCATION
 CNTY.            NATRONA:   COUNTY
 STAT.            WYOMING:   STATE
 CTRY. UNITED STATES OF AMERICA:   COUNTRY
 SRVC.              Welex:   SERVICE COMPANY
 DATE.        21-JUN-1980:   LOGDATE
 API .       490251082100:   API NUMBER
~CURVE INFORMATION
#MNEM.UNIT       API CODE    CURVE DESCRIPTION
#----------   ------------   ------------------------------
 DEPT.F                  :   
 SPR .MV     07 010 01 00:   SPONTANEOUS POTENTIAL
 SGRD.OHMM   07 220 05 00:   SHALLOW GUARD RESISTIVITY
 ILD .OHMM   07 120 46 00:   INDUCTION LOG DEEP RESISTIVITY
 ILM .OHMM   07 120 44 00:   INDUCTION LOG MEDIUM
 CALD.IN     45 280 60 00:   CALIPER
 GRD .GAPI   45 310 01 00:   GAMMA RAY FROM DENSITY LOG
 CORR.G/C3   45 356 01 00:   DENSITY CORRECTION
 RHOB.G/C3   45 350 01 00:   BULK DENSITY
 DPHI.DEC    45 890 12 00:   DENSITY POROSITY SANDSTONE
 NPHI.DEC    42 890 03 00:   NEUTRON POROSITY SANDSTONE
~PARAMETER INFORMATION
#MNEM.UNIT          VALUE    DESCRIPTION
#----------   ------------   ------------------------------
 PD  .                 GL:   PERMANENT DATUM
 EPD .F              5160:   ELEVATION PERMANENT DATUM
 LMF .                 KB:   LOG MEASURED FROM
 DAPD.F                 5:   FEET ABOVE PERMANENT DATUM
 DMF .                 KB:   DRILLING MEASURED FROM
 EKB .F              5165:   KELLING BUSHING
 EGL .F              5160:   GROUND LEVEL
 DATE.            6-21-80:   RUN DATE
 RUN .                  1:   RUN NUMBER
 DD  .F               508:   DEPTH DRILLER
 DL  .F               517:   DEPTH LOGGER
 BLI .F               515:   BOTTOM LOG INTERVAL
 TLI .F                35:   TOP LOG INTERVAL
 BS  .IN            9.875:   BIT SIZE
 BSD .F               508:   BIT SIZE AT DEPTH
 DFT .            KCL MUD:   DRILLING FLUID TYPE
 DFD .                9.2:   DRILLING FLUID DENSITY
 DFV .                 50:   DRILLING FLUID VISCOSITY
 DFPH.                8.5:   DRILLING FLUID PH
 DFL .                  8:   DRILLING FLUID LOSS
 MSS .           FLOWLINE:   MUD SAMPLE SOURCE
 RMS .OHMM            .42:   RESISTIVITY MUD SAMPLE
 MST .F                63:   MUD SAMPLE TEMPERATURE
 RMF .OHMM            .34:   RESISTIVITY MUD FILTRATE SAMPLE
 MFST.F                63:   MUD FILTRATE SAMPLE TEMPERATURE
 RMC .OHMM             .5:   RESISTIVITY MUD CAKE
 MCST.F                63:   MUD CAKE SAMPLE TEMPERATURE
 MFSS.           MEASURED:   MUD FILTRATE SAMPLE SOURCE
 MCSS.           MEASURED:   MUD CAKE SAMPLE SOURCE
 RMB .OHMM            .35:   RESISTIVITY MUD AT BHT
 BHT .F                75:   BOTTOM HOLE TEMPERATURE
 TCS .HRS             1.5:   TIME CURCULATED STOPPED
 MRT .F                75:   MAXIMUM RECORDED TEMPERATURE
 LUN .               9685:   LOGGING UNIT NUMBER
 LUL .             CASPER:   LOGGING UNIT LOCATION
 ENGI.            TOTHILL:   RECORDING ENGINEER
 WITN.           DINSMORE:   WITNESSED BY
 CLNT.            A2DTECH:   CLIENT CODE
 ORIG.           5" PRINT:   ORIGIN OF DATA
 UWI .       490251082100:   UNIQUE WELL ID
 DICO. A2D Technologies, Inc.:   DIGITIZING COMPANY
~OTHER INFORMATION
~A   DEPT      SPR       SGRD        ILD        ILM        CALD       GRD         CORR       RHOB       DPHI       NPHI 
# ...
   63.5000   -50.6830     7.0630     4.5873     5.1349    10.2540   105.7087     0.0599     2.4644     0.1256     0.3182
   64.0000   -49.9800     6.9176     4.5921     5.0578    10.2181   106.4254     0.0542     2.4584     0.1273     0.3158
   64.5000   -49.4205     6.9176     4.6356     5.0398    10.1859   108.0732     0.0588     2.4599     0.1206     0.3167
   65.0000   -48.8996     6.9176     4.6792     5.0570    10.1581   109.7150     0.0645     2.4726     0.1169     0.3191
   65.5000   -48.8821     6.9176     4.7231     5.0710    10.1584   111.1992     0.0683     2.4779     0.1186     0.3207
   66.0000   -48.9715     6.9176     4.7675     5.0851    10.1583   110.2614     0.0654     2.4732     0.1194     0.3249
   66.5000   -49.1074     6.9176     4.8109     5.0876    10.1583   109.4567     0.0623     2.4713     0.1181     0.3249
   67.0000   -49.2385     6.7843     4.7778     5.0687    10.1583   110.2588     0.0692     2.4793     0.1113     0.3146
   67.5000   -49.6459     6.6029     4.7460     5.0467    10.1582   111.4634     0.0784     2.4878     0.1110     0.3075
   68.0000   -50.1954     6.6029     4.7144     5.0246    10.1575   112.6820     0.0727     2.4801     0.1205     0.3022
   68.5000   -50.6948     6.6029     4.6831     5.0026    10.1569   113.8327     0.0568     2.4666     0.1249     0.2995
   69.0000   -50.2598     6.5417     4.6519     4.9807    10.1562   113.8793     0.0614     2.4716     0.1167     0.2990
   69.5000   -48.3369     6.5128     4.6350     4.9588    10.1556   113.4368     0.0681     2.4813     0.1106     0.2990
   70.0000   -46.7710     6.4811     4.6757     4.9471    10.1549   112.0507     0.0750     2.4887     0.1102     0.2994
   70.5000   -44.8435     6.4811     4.7085     4.9468    10.1543   110.5682     0.0743     2.4778     0.1181     0.3022
   71.0000   -44.5355     6.6589     4.7414     4.9729    10.1537   109.0863     0.0641     2.4795     0.1133     0.3050
   71.5000   -44.5529     6.7185     4.7746     5.0118    10.1530   107.6068     0.0658     2.4810     0.1153     0.3105
   72.0000   -43.6808     6.7983     4.8081     5.0510    10.1524   106.1274     0.0644     2.4792     0.1156     0.3117
   72.5000   -44.5824     7.0600     4.8417     5.0905    10.1517   104.6481     0.0622     2.4780     0.1153     0.3083
   73.0000   -45.3921     7.3763     4.8756     5.1303    10.1511   103.1687     0.0666     2.4783     0.1102     0.3050
   73.5000   -45.9673     7.7068     4.9098     5.1704    10.1504   101.6893     0.0737     2.4891     0.1038     0.3100
   74.0000   -46.1981     7.8810     4.9441     5.2109    10.1498   100.2089     0.0809     2.5008     0.1050     0.3115
   74.5000   -45.9515     7.0904     4.9788     5.2516    10.1491    98.7282     0.0832     2.5048     0.0998     0.3147
   75.0000   -45.7059     6.6647     5.0136     5.2927    10.1485    97.2515     0.0846     2.5070     0.0970     0.3164
   75.5000   -45.6973     6.9046     5.0490     5.3298    10.1479    96.2813     0.0923     2.5143     0.0931     0.3178
   76.0000   -46.1548     7.1823     5.0877     5.3797    10.1472    99.5342     0.1001     2.5249     0.0890     0.3219
   76.5000   -46.6430     7.1792     5.0871     5.3706    10.1466   102.7943     0.1063     2.5276     0.0902     0.3273
   77.0000   -47.4464     7.0734     5.0873     5.3606    10.1459   102.3688     0.1062     2.5256     0.0944     0.3312
   77.5000   -48.2968     6.9570     5.0873     5.3505    10.1453   100.7608     0.1025     2.5176     0.0987     0.3295
   78.0000   -48.9078     6.8441     5.0873     5.3405    10.1446   102.3188     0.0967     2.5112     0.1029     0.3264
   78.5000   -48.4641     6.7811     5.0873     5.3305    10.1440   104.8501     0.0908     2.5048     0.1042     0.3177
   79.0000   -47.7777     6.7577     5.0823     5.3206    10.1433   107.3868     0.0849     2.5007     0.1045     0.3171
   79.5000   -47.0115     6.7334     5.0445     5.3106    10.1427   109.9029     0.0801     2.5000     0.1041     0.3165
   80.0000   -46.7459     6.7092     5.0069     5.3007    10.1420   111.0843     0.0803     2.5016     0.1038     0.3121
   80.5000   -46.8612     6.6852     4.9696     5.2908    10.1414   109.2745     0.0854     2.5036     0.0934     0.3077
   81.0000   -46.6258     6.6565     4.9325     5.2803    10.1407   107.0058     0.1010     2.5203     0.0861     0.3053
   81.5000   -46.4553     6.6012     4.8958     5.2267    10.1401   104.7981     0.1166     2.5400     0.0844     0.3046
   82.0000   -46.4575     6.5463     4.8593     5.1706    10.1395   105.1582     0.1223     2.5412     0.0887     0.3038
   82.5000   -46.4544     6.4919     4.8231     5.1151    10.1388   106.4522     0.1132     2.5292     0.0964     0.3040
   83.0000   -46.5977     6.4377     4.7871     5.0602    10.1383   107.7250     0.1024     2.5150     0.0979     0.3042
   83.5000   -46.7855     6.3594     4.7515     4.9930    10.1394   108.9966     0.0946     2.5092     0.0936     0.3042
   84.0000   -46.6010     6.5445     4.7221     4.9934    10.1469   110.2637     0.0991     2.5172     0.0926     0.3011
   84.5000   -46.1422     6.5397     4.7611     5.0217    10.1543   111.1022     0.1059     2.5085     0.1048     0.3002
   85.0000   -46.0528     6.5408     4.8113     5.0585    10.1617   110.4524     0.1002     2.4961     0.1088     0.3002
   85.5000   -46.0522     6.3582     4.8011     5.0956    10.1692   107.5756     0.0862     2.4879     0.1147     0.3002
   86.0000   -45.8789     6.3053     4.7762     5.1330    10.1768   105.8837     0.0724     2.4818     0.1180     0.3001
   86.5000   -45.6265     6.6883     4.7663     5.1706    10.1784   107.5701     0.0655     2.4768     0.1208     0.3000
   87.0000   -46.2516     6.9824     4.8626     5.2085    10.1784   108.5780     0.0597     2.4720     0.1234     0.2999
   87.5000   -47.0124     7.0477     4.9330     5.2315    10.1784   107.7680     0.0538     2.4676     0.1199     0.2998
   88.0000   -47.7856     6.7270     4.9514     5.2692    10.1784   106.9439     0.0531     2.4693     0.1106     0.3054
   88.5000   -48.0538     6.8552     4.9566     5.3073    10.1783   106.1163     0.0701     2.4865     0.1044     0.3118
   89.0000   -47.4834     6.9824     4.9619     5.3456    10.1787   105.2863     0.0859     2.4991     0.1097     0.3121
   89.5000   -46.8830     6.8945     4.9672     5.3842    10.1797   104.9689     0.0821     2.4906     0.1186     0.3118
   90.0000   -46.7455     6.8535     4.9725     5.4303    10.1594   105.1208     0.0649     2.4720     0.1266     0.3073
   90.5000   -47.1776     6.9004     4.9777     5.4303    10.1619   105.2784     0.0486     2.4614     0.1277     0.3050
   91.0000   -47.6046     6.9465     4.9830     5.4297    10.1647   105.4368     0.0495     2.4619     0.1237     0.3036
   91.5000   -47.5459     6.9822     4.9883     5.4820    10.1677   105.3839     0.0550     2.4698     0.1194     0.3009
   92.0000   -46.9058     6.9442     4.9931     5.5320    10.1707   104.4472     0.0604     2.4776     0.1157     0.3004
   92.5000   -46.2650     6.9133     4.9845     5.5187    10.1737   103.5041     0.0656     2.4793     0.1178     0.3007
   93.0000   -45.9033     6.8816     4.9759     5.4970    10.1767   102.5563     0.0656     2.4762     0.1201     0.3014
   93.5000   -45.8462     6.8555     4.9673     5.4756    10.1797   102.1881     0.0625     2.4732     0.1235     0.3008
   94.0000   -45.8485     6.7900     4.9587     5.4543    10.1827   104.3169     0.0585     2.4633     0.1312     0.3033
   94.5000   -45.7886     6.8740     4.9501     5.4331    10.1857   106.4400     0.0524     2.4524     0.1368     0.3103
   95.0000   -45.5015     6.9176     4.9471     5.4119    10.1887   107.8844     0.0470     2.4458     0.1346     0.3169
   95.5000   -45.2470     6.8446     4.9472     5.3909    10.1917   104.7717     0.0490     2.4527     0.1277     0.3153
   96.0000   -45.2437     6.7764     4.9472     5.3797    10.1947   101.3350     0.0605     2.4633     0.1201     0.3089
   96.5000   -45.2292     6.7270     4.9472     5.4152    10.1977   100.7012     0.0664     2.4712     0.1219     0.3024
