~VERSION INFORMATION
 VERS.                2.0:   CWLS LOG ASCII STANDARD - VERSION 2.0
 WRAP.                 NO:   ONE LINE PER DEPTH STEP
~WELL INFORMATION
#MNEM.UNIT      DATA TYPE    INFORMATION
#----------   ------------   ------------------------------
 STRT.F            3.5000:   START DEPTH
 STOP.F          523.0000:   STOP DEPTH
 STEP.F            0.5000:   STEP LENGTH
 NULL.          -999.2500:   NO VALUE
 COMP.       F D SERV INC:   COMPANY
 WELL.    88-8 SX 3 #88-3:   WELL
 FLD .             TEAPOT:   FIELD
 LOC .       S3 T38N R78W:   LOCATION
 CNTY.            NATRONA:   COUNTY
 STAT.            WYOMING:   STATE
 CTRY. UNITED STATES OF AMERICA:   COUNTRY
 SRVC.      Western Atlas:   SERVICE COMPANY
 DATE.        28-NOV-1992:   LOGDATE
 API .       490252256200:   API NUMBER
~CURVE INFORMATION
#MNEM.UNIT       API CODE    CURVE DESCRIPTION
#----------   ------------   ------------------------------
 DEPT.F                  :   
 GRR .GAPI   07 310 01 00:   GAMMA RAY
 RILD.OHMM   07 120 46 00:   INDUCTION LOG DEEP RESISTIVITY
 RILM.OHMM   07 120 44 00:   RESITIVITY LONG MEDIUM
 C13 .IN     45 280 13 00:   CALIPER X
 PORZ.DEC    45 890 12 00:   DENSITY POROSITY SANDSTONE
 NPHI.DEC    42 890 03 00:   NEUTRON POROSITY SANDSTONE
 ZCOR.G/C3   45 356 01 00:   DENSITY CORRECTION
 ZDEN.G/C3   45 350 01 00:   BULK DENSITY
~PARAMETER INFORMATION
#MNEM.UNIT          VALUE    DESCRIPTION
#----------   ------------   ------------------------------
 PD  .                 GL:   PERMANENT DATUM
 EPD .F              5126:   ELEVATION PERMANENT DATUM
 LMF .                 KB:   LOG MEASURED FROM
 DAPD.F                10:   FEET ABOVE PERMANENT DATUM
 DMF .                 KB:   DRILLING MEASURED FROM
 EKB .F              5136:   KELLING BUSHING
 EDF .F              5135:   DRILLING FLOOR
 EGL .F              5126:   GROUND LEVEL
 DATE.        28-NOV-1992:   RUN DATE
 RUN .                  1:   RUN NUMBER
 DD  .F               525:   DEPTH DRILLER
 DL  .F               525:   DEPTH LOGGER
 BLI .F               516:   BOTTOM LOG INTERVAL
 TLI .F                76:   TOP LOG INTERVAL
 CS  .IN            8.625:   CASING SIZE
 CBD .F                95:   CASING BOTTOM DRILLER
 CBL .F                76:   CASING BOTTOM LOGGER
 BS  .IN            7.875:   BIT SIZE
 BSD .F               525:   BIT SIZE AT DEPTH
 DFT .           AIR FOAM:   DRILLING FLUID TYPE
 MRT .F                70:   MAXIMUM RECORDED TEMPERATURE
 LUN .            HL-6274:   LOGGING UNIT NUMBER
 LUL .             CASPER:   LOGGING UNIT LOCATION
 ENGI.             RAUTIO:   RECORDING ENGINEER
 WITN.           ED REISH:   WITNESSED BY
 CLNT.            A2DTECH:   CLIENT CODE
 ORIG.           5" PRINT:   ORIGIN OF DATA
 UWI .       490252256200:   UNIQUE WELL ID
 DICO. A2D Technologies, Inc.:   DIGITIZING COMPANY
~OTHER INFORMATION
~A    DEPT     GRR       RILD       RILM        C13       PORZ       NPHI       ZCOR       ZDEN   
# ...
  408.5000   124.1991    10.4846    10.6499     8.1863     0.1101     0.2768     0.0455     2.4688
  409.0000   123.9036    10.6314    10.5764     8.2015     0.1125     0.2768     0.0440     2.4598
  409.5000   123.7364    10.7853    10.7984     8.2017     0.1174     0.2756     0.0424     2.4553
  410.0000   122.7118    11.2382    11.1224     8.2169     0.1204     0.2750     0.0469     2.4515
  410.5000   120.9103    11.7154    11.8978     8.2321     0.1246     0.2738     0.0529     2.4463
  411.0000   120.0125    12.3830    12.3170     8.2322     0.1396     0.2726     0.0559     2.4365
  411.5000   114.8978    13.2415    12.9259     8.2173     0.1637     0.2675     0.0574     2.4102
  412.0000   109.9639    14.3995    13.7111     8.2024     0.1896     0.2582     0.0619     2.3456
  412.5000   101.0553    15.5742    15.5333     8.1725     0.1986     0.2446     0.1027     2.3216
  413.0000    97.4466    17.5968    18.2177     8.1424     0.1740     0.2407     0.1207     2.3516
  413.5000    93.2355    19.7935    21.6641     8.1426     0.1451     0.2398     0.1117     2.3937
  414.0000    91.7338    21.8680    23.5444     8.1428     0.1475     0.2452     0.0567     2.4125
  414.5000    92.6446    24.3601    25.0834     8.1631     0.1740     0.2585     0.0412     2.3614
  415.0000    95.0614    25.9255    26.8634     8.1942     0.1975     0.2645     0.0442     2.3208
  415.5000    95.9708    28.3658    28.5947     8.1941     0.2130     0.2660     0.0502     2.3065
  416.0000    97.1814    29.7737    29.4018     8.2090     0.2203     0.2648     0.0562     2.2930
  416.5000    96.2835    30.6093    30.0230     8.1938     0.2252     0.2630     0.0592     2.2825
  417.0000    94.4819    30.6093    30.2356     8.2087     0.2294     0.2618     0.0607     2.2712
  417.5000    94.5130    30.3982    28.2173     8.2237     0.2309     0.2606     0.0607     2.2675
  418.0000    95.6999    29.1620    26.5158     8.2235     0.2282     0.2600     0.0562     2.2706
  418.5000    94.8020    28.3658    25.9732     8.2233     0.2225     0.2591     0.0562     2.2885
  419.0000    93.3017    27.4012    25.4434     8.2232     0.2098     0.2600     0.0562     2.3073
  419.5000    94.8135    26.2596    24.9236     8.2230     0.1984     0.2606     0.0562     2.3238
  420.0000    99.9398    25.3928    24.5840     8.2229     0.1907     0.2624     0.0547     2.3352
  420.5000   104.1638    24.8711    24.0826     8.2227     0.1885     0.2646     0.0592     2.3396
  421.0000   105.9754    24.5293    23.7537     8.2226     0.1879     0.2669     0.0652     2.3388
  421.5000   101.1633    24.1922    23.7576     8.2224     0.1891     0.2636     0.0560     2.3358
  422.0000   100.2640    24.0143    23.5960     8.2243     0.1915     0.2594     0.0412     2.3298
  422.5000   102.9820    23.5317    23.5999     8.2221     0.1951     0.2576     0.0367     2.3268
  423.0000   101.7228    23.5317    23.6031     8.2220     0.1981     0.2582     0.0412     2.3238
  423.5000    99.3791    23.3694    23.4433     8.2218     0.1999     0.2594     0.0517     2.3223
  424.0000   104.2056    23.2083    23.2846     8.2217     0.2005     0.2600     0.0607     2.3193
  424.5000   106.9222    23.3694    23.2884     8.2215     0.2005     0.2603     0.0652     2.3178
  425.0000   107.8316    23.2083    23.2915     8.2214     0.2005     0.2606     0.0667     2.3193
  425.5000   105.4226    23.2083    23.2946     8.2212     0.2017     0.2606     0.0637     2.3177
  426.0000   103.3265    23.2083    23.2985     8.2211     0.2023     0.2591     0.0547     2.3140
  426.5000   103.3322    23.2083    23.6659     8.2059     0.1966     0.2570     0.0517     2.3261
  427.0000   105.1452    23.2083    23.9592     8.2057     0.1885     0.2555     0.0547     2.3373
  427.5000   107.5606    23.2083    23.9624     8.1905     0.1867     0.2567     0.0562     2.3411
  428.0000   105.4579    23.0482    23.8002     8.2054     0.1888     0.2612     0.0547     2.3396
  428.5000   100.7701    23.0482    23.3139     8.2203     0.1987     0.2627     0.0562     2.3231
  429.0000    95.8323    22.7315    22.8384     8.2202     0.2018     0.2600     0.0624     2.3148
  429.5000    96.1393    22.5747    22.3717     8.2200     0.1942     0.2593     0.0667     2.3328
  430.0000   100.9643    22.2644    22.0662     8.2350     0.1855     0.2606     0.0637     2.3426
  430.5000   103.7259    21.8070    21.4669     8.2348     0.1840     0.2606     0.0577     2.3456
  431.0000   102.4619    21.5073    20.7391     8.2346     0.1876     0.2597     0.0517     2.3418
  431.5000   101.8852    21.2117    20.3154     8.2345     0.1948     0.2582     0.0667     2.3336
  432.0000   103.3985    20.7759    20.6021     8.2193     0.1961     0.2579     0.0727     2.3276
  432.5000   105.5126    20.5674    20.4627     8.2191     0.1936     0.2600     0.0607     2.3291
  433.0000   107.3256    20.3490    20.1839     8.2190     0.1876     0.2609     0.0487     2.3373
  433.5000   108.5362    19.7935    19.7715     8.2188     0.1828     0.2606     0.0532     2.3456
  434.0000   105.7109    19.3868    19.3658     8.1886     0.1783     0.2603     0.0607     2.3524
  434.5000   101.3203    19.0349    18.7115     8.1733     0.1753     0.2593     0.0653     2.3561
  435.0000   107.0489    18.4701    17.8285     8.1581     0.1738     0.2576     0.0637     2.3591
  435.5000   110.6691    17.8420    17.3437     8.1580     0.1717     0.2576     0.0607     2.3614
  436.0000   114.8918    17.4754    17.2257     8.1418     0.1678     0.2594     0.0562     2.3651
  436.5000   116.4036    17.1164    16.9916     8.1275     0.1627     0.2630     0.0547     2.3697
  437.0000   117.6156    16.8811    16.8724     8.1274     0.1594     0.2714     0.0532     2.3824
  437.5000   118.2223    16.7647    16.6325     8.1122     0.1597     0.2726     0.0532     2.3877
  438.0000   115.8198    16.4203    16.4199     8.1120     0.1661     0.2711     0.0547     2.3817
  438.5000   116.1268    16.0700    16.2864     8.0968     0.1738     0.2708     0.0547     2.3708
  439.0000   116.7350    15.8222    16.0871     8.0967     0.1735     0.2732     0.0532     2.3636
  439.5000   117.0422    15.6438    15.9781     8.0506     0.1684     0.2756     0.0487     2.3666
  440.0000   115.8443    15.4288    15.7605     8.0361     0.1642     0.2753     0.0442     2.3757
  440.5000   114.6438    15.2168    15.5916     8.0360     0.1605     0.2744     0.0427     2.3854
  441.0000   115.2534    15.0580    15.3345     8.0358     0.1558     0.2747     0.0517     2.3899
  441.5000   113.7532    14.8701    15.2305     8.0357     0.1549     0.2762     0.0517     2.3937
  442.0000   112.2529    14.6993    15.0232     8.0355     0.1546     0.2750     0.0516     2.3967
  442.5000   111.6563    14.5979    14.9725     8.0354     0.1558     0.2732     0.0472     2.3892
  443.0000   111.0596    14.4972    14.8826     8.0352     0.1603     0.2708     0.0472     2.3877
  443.5000   111.3680    14.3501    14.6186     8.0351     0.1591     0.2696     0.0442     2.3862
  444.0000   111.6735    14.1700    14.4194     8.0048     0.1576     0.2678     0.0410     2.3885
  444.5000   109.2711    13.9077    14.4218     8.0047     0.1585     0.2669     0.0382     2.3899
  445.0000   108.6759    13.9077    14.2615     8.0033     0.1585     0.2645     0.0367     2.3884
  445.5000   107.1756    13.7955    14.1290     8.0044     0.1555     0.2621     0.0382     2.3907
  446.0000   105.0730    13.7165    14.0212     8.0042     0.1522     0.2609     0.0397     2.3967
  446.5000   103.8725    13.6196    13.8287     8.0041     0.1498     0.2621     0.0412     2.3997
  447.0000   105.3857    13.5280    13.6540     8.0190     0.1477     0.2627     0.0412     2.4027
  447.5000   107.5501    13.4347    13.6558     8.0188     0.1483     0.2624     0.0382     2.4057
  448.0000   109.3143    13.3144    13.5634     8.0187     0.1513     0.2606     0.0427     2.4027
  448.5000   109.9225    13.1587    13.3786     8.0185     0.1519     0.2581     0.0502     2.3997
