~VERSION INFORMATION
 VERS.                2.0:   CWLS LOG ASCII STANDARD - VERSION 2.0
 WRAP.                 NO:   ONE LINE PER DEPTH STEP
~WELL INFORMATION
#MNEM.UNIT      DATA TYPE    INFORMATION
#----------   ------------   ------------------------------
 STRT.F           18.0000:   START DEPTH
 STOP.F          449.0000:   STOP DEPTH
 STEP.F            0.5000:   STEP LENGTH
 NULL.          -999.2500:   NO VALUE
 COMP.   LAWRENCE-ALLISON:   COMPANY
 WELL. NPR 3 #51-46SX10OB4:   WELL
 FLD .             TEAPOT:   FIELD
 LOC .      S10 T38N R78W:   LOCATION
 CNTY.            NATRONA:   COUNTY
 STAT.            WYOMING:   STATE
 CTRY. UNITED STATES OF AMERICA:   COUNTRY
 SRVC.      Dresser Atlas:   SERVICE COMPANY
 DATE.        19-NOV-1984:   LOGDATE
 API .       490251100700:   API NUMBER
~CURVE INFORMATION
#MNEM.UNIT       API CODE    CURVE DESCRIPTION
#----------   ------------   ------------------------------
 DEPT.F                  :   
 AC  .US/F   60 520 00 00:   ACCOUSTIC
 PORD.DEC    45 890 12 00:   POROSITY DENSITY SANDSTONE
 CNC .DEC    42 890 03 00:   NEUTRON POROSITY SANDSTONE
 CALD.IN     45 280 60 00:   CALIPER FROM DENSITY
 CORR.G/C3   45 356 01 00:   DENSITY CORRECTION
 DEN .G/C3   45 350 01 00:   COMPENSATED BULK DENSTIY
 GRD .GAPI   45 310 01 00:   GAMMA RAY FROM DENSITY LOG
~PARAMETER INFORMATION
#MNEM.UNIT          VALUE    DESCRIPTION
#----------   ------------   ------------------------------
 PD  .                 GL:   PERMANENT DATUM
 EPD .F              5163:   ELEVATION PERMANENT DATUM
 LMF .                 GL:   LOG MEASURED FROM
 DMF .                 GL:   DRILLING MEASURED FROM
 EGL .F              5163:   GROUND LEVEL
 DATE.        19-DEC-1984:   RUN DATE
 RUN .                  1:   RUN NUMBER
 DD  .F               450:   DEPTH DRILLER
 DL  .F               451:   DEPTH LOGGER
 BLI .F               449:   BOTTOM LOG INTERVAL
 TLI .F                20:   TOP LOG INTERVAL
 CS  .IN            8.625:   CASING SIZE
 CBD .F                20:   CASING BOTTOM DRILLER
 CBL .F                20:   CASING BOTTOM LOGGER
 BS  .IN             6.25:   BIT SIZE
 BSD .F               450:   BIT SIZE AT DEPTH
 DFT .          KCL WATER:   DRILLING FLUID TYPE
 MSS .            MUDTANK:   MUD SAMPLE SOURCE
 RMS .OHMM          0.146:   RESISTIVITY MUD SAMPLE
 MST .F               100:   MUD SAMPLE TEMPERATURE
 RMF .OHMM          0.110:   RESISTIVITY MUD FILTRATE SAMPLE
 MFST.F               100:   MUD FILTRATE SAMPLE TEMPERATURE
 RMC .OHMM          0.183:   RESISTIVITY MUD CAKE
 MCST.F               100:   MUD CAKE SAMPLE TEMPERATURE
 MFSS.               CALC:   MUD FILTRATE SAMPLE SOURCE
 MCSS.               CALC:   MUD CAKE SAMPLE SOURCE
 TCS .HRS               2:   TIME CURCULATED STOPPED
 MRT .F               100:   MAXIMUM RECORDED TEMPERATURE
 LUN .               6270:   LOGGING UNIT NUMBER
 ENGI.        TOM GAUGHAN:   RECORDING ENGINEER
 WITN.              LUERS:   WITNESSED BY
 CLNT.            A2DTECH:   CLIENT CODE
 ORIG.           5" PRINT:   ORIGIN OF DATA
 UWI .       490251100700:   UNIQUE WELL ID
 DICO. A2D Technologies, Inc.:   DIGITIZING COMPANY
~OTHER INFORMATION
~A   DEPT        AC      PORD        CNC       CALD       CORR        DEN        GRD   
# ...
  245.5000    99.3706     0.1354     0.2362     6.3574     0.0152     2.4666    60.6723
  246.0000   106.3745     0.1493     0.2323     6.3569     0.0211     2.4305    56.4509
  246.5000   110.1550     0.1512     0.2362     6.3716     0.0241     2.4365    59.0067
  247.0000   110.7123     0.1351     0.2595     6.3560     0.0210     2.4547    63.0684
  247.5000   110.6355     0.1321     0.2713     6.3556     0.0179     2.4592    65.0218
  248.0000   109.1247     0.1524     0.2755     6.3551     0.0283     2.4273    66.6739
  248.5000   110.0742     0.1986     0.2719     6.3397     0.0358     2.3431    68.6272
  249.0000   112.1207     0.2177     0.2680     6.3392     0.0236     2.3157    70.7311
  249.5000   114.5312     0.2196     0.2643     6.3388     0.0024     2.3119    71.1796
  250.0000   116.3323     0.2156     0.2619     6.3384    -0.0023     2.3182    70.3243
  250.5000   116.5744     0.2144     0.2638     6.3381     0.0007     2.3202    69.1467
  251.0000   115.6386     0.2150     0.2768     6.3378     0.0052     2.3178    67.9690
  251.5000   112.8963     0.2196     0.2940     6.3375     0.0066     2.3057    66.7575
  252.0000   107.1022     0.2284     0.3091     6.3372     0.0096     2.2935    65.7411
  252.5000   104.2163     0.2357     0.3082     6.3368     0.0125     2.2844    66.2123
  253.0000   103.5172     0.2351     0.2963     6.3365     0.0140     2.2828    66.6387
  253.5000   102.9804     0.2294     0.2850     6.3513     0.0155     2.2934    66.9369
  254.0000   106.8544     0.2209     0.2728     6.3660     0.0154     2.3139    67.8368
  254.5000   109.5136     0.2036     0.2668     6.3657     0.0169     2.3358    69.1892
  255.0000   111.0032     0.1896     0.2716     6.3654     0.0168     2.3601    70.3910
  255.5000   111.4725     0.1848     0.2816     6.3651     0.0183     2.3692    71.1411
  256.0000   109.0031     0.1936     0.2883     6.3648     0.0227     2.3661    69.6321
  256.5000   104.7982     0.2121     0.2760     6.3795     0.0287     2.3380    64.3580
  257.0000   103.5675     0.2288     0.2675     6.3792     0.0196     2.3031    61.3429
  257.5000   103.9186     0.2394     0.2603     6.3940     0.0165     2.2886    62.5448
  258.0000   105.9073     0.2373     0.2591     6.4087     0.0285     2.2772    66.1562
  258.5000   108.0711     0.2155     0.2627     6.4084     0.0330     2.3090    68.2617
  259.0000   107.6630     0.2012     0.2642     6.4081     0.0208     2.3378    66.6021
  259.5000   106.0918     0.1985     0.2654     6.4229     0.0147     2.3500    65.8461
  260.0000   104.8486     0.2070     0.2712     6.4225     0.0101     2.3454    66.8973
  260.5000   103.7736     0.2201     0.2766     6.4072     0.0040     2.3173    70.9606
  261.0000   104.2790     0.2256     0.2739     6.4220     0.0024     2.3051    73.5178
  261.5000   104.7389     0.2223     0.2679     6.4216     0.0039     2.3013    74.5690
  262.0000   103.8589     0.2108     0.2658     6.4364     0.0054     2.3187    74.5661
  262.5000   102.7612     0.2068     0.2676     6.4210     0.0068     2.3308    74.8643
  263.0000   101.3699     0.2131     0.2700     6.4358     0.0113     2.3346    75.1632
  263.5000   100.6849     0.2159     0.2746     6.4506     0.0158     2.3239    74.4065
  264.0000   100.7210     0.2116     0.2827     6.4502     0.0233     2.3201    72.8975
  264.5000   101.6617     0.2041     0.2712     6.4499     0.0247     2.3284    72.4036
  265.0000   102.1316     0.1989     0.2564     6.4496     0.0171     2.3398    74.3975
  265.5000   102.6009     0.1953     0.2522     6.4493     0.0110     2.3490    77.4066
  266.0000   101.1474     0.1977     0.2596     6.4339     0.0109     2.3534    80.2650
  266.5000    99.6026     0.2008     0.2707     6.4337     0.0109     2.3495    81.7681
  267.0000    98.1196     0.2035     0.2680     6.4334     0.0108     2.3449    82.0663
  267.5000    96.9684     0.2062     0.2623     6.4482     0.0047     2.3400    81.4458
  268.0000    96.4449     0.2053     0.2604     6.4478     0.0124     2.3340    80.0783
  268.5000    97.1769     0.2008     0.2614     6.4475     0.0152     2.3373    79.6477
  269.0000    97.8898     0.1893     0.2584     6.4472     0.0134     2.3547    81.5150
  269.5000    98.5141     0.1838     0.2433     6.4469     0.0120     2.3676    83.1822
  270.0000    98.8349     0.1826     0.2357     6.4617     0.0122     2.3728    84.6078
  270.5000    98.6640     0.1835     0.2384     6.4915     0.0149     2.3728    85.3579
  271.0000    98.4465     0.1851     0.2421     6.4610     0.0131     2.3713    84.6019
  271.5000    98.3751     0.1893     0.2448     6.4579     0.0015     2.3667    82.6410
  272.0000    98.7972     0.1948     0.2451     6.4605    -0.0246     2.3591    80.0778
  272.5000    99.2633     0.1958     0.2442     6.4601    -0.0262     2.3522    79.7736
  273.0000    99.4274     0.1927     0.2415     6.4598    -0.0020     2.3529    79.7706
  273.5000    99.5792     0.1869     0.2394     6.4595     0.0115     2.3635    78.5628
  274.0000    99.7555     0.1845     0.2379     6.4743     0.0039     2.3718    79.0116
  274.5000    99.9195     0.1869     0.2376     6.4740    -0.0052     2.3672    80.2135
  275.0000   100.1619     0.1918     0.2424     6.4586    -0.0114     2.3596    80.5124
  275.5000   100.4827     0.1933     0.2464     6.4433    -0.0084     2.3543    80.0569
  276.0000   100.5546     0.1897     0.2452     6.4280     0.0067     2.3558    79.9040
  276.5000    99.1326     0.1866     0.2363     6.4427     0.0233     2.3633    81.1051
  277.0000    96.1112     0.1864     0.2333     6.4424     0.0308     2.3679    81.2535
  277.5000    92.5667     0.1867     0.2277     6.4421     0.0307     2.3678    80.3461
  278.0000    88.0253     0.1858     0.2135     6.4418     0.0306     2.3686    79.2889
  278.5000    87.0318     0.1743     0.2108     6.4265     0.0276     2.3852    79.8883
  279.0000    90.7021     0.1588     0.2138     6.4261     0.0199     2.4110    79.2829
  279.5000    93.5505     0.1403     0.2165     6.4258     0.0093     2.4459    75.6655
  280.0000    96.7345     0.1382     0.2256     6.4255     0.0047     2.4565    75.3620
  280.5000    98.0452     0.1506     0.2413     6.4252     0.0122     2.4344    80.4788
  281.0000    98.8408     0.1649     0.2552     6.4400     0.0182     2.4131    84.0903
  281.5000    99.3220     0.1743     0.2716     6.4397     0.0166     2.3888    84.5557
  282.0000    99.5673     0.1862     0.2840     6.4394     0.0150     2.3706    81.0722
  282.5000    99.6530     0.1932     0.2819     6.4391     0.0135     2.3584    78.6596
  283.0000    99.6648     0.1968     0.2613     6.4388     0.0104     2.3500    78.6536
  283.5000    99.9101     0.1995     0.2526     6.4536     0.0043     2.3455    79.4112
  284.0000    99.7624     0.2017     0.2496     6.4532     0.0012     2.3416    81.5241
  284.5000    99.1429     0.2026     0.2472     6.4379    -0.0080     2.3401    81.8103
  285.0000    98.6783     0.2011     0.2466     6.4376    -0.0126     2.3423    78.5391
  285.5000    99.0832     0.2023     0.2496     6.4524    -0.0081     2.3415    76.3825
  286.0000    99.3285     0.2041     0.2502     6.4520    -0.0021     2.3377    76.2289
  286.5000    99.6525     0.2039     0.2480     6.4517    -0.0143     2.3369    76.2259
  287.0000   100.0550     0.2039     0.2453     6.4364    -0.0219     2.3377    76.9753
  287.5000   100.3789     0.2038     0.2433     6.4361    -0.0204     2.3399    77.8759
  288.0000   100.4647     0.2018     0.2527     6.4358    -0.0114     2.3422    77.2705
  288.5000   100.3169     0.2012     0.2669     6.4355     0.0067     2.3421    77.5688
  289.0000   100.0142     0.2012     0.2684     6.4352     0.0142     2.3421    78.1682
  289.5000    99.3948     0.2000     0.2630     6.4349     0.0096     2.3430    78.9182
  290.0000    98.4609     0.1942     0.2593     6.4346     0.0080     2.3496    79.8188
  290.5000    97.8414     0.1900     0.2575     6.4343     0.0140     2.3579    81.7744
