~VERSION INFORMATION
 VERS.                2.0:   CWLS LOG ASCII STANDARD - VERSION 2.0
 WRAP.                 NO:   ONE LINE PER DEPTH STEP
~WELL INFORMATION
#MNEM.UNIT      DATA TYPE    INFORMATION
#----------   ------------   ------------------------------
 STRT.F           20.0000:   START DEPTH
 STOP.F          698.0000:   STOP DEPTH
 STEP.F            0.5000:   STEP LENGTH
 NULL.          -999.2500:   NO VALUE
 COMP. FENIX & SCISSON INC:   COMPANY
 WELL.    52 SX 34 #52-34:   WELL
 FLD .             TEAPOT:   FIELD
 LOC .      S34 T39N R78W:   LOCATION
 CNTY.            NATRONA:   COUNTY
 STAT.            WYOMING:   STATE
 CTRY. UNITED STATES OF AMERICA:   COUNTRY
 SRVC.            Unknown:   SERVICE COMPANY
 DATE.        26-JAN-1979:   LOGDATE
 API .       490251077100:   API NUMBER
~CURVE INFORMATION
#MNEM.UNIT       API CODE    CURVE DESCRIPTION
#----------   ------------   ------------------------------
 DEPT.F                  :   
 SPR .MV     05 010 01 00:   SPONTANEOUS POTENTIAL FROM RES.
 CALD.IN     45 280 60 00:   CALIPER
 GRD .GAPI   45 310 01 00:   GAMMA RAY FROM DENSITY LOG
 CORR.G/C3   45 356 01 00:   DENSITY CORRECTION
 RHOB.G/C3   45 350 01 00:   BULK DENSITY
 ILD .OHMM   05 120 46 00:   INDUCTION LOG DEEP
 SN  .OHMM   05 040 16 00:   SHORT NORMAL 16"
 DPHI.DEC    45 890 12 00:   DENSITY POROSITY SANDSTONE
~PARAMETER INFORMATION
#MNEM.UNIT          VALUE    DESCRIPTION
#----------   ------------   ------------------------------
 PD  .                 GL:   PERMANENT DATUM
 EPD .F              5072:   ELEVATION PERMANENT DATUM
 LMF .                 KB:   LOG MEASURED FROM
 DAPD.F                 4:   FEET ABOVE PERMANENT DATUM
 DMF .                 KB:   DRILLING MEASURED FROM
 EKB .F              5076:   KELLING BUSHING
 EGL .F              5072:   GROUND LEVEL
 DATE.            1-26-79:   RUN DATE
 RUN .                  1:   RUN NUMBER
 DD  .F               688:   DEPTH DRILLER
 DL  .F               698:   DEPTH LOGGER
 BLI .F               691:   BOTTOM LOG INTERVAL
 TLI .F                30:   TOP LOG INTERVAL
 CS  .IN            8.625:   CASING SIZE
 CBD .F                40:   CASING BOTTOM DRILLER
 CBL .F                20:   CASING BOTTOM LOGGER
 BS  .IN            7.875:   BIT SIZE
 BSD .F               688:   BIT SIZE AT DEPTH
 DFT .                KCL:   DRILLING FLUID TYPE
 DFD .                8.9:   DRILLING FLUID DENSITY
 DFV .                 39:   DRILLING FLUID VISCOSITY
 DFPH.                 10:   DRILLING FLUID PH
 DFL .                 10:   DRILLING FLUID LOSS
 MSS .           FLOWLINE:   MUD SAMPLE SOURCE
 RMS .OHMM             .3:   RESISTIVITY MUD SAMPLE
 MST .F                60:   MUD SAMPLE TEMPERATURE
 RMF .OHMM            .22:   RESISTIVITY MUD FILTRATE SAMPLE
 MFST.F                66:   MUD FILTRATE SAMPLE TEMPERATURE
 MFSS.           MEASURED:   MUD FILTRATE SAMPLE SOURCE
 MCSS.           MEASURED:   MUD CAKE SAMPLE SOURCE
 RMB .OHMM            .25:   RESISTIVITY MUD AT BHT
 BHT .F                70:   BOTTOM HOLE TEMPERATURE
 TCS .HRS               7:   TIME CURCULATED STOPPED
 MRT .F                70:   MAXIMUM RECORDED TEMPERATURE
 LUN .               3006:   LOGGING UNIT NUMBER
 LUL .             CASPER:   LOGGING UNIT LOCATION
 ENGI.            ROLLINS:   RECORDING ENGINEER
 WITN.              AMEND:   WITNESSED BY
 CLNT.            A2DTECH:   CLIENT CODE
 ORIG.       2", 5" PRINT:   ORIGIN OF DATA
 UWI .       490251077100:   UNIQUE WELL ID
 DICO. A2D Technologies, Inc.:   DIGITIZING COMPANY
~OTHER INFORMATION
~A   DEPT      SPR         CALD       GRD      CORR       RHOB        ILD         SN       DPHI   
   20.0000  -999.2500     9.1601    74.1584  -999.2500  -999.2500  -999.2500  -999.2500  -999.2500
   20.5000  -999.2500     9.1008    73.9604  -999.2500  -999.2500  -999.2500  -999.2500  -999.2500
   21.0000  -999.2500     8.7648    72.8663  -999.2500  -999.2500  -999.2500  -999.2500  -999.2500
   21.5000  -999.2500     8.8304    71.8960  -999.2500  -999.2500  -999.2500  -999.2500  -999.2500
   22.0000  -999.2500     8.8817    71.2111  -999.2500  -999.2500  -999.2500  -999.2500  -999.2500
   22.5000  -999.2500     8.8580    71.1836  -999.2500  -999.2500  -999.2500  -999.2500  -999.2500
   23.0000  -999.2500     8.6503    71.1908  -999.2500  -999.2500  -999.2500  -999.2500  -999.2500
   23.5000  -999.2500     8.3948    71.1713  -999.2500  -999.2500  -999.2500  -999.2500  -999.2500
   24.0000  -999.2500     8.1389    70.3804  -999.2500  -999.2500  -999.2500  -999.2500  -999.2500
   24.5000  -999.2500     7.8811    69.8356  -999.2500  -999.2500  -999.2500  -999.2500  -999.2500
   25.0000  -999.2500     7.6246    69.9295     0.0765  -999.2500  -999.2500  -999.2500  -999.2500
   25.5000  -999.2500     7.6518    70.7358     0.0926  -999.2500  -999.2500  -999.2500  -999.2500
   26.0000  -999.2500     8.1740    75.2764     0.1094  -999.2500  -999.2500  -999.2500  -999.2500
   26.5000  -999.2500     8.0847    79.6881     0.0891  -999.2500  -999.2500  -999.2500  -999.2500
   27.0000  -999.2500     7.8935    84.1007     0.0687     2.3253  -999.2500  -999.2500  -999.2500
   27.5000  -999.2500     7.7177    88.5671     0.0426     2.3201  -999.2500  -999.2500     0.2129
   28.0000  -999.2500     7.5676    89.2658     0.0353     2.3215  -999.2500  -999.2500     0.2215
   28.5000  -999.2500     7.4160    88.9896     0.0348     2.2864  -999.2500  -999.2500     0.2441
   29.0000   -57.7152     7.4387    91.4635     0.0404     2.2888  -999.2500  -999.2500     0.2576
   29.5000   -57.7152     7.5430    94.8284     0.0461     2.2410  -999.2500  -999.2500     0.2745
   30.0000   -57.7152     7.5732    94.8409     0.0514     2.2200  -999.2500  -999.2500     0.2800
   30.5000   -57.8281     7.6027    94.6453     0.0491     2.1955  -999.2500  -999.2500     0.2966
   31.0000   -57.9182     7.6327    93.7626     0.0444     2.1733  -999.2500  -999.2500     0.3133
   31.5000   -58.0161     7.6623    90.6727     0.0295     2.1463  -999.2500  -999.2500     0.3213
   32.0000   -57.6239     7.6887    93.0913     0.0167     2.1192     4.4234  -999.2500     0.3282
   32.5000   -55.3602     7.8055    93.8608     0.0148     2.1079     2.1687  -999.2500     0.3025
   33.0000   -57.5327     7.9373    93.2529     0.0137     2.1743     2.0516  -999.2500     0.2697
   33.5000   -54.5813     7.9667    88.5217     0.0143     2.2500     1.9717  -999.2500     0.2368
   34.0000   -54.9248     7.9473    83.7366     0.0193     2.3463     1.9865  -999.2500     0.2041
   34.5000   -53.2879     7.9874    83.9995     0.0231     2.3446     1.9610  -999.2500     0.1964
   35.0000   -53.3433     7.9611    87.3883     0.0194     2.3434     2.0189  -999.2500     0.1974
   35.5000   -53.3479     7.7790    87.7129     0.0219     2.3425     2.0784  -999.2500     0.2029
   36.0000   -53.3448     7.8261    93.5376     0.0262     2.3267     2.1397  -999.2500     0.2058
   36.5000   -53.3675     7.9360    91.0803     0.0289     2.3263     2.2460  -999.2500     0.2064
   37.0000   -53.4072     7.9806    88.2766     0.0274     2.3260     2.3874  -999.2500     0.2070
   37.5000   -53.4469     7.9892    92.1925     0.0293     2.3258     2.6113  -999.2500     0.2075
   38.0000   -53.4855     8.0795    95.5489     0.0313     2.3254     2.8554  -999.2500     0.2099
   38.5000   -53.5260     8.1865    94.6852     0.0333     2.3161     3.1226  -999.2500     0.2154
   39.0000   -53.3697     8.2386    93.2927     0.0352     2.3057     3.3221  -999.2500     0.2188
   39.5000   -53.0018     8.2709    92.0915     0.0372     2.3038     3.2655  -999.2500     0.2198
   40.0000   -52.2828     8.2691    94.9061     0.0392     2.3031     3.2011  -999.2500     0.2209
   40.5000   -52.2145     8.2224   101.0210     0.0412     2.3024     3.1377  -999.2500     0.2219
   41.0000   -52.2846     8.0906    99.9104     0.0405     2.3017     3.0755  -999.2500     0.2256
   41.5000   -52.3595     8.1826    98.9822     0.0393     2.2926     3.0178  -999.2500     0.2320
   42.0000   -52.4332     8.2500   106.6907     0.0380     2.2726     2.9739  -999.2500     0.2411
   42.5000   -52.5061     8.2312   104.7217     0.0252     2.2528     2.9307  -999.2500     0.2646
   43.0000   -52.4989     8.2147   102.1428    -0.0016     2.2258     2.8881  -999.2500     0.2878
   43.5000   -52.3809     8.2187   101.9905     0.0052     2.1942     2.8461  -999.2500     0.2990
   44.0000   -52.2637     8.2249   106.2392     0.0309     2.1647     2.7334  -999.2500     0.2990
   44.5000   -52.1545     8.4070   108.4515     0.0293     2.1933     2.6053  -999.2500     0.2636
   45.0000   -52.1518     8.3312    98.8105     0.0254     2.2524     2.4831  -999.2500     0.2173
   45.5000   -52.1522     8.2134    93.8084     0.0215     2.3176     2.3667  -999.2500     0.1837
   46.0000   -52.1523     8.2112    92.5966     0.0185     2.3828     2.2829  -999.2500     0.1725
   46.5000   -52.1523     8.2114    91.3748     0.0156     2.3843     2.3870  -999.2500     0.1725
   47.0000   -52.1523     8.2115    90.1789     0.0168     2.3842     2.4927  -999.2500     0.1778
   47.5000   -52.1523     8.2115    88.9829     0.0182     2.3701     2.6030     3.9951     0.1808
   48.0000   -52.1523     8.2115    87.7834     0.0189     2.3724     2.8403     3.1674     0.1771
   48.5000   -52.1523     8.2115    86.1036     0.0143     2.3755     3.1509     2.9435     0.1761
   49.0000   -52.1523     8.2115    83.4732     0.0098     2.3786     3.4955     3.1811     0.1755
   49.5000   -52.1523     8.2115    83.1178     0.0134     2.3829     3.8787     3.5458     0.1669
   50.0000   -52.1523     8.2115    84.2064     0.0249     2.3914     4.3040     3.9524     0.1592
   50.5000   -52.1523     8.2114    87.7111     0.0205     2.4082     4.6357     4.4056     0.1587
   51.0000   -52.1523     8.2116    90.2530     0.0147     2.4077     4.6844     4.5060     0.1584
   51.5000   -52.1523     8.2135    86.2194     0.0099     2.4157     4.7290     4.5302     0.1481
   52.0000   -52.1523     8.1556    82.7790     0.0171     2.4276     4.7758     4.5531     0.1444
   52.5000   -52.1523     8.1257    86.8895     0.0245     2.4325     4.8232     4.5761     0.1476
   53.0000   -52.1523     8.1138    91.1888     0.0318     2.4226     4.9175     4.6512     0.1575
   53.5000   -52.1519     8.1023    95.5435     0.0390     2.4021     5.0894     4.8121     0.1612
   54.0000   -52.1519     8.0926    98.9495     0.0454     2.4057     5.2673     4.9786     0.1538
   54.5000   -52.1918     8.1039    99.4024     0.0503     2.4161     5.4514     5.1509     0.1488
   55.0000   -52.5421     8.1752    99.0713     0.0552     2.4262     5.6420     5.3292     0.1484
   55.5000   -52.8958     8.2483    97.3664     0.0614     2.4246     5.8392     5.5136     0.1496
   56.0000   -52.9468     8.2759    95.6095     0.0733     2.4226     6.0434     5.7043     0.1509
   56.5000   -52.9476     8.3031    94.8949     0.0854     2.4205     6.1202     5.8935     0.1522
   57.0000   -52.9460     8.3033    94.5044     0.0870     2.4185     6.1268     5.8944     0.1536
   57.5000   -52.9586     8.2939    94.1737     0.0749     2.4164     6.1334     5.8934     0.1522
   58.0000   -53.5628     8.2749    94.5294     0.0501     2.4230     6.1400     5.8936     0.1485
   58.5000   -53.5719     8.2495    94.0693     0.0248     2.4378     6.1467     5.8935     0.1393
   59.0000   -53.6009     8.1910    92.4880     0.0177     2.4527     6.1533     5.8935     0.1323
   59.5000   -53.6324     8.1340    90.9042     0.0163     2.4574     6.1599     5.8935     0.1392
   60.0000   -53.6628     8.1270    90.2021     0.0139     2.4371     6.1666     5.8935     0.1521
