~VERSION INFORMATION
 VERS.                2.0:   CWLS LOG ASCII STANDARD - VERSION 2.0
 WRAP.                 NO:   ONE LINE PER DEPTH STEP
~WELL INFORMATION
#MNEM.UNIT      DATA TYPE    INFORMATION
#----------   ------------   ------------------------------
 STRT.F           29.0000:   START DEPTH
 STOP.F          539.0000:   STOP DEPTH
 STEP.F            0.1000:   STEP LENGTH
 NULL.          -999.2500:   NO VALUE
 COMP. LAWRENCE/ALLISON INC:   COMPANY
 WELL. NPR 3 81-11 STX #10-10:   WELL
 FLD .             TEAPOT:   FIELD
 LOC .      S10 T38N R78W:   LOCATION
 CNTY.            NATRONA:   COUNTY
 STAT.            WYOMING:   STATE
 CTRY. UNITED STATES OF AMERICA:   COUNTRY
 SRVC.           Gearhart:   SERVICE COMPANY
 DATE.        01-JUN-1987:   LOGDATE
 API .       490251113000:   API NUMBER
~CURVE INFORMATION
#MNEM.UNIT       API CODE    CURVE DESCRIPTION
#----------   ------------   ------------------------------
 DEPT.F                  :   
 GRR .GAPI   07 310 01 00:   GAMMA RAY FROM RES. LOG.
 ILD .OHMM   07 120 46 00:   INDUCTION LOG DEEP RESISTIVITY
 RILM.OHMM   07 120 44 00:   INDUCTION LOG MEDIUM RESISTIVITY
~PARAMETER INFORMATION
#MNEM.UNIT          VALUE    DESCRIPTION
#----------   ------------   ------------------------------
 PD  .                 GL:   PERMANENT DATUM
 EPD .F              5156:   ELEVATION PERMANENT DATUM
 LMF .                 KB:   LOG MEASURED FROM
 DAPD.F                 8:   FEET ABOVE PERMANENT DATUM
 DMF .                 KB:   DRILLING MEASURED FROM
 EKB .F              5164:   KELLING BUSHING
 EDF .F              5162:   DRILLING FLOOR
 EGL .F              5156:   GROUND LEVEL
 DATE.             6-1-87:   RUN DATE
 RUN .                  1:   RUN NUMBER
 DD  .F               550:   DEPTH DRILLER
 DL  .F               546:   DEPTH LOGGER
 BLI .F               540:   BOTTOM LOG INTERVAL
 TLI .F                30:   TOP LOG INTERVAL
 CS  .IN            8.625:   CASING SIZE
 CBD .F                50:   CASING BOTTOM DRILLER
 CBL .F                49:   CASING BOTTOM LOGGER
 BS  .IN            7.875:   BIT SIZE
 BSD .F               550:   BIT SIZE AT DEPTH
 DFT .                AIR:   DRILLING FLUID TYPE
 TLAB.HRS            0634:   TIME LOGGER AT BOTTOM
 MRT .F                80:   MAXIMUM RECORDED TEMPERATURE
 LUN .               7597:   LOGGING UNIT NUMBER
 LUL .           GILLETTE:   LOGGING UNIT LOCATION
 ENGI. WEATHERMON/JOHNSTON:   RECORDING ENGINEER
 WITN.             STRONG:   WITNESSED BY
 CLNT.            A2DTECH:   CLIENT CODE
 ORIG.       2", 5" PRINT:   ORIGIN OF DATA
 UWI .       490251113000:   UNIQUE WELL ID
 DICO. A2D Technologies, Inc.:   DIGITIZING COMPANY
~OTHER INFORMATION
~A   DEPT       GRR       ILD       RILM   
# ...
  211.0000   119.0791     6.1851     6.1021
  211.1000   118.5092     6.2735     6.1695
  211.2000   117.9394     6.3620     6.2370
  211.3000   117.3695     6.4505     6.3045
  211.4000   116.7997     6.5389     6.3719
  211.5000   116.2298     6.6274     6.4394
  211.6000   115.6403     6.7142     6.5096
  211.7000   115.0508     6.8010     6.5798
  211.8000   114.4613     6.8878     6.6500
  211.9000   113.8718     6.9746     6.7202
  212.0000   113.2823     7.0614     6.7905
  212.1000   113.1568     7.1539     6.8648
  212.2000   113.0314     7.2464     6.9391
  212.3000   112.9059     7.3389     7.0134
  212.4000   112.7805     7.4314     7.0877
  212.5000   112.6551     7.5239     7.1620
  212.6000   112.9851     7.6224     7.2336
  212.7000   113.3151     7.7210     7.3052
  212.8000   113.6452     7.8195     7.3769
  212.9000   113.9752     7.9181     7.4485
  213.0000   114.3052     8.0166     7.5202
  213.1000   114.6631     8.0657     7.5717
  213.2000   115.0209     8.1148     7.6232
  213.3000   115.3788     8.1640     7.6747
  213.4000   115.7366     8.2131     7.7262
  213.5000   116.0945     8.2622     7.7777
  213.6000   116.3158     8.2824     7.8309
  213.7000   116.5372     8.3026     7.8842
  213.8000   116.7585     8.3228     7.9375
  213.9000   116.9799     8.3430     7.9907
  214.0000   117.2012     8.3633     8.0440
  214.1000   117.2871     8.3792     8.0702
  214.2000   117.3729     8.3951     8.0963
  214.3000   117.4588     8.4110     8.1225
  214.4000   117.5447     8.4269     8.1487
  214.5000   117.6305     8.4429     8.1749
  214.6000   117.8013     8.4594     8.1901
  214.7000   117.9720     8.4759     8.2053
  214.8000   118.1427     8.4924     8.2205
  214.9000   118.3134     8.5089     8.2358
  215.0000   118.4841     8.5254     8.2510
  215.1000   118.8623     8.5455     8.2663
  215.2000   119.2405     8.5657     8.2817
  215.3000   119.6186     8.5859     8.2970
  215.4000   119.9968     8.6060     8.3124
  215.5000   120.3749     8.6262     8.3278
  215.6000   120.7494     8.6601     8.3433
  215.7000   121.1238     8.6940     8.3588
  215.8000   121.4983     8.7279     8.3743
  215.9000   121.8727     8.7618     8.3898
  216.0000   122.2471     8.7956     8.4053
  216.1000   122.6302     8.8302     8.4303
  216.2000   123.0133     8.8648     8.4553
  216.3000   123.3963     8.8993     8.4803
  216.4000   123.7794     8.9339     8.5053
  216.5000   124.1624     8.9684     8.5303
  216.6000   123.9288     8.9957     8.5717
  216.7000   123.6951     9.0230     8.6131
  216.8000   123.4615     9.0503     8.6546
  216.9000   123.2279     9.0776     8.6960
  217.0000   122.9942     9.1049     8.7374
  217.1000   122.5429     9.1151     8.7742
  217.2000   122.0916     9.1252     8.8111
  217.3000   121.6403     9.1354     8.8480
  217.4000   121.1890     9.1455     8.8849
  217.5000   120.7377     9.1557     8.9218
  217.6000   120.2796     9.1659     8.9144
  217.7000   119.8214     9.1761     8.9070
  217.8000   119.3632     9.1863     8.8996
  217.9000   118.9050     9.1965     8.8922
  218.0000   118.4469     9.2067     8.8848
  218.1000   118.5919     9.2170     8.8753
  218.2000   118.7369     9.2272     8.8659
  218.3000   118.8819     9.2375     8.8564
  218.4000   119.0269     9.2478     8.8470
  218.5000   119.1720     9.2580     8.8375
  218.6000   119.6763     9.2684     8.8570
  218.7000   120.1806     9.2787     8.8765
  218.8000   120.6849     9.2890     8.8960
  218.9000   121.1892     9.2993     8.9155
  219.0000   121.6936     9.3096     8.9350
  219.1000   121.6824     9.3200     8.9666
  219.2000   121.6713     9.3304     8.9981
  219.3000   121.6601     9.3408     9.0297
  219.4000   121.6490     9.3511     9.0612
  219.5000   121.6378     9.3615     9.0928
  219.6000   120.8486     9.3720     9.1265
  219.7000   120.0593     9.3824     9.1602
  219.8000   119.2701     9.3928     9.1940
  219.9000   118.4809     9.4033     9.2277
  220.0000   117.6916     9.4137     9.2614
  220.1000   116.8745     9.4184     9.2545
  220.2000   116.0575     9.4230     9.2475
  220.3000   115.2404     9.4277     9.2406
  220.4000   114.4234     9.4323     9.2336
  220.5000   113.6063     9.4370     9.2267
  220.6000   113.4155     9.4302     9.2143
  220.7000   113.2248     9.4235     9.2019
  220.8000   113.0340     9.4168     9.1894
  220.9000   112.8432     9.4100     9.1770
  221.0000   112.6525     9.4033     9.1646
  221.1000   113.0837     9.3983     9.1522
  221.2000   113.5149     9.3934     9.1399
  221.3000   113.9461     9.3885     9.1276
  221.4000   114.3773     9.3835     9.1152
  221.5000   114.8085     9.3786     9.1029
  221.6000   115.2877     9.3736     9.0906
  221.7000   115.7669     9.3687     9.0784
  221.8000   116.2461     9.3638     9.0661
  221.9000   116.7253     9.3588     9.0539
  222.0000   117.2045     9.3539     9.0416
  222.1000   117.6811     9.3490     9.0294
  222.2000   118.1577     9.3441     9.0173
  222.3000   118.6342     9.3392     9.0051
  222.4000   119.1108     9.3343     8.9929
  222.5000   119.5874     9.3293     8.9807
  222.6000   119.5246     9.3244     8.9686
  222.7000   119.4618     9.3195     8.9566
  222.8000   119.3990     9.3146     8.9445
  222.9000   119.3362     9.3097     8.9324
  223.0000   119.2734     9.3048     8.9203
  223.1000   118.9612     9.3000     8.9083
  223.2000   118.6491     9.2951     8.8963
  223.3000   118.3369     9.2902     8.8843
  223.4000   118.0248     9.2853     8.8722
  223.5000   117.7126     9.2804     8.8602
  223.6000   117.4012     9.2718     8.8425
  223.7000   117.0897     9.2631     8.8249
  223.8000   116.7782     9.2545     8.8072
  223.9000   116.4668     9.2458     8.7895
  224.0000   116.1553     9.2372     8.7718
  224.1000   115.8420     9.2153     8.7506
  224.2000   115.5288     9.1934     8.7294
  224.3000   115.2155     9.1716     8.7082
  224.4000   114.9023     9.1497     8.6870
  224.5000   114.5891     9.1278     8.6658
  224.6000   114.5703     9.1062     8.6449
  224.7000   114.5516     9.0846     8.6239
  224.8000   114.5329     9.0630     8.6030
  224.9000   114.5141     9.0414     8.5820
  225.0000   114.4954     9.0197     8.5611
  225.1000   115.2227     8.9984     8.5484
  225.2000   115.9500     8.9770     8.5358
  225.3000   116.6772     8.9557     8.5231
  225.4000   117.4045     8.9343     8.5105
  225.5000   118.1318     8.9129     8.4978
  225.6000   118.6584     8.8918     8.4779
  225.7000   119.1850     8.8707     8.4580
  225.8000   119.7117     8.8496     8.4381
  225.9000   120.2383     8.8285     8.4181
  226.0000   120.7649     8.8074     8.3982
  226.1000   121.2478     8.7866     8.3785
  226.2000   121.7307     8.7657     8.3589
  226.3000   122.2136     8.7449     8.3392
  226.4000   122.6965     8.7240     8.3195
  226.5000   123.1794     8.7031     8.2998
  226.6000   123.6136     8.6825     8.2803
  226.7000   124.0478     8.6619     8.2609
  226.8000   124.4820     8.6413     8.2414
  226.9000   124.9162     8.6207     8.2220
  227.0000   125.3504     8.6001     8.2025
  227.1000   125.0406     8.5797     8.1833
  227.2000   124.7307     8.5594     8.1641
  227.3000   124.4209     8.5390     8.1448
  227.4000   124.1111     8.5186     8.1256
  227.5000   123.8013     8.4983     8.1064
  227.6000   123.4065     8.4782     8.0874
  227.7000   123.0117     8.4580     8.0684
  227.8000   122.6169     8.4379     8.0494
  227.9000   122.2221     8.4178     8.0304
  228.0000   121.8274     8.3977     8.0114
  228.1000   121.4612     8.3778     7.9881
  228.2000   121.0950     8.3579     7.9649
  228.3000   120.7288     8.3380     7.9416
  228.4000   120.3626     8.3181     7.9184
  228.5000   119.9964     8.2982     7.8952
  228.6000   120.1232     8.2100     7.9307
  228.7000   120.2499     8.1219     7.9663
  228.8000   120.3766     8.0337     8.0019
  228.9000   120.5033     7.9455     8.0375
  229.0000   120.6301     7.8573     8.0730
  229.1000   121.2361     7.7539     8.1307
