~VERSION INFORMATION
 VERS.                2.0:   CWLS LOG ASCII STANDARD - VERSION 2.0
 WRAP.                 NO:   ONE LINE PER DEPTH STEP
~WELL INFORMATION
#MNEM.UNIT      DATA TYPE    INFORMATION
#----------   ------------   ------------------------------
 STRT.F            8.0000:   START DEPTH
 STOP.F          473.0000:   STOP DEPTH
 STEP.F            0.5000:   STEP LENGTH
 NULL.          -999.2500:   NO VALUE
 COMP.   LAWRENCE-ALLISON:   COMPANY
 WELL. NPR 3 #58-55SX3OB1:   WELL
 FLD .             TEAPOT:   FIELD
 LOC .       S3 T38N R78W:   LOCATION
 CNTY.            NATRONA:   COUNTY
 STAT.            WYOMING:   STATE
 CTRY. UNITED STATES OF AMERICA:   COUNTRY
 SRVC.      Dresser Atlas:   SERVICE COMPANY
 DATE.        17-DEC-1984:   LOGDATE
 API .       490251100600:   API NUMBER
~CURVE INFORMATION
#MNEM.UNIT       API CODE    CURVE DESCRIPTION
#----------   ------------   ------------------------------
 DEPT.F                  :   
 AC  .US/F   60 520 00 00:   ACCOUSTIC
 PORD.DEC    45 890 12 00:   POROSITY DENSITY SANDSTONE
 CNC .DEC    42 890 03 00:   NEUTRON POROSITY SANDSTONE
 CALD.IN     45 280 60 00:   CALIPER FROM DENSITY
 GRD .GAPI   45 310 01 00:   GAMMA RAY FROM DENSITY LOG
 CORR.G/C3   45 356 01 00:   DENSITY CORRECTION
 DEN .G/C3   45 350 01 00:   COMPENSATED BULK DENSTIY
~PARAMETER INFORMATION
#MNEM.UNIT          VALUE    DESCRIPTION
#----------   ------------   ------------------------------
 PD  .                 GL:   PERMANENT DATUM
 EPD .F              5194:   ELEVATION PERMANENT DATUM
 LMF .                 GL:   LOG MEASURED FROM
 DMF .                 GL:   DRILLING MEASURED FROM
 EGL .F              5194:   GROUND LEVEL
 DATE.        17-DEC-1984:   RUN DATE
 RUN .                  1:   RUN NUMBER
 DD  .F               480:   DEPTH DRILLER
 DL  .F               475:   DEPTH LOGGER
 BLI .F               473:   BOTTOM LOG INTERVAL
 TLI .F                20:   TOP LOG INTERVAL
 CS  .IN            8.625:   CASING SIZE
 CBD .F                20:   CASING BOTTOM DRILLER
 CBL .F                20:   CASING BOTTOM LOGGER
 BS  .IN             6.25:   BIT SIZE
 BSD .F               480:   BIT SIZE AT DEPTH
 DFT .          KCL WATER:   DRILLING FLUID TYPE
 MSS .           FLOWLINE:   MUD SAMPLE SOURCE
 RMS .OHMM          0.134:   RESISTIVITY MUD SAMPLE
 MST .F                72:   MUD SAMPLE TEMPERATURE
 RMF .OHMM           0.10:   RESISTIVITY MUD FILTRATE SAMPLE
 MFST.F                72:   MUD FILTRATE SAMPLE TEMPERATURE
 RMC .OHMM           0.17:   RESISTIVITY MUD CAKE
 MCST.F                72:   MUD CAKE SAMPLE TEMPERATURE
 MFSS.               CALC:   MUD FILTRATE SAMPLE SOURCE
 MCSS.               CALC:   MUD CAKE SAMPLE SOURCE
 TCS .HRS               2:   TIME CURCULATED STOPPED
 MRT .F               100:   MAXIMUM RECORDED TEMPERATURE
 LUN .               6270:   LOGGING UNIT NUMBER
 ENGI.            LEBSOCK:   RECORDING ENGINEER
 WITN.          DAN LUERS:   WITNESSED BY
 CLNT.            A2DTECH:   CLIENT CODE
 ORIG.           5" PRINT:   ORIGIN OF DATA
 UWI .       490251100600:   UNIQUE WELL ID
 DICO. A2D Technologies, Inc.:   DIGITIZING COMPANY
~OTHER INFORMATION
~A    DEPT      AC       PORD        CNC       CALD        GRD       CORR        DEN   
# ...
   99.0000    99.2352     0.1296     0.2709     6.1838    91.9579     0.0137     2.4489
   99.5000    95.9295     0.1181     0.2692     6.1832    90.4534     0.0227     2.4744
  100.0000    93.2983     0.1022     0.2668     6.1826    88.1982     0.0181     2.5030
  100.5000    91.6432     0.0994     0.2593     6.1845    90.9272     0.0195     2.5120
  101.0000    92.0120     0.1061     0.2536     6.1863    94.0476     0.0240     2.4879
  101.5000    93.8051     0.1260     0.2500     6.1882    96.4471     0.0225     2.4698
  102.0000    97.4723     0.1336     0.2558     6.1900    95.8435     0.0134     2.4585
  102.5000   100.4648     0.1330     0.2766     6.1919    94.6393     0.0134     2.4553
  103.0000   101.5832     0.1312     0.2860     6.1937    94.6363     0.0194     2.4577
  103.5000   101.8771     0.1288     0.2899     6.1945    96.4352     0.0450     2.4606
  104.0000   102.0210     0.1279     0.2851     6.1940   100.0358     0.0630     2.4636
  104.5000   101.8651     0.1288     0.2785     6.1936   101.0846     0.0494     2.4606
  105.0000   101.5592     0.1307     0.2770     6.1931    97.9277     0.0419     2.4583
  105.5000   101.2534     0.1328     0.2767     6.1927    94.1710     0.0539     2.4575
  106.0000   101.2474     0.1412     0.2768     6.1922    92.2161     0.0554     2.4526
  106.5000   101.6911     0.1503     0.2754     6.1918    91.4624     0.0463     2.4322
  107.0000   102.4348     0.1521     0.2728     6.1912    93.4114     0.0116     2.4241
  107.5000   102.8786     0.1491     0.2720     6.1908    95.2102     0.0116     2.4273
  108.0000   103.0225     0.1425     0.2802     6.1903    95.0451     0.0253     2.4408
  108.5000   102.7166     0.1395     0.2832     6.1899    93.0706     0.0251     2.4468
  109.0000   102.4858     0.1404     0.2845     6.1895    92.1983     0.0205     2.4415
  109.5000   102.7046     0.1441     0.2854     6.1890    95.9635     0.0175     2.4377
  110.0000   103.2234     0.1465     0.2848     6.1886    99.3988     0.0069     2.4331
  110.5000   103.6672     0.1480     0.2812     6.1881    99.9972     0.0009     2.4331
  111.0000   103.7361     0.1472     0.2824     6.1877    93.5370     0.0069     2.4346
  111.5000   103.5802     0.1463     0.2906     6.2023    90.3809     0.0249     2.4361
  112.0000   103.3493     0.1457     0.2924     6.1869    89.4778     0.0414     2.4375
  112.5000   103.5682     0.1448     0.2840     6.2014    93.8284     0.0339     2.4390
  113.0000   103.7121     0.1439     0.2762     6.1859    96.2278     0.0263     2.4390
  113.5000   103.8561     0.1424     0.2741     6.1855    96.9764     0.0248     2.4412
  114.0000   103.7751     0.1385     0.2781     6.1850    95.4711     0.0248     2.4442
  114.5000   103.6192     0.1337     0.2802     6.1846    94.2670     0.0338     2.4562
  115.0000   103.4633     0.1280     0.2814     6.1841    93.9644     0.0413     2.4667
  115.5000   103.2324     0.1246     0.2890     6.1837    96.0628     0.0443     2.4720
  116.0000   103.5262     0.1253     0.2956     6.1832    96.8113     0.0472     2.4682
  116.5000   104.0450     0.1259     0.2954     6.1828    96.3572     0.0592     2.4674
  117.0000   104.5637     0.1269     0.2906     6.1823    97.5554     0.0713     2.4673
  117.5000   104.8576     0.1272     0.2948     6.1819    99.3542     0.0788     2.4666
  118.0000   104.8516     0.1272     0.3024     6.1814   100.1181     0.0742     2.4658
  118.5000   104.3958     0.1275     0.3063     6.1810    94.6396     0.0621     2.4650
  119.0000   103.4153     0.1284     0.3027     6.1806    91.2713     0.0486     2.4604
  119.5000   102.0600     0.1303     0.2982     6.1800    93.0030     0.0364     2.4580
  120.0000   101.4543     0.1324     0.2919     6.1945    99.0090     0.0212     2.4557
  120.5000   101.8980     0.1342     0.2880     6.1941    98.4084     0.0137     2.4496
  121.0000   102.8666     0.1364     0.2850     6.1936    97.5075     0.0140     2.4445
  121.5000   104.3598     0.1391     0.2890     6.1932   102.3123     0.0213     2.4415
  122.0000   105.0285     0.1427     0.2999     6.1928   107.2673     0.0243     2.4407
  122.5000   105.0975     0.1452     0.3089     6.1923   104.1141     0.0258     2.4369
  123.0000   104.9415     0.1470     0.3044     6.1919    99.4595     0.0242     2.4331
  123.5000   104.7106     0.1479     0.2969     6.2065    98.0714     0.0197     2.4323
  124.0000   104.5547     0.1455     0.2797     6.2059    99.9099     0.0151     2.4353
  124.5000   104.6237     0.1446     0.2864     6.2055   100.8258     0.0151     2.4383
  125.0000   104.6177     0.1440     0.2916     6.1901   102.3290     0.0136     2.4382
  125.5000   104.6117     0.1427     0.2940     6.1896   105.4655     0.0150     2.4420
  126.0000   104.5307     0.1368     0.2925     6.1892   105.6156     0.0195     2.4502
  126.5000   104.0750     0.1329     0.2901     6.1887   101.8619     0.0345     2.4562
  127.0000   103.6942     0.1318     0.2941     6.1883    98.4084     0.0421     2.4592
  127.5000   103.1634     0.1312     0.3019     6.1879    97.5075     0.0375     2.4584
  128.0000   102.7076     0.1297     0.2866     6.2024    97.8078     0.0360     2.4622
  128.5000   102.1020     0.1264     0.2791     6.2019    96.3063     0.0450     2.4689
  129.0000   101.9460     0.1219     0.2767     6.2165    93.4535     0.0495     2.4742
  129.5000   102.2399     0.1195     0.2830     6.2160    93.0030     0.0524     2.4771
  130.0000   102.8336     0.1189     0.2933     6.2305    95.7057     0.0539     2.4801
  130.5000   103.7271     0.1198     0.2957     6.1986   100.9610     0.0539     2.4786
  131.0000   104.5457     0.1198     0.2943     6.1847   102.1622     0.0554     2.4801
  131.5000   105.0645     0.1189     0.2889     6.1815   102.1622     0.0583     2.4838
  132.0000   105.2834     0.1174     0.2831     6.1689   103.2132     0.0583     2.4868
  132.5000   105.2774     0.1172     0.2829     6.2134   103.9640     0.0583     2.4830
  133.0000   105.1214     0.1210     0.2896     6.2279   103.5135     0.0477     2.4782
  133.5000   104.8156     0.1285     0.2911     6.2124   100.8108     0.0221     2.4661
  134.0000   103.9850     0.1311     0.2941     6.2119    98.4084     0.0160     2.4594
  134.5000   103.6042     0.1314     0.3011     6.2115    97.5075     0.0446     2.4618
  135.0000   103.6732     0.1288     0.3023     6.2110    98.8589     0.0581     2.4708
  135.5000   104.1919     0.1234     0.3014     6.2106   101.1111     0.0686     2.4745
  136.0000   104.5607     0.1206     0.3063     6.2101   103.2132     0.0626     2.4715
  136.5000   104.6297     0.1297     0.3093     6.2097   105.3153     0.0460     2.4549
  137.0000   104.3988     0.1360     0.3081     6.2092   107.2673     0.0324     2.4526
  137.5000   103.8681     0.1348     0.3063     6.2088   106.6333     0.0354     2.4578
  138.0000   103.5622     0.1324     0.3055     6.2084   102.7227     0.0354     2.4570
  138.5000   103.4813     0.1319     0.3031     6.1929   101.8619     0.0293     2.4525
  139.0000   103.6252     0.1337     0.3007     6.1925   102.6126     0.0263     2.4517
  139.5000   103.9190     0.1367     0.3010     6.1920   102.9129     0.0323     2.4509
  140.0000   103.9880     0.1379     0.3025     6.1916   101.4114     0.0413     2.4547
  140.5000   103.8321     0.1322     0.3056     6.1912    99.7598     0.0412     2.4614
  141.0000   103.8261     0.1286     0.3083     6.1757    98.1081     0.0337     2.4667
  141.5000   103.8201     0.1271     0.3098     6.1753    98.5586     0.0291     2.4644
  142.0000   104.1139     0.1287     0.3020     6.1898    99.9099     0.0231     2.4606
  142.5000   104.2579     0.1305     0.2947     6.2043   100.3604     0.0246     2.4598
  143.0000   104.4018     0.1296     0.2939     6.2039   100.6607     0.0354     2.4643
  143.5000   104.3958     0.1269     0.3012     6.2035   100.5105     0.0582     2.4688
  144.0000   104.7646     0.1254     0.3190     6.2030   100.3604     0.0651     2.4708
