~VERSION INFORMATION
 VERS.                2.0:   CWLS LOG ASCII STANDARD - VERSION 2.0
 WRAP.                 NO:   ONE LINE PER DEPTH STEP
~WELL INFORMATION
#MNEM.UNIT      DATA TYPE    INFORMATION
#----------   ------------   ------------------------------
 STRT.F           48.0000:   START DEPTH
 STOP.F          650.0000:   STOP DEPTH
 STEP.F            0.5000:   STEP LENGTH
 NULL.          -999.2500:   NO VALUE
 COMP. FENIX & SCISSON INC:   COMPANY
 WELL.    36 SX 34 #36-34:   WELL
 FLD .             TEAPOT:   FIELD
 LOC .      S34 T39N R78W:   LOCATION
 CNTY.            NATRONA:   COUNTY
 STAT.            WYOMING:   STATE
 CTRY. UNITED STATES OF AMERICA:   COUNTRY
 SRVC.            Unknown:   SERVICE COMPANY
 DATE.        19-JAN-1979:   LOGDATE
 API .       490251076800:   API NUMBER
~CURVE INFORMATION
#MNEM.UNIT       API CODE    CURVE DESCRIPTION
#----------   ------------   ------------------------------
 DEPT.F                  :   
 SPR .MV     05 010 01 00:   SPONTANEOUS POTENTIAL FROM RES.
 SN  .OHMM   05 040 16 00:   SHORT NORMAL 16"
 IL  .OHMM   05 120 00 00:   INDUCTION LOG
 CALD.IN     45 280 60 00:   CALIPER
 GRD .GAPI   45 310 01 00:   GAMMA RAY FROM DENSITY LOG
 RHOB.G/C3   45 350 01 00:   BULK DENSITY
 DPHI.DEC    45 890 12 00:   DENSITY POROSITY SANDSTONE
 CORR.G/C3   45 356 01 00:   DENSITY CORRECTION
~PARAMETER INFORMATION
#MNEM.UNIT          VALUE    DESCRIPTION
#----------   ------------   ------------------------------
 PD  .                 GL:   PERMANENT DATUM
 EPD .F              5125:   ELEVATION PERMANENT DATUM
 LMF .                 KB:   LOG MEASURED FROM
 DAPD.F                 4:   FEET ABOVE PERMANENT DATUM
 DMF .                 KB:   DRILLING MEASURED FROM
 EKB .F              5129:   KELLING BUSHING
 EGL .F              5125:   GROUND LEVEL
 DATE.            1-19-79:   RUN DATE
 RUN .                  1:   RUN NUMBER
 DD  .F               650:   DEPTH DRILLER
 DL  .F               650:   DEPTH LOGGER
 BLI .F               643:   BOTTOM LOG INTERVAL
 TLI .F                50:   TOP LOG INTERVAL
 CS  .IN            8.625:   CASING SIZE
 CBD .F                40:   CASING BOTTOM DRILLER
 CBL .F                36:   CASING BOTTOM LOGGER
 BS  .IN            7.875:   BIT SIZE
 BSD .F               650:   BIT SIZE AT DEPTH
 DFT .                KCL:   DRILLING FLUID TYPE
 DFD .                8.8:   DRILLING FLUID DENSITY
 DFV .                 34:   DRILLING FLUID VISCOSITY
 DFL .                8.8:   DRILLING FLUID LOSS
 MSS .           FLOWLINE:   MUD SAMPLE SOURCE
 RMS .OHMM            .17:   RESISTIVITY MUD SAMPLE
 MST .F                62:   MUD SAMPLE TEMPERATURE
 RMF .OHMM            .15:   RESISTIVITY MUD FILTRATE SAMPLE
 MFST.F                62:   MUD FILTRATE SAMPLE TEMPERATURE
 RMC .OHMM            .22:   RESISTIVITY MUD CAKE
 MCST.F                63:   MUD CAKE SAMPLE TEMPERATURE
 MFSS.           MEASURED:   MUD FILTRATE SAMPLE SOURCE
 MCSS.           MEASURED:   MUD CAKE SAMPLE SOURCE
 RMB .OHMM            .18:   RESISTIVITY MUD AT BHT
 BHT .F                60:   BOTTOM HOLE TEMPERATURE
 TCS .HRS               3:   TIME CURCULATED STOPPED
 MRT .F                60:   MAXIMUM RECORDED TEMPERATURE
 LUN .                 30:   LOGGING UNIT NUMBER
 LUL .             CASPER:   LOGGING UNIT LOCATION
 ENGI.         B. ROLLINS:   RECORDING ENGINEER
 WITN.           DINSMORE:   WITNESSED BY
 CLNT.            A2DTECH:   CLIENT CODE
 ORIG.           5" PRINT:   ORIGIN OF DATA
 UWI .       490251076800:   UNIQUE WELL ID
 DICO. A2D Technologies, Inc.:   DIGITIZING COMPANY
~OTHER INFORMATION
~A   DEPT      SPR           SN        IL      CALD        GRD       RHOB       DPHI       CORR   
# ...
  534.0000   -51.4340     9.6760    12.4940     8.1320    99.7830     2.4770     0.1110     0.0360
  534.5000   -51.4870     9.6970    12.3950     8.1720    98.1960     2.4670     0.1200     0.0320
  535.0000   -51.2250     9.7180    12.2950     8.2110    96.4470     2.4540     0.1300     0.0280
  535.5000   -51.0090     9.7390    12.1950     8.2030    96.2490     2.4490     0.1330     0.0300
  536.0000   -51.1760     9.7610    12.0950     8.1510    98.8600     2.4570     0.1270     0.0390
  536.5000   -51.3380     9.7820    11.9950     8.1090   101.5780     2.4680     0.1200     0.0460
  537.0000   -51.5000     9.8030    11.8950     8.1000   101.2310     2.4770     0.1140     0.0520
  537.5000   -51.3860     9.9160    11.8000     8.0900    98.8240     2.4840     0.1100     0.0570
  538.0000   -50.9390    10.0430    11.6910     8.0800    96.3910     2.4890     0.1090     0.0600
  538.5000   -50.4960    10.1690    11.6910     8.0700    94.1260     2.4870     0.1120     0.0540
  539.0000   -50.0520    10.2960    12.0680     8.0600    96.4510     2.4770     0.1150     0.0420
  539.5000   -49.6080    10.4220    12.5170     8.0490    99.3460     2.4680     0.1190     0.0320
  540.0000   -49.1610    10.5490    12.9650     8.0370   102.2710     2.4640     0.1210     0.0300
  540.5000   -48.7050    10.6760    13.4140     8.0260   104.2450     2.4570     0.1320     0.0280
  541.0000   -48.0270    10.8020    13.8620     8.0140    95.2020     2.4500     0.1300     0.0380
  541.5000   -46.6080    10.9290    14.3110     8.0030    83.9420     2.4530     0.1260     0.0500
  542.0000   -45.2180    11.0560    14.7600     7.9910    74.7210     2.4580     0.1260     0.0580
  542.5000   -44.1030    11.1820    15.5120     7.9790    72.4700     2.4280     0.1510     0.0600
  543.0000   -43.3490    11.3090    16.6520     7.9680    75.1780     2.3880     0.1740     0.0570
  543.5000   -42.5910    11.4360    17.7930     7.9560    77.0390     2.3490     0.1940     0.0550
  544.0000   -41.8330    11.5620    18.9330     7.9450    76.1870     2.3220     0.2050     0.0500
  544.5000   -41.0770    11.6890    20.0730     7.9330    75.0900     2.3080     0.2080     0.0420
  545.0000   -40.3210    11.8000    20.5630     7.9220    76.9400     2.3050     0.2080     0.0400
  545.5000   -39.5630    11.8000    20.7540     7.9230    78.0570     2.3090     0.2070     0.0430
  546.0000   -38.8270    11.8000    20.6200     7.9410    76.2120     2.3130     0.2070     0.0460
  546.5000   -38.5210    11.7660    20.4260     7.9600    75.9990     2.3100     0.2070     0.0540
  547.0000   -38.4700    11.7270    20.2320     7.9870    77.5960     2.3220     0.1990     0.0680
  547.5000   -38.5380    11.6880    20.0000     8.0560    77.3980     2.3370     0.1900     0.0820
  548.0000   -38.6200    11.6490    20.2290     8.1250    77.0660     2.3450     0.1850     0.0730
  548.5000   -38.7020    11.6110    20.5120     8.1950    79.1490     2.3360     0.1960     0.0600
  549.0000   -38.7850    11.5720    20.7540     8.2110    77.8930     2.3320     0.1960     0.0540
  549.5000   -38.8670    11.5330    20.5110     8.2010    75.4760     2.3490     0.1850     0.0530
  550.0000   -38.9490    11.4940    20.2980     8.1610    72.9630     2.3610     0.1810     0.0460
  550.5000   -39.0320    11.4550    20.0860     8.1220    72.6260     2.3580     0.1810     0.0390
  551.0000   -39.1140    11.4160    19.8730     8.0840    75.7890     2.3550     0.1810     0.0410
  551.5000   -39.1960    11.3770    19.6610     8.0450    78.8450     2.3530     0.1800     0.0440
  552.0000   -39.2790    11.3380    19.4480     8.0070    81.8710     2.3570     0.1820     0.0470
  552.5000   -39.3610    11.2990    19.2360     7.9680    83.9900     2.3540     0.1850     0.0500
  553.0000   -39.4450    11.2610    19.0230     7.9550    84.7130     2.3460     0.1890     0.0520
  553.5000   -39.4660    11.2220    18.8110     7.9730    83.6190     2.3390     0.1910     0.0540
  554.0000   -39.3110    11.1830    18.5980     7.9910    81.4770     2.3400     0.1900     0.0570
  554.5000   -39.1100    11.1440    18.3860     8.0090    82.0400     2.3400     0.1880     0.0560
  555.0000   -38.9080    11.1050    18.1730     8.0280    82.7000     2.3410     0.1890     0.0460
  555.5000   -38.7050    11.0660    17.9610     8.0460    83.6260     2.3420     0.1890     0.0360
  556.0000   -38.5030    11.0270    17.7480     8.0880    86.7310     2.3530     0.1820     0.0350
  556.5000   -38.4810    10.9880    17.5360     8.1480    89.6080     2.3710     0.1730     0.0380
  557.0000   -38.7930    10.9490    17.3230     8.2090    87.1630     2.3860     0.1640     0.0420
  557.5000   -39.4350    10.9110    17.1110     8.1820    84.2240     2.3800     0.1680     0.0410
  558.0000   -39.8070    10.8720    16.9300     8.1490    82.8330     2.3760     0.1710     0.0410
  558.5000   -39.5990    10.8330    17.1560     8.1160    80.6330     2.3740     0.1700     0.0490
  559.0000   -39.4070    10.7940    17.3520     8.0830    83.2970     2.3740     0.1690     0.0560
  559.5000   -39.3330    10.7550    17.5480     8.0540    84.4900     2.3790     0.1670     0.0630
  560.0000   -39.6200    10.7160    17.7320     8.0580    83.8650     2.3860     0.1660     0.0680
  560.5000   -39.8970    10.6770    17.1190     8.0760    83.4080     2.3900     0.1650     0.0650
  561.0000   -40.1480    10.6380    16.5400     8.0950    84.5110     2.3750     0.1730     0.0530
  561.5000   -40.3690    10.5990    15.7220     8.1130    84.6910     2.3600     0.1790     0.0400
  562.0000   -40.1440    10.5590    15.8110     8.0840    87.3280     2.3580     0.1780     0.0350
  562.5000   -39.6260    10.5260    15.9620     8.0490    88.1320     2.3620     0.1750     0.0330
  563.0000   -39.4330    10.4920    16.1130     8.0150    86.9420     2.3660     0.1730     0.0320
  563.5000   -40.0530    10.4580    16.2650     8.0070    85.4570     2.3710     0.1710     0.0310
  564.0000   -40.6460    10.4240    16.4160     8.0000    85.6980     2.3730     0.1710     0.0320
  564.5000   -41.2370    10.3890    16.6200     7.9930    86.3690     2.3700     0.1770     0.0350
  565.0000   -41.8410    10.3550    16.4820     7.9860    86.6620     2.3560     0.1840     0.0380
  565.5000   -41.6320    10.3210    16.2720     7.9790    86.2890     2.3400     0.1900     0.0410
  566.0000   -40.9980    10.2870    16.0620     7.9740    81.8090     2.3440     0.1880     0.0410
  566.5000   -40.5290    10.2520    15.8520     7.9750    80.0230     2.3510     0.1850     0.0370
  567.0000   -41.0640    10.2180    15.6420     7.9980    78.3820     2.3570     0.1810     0.0290
  567.5000   -41.5850    10.1840    15.4310     8.0240    75.8870     2.3620     0.1770     0.0220
  568.0000   -42.0450    10.1500    15.2210     8.0500    78.9870     2.3730     0.1700     0.0270
  568.5000   -42.1020    10.1150    15.0110     8.1130    82.6540     2.3830     0.1610     0.0360
  569.0000   -42.1500    10.0810    14.8010     8.1810    84.7820     2.3940     0.1550     0.0460
  569.5000   -42.1980    10.0470    14.6000     8.2490    85.3640     2.4030     0.1530     0.0510
  570.0000   -42.2650    10.0130    14.6000     8.3190    85.9660     2.4090     0.1490     0.0450
  570.5000   -42.7490     9.9780    14.6470     8.2220    87.3960     2.4170     0.1460     0.0390
  571.0000   -43.2440     9.9440    14.7650     8.2010    89.5130     2.4280     0.1400     0.0360
  571.5000   -43.7380     9.9100    14.8820     8.2120    88.0670     2.4380     0.1340     0.0340
  572.0000   -44.2320     9.8760    14.9990     8.2240    83.7540     2.4290     0.1380     0.0330
  572.5000   -44.7260     9.8410    15.1160     8.2290    81.0610     2.4170     0.1480     0.0320
  573.0000   -45.2190     9.8070    15.1510     8.2140    85.0510     2.4050     0.1580     0.0330
  573.5000   -45.7130     9.7730    14.9000     8.1980    88.6030     2.3930     0.1630     0.0340
  574.0000   -46.2070     9.7390    14.6180     8.1830    90.1980     2.3840     0.1650     0.0360
