~VERSION INFORMATION
 VERS.                2.0:   CWLS LOG ASCII STANDARD - VERSION 2.0
 WRAP.                 NO:   ONE LINE PER DEPTH STEP
~WELL INFORMATION
#MNEM.UNIT      DATA TYPE    INFORMATION
#----------   ------------   ------------------------------
 STRT.F         1160.0000:   START DEPTH
 STOP.F         2086.0000:   STOP DEPTH
 STEP.F            0.5000:   STEP LENGTH
 NULL.          -999.2500:   NO VALUE
 COMP. LAWRENCE/ALLISON INC:   COMPANY
 WELL.      17 STX #27-27:   WELL
 FLD .             TEAPOT:   FIELD
 LOC .      S27 T39N R78W:   LOCATION
 CNTY.            NATRONA:   COUNTY
 STAT.            WYOMING:   STATE
 CTRY. UNITED STATES OF AMERICA:   COUNTRY
 SRVC.            Unknown:   SERVICE COMPANY
 DATE.        09-JUN-1991:   LOGDATE
 API .       490251118200:   API NUMBER
~CURVE INFORMATION
#MNEM.UNIT       API CODE    CURVE DESCRIPTION
#----------   ------------   ------------------------------
 DEPT.F                  :   
 ROP .MIN/FT 91 810 01 00:   RAT OF DRILLING PENETRATION
 TGAS.UNITS  91 830 01 00:   TOTAL GAS UNIT
~PARAMETER INFORMATION
#MNEM.UNIT          VALUE    DESCRIPTION
#----------   ------------   ------------------------------
 EKB .F              5078:   KELLING BUSHING
 EGL .F              5068:   GROUND LEVEL
 DATE.         9-JUN-1991:   RUN DATE
 RUN .                  1:   RUN NUMBER
 BLI .F              2120:   BOTTOM LOG INTERVAL
 TLI .F              1160:   TOP LOG INTERVAL
 CLNT.            A2DTECH:   CLIENT CODE
 ORIG.           5" PRINT:   ORIGIN OF DATA
 UWI .       490251118200:   UNIQUE WELL ID
 DICO. A2D Technologies, Inc.:   DIGITIZING COMPANY
~OTHER INFORMATION
~A  DEPT         ROP      TGAS  
# ...
 1889.0000     0.5850    39.7105
 1889.5000     0.5383    39.6692
 1890.0000     0.4915    39.6438
 1890.5000     0.4446    39.6502
 1891.0000     0.4357    39.6548
 1891.5000     0.4362    39.6600
 1892.0000     0.4366    39.6657
 1892.5000     0.4371    41.7629
 1893.0000     0.4375    43.8601
 1893.5000     0.4379    45.9573
 1894.0000     0.4384    48.0545
 1894.5000     0.4577    50.1517
 1895.0000     0.4864    52.2490
 1895.5000     0.5245    53.3002
 1896.0000     0.5627    55.3975
 1896.5000     0.5914    56.4497
 1897.0000     0.6296    57.5009
 1897.5000     0.6677    58.5521
 1898.0000     0.6776    60.6493
 1898.5000     0.6497    60.6544
 1899.0000     0.6218    60.5305
 1899.5000     0.5939    60.3306
 1900.0000     0.5660    60.1307
 1900.5000     0.5288    59.9307
 1901.0000     0.5105    59.7308
 1901.5000     0.5015    59.5309
 1902.0000     0.4926    59.3309
 1902.5000     0.4932    59.1310
 1903.0000     0.4937    58.9311
 1903.5000     0.4942    58.7311
 1904.0000     0.4853    58.5312
 1904.5000     0.4575    58.3313
 1905.0000     0.4203    58.1313
 1905.5000     0.3831    57.9314
 1906.0000     0.3553    57.7315
 1906.5000     0.3464    57.5316
 1907.0000     0.3374    57.3316
 1907.5000     0.3388    57.1317
 1908.0000     0.3492    56.9318
 1908.5000     0.3991    56.7452
 1909.0000     0.4623    56.6872
 1909.5000     0.4816    56.6292
 1910.0000     0.4822    56.5712
 1910.5000     0.4731    56.5132
 1911.0000     0.4642    56.4552
 1911.5000     0.4648    56.3973
 1912.0000     0.4842    56.3393
 1912.5000     0.5130    56.2813
 1913.0000     0.5607    56.2233
 1913.5000     0.6556    56.1653
 1914.0000     0.7315    56.1073
 1914.5000     0.6943    56.0494
 1915.0000     0.6194    55.9914
 1915.5000     0.5444    55.9334
 1916.0000     0.5921    55.8754
 1916.5000     0.6586    55.8174
 1917.0000     0.6969    55.7594
 1917.5000     0.7068    55.7014
 1918.0000     0.7168    55.6435
 1918.5000     0.7173    55.5855
 1919.0000     0.7274    55.5275
 1919.5000     0.7279    55.4695
 1920.0000     0.7284    55.4115
 1920.5000     0.7289    55.3535
 1921.0000     0.7294    55.2956
 1921.5000     0.6733    55.2376
 1922.0000     0.6361    55.1796
 1922.5000     0.6366    55.1216
 1923.0000     0.6371    56.1617
 1923.5000     0.6376    56.1768
 1924.0000     0.6381    56.1925
 1924.5000     0.6387    56.2082
 1925.0000     0.6392    56.2238
 1925.5000     0.6397    56.2395
 1926.0000     0.6308    56.2552
 1926.5000     0.5935    56.2709
 1927.0000     0.5563    56.2866
 1927.5000     0.5380    56.3023
 1928.0000     0.5586    56.3180
 1928.5000     0.5973    56.3337
 1929.0000     0.6245    56.3494
 1929.5000     0.6345    56.3651
 1930.0000     0.6350    56.3808
 1930.5000     0.6449    56.3964
 1931.0000     0.6454    56.4121
 1931.5000     0.6460    56.4278
 1932.0000     0.6465    56.4435
 1932.5000     0.6470    56.4592
 1933.0000     0.6475    56.4749
 1933.5000     0.6480    56.4906
 1934.0000     0.6485    56.5063
 1934.5000     0.6773    56.5220
 1935.0000     0.7062    56.5377
 1935.5000     0.7444    56.5533
 1936.0000     0.7543    56.5690
 1936.5000     0.7171    56.5847
 1937.0000     0.6893    56.6004
 1937.5000     0.6804    56.6161
 1938.0000     0.6715    56.6330
 1938.5000     0.6703    49.3263
 1939.0000     0.6631    46.1998
 1939.5000     0.6542    45.1726
 1940.0000     0.6359    42.0505
 1940.5000     0.6080    41.0199
 1941.0000     0.5709    36.8512
 1941.5000     0.5526    33.7286
 1942.0000     0.5341    33.7510
 1942.5000     0.5347    33.9059
 1943.0000     0.5352    34.0609
 1943.5000     0.5357    34.2159
 1944.0000     0.5457    34.3709
 1944.5000     0.5745    34.5259
 1945.0000     0.6222    34.6809
 1945.5000     0.6604    34.8359
 1946.0000     0.6704    34.9909
 1946.5000     0.6709    35.1459
 1947.0000     0.6620    35.3008
 1947.5000     0.6531    35.4558
 1948.0000     0.6536    35.6108
 1948.5000     0.6541    35.7658
 1949.0000     0.6547    35.9208
 1949.5000     0.6647    36.0758
 1950.0000     0.6557    36.2308
 1950.5000     0.6563    36.3858
 1951.0000     0.6189    36.5407
 1951.5000     0.5535    36.6957
 1952.0000     0.5729    36.8507
 1952.5000     0.6017    37.0057
 1953.0000     0.6211    37.1607
 1953.5000     0.6216    37.3157
 1954.0000     0.6315    37.4707
 1954.5000     0.6321    37.6257
 1955.0000     0.6326    37.7806
 1955.5000     0.6331    37.9356
 1956.0000     0.6336    38.0906
 1956.5000     0.6341    38.2456
 1957.0000     0.6538    38.3996
 1957.5000     0.6733    38.4153
 1958.0000     0.7017    38.4310
 1958.5000     0.7117    38.4467
 1959.0000     0.7123    38.4623
 1959.5000     0.7128    38.4780
 1960.0000     0.7037    38.4937
 1960.5000     0.6666    38.5094
 1961.0000     0.6388    38.5251
 1961.5000     0.6016    38.5408
 1962.0000     0.5926    38.5565
 1962.5000     0.6309    38.5722
 1963.0000     0.6975    38.5879
 1963.5000     0.7263    38.6036
 1964.0000     0.7457    38.6192
 1964.5000     0.7462    38.6349
 1965.0000     0.7373    38.6506
 1965.5000     0.7420    38.6663
 1966.0000     0.7477    38.6820
 1966.5000     0.7388    38.6977
 1967.0000     0.7393    38.7134
 1967.5000     0.7304    38.7291
 1968.0000     0.7416    38.7448
 1968.5000     0.7881    38.7605
 1969.0000     0.8453    38.7761
 1969.5000     0.9024    38.7918
 1970.0000     0.9407    38.8051
 1970.5000     0.9316    38.7638
 1971.0000     0.9227    38.7281
 1971.5000     0.9138    38.6924
 1972.0000     0.9144    38.6567
 1972.5000     0.9055    38.6210
 1973.0000     0.8871    38.5853
 1973.5000     0.8688    38.5496
 1974.0000     0.8598    38.5139
 1974.5000     0.8508    38.4782
 1975.0000     0.8326    38.4425
 1975.5000     0.8236    38.4068
 1976.0000     0.8147    38.3711
 1976.5000     0.8152    38.3354
 1977.0000     0.8063    38.2997
 1977.5000     0.8068    38.2640
 1978.0000     0.8086    38.2283
 1978.5000     0.8362    38.1926
 1979.0000     0.8745    38.1568
 1979.5000     0.9128    38.1211
 1980.0000     0.9510    38.0784
 1980.5000     0.9515    38.1200
 1981.0000     0.9521    38.1718
 1981.5000     0.9620    38.2236
 1982.0000     0.9153    38.2754
 1982.5000     0.8781    38.3272
 1983.0000     0.8786    38.3790
 1983.5000     0.8791    38.4308
 1984.0000     0.8608    38.4826
 1984.5000     0.8424    38.5344
 1985.0000     0.8335    38.5862
 1985.5000     0.8246    38.6380
 1986.0000     0.8157    38.6898
 1986.5000     0.8162    38.7416
 1987.0000     0.8167    38.7934
 1987.5000     0.8267    38.8452
 1988.0000     0.8272    38.8970
 1988.5000     0.8277    38.9488
 1989.0000     0.8472    39.0006
 1989.5000     0.8571    39.0524
 1990.0000     0.9048    39.1042
 1990.5000     0.9336    39.1559
 1991.0000     0.9624    39.2077
 1991.5000     0.9724    39.2595
 1992.0000     0.9823    39.3113
 1992.5000     0.9828    39.3631
 1993.0000     0.9833    39.4149
 1993.5000     0.9744    39.4667
 1994.0000     0.9749    39.5185
 1994.5000     0.9755    39.5790
 1995.0000     0.9665    39.5134
 1995.5000     0.9670    39.4347
 1996.0000     0.9581    39.3560
 1996.5000     0.9492    39.2772
 1997.0000     0.9592    39.1985
 1997.5000     0.9691    39.1198
 1998.0000     0.9696    39.0411
 1998.5000     0.9796    38.9624
 1999.0000     0.9896    38.8836
 1999.5000     0.9996    38.8049
 2000.0000     1.0095    38.7262
 2000.5000     1.0003    38.7119
 2001.0000     0.9819    38.7188
 2001.5000     0.9446    38.7256
 2002.0000     0.8979    38.7324
 2002.5000     0.8417    38.7392
 2003.0000     0.7755    38.7461
 2003.5000     0.6890    38.7529
 2004.0000     0.6028    38.7597
 2004.5000     0.5321    38.7665
 2005.0000     0.4665    38.7734
 2005.5000     0.4386    38.7802
 2006.0000     0.4200    38.7870
 2006.5000     0.4111    38.7938
 2007.0000     0.4115    38.8007
 2007.5000     0.4213    39.8544
 2008.0000     0.4500    39.8605
 2008.5000     0.4693    39.8675
 2009.0000     0.4980    39.8745
 2009.5000     0.5173    39.8815
 2010.0000     0.5271    39.8884
