~VERSION INFORMATION
 VERS.                2.0:   CWLS LOG ASCII STANDARD - VERSION 2.0
 WRAP.                 NO:   ONE LINE PER DEPTH STEP
~WELL INFORMATION
#MNEM.UNIT      DATA TYPE    INFORMATION
#----------   ------------   ------------------------------
 STRT.F           30.5000:   START DEPTH
 STOP.F          674.0000:   STOP DEPTH
 STEP.F            0.5000:   STEP LENGTH
 NULL.          -999.2500:   NO VALUE
 COMP. FENIX & SCISSON INC:   COMPANY
 WELL. NPR 3 #37 SX 34-34:   WELL
 FLD .        TEAPOT DOME:   FIELD
 LOC .      S34 T39N R78W:   LOCATION
 CNTY.            NATRONA:   COUNTY
 STAT.            WYOMING:   STATE
 CTRY. UNITED STATES OF AMERICA:   COUNTRY
 SRVC.           BIRDWELL:   SERVICE COMPANY
 DATE.        21-JAN-1979:   LOGDATE
 API .       490251074400:   API NUMBER
~CURVE INFORMATION
#MNEM.UNIT       API CODE    CURVE DESCRIPTION
#----------   ------------   ------------------------------
 DEPT.F                  :   
 SPR .MV     05 010 01 00:   SPONTANEOUS POTENTIAL FROM RES.
 SN  .OHMM   05 040 16 00:   SHORT NORMAL 16"
 IL  .OHMM   05 120 00 00:   INDUCTION LOG
 CALD.IN     45 280 60 00:   CALIPER
 GRD .GAPI   45 310 01 00:   GAMMA RAY FROM DENSITY LOG
 RHOB.G/C3   45 350 01 00:   BULK DENSITY
 DPHI.DEC    45 890 12 00:   DENSITY POROSITY SANDSTONE
 CORR.G/C3   45 356 01 00:   DENSITY CORRECTION
~PARAMETER INFORMATION
#MNEM.UNIT          VALUE    DESCRIPTION
#----------   ------------   ------------------------------
 PD  .                 GL:   PERMANENT DATUM
 EPD .F              5175:   ELEVATION PERMANENT DATUM
 LMF .                 KB:   LOG MEASURED FROM
 DAPD.F                 4:   FEET ABOVE PERMANENT DATUM
 DMF .                 KB:   DRILLING MEASURED FROM
 EKB .F              5179:   KELLING BUSHING
 EGL .F              5175:   GROUND LEVEL
 DATE.            1-21-79:   RUN DATE
 RUN .                  1:   RUN NUMBER
 DD  .F               674:   DEPTH DRILLER
 DL  .F               673:   DEPTH LOGGER
 BLI .F               666:   BOTTOM LOG INTERVAL
 TLI .F                40:   TOP LOG INTERVAL
 CS  .IN            8.625:   CASING SIZE
 CBD .F                40:   CASING BOTTOM DRILLER
 CBL .F                30:   CASING BOTTOM LOGGER
 BS  .IN            7.875:   BIT SIZE
 BSD .F               674:   BIT SIZE AT DEPTH
 DFT .                KCL:   DRILLING FLUID TYPE
 DFD .                8.8:   DRILLING FLUID DENSITY
 DFV .                 60:   DRILLING FLUID VISCOSITY
 DFPH.                9.5:   DRILLING FLUID PH
 DFL .                  8:   DRILLING FLUID LOSS
 MSS .           FLOWLINE:   MUD SAMPLE SOURCE
 RMS .OHMM            .23:   RESISTIVITY MUD SAMPLE
 MST .F                56:   MUD SAMPLE TEMPERATURE
 MFSS.           MEASURED:   MUD FILTRATE SAMPLE SOURCE
 MCSS.           MEASURED:   MUD CAKE SAMPLE SOURCE
 RMB .OHMM            .22:   RESISTIVITY MUD AT BHT
 BHT .F                60:   BOTTOM HOLE TEMPERATURE
 TCS .HRS               4:   TIME CURCULATED STOPPED
 MRT .F                60:   MAXIMUM RECORDED TEMPERATURE
 LUN .               3006:   LOGGING UNIT NUMBER
 LUL .             CASPER:   LOGGING UNIT LOCATION
 ENGI.            ROLLINS:   RECORDING ENGINEER
 WITN.           DINSMORE:   WITNESSED BY
 CLNT.            A2DTECH:   CLIENT CODE
 ORIG.       2", 5" PRINT:   ORIGIN OF DATA
 UWI .       490251074400:   UNIQUE WELL ID
 DICO. A2D Technologies, Inc.:   DIGITIZING COMPANY
~OTHER INFORMATION
~A   DEPT      SPR         SN         IL       CALD        GRD       RHOB       DPHI       CORR   
# ...
  435.5000   -48.1960     6.4980     6.0090     8.1480   120.3720     2.4850     0.1150     0.0140
  436.0000   -48.1960     6.7380     6.3690     8.1490   118.4660     2.4850     0.1110     0.0130
  436.5000   -48.1960     6.7920     6.5240     8.1500   115.5970     2.4900     0.1090     0.0120
  437.0000   -48.1960     6.8490     6.6770     8.1510   112.7300     2.4970     0.1110     0.0100
  437.5000   -48.1960     6.9060     6.6960     8.1520   111.5900     2.4970     0.1120     0.0090
  438.0000   -48.1960     6.9630     6.7200     8.1520   115.3120     2.4970     0.1110     0.0070
  438.5000   -48.1960     6.9950     6.7430     8.1530   117.5120     2.4970     0.1100     0.0060
  439.0000   -48.1960     7.0010     6.7670     8.1540   115.2760     2.4970     0.1090     0.0040
  439.5000   -48.1960     7.0080     6.7900     8.1550   112.3260     2.4970     0.1110     0.0050
  440.0000   -48.1960     7.0140     6.8140     8.1560   109.6140     2.4960     0.1140     0.0070
  440.5000   -48.1960     7.0210     6.8380     8.1570   114.1680     2.4920     0.1140     0.0080
  441.0000   -48.1960     7.0270     6.8610     8.1580   120.4720     2.4880     0.1150     0.0100
  441.5000   -48.1960     7.0330     6.8740     8.1560   117.3830     2.4880     0.1150     0.0120
  442.0000   -48.1960     7.0400     6.8850     8.1530   114.6350     2.4880     0.1150     0.0130
  442.5000   -48.1960     7.0460     6.8960     8.1510   115.4790     2.4890     0.1090     0.0130
  443.0000   -48.1950     7.0530     6.9070     8.1480   114.1580     2.4940     0.1040     0.0110
  443.5000   -48.1960     7.0560     6.9190     8.1460   112.1310     2.5000     0.1040     0.0090
  444.0000   -48.2080     7.0560     6.9300     8.1430   111.6040     2.5050     0.1070     0.0070
  444.5000   -47.6650     7.0560     6.9410     8.1410   111.8080     2.5050     0.1120     0.0060
  445.0000   -47.0220     7.0560     6.9520     8.1380   113.9530     2.4970     0.1120     0.0040
  445.5000   -46.9950     7.0560     6.9630     8.1360   115.4900     2.4940     0.1110     0.0050
  446.0000   -46.7940     7.2640     6.9750     8.1330   114.8550     2.4940     0.1110     0.0060
  446.5000   -46.1490     7.4580     6.9860     8.1310   112.7450     2.4950     0.1110     0.0070
  447.0000   -45.3980     7.4080     6.9920     8.1290   111.6510     2.4950     0.1110     0.0110
  447.5000   -44.6160     7.2550     6.9070     8.1260   112.9450     2.4950     0.1120     0.0250
  448.0000   -44.1610     6.9940     6.6740     8.1240   115.0790     2.4930     0.1230     0.0340
  448.5000   -43.7750     6.7320     6.1330     8.1210   114.9720     2.4880     0.1420     0.0310
  449.0000   -43.7750     6.4710     5.5930     8.1170   114.4810     2.4660     0.1610     0.0150
  449.5000   -43.6240     6.2090     5.3800     8.1330   121.8190     2.4330     0.1730     0.0000
  450.0000   -43.1610     5.9220     5.3510     8.1220   126.8610     2.3990     0.1620     0.0020
  450.5000   -42.8470     5.8970     5.4330     8.0970   128.5600     2.3920     0.1440     0.0110
  451.0000   -41.8160     5.8680     5.5080     8.0570   127.7950     2.4200     0.1200     0.0200
  451.5000   -40.7790     5.9460     5.5830     8.0190   121.5460     2.4580     0.1010     0.0260
  452.0000   -39.7430     6.4370     5.6560     8.0290   115.0910     2.4980     0.1000     0.0290
  452.5000   -38.7070     7.1840     6.3010     8.0410   110.9430     2.5130     0.0990     0.0330
  453.0000   -37.6710     7.9310     7.0680     8.0530   108.7770     2.5170     0.1010     0.0300
  453.5000   -36.6360     8.7230     7.8350     8.0650   106.7820     2.5130     0.1030     0.0240
  454.0000   -35.6020     8.8030     8.3090     8.0770   104.8020     2.5090     0.1010     0.0180
  454.5000   -34.5640     8.8880     8.4580     8.0860   102.8130     2.5100     0.1000     0.0130
  455.0000   -33.4910     8.9730     8.5860     8.0950   102.1570     2.5130     0.1030     0.0120
  455.5000   -32.9170     9.0580     8.7140     8.0750   106.3850     2.5150     0.1120     0.0130
  456.0000   -32.5090     9.1350     9.0110     8.0430   112.9300     2.5060     0.1150     0.0130
  456.5000   -32.1620     9.6580     9.7050     8.0100   111.4650     2.4940     0.1130     0.0130
  457.0000   -32.1370    10.2320    10.3990     7.9970   110.0700     2.4880     0.1120     0.0140
  457.5000   -32.1150    10.8070    11.0860     7.9950   108.0660     2.4920     0.1100     0.0140
  458.0000   -32.0920    11.3810    12.3930     7.9940   102.3150     2.4960     0.1100     0.0130
  458.5000   -32.0680    11.9560    13.6880     7.9930    93.1370     2.4960     0.1220     0.0120
  459.0000   -32.0450    12.5300    14.9820     7.9920    83.4340     2.4870     0.1430     0.0110
  459.5000   -32.0210    13.1040    16.2770     7.9910    73.4140     2.4690     0.1780     0.0100
  460.0000   -31.9980    13.5790    17.5710     7.9900    70.7490     2.4140     0.2230     0.0080
  460.5000   -31.9750    13.6500    18.8660     7.9890    69.2040     2.3600     0.2640     0.0070
  461.0000   -31.9520    13.7230    19.0990     7.9880    65.8980     2.3070     0.2670     0.0060
  461.5000   -31.9280    13.7950    19.0990     7.9870    65.9530     2.2530     0.2650     0.0070
  462.0000   -31.9050    13.8680    19.0990     7.9860    69.5250     2.2290     0.2550     0.0090
  462.5000   -31.8820    13.9400    18.9800     7.9850    72.2430     2.2440     0.2400     0.0140
  463.0000   -31.8580    14.0130    18.7320     7.9840    73.3880     2.2680     0.2300     0.0190
  463.5000   -31.8350    14.0860    18.3930     7.9830    73.8530     2.2920     0.2290     0.0160
  464.0000   -31.8120    14.1580    18.0710     7.9820    72.0840     2.2970     0.2210     0.0120
  464.5000   -31.7880    14.2310    17.9900     7.9810    71.4420     2.2790     0.2100     0.0150
  465.0000   -31.7650    14.3030    17.9130     7.9800    74.2490     2.3160     0.1750     0.0180
  465.5000   -31.8050    14.3560    17.8360     7.9790    76.5310     2.3650     0.1660     0.0240
  466.0000   -31.8500    14.3710    17.7580     7.9780    77.8960     2.3840     0.1650     0.0300
  466.5000   -31.8950    14.3850    17.6810     7.9820    79.0120     2.3990     0.1690     0.0360
  467.0000   -31.9400    14.4000    17.5780     8.0000    77.0330     2.4010     0.1730     0.0390
  467.5000   -31.9690    14.4150    17.9720     8.0190    77.5580     2.3960     0.1780     0.0420
  468.0000   -31.9810    14.4290    18.4580     8.0370    78.6690     2.3860     0.1850     0.0440
  468.5000   -31.9940    14.4440    18.9450     8.0390    77.6650     2.3640     0.1950     0.0440
  469.0000   -32.0060    14.4580    19.4310     8.0410    73.5680     2.3540     0.1990     0.0380
  469.5000   -32.0180    14.4730    19.9180     8.0430    70.1990     2.3460     0.2140     0.0320
  470.0000   -32.0300    14.4830    20.1240     8.0440    68.4630     2.3260     0.2330     0.0290
  470.5000   -32.0420    14.4610    20.2740     8.0460    65.3760     2.2990     0.2530     0.0280
  471.0000   -32.0540    14.4430    20.4230     8.0480    62.9340     2.2730     0.2640     0.0270
  471.5000   -32.0660    14.4250    20.5720     8.0500    61.6060     2.2450     0.2450     0.0260
  472.0000   -32.0780    14.4070    20.7510     8.0520    61.7460     2.2380     0.2230     0.0280
  472.5000   -32.0900    14.3890    20.5660     8.0540    68.5100     2.2810     0.1940     0.0320
  473.0000   -32.1020    14.3710    20.3350     8.0560    73.8830     2.3250     0.1910     0.0320
  473.5000   -32.1140    14.3510    20.1040     8.0560    76.8540     2.3540     0.1910     0.0260
  474.0000   -32.1260    14.2420    19.8730     8.0510    77.8400     2.3580     0.2020     0.0210
  474.5000   -32.1380    14.1210    19.6350     8.0450    78.0980     2.3410     0.2100     0.0180
  475.0000   -32.1500    13.9990    19.6170     8.0400    77.8620     2.3260     0.1950     0.0150
  475.5000   -32.1620    13.8780    19.5990     8.0390    77.6260     2.3270     0.1950     0.0120
