~VERSION INFORMATION
 VERS.                2.0:   CWLS LOG ASCII STANDARD - VERSION 2.0
 WRAP.                 NO:   ONE LINE PER DEPTH STEP
~WELL INFORMATION
#MNEM.UNIT      DATA TYPE    INFORMATION
#----------   ------------   ------------------------------
 STRT.F           20.0000:   START DEPTH
 STOP.F          469.0000:   STOP DEPTH
 STEP.F            0.5000:   STEP LENGTH
 NULL.          -999.2500:   NO VALUE
 COMP. FENIX & SCISSON INC:   COMPANY
 WELL.       SX 3FO #26-3:   WELL
 FLD .             TEAPOT:   FIELD
 LOC .       S3 T38N R78W:   LOCATION
 CNTY.            NATRONA:   COUNTY
 STAT.            WYOMING:   STATE
 CTRY. UNITED STATES OF AMERICA:   COUNTRY
 SRVC.              Welex:   SERVICE COMPANY
 DATE.        02-JUL-1980:   LOGDATE
 API .       490251082500:   API NUMBER
~CURVE INFORMATION
#MNEM.UNIT       API CODE    CURVE DESCRIPTION
#----------   ------------   ------------------------------
 DEPT.F                  :   
 CALD.IN     45 280 60 00:   CALIPER
 GRD .GAPI   45 310 01 00:   GAMMA RAY FROM DENSITY LOG
 CORR.G/C3   45 356 01 00:   DENSITY CORRECTION
 RHOB.G/C3   45 350 01 00:   BULK DENSITY
 DPHI.DEC    45 890 12 00:   DENSITY POROSITY SANDSTONE
~PARAMETER INFORMATION
#MNEM.UNIT          VALUE    DESCRIPTION
#----------   ------------   ------------------------------
 PD  .                 GL:   PERMANENT DATUM
 EPD .F              5163:   ELEVATION PERMANENT DATUM
 LMF .                 KB:   LOG MEASURED FROM
 DAPD.F                 5:   FEET ABOVE PERMANENT DATUM
 DMF .                 KB:   DRILLING MEASURED FROM
 EKB .F              5168:   KELLING BUSHING
 EGL .F              5163:   GROUND LEVEL
 DATE.             7-2-80:   RUN DATE
 RUN .                  1:   RUN NUMBER
 DD  .F               470:   DEPTH DRILLER
 DL  .F               472:   DEPTH LOGGER
 BLI .F               470:   BOTTOM LOG INTERVAL
 TLI .F                20:   TOP LOG INTERVAL
 CS  .IN                7:   CASING SIZE
 CBD .F                43:   CASING BOTTOM DRILLER
 BS  .IN             6.25:   BIT SIZE
 BSD .F               470:   BIT SIZE AT DEPTH
 DFT .        AIR DRILLED:   DRILLING FLUID TYPE
 BHT .F                76:   BOTTOM HOLE TEMPERATURE
 TCS .HRS             1.5:   TIME CURCULATED STOPPED
 MRT .F                76:   MAXIMUM RECORDED TEMPERATURE
 ENGI.        REIN/GLASER:   RECORDING ENGINEER
 WITN.            RHOADES:   WITNESSED BY
 CLNT.            A2DTECH:   CLIENT CODE
 ORIG.           5" PRINT:   ORIGIN OF DATA
 UWI .       490251082500:   UNIQUE WELL ID
 DICO. A2D Technologies, Inc.:   DIGITIZING COMPANY
~OTHER INFORMATION
~A   DEPT     CALD         GRD      CORR       RHOB       DPHI   
# ...
  142.0000     6.2792   103.2403     0.0346     2.4735     0.1284
  142.5000     6.2782   101.7475     0.0283     2.4668     0.1320
  143.0000     6.2772   100.2829     0.0221     2.4601     0.1371
  143.5000     6.2763    98.3220     0.0158     2.4549     0.1386
  144.0000     6.2753    97.8261     0.0100     2.4566     0.1387
  144.5000     6.2744    98.4121     0.0087     2.4584     0.1374
  145.0000     6.2734    97.0867     0.0076     2.4601     0.1367
  145.5000     6.2725    94.6253     0.0064     2.4599     0.1371
  146.0000     6.2715    93.0086     0.0053     2.4564     0.1391
  146.5000     6.2706    91.5279     0.0041     2.4528     0.1408
  147.0000     6.2696    90.8857     0.0029     2.4493     0.1419
  147.5000     6.2687    92.0959     0.0018     2.4458     0.1436
  148.0000     6.2677    97.5701     0.0007     2.4432     0.1456
  148.5000     6.2668   100.2314     0.0055     2.4465     0.1439
  149.0000     6.2658    99.9901     0.0167     2.4498     0.1419
  149.5000     6.2649    99.8581     0.0189     2.4515     0.1433
  150.0000     6.2639   100.2191     0.0199     2.4487     0.1447
  150.5000     6.2629   100.2860     0.0227     2.4489     0.1432
  151.0000     6.2620   100.3387     0.0258     2.4500     0.1415
  151.5000     6.2610   100.3890     0.0248     2.4508     0.1414
  152.0000     6.2610    99.9817     0.0221     2.4487     0.1426
  152.5000     6.2610    99.2019     0.0163     2.4465     0.1437
  153.0000     6.2610    99.3116     0.0105     2.4479     0.1447
  153.5000     6.2610    99.4383     0.0080     2.4505     0.1435
  154.0000     6.2610    99.5618     0.0080     2.4508     0.1426
  154.5000     6.2610    99.8274     0.0080     2.4500     0.1425
  155.0000     6.2610   100.2239     0.0080     2.4492     0.1437
  155.5000     6.2610   101.2815     0.0079     2.4502     0.1438
  156.0000     6.2610   103.0201     0.0133     2.4532     0.1411
  156.5000     6.2610   102.4178     0.0223     2.4563     0.1385
  157.0000     6.2610   101.0958     0.0260     2.4593     0.1361
  157.5000     6.2610   100.8086     0.0285     2.4623     0.1347
  158.0000     6.2610   100.6170     0.0300     2.4633     0.1350
  158.5000     6.2610    99.9958     0.0261     2.4537     0.1384
  159.0000     6.2610    99.3803     0.0201     2.4445     0.1449
  159.5000     6.2610    99.1361     0.0141     2.4352     0.1503
  160.0000     6.2610    99.5127     0.0080     2.4301     0.1529
  160.5000     6.2610    99.7464     0.0065     2.4280     0.1554
  161.0000     6.2610    99.1123     0.0086     2.4262     0.1570
  161.5000     6.2610    98.8127     0.0107     2.4250     0.1573
  162.0000     6.2610    99.8802     0.0128     2.4257     0.1574
  162.5000     6.2610   100.8404     0.0149     2.4265     0.1566
  163.0000     6.2605   100.2202     0.0182     2.4279     0.1558
  163.5000     6.2598    98.8030     0.0229     2.4308     0.1539
  164.0000     6.2591    96.9168     0.0292     2.4341     0.1507
  164.5000     6.2585    94.2257     0.0381     2.4439     0.1436
  165.0000     6.2578    94.0230     0.0332     2.4534     0.1415
  165.5000     6.2572    95.2578     0.0276     2.4467     0.1439
  166.0000     6.2565    96.9436     0.0071     2.4380     0.1476
  166.5000     6.2558    97.8760     0.0047     2.4367     0.1511
  167.0000     6.2552    97.7754     0.0125     2.4411     0.1470
  167.5000     6.2545    98.3926     0.0094     2.4432     0.1463
  168.0000     6.2538    99.5828     0.0019     2.4331     0.1535
  168.5000     6.2532   101.6304    -0.0130     2.4195     0.1606
  169.0000     6.2525   103.6933    -0.0070     2.4151     0.1624
  169.5000     6.2519   105.6976    -0.0052     2.4200     0.1622
  170.0000     6.2512   105.8008    -0.0131     2.4144     0.1642
  170.5000     6.2505   103.8243    -0.0129     2.4145     0.1598
  171.0000     6.2499   103.4600    -0.0082     2.4244     0.1553
  171.5000     6.2492   104.8881    -0.0034     2.4345     0.1513
  172.0000     6.2486   105.7779     0.0014     2.4446     0.1472
  172.5000     6.2479   103.8422     0.0062     2.4530     0.1432
  173.0000     6.2472   101.5818     0.0137     2.4564     0.1392
  173.5000     6.2466    98.3241     0.0211     2.4633     0.1340
  174.0000     6.2459    95.5755     0.0284     2.4746     0.1282
  174.5000     6.2453    96.2408     0.0358     2.4858     0.1215
  175.0000     6.2446    96.8792     0.0375     2.4841     0.1199
  175.5000     6.2439    95.5335     0.0309     2.4734     0.1247
  176.0000     6.2433    94.0404     0.0244     2.4649     0.1314
  176.5000     6.2426    94.4944     0.0199     2.4651     0.1331
  177.0000     6.2420    95.5871     0.0200     2.4650     0.1330
  177.5000     6.2413    96.6198     0.0200     2.4650     0.1329
  178.0000     6.2410    96.4859     0.0203     2.4637     0.1327
  178.5000     6.2410    97.2079     0.0213     2.4610     0.1364
  179.0000     6.2410    98.4157     0.0222     2.4623     0.1352
  179.5000     6.2410    99.6309     0.0232     2.4642     0.1341
  180.0000     6.2410   101.1047     0.0241     2.4589     0.1377
  180.5000     6.2410   104.0670     0.0251     2.4525     0.1399
  181.0000     6.2410   103.6969     0.0260     2.4499     0.1405
  181.5000     6.2410   100.7142     0.0270     2.4496     0.1430
  182.0000     6.2410    98.7627     0.0280     2.4492     0.1427
  182.5000     6.2410    99.6442     0.0309     2.4467     0.1447
  183.0000     6.2410   100.6510     0.0339     2.4409     0.1483
  183.5000     6.2410   102.0499     0.0369     2.4400     0.1483
  184.0000     6.2410   104.9428     0.0389     2.4370     0.1494
  184.5000     6.2410   105.0621     0.0405     2.4298     0.1542
  185.0000     6.2410   101.3255     0.0421     2.4228     0.1590
  185.5000     6.2410    99.8400     0.0436     2.4157     0.1638
  186.0000     6.2410   100.5394     0.0452     2.4087     0.1682
  186.5000     6.2410   101.2614     0.0468     2.4016     0.1706
  187.0000     6.2410   100.2084     0.0477     2.3890     0.1768
  187.5000     6.2410    98.9956     0.0434     2.3768     0.1850
  188.0000     6.2410    99.7035     0.0392     2.3647     0.1923
  188.5000     6.2410    99.4539     0.0349     2.3522     0.1996
  189.0000     6.2410    98.5488     0.0338     2.3423     0.2060
  189.5000     6.2410    95.9295     0.0324     2.3331     0.2110
  190.0000     6.2410    91.8530     0.0310     2.3342     0.2125
  190.5000     6.2414    87.8993     0.0297     2.3414     0.2087
  191.0000     6.2428    86.1128     0.0284     2.3491     0.2026
  191.5000     6.2443    86.9864     0.0214     2.3567     0.1956
  192.0000     6.2457    91.0526     0.0127     2.3762     0.1866
  192.5000     6.2471    97.2796     0.0043     2.3991     0.1760
  193.0000     6.2485    99.4540     0.0039     2.4118     0.1654
  193.5000     6.2500    98.8146     0.0042     2.4197     0.1617
  194.0000     6.2514    97.6073     0.0047     2.4266     0.1573
  194.5000     6.2528    97.2602     0.0052     2.4381     0.1508
  195.0000     6.2542    98.8150     0.0057     2.4472     0.1443
  195.5000     6.2557   100.2389     0.0087     2.4476     0.1443
  196.0000     6.2571   104.8486     0.0153     2.4486     0.1443
  196.5000     6.2585   104.4256     0.0215     2.4579     0.1382
  197.0000     6.2599   103.8801     0.0373     2.4684     0.1291
  197.5000     6.2605   106.0534     0.0421     2.4689     0.1325
  198.0000     6.2587   108.1167     0.0344     2.4569     0.1377
  198.5000     6.2569   110.3178     0.0268     2.4472     0.1430
  199.0000     6.2552   112.3254     0.0295     2.4465     0.1453
  199.5000     6.2534   113.1234     0.0336     2.4486     0.1460
  200.0000     6.2517   112.2974     0.0291     2.4415     0.1483
  200.5000     6.2499   111.7160     0.0236     2.4321     0.1530
  201.0000     6.2482   112.9255     0.0234     2.4323     0.1534
  201.5000     6.2464   114.4975     0.0291     2.4333     0.1525
  202.0000     6.2447   116.0836     0.0348     2.4399     0.1503
  202.5000     6.2429   116.2571     0.0404     2.4503     0.1445
