~VERSION INFORMATION
 VERS.                2.0:   CWLS LOG ASCII STANDARD - VERSION 2.0
 WRAP.                 NO:   ONE LINE PER DEPTH STEP
~WELL INFORMATION
#MNEM.UNIT      DATA TYPE    INFORMATION
#----------   ------------   ------------------------------
 STRT.F         1782.5000:   START DEPTH
 STOP.F         2209.5000:   STOP DEPTH
 STEP.F            0.5000:   STEP LENGTH
 NULL.          -999.2500:   NO VALUE
 COMP. BROWN JOHN E&C INC:   COMPANY
 WELL. NPR 3 SHX-28 #66-28:   WELL
 FLD .             TEAPOT:   FIELD
 LOC .      S28 T39N R78W:   LOCATION
 CNTY.            NATRONA:   COUNTY
 STAT.            WYOMING:   STATE
 CTRY. UNITED STATES OF AMERICA:   COUNTRY
 SRVC.            Unknown:   SERVICE COMPANY
 DATE.        11-OCT-1991:   LOGDATE
 API .       490251105600:   API NUMBER
~CURVE INFORMATION
#MNEM.UNIT       API CODE    CURVE DESCRIPTION
#----------   ------------   ------------------------------
 DEPT.F                  :   
 ROP .MIN/FT 91 810 01 00:   RATE OF DRILLING PENETRATION
 TGAS.UNITS  91 830 01 00:   TOTAL GAS FROM HOTWIRE
~PARAMETER INFORMATION
#MNEM.UNIT          VALUE    DESCRIPTION
#----------   ------------   ------------------------------
 EKB .F              5068:   KELLING BUSHING
 EGL .F              5058:   GROUND LEVEL
 DATE.           10-11-91:   RUN DATE
 DD  .F              2210:   DEPTH DRILLER
 BLI .F              2210:   BOTTOM LOG INTERVAL
 TLI .F              1780:   TOP LOG INTERVAL
 CS  .IN            8.625:   CASING SIZE
 CBD .F               480:   CASING BOTTOM DRILLER
 ENGI.               HUSK:   RECORDING ENGINEER
 WITN.              TOWER:   WITNESSED BY
 CLNT.            A2DTECH:   CLIENT CODE
 ORIG.           5" PRINT:   ORIGIN OF DATA
 UWI .       490251105600:   UNIQUE WELL ID
 DICO. A2D Technologies, Inc.:   DIGITIZING COMPANY
~OTHER INFORMATION
~A  DEPT         ROP      TGAS  
# ...
 2025.5000     0.6027    11.6045
 2026.0000     0.6129    11.6846
 2026.5000     0.5289    11.7647
 2027.0000     0.5341    11.8449
 2027.5000     0.5127    11.9250
 2028.0000     0.4384    12.0052
 2028.5000     0.4086    12.0853
 2029.0000     0.4086    12.1655
 2029.5000     0.4194    12.2456
 2030.0000     0.4412    12.3257
 2030.5000     0.4839    12.4059
 2031.0000     0.5404    12.4860
 2031.5000     0.5973    12.5662
 2032.0000     0.6459    12.6463
 2032.5000     0.6989    12.7264
 2033.0000     0.7419    12.8066
 2033.5000     0.7613    12.8867
 2034.0000     0.7722    12.9669
 2034.5000     0.7281    13.0470
 2035.0000     0.6855    13.1272
 2035.5000     0.6376    13.2073
 2036.0000     0.5891    13.2874
 2036.5000     0.5849    13.3676
 2037.0000     0.5807    13.4477
 2037.5000     0.5665    13.5279
 2038.0000     0.5462    13.6080
 2038.5000     0.5220    13.6881
 2039.0000     0.5055    13.7683
 2039.5000     0.4729    13.8484
 2040.0000     0.4731    13.9286
 2040.5000     0.4734    13.8302
 2041.0000     0.4743    13.7319
 2041.5000     0.4847    13.6335
 2042.0000     0.4996    13.5351
 2042.5000     0.5300    13.4368
 2043.0000     0.5993    13.3384
 2043.5000     0.6687    13.2401
 2044.0000     0.7472    13.1417
 2044.5000     0.7766    13.0433
 2045.0000     0.7360    12.9450
 2045.5000     0.6804    12.8466
 2046.0000     0.6306    12.7483
 2046.5000     0.6182    12.6499
 2047.0000     0.6209    12.5515
 2047.5000     0.6237    12.4532
 2048.0000     0.6264    12.3548
 2048.5000     0.6167    12.2564
 2049.0000     0.5628    12.1581
 2049.5000     0.5089    12.0597
 2050.0000     0.4463    11.9614
 2050.5000     0.4711    11.8630
 2051.0000     0.5006    11.7646
 2051.5000     0.5249    11.6663
 2052.0000     0.5349    11.5679
 2052.5000     0.5449    11.4696
 2053.0000     0.5548    11.3712
 2053.5000     0.5648    11.2728
 2054.0000     0.5748    11.1745
 2054.5000     0.5785    11.0761
 2055.0000     0.5800    10.9838
 2055.5000     0.5814    11.1908
 2056.0000     0.5828    11.3860
 2056.5000     0.5842    11.5811
 2057.0000     0.5857    11.7763
 2057.5000     0.5871    11.9714
 2058.0000     0.5885    12.1666
 2058.5000     0.5899    12.3617
 2059.0000     0.5914    12.5569
 2059.5000     0.5928    12.7520
 2060.0000     0.5942    15.5357
 2060.5000     0.5956    18.2037
 2061.0000     0.5971    18.2042
 2061.5000     0.5985    18.2047
 2062.0000     0.5999    18.2053
 2062.5000     0.5894    18.2058
 2063.0000     0.5525    18.2063
 2063.5000     0.5156    18.2068
 2064.0000     0.4817    18.2073
 2064.5000     0.6563    18.2078
 2065.0000     0.8178    18.2083
 2065.5000     0.9793    18.2088
 2066.0000     1.1473    18.2093
 2066.5000     1.0395    18.2099
 2067.0000     0.9272    18.2104
 2067.5000     0.8024    18.2109
 2068.0000     0.8436    18.2114
 2068.5000     0.8901    18.2119
 2069.0000     0.9365    18.2124
 2069.5000     0.9829    18.2129
 2070.0000     0.9877    18.2134
 2070.5000     0.8870    18.2139
 2071.0000     0.7863    18.1948
 2071.5000     0.6856    18.1369
 2072.0000     0.5849    18.0790
 2072.5000     0.5442    18.0210
 2073.0000     0.5034    17.9631
 2073.5000     0.4626    17.9052
 2074.0000     0.4154    17.8473
 2074.5000     0.3518    17.7894
 2075.0000     0.3253    17.7315
 2075.5000     0.3340    17.6735
 2076.0000     0.3656    17.6156
 2076.5000     0.4005    17.5577
 2077.0000     0.4322    17.4998
 2077.5000     0.4393    17.4419
 2078.0000     0.4351    17.3839
 2078.5000     0.4236    17.3260
 2079.0000     0.4120    17.2681
 2079.5000     0.4005    17.2102
 2080.0000     0.3871    17.1429
 2080.5000     0.3884    16.9876
 2081.0000     0.3901    16.8022
 2081.5000     0.3918    16.6168
 2082.0000     0.3934    16.4313
 2082.5000     0.3951    16.2459
 2083.0000     0.3967    16.0605
 2083.5000     0.3984    15.8751
 2084.0000     0.4001    15.6897
 2084.5000     0.4017    15.5043
 2085.0000     0.4034    15.3188
 2085.5000     0.4050    15.2395
 2086.0000     0.4369    15.1937
 2086.5000     0.4825    15.1479
 2087.0000     0.5281    15.1021
 2087.5000     0.5737    15.0563
 2088.0000     0.6194    15.0105
 2088.5000     0.5755    14.9647
 2089.0000     0.5317    14.9189
 2089.5000     0.4879    14.8731
 2090.0000     0.4441    14.8273
 2090.5000     0.4245    14.7814
 2091.0000     0.4242    14.7356
 2091.5000     0.4239    14.6898
 2092.0000     0.4237    14.6440
 2092.5000     0.4234    14.5982
 2093.0000     0.4231    14.5524
 2093.5000     0.4228    14.5066
 2094.0000     0.4353    14.4608
 2094.5000     0.4760    14.4150
 2095.0000     0.5032    14.3692
 2095.5000     0.5252    14.3234
 2096.0000     0.5398    14.2776
 2096.5000     0.5379    14.2318
 2097.0000     0.4859    14.1860
 2097.5000     0.4401    14.1402
 2098.0000     0.3989    14.0944
 2098.5000     0.4064    14.0486
 2099.0000     0.4143    14.0028
 2099.5000     0.4221    13.9570
 2100.0000     0.4300    13.9223
 2100.5000     0.4378    13.9229
 2101.0000     0.4457    13.9235
 2101.5000     0.4510    13.9241
 2102.0000     0.4515    13.9246
 2102.5000     0.4891    13.9252
 2103.0000     0.5294    13.9258
 2103.5000     0.5593    13.9264
 2104.0000     0.5605    13.9270
 2104.5000     0.5617    13.9276
 2105.0000     0.5629    13.9282
 2105.5000     0.5641    13.9288
 2106.0000     0.5653    13.9293
 2106.5000     0.5665    13.9299
 2107.0000     0.5677    13.9305
 2107.5000     0.5689    13.9311
 2108.0000     0.5661    13.9317
 2108.5000     0.5367    13.9323
 2109.0000     0.5073    13.9329
 2109.5000     0.4779    13.9335
 2110.0000     0.4485    13.9341
 2110.5000     0.4443    13.9346
 2111.0000     0.4820    13.9352
 2111.5000     0.5197    13.9358
 2112.0000     0.5574    13.9364
 2112.5000     0.5709    13.9370
 2113.0000     0.5725    13.9376
 2113.5000     0.5741    13.9382
 2114.0000     0.5757    13.9388
 2114.5000     0.5772    13.9393
 2115.0000     0.5788    13.9399
 2115.5000     0.5806    13.9405
 2116.0000     0.6667    13.9411
 2116.5000     0.6653    13.9417
 2117.0000     0.6639    13.9423
 2117.5000     0.6625    13.9429
 2118.0000     0.6611    13.9435
 2118.5000     0.6598    13.9441
 2119.0000     0.6584    13.9446
 2119.5000     0.6570    13.9452
 2120.0000     0.6486    13.9459
 2120.5000     0.6122    13.9457
 2121.0000     0.5758    13.9455
 2121.5000     0.5394    13.9453
 2122.0000     0.5030    13.9451
 2122.5000     0.5582    13.9449
 2123.0000     0.6407    13.9446
 2123.5000     0.7232    13.9444
 2124.0000     0.8057    13.9442
 2124.5000     0.8715    13.9440
 2125.0000     0.8817    13.9438
 2125.5000     0.8817    13.9436
 2126.0000     0.8817    13.9433
 2126.5000     0.8817    13.9431
 2127.0000     0.8817    13.9429
 2127.5000     0.8817    13.9427
 2128.0000     0.8380    13.9425
 2128.5000     0.7490    13.9422
 2129.0000     0.6890    13.9420
 2129.5000     0.6915    13.9418
 2130.0000     0.6940    13.9416
 2130.5000     0.6965    13.9414
 2131.0000     0.6989    13.9412
 2131.5000     0.6144    13.9409
 2132.0000     0.5336    13.9407
 2132.5000     0.4516    13.9405
 2133.0000     0.4550    13.9403
 2133.5000     0.4584    13.9401
 2134.0000     0.4624    13.9398
 2134.5000     0.5098    13.9396
 2135.0000     0.5661    13.9394
 2135.5000     0.6224    13.9392
 2136.0000     0.6788    13.9390
 2136.5000     0.7351    13.9388
 2137.0000     0.7273    13.9385
 2137.5000     0.6903    13.9383
 2138.0000     0.6534    13.9381
 2138.5000     0.6164    13.9379
 2139.0000     0.5795    13.9377
 2139.5000     0.5425    13.9374
 2140.0000     0.5055    13.9372
 2140.5000     0.4686    13.9821
 2141.0000     0.4316    14.0357
 2141.5000     0.3947    14.0893
 2142.0000     0.3666    14.1428
 2142.5000     0.3711    14.1964
 2143.0000     0.3757    14.2500
 2143.5000     0.3802    14.3036
 2144.0000     0.3848    14.3571
 2144.5000     0.3893    14.4107
 2145.0000     0.3939    14.4643
 2145.5000     0.4040    14.5179
 2146.0000     0.4538    14.5714
 2146.5000     0.5035    14.6250
