~VERSION INFORMATION
 VERS.                2.0:   CWLS LOG ASCII STANDARD - VERSION 2.0
 WRAP.                 NO:   ONE LINE PER DEPTH STEP
~WELL INFORMATION
#MNEM.UNIT      DATA TYPE    INFORMATION
#----------   ------------   ------------------------------
 STRT.F          298.0000:   START DEPTH
 STOP.F         1126.0000:   STOP DEPTH
 STEP.F            0.5000:   STEP LENGTH
 NULL.          -999.2500:   NO VALUE
 COMP. BROWN JOHN E&C INC:   COMPANY
 WELL.   52 SHX 15 #52-15:   WELL
 FLD .             TEAPOT:   FIELD
 LOC .      S15 T38N R78W:   LOCATION
 CNTY.            NATRONA:   COUNTY
 STAT.            WYOMING:   STATE
 CTRY. UNITED STATES OF AMERICA:   COUNTRY
 SRVC.              Welex:   SERVICE COMPANY
 DATE.        09-AUG-1979:   LOGDATE
 API .       490251078900:   API NUMBER
~CURVE INFORMATION
#MNEM.UNIT       API CODE    CURVE DESCRIPTION
#----------   ------------   ------------------------------
 DEPT.F                  :   
 CALD.IN     45 280 60 00:   CALIPER
 GRD .GAPI   45 310 01 00:   GAMMA RAY FROM DENSITY LOG
 RHOB.G/C3   45 350 01 00:   BULK DENSITY
 CORR.G/C3   45 356 01 00:   DENSITY CORRECTION
 DPHI.DEC    45 890 12 00:   DENSITY POROSITY SANDSTONE
~PARAMETER INFORMATION
#MNEM.UNIT          VALUE    DESCRIPTION
#----------   ------------   ------------------------------
 PD  .                 GL:   PERMANENT DATUM
 EPD .F              5222:   ELEVATION PERMANENT DATUM
 LMF .                 KB:   LOG MEASURED FROM
 DAPD.F                10:   FEET ABOVE PERMANENT DATUM
 DMF .                 KB:   DRILLING MEASURED FROM
 EKB .F              5232:   KELLING BUSHING
 EGL .F              5222:   GROUND LEVEL
 DATE.             8-9-79:   RUN DATE
 RUN .                  1:   RUN NUMBER
 DD  .F              1130:   DEPTH DRILLER
 DL  .F              1128:   DEPTH LOGGER
 BLI .F              1126:   BOTTOM LOG INTERVAL
 TLI .F               300:   TOP LOG INTERVAL
 CS  .IN            9.625:   CASING SIZE
 CBD .F               676:   CASING BOTTOM DRILLER
 BS  .IN             8.75:   BIT SIZE
 BSD .F              1130:   BIT SIZE AT DEPTH
 DFT .                OIL:   DRILLING FLUID TYPE
 DFD .                9.1:   DRILLING FLUID DENSITY
 TCS .HRS             2.5:   TIME CURCULATED STOPPED
 MRT .F               102:   MAXIMUM RECORDED TEMPERATURE
 ENGI.               REIN:   RECORDING ENGINEER
 WITN.           DINSMORE:   WITNESSED BY
 CLNT.            A2DTECH:   CLIENT CODE
 ORIG.         2.5" PRINT:   ORIGIN OF DATA
 UWI .       490251078900:   UNIQUE WELL ID
 DICO. A2D Technologies, Inc.:   DIGITIZING COMPANY
~OTHER INFORMATION
~A   DEPT     CALD         GRD      RHOB       CORR       DPHI   
# ...
 1030.0000     9.6218    99.2788     2.5451     0.0476     0.0029
 1030.5000     9.6230    99.7155     2.5508     0.0481    -0.0051
 1031.0000     9.6242   100.1041     2.5562     0.0486    -0.0130
 1031.5000     9.6254   101.6071     2.5624     0.0486    -0.0170
 1032.0000     9.6267   103.8374     2.5624     0.0487    -0.0131
 1032.5000     9.6279   102.6312     2.5552     0.0487    -0.0083
 1033.0000     9.6291   102.0815     2.5478     0.0488    -0.0035
 1033.5000     9.6303   104.1036     2.5403     0.0488     0.0013
 1034.0000     9.6315   106.0240     2.5326     0.0489     0.0057
 1034.5000     9.6328   107.9905     2.5304     0.0489     0.0079
 1035.0000     9.6340   109.7156     2.5306     0.0490     0.0089
 1035.5000     9.6352   109.6724     2.5346     0.0490     0.0081
 1036.0000     9.6364   109.5673     2.5385     0.0491     0.0068
 1036.5000     9.6376   107.0338     2.5388     0.0492     0.0054
 1037.0000     9.6389   104.8411     2.5326     0.0492     0.0072
 1037.5000     9.6401   102.5095     2.5261     0.0493     0.0113
 1038.0000     9.6413   100.2437     2.5257     0.0493     0.0143
 1038.5000     9.6425    97.8980     2.5300     0.0494     0.0127
 1039.0000     9.6437    97.1909     2.5236     0.0494     0.0138
 1039.5000     9.6450    97.5295     2.5098     0.0495     0.0209
 1040.0000     9.6462    97.8353     2.5078     0.0495     0.0248
 1040.5000     9.6474    97.6224     2.5161     0.0496     0.0209
 1041.0000     9.6491    96.9208     2.5236     0.0496     0.0170
 1041.5000     9.6449    96.2509     2.5306     0.0497     0.0131
 1042.0000     9.6350    95.5891     2.5312     0.0498     0.0089
 1042.5000     9.6257    94.9077     2.5265     0.0498     0.0128
 1043.0000     9.6164    94.2427     2.5226     0.0498     0.0169
 1043.5000     9.6070    93.5794     2.5211     0.0499     0.0186
 1044.0000     9.5977    92.8642     2.5320     0.0500     0.0088
 1044.5000     9.5879    92.8288     2.5415     0.0500    -0.0008
 1045.0000     9.5796    93.2458     2.5470     0.0501    -0.0016
 1045.5000     9.5698    93.6283     2.5425     0.0501    -0.0007
 1046.0000     9.5951    94.0031     2.5389     0.0502     0.0028
 1046.5000     9.6260    94.1444     2.5350     0.0502     0.0064
 1047.0000     9.6577    93.6958     2.5369     0.0503     0.0081
 1047.5000     9.6889    93.2255     2.5384     0.0503     0.0070
 1048.0000     9.7200    93.2243     2.5320     0.0504     0.0066
 1048.5000     9.7512    93.6899     2.5251     0.0505     0.0139
 1049.0000     9.7834    93.9910     2.5180     0.0505     0.0239
 1049.5000     9.8125    94.1372     2.5106     0.0505     0.0300
 1050.0000     9.8480    94.8939     2.5094     0.0506     0.0300
 1050.5000     9.8241    96.1187     2.5129     0.0507     0.0262
 1051.0000     9.7915    97.4027     2.5162     0.0507     0.0214
 1051.5000     9.7571    97.4871     2.5234     0.0508     0.0167
 1052.0000     9.7240    96.1991     2.5318     0.0508     0.0120
 1052.5000     9.6906    95.1036     2.5405     0.0509     0.0073
 1053.0000     9.6570    93.9672     2.5407     0.0509     0.0024
 1053.5000     9.6236    94.5330     2.5378     0.0510     0.0045
 1054.0000     9.5901    95.2551     2.5269     0.0510     0.0081
 1054.5000     9.5567    96.0650     2.5217     0.0511     0.0121
 1055.0000     9.5231    96.8457     2.5291     0.0512     0.0138
 1055.5000     9.4899    97.6127     2.5398     0.0512     0.0042
 1056.0000     9.4566    98.3209     2.5463     0.0513    -0.0005
 1056.5000     9.4215    98.3211     2.5432     0.0513     0.0012
 1057.0000     9.4081    98.3034     2.5320     0.0514     0.0070
 1057.5000     9.4148    97.6550     2.5237     0.0514     0.0128
 1058.0000     9.4196    97.0976     2.5206     0.0515     0.0180
 1058.5000     9.4243    96.5024     2.5210     0.0515     0.0159
 1059.0000     9.4296    95.9005     2.5265     0.0516     0.0136
 1059.5000     9.4343    95.3471     2.5237     0.0516     0.0159
 1060.0000     9.4393    94.7267     2.5218     0.0517     0.0183
 1060.5000     9.4448    95.0262     2.5197     0.0517     0.0206
 1061.0000     9.4459    95.3913     2.5140     0.0518     0.0260
 1061.5000     9.4390    95.8099     2.5088     0.0518     0.0322
 1062.0000     9.4326    95.7659     2.5038     0.0519     0.0381
 1062.5000     9.4262    95.3704     2.4985     0.0520     0.0373
 1063.0000     9.4196    94.9939     2.5030     0.0520     0.0334
 1063.5000     9.4133    94.6272     2.5083     0.0521     0.0291
 1064.0000     9.4072    94.2533     2.5140     0.0521     0.0249
 1064.5000     9.4101    94.5368     2.5194     0.0522     0.0206
 1065.0000     9.4150    95.0011     2.5250     0.0522     0.0164
 1065.5000     9.4199    95.4457     2.5303     0.0523     0.0121
 1066.0000     9.4245    95.8797     2.5363     0.0523     0.0078
 1066.5000     9.4292    96.3168     2.5346     0.0524     0.0041
 1067.0000     9.4339    96.7603     2.5307     0.0524     0.0083
 1067.5000     9.4388    97.2083     2.5289     0.0525     0.0114
 1068.0000     9.4434    97.4082     2.5347     0.0525     0.0085
 1068.5000     9.4475    96.9943     2.5396     0.0526     0.0033
 1069.0000     9.4480    96.5767     2.5450     0.0527    -0.0016
 1069.5000     9.4474    96.1431     2.5498     0.0527    -0.0032
 1070.0000     9.4464    95.9046     2.5526     0.0527    -0.0020
 1070.5000     9.4191    96.6786     2.5526     0.0528     0.0004
 1071.0000     9.3898    97.4663     2.5494     0.0528     0.0024
 1071.5000     9.3602    98.3193     2.5458     0.0529    -0.0005
 1072.0000     9.3309    98.9287     2.5421     0.0529    -0.0019
 1072.5000     9.2992    99.2252     2.5385     0.0530     0.0005
 1073.0000     9.2927    99.6022     2.5343     0.0530     0.0032
 1073.5000     9.3122   100.0013     2.5254     0.0531     0.0101
 1074.0000     9.3291   101.0856     2.5147     0.0531     0.0178
 1074.5000     9.3463   102.4216     2.5076     0.0531     0.0255
 1075.0000     9.3636   101.4612     2.5035     0.0532     0.0332
 1075.5000     9.3806    99.6393     2.5062     0.0532     0.0300
 1076.0000     9.3995    98.3459     2.5144     0.0533     0.0248
 1076.5000     9.4015    98.9149     2.5243     0.0533     0.0196
 1077.0000     9.3843    99.5269     2.5227     0.0534     0.0160
 1077.5000     9.3688   100.1811     2.5133     0.0534     0.0199
 1078.0000     9.3534   100.3499     2.5132     0.0534     0.0255
 1078.5000     9.3375    99.6401     2.5209     0.0535     0.0219
 1079.0000     9.3219    98.8965     2.5277     0.0535     0.0146
 1079.5000     9.3062    98.1428     2.5345     0.0536     0.0090
 1080.0000     9.2905    97.3632     2.5415     0.0536     0.0054
 1080.5000     9.2749    97.1001     2.5484     0.0537     0.0018
 1081.0000     9.2591    97.1368     2.5552     0.0537    -0.0042
 1081.5000     9.2436    97.5330     2.5623     0.0538    -0.0112
 1082.0000     9.2281    97.8979     2.5689     0.0538    -0.0182
 1082.5000     9.2117    98.2711     2.5765     0.0538    -0.0252
 1083.0000     9.2067    98.6535     2.5766     0.0539    -0.0291
 1083.5000     9.2109    98.4757     2.5686     0.0539    -0.0249
 1084.0000     9.2142    98.1014     2.5606     0.0540    -0.0173
 1084.5000     9.2174    97.8131     2.5522     0.0540    -0.0098
 1085.0000     9.2208    97.2159     2.5472     0.0541    -0.0033
 1085.5000     9.2242    97.7290     2.5450     0.0541    -0.0006
 1086.0000     9.2275    98.3973     2.5426     0.0542     0.0017
 1086.5000     9.2309    99.1812     2.5402     0.0542     0.0040
 1087.0000     9.2343    99.4209     2.5387     0.0542     0.0057
 1087.5000     9.2375    98.8786     2.5394     0.0543     0.0049
 1088.0000     9.2408    98.4180     2.5403     0.0543     0.0019
 1088.5000     9.2447    97.9370     2.5410     0.0544    -0.0008
 1089.0000     9.2423    97.4292     2.5461     0.0544    -0.0035
 1089.5000     9.2327    97.2985     2.5506     0.0545    -0.0062
 1090.0000     9.2237    97.9688     2.5555     0.0545    -0.0089
 1090.5000     9.2147    98.6138     2.5588     0.0545    -0.0116
