~VERSION INFORMATION
 VERS.                2.0:   CWLS LOG ASCII STANDARD - VERSION 2.0
 WRAP.                 NO:   ONE LINE PER DEPTH STEP
~WELL INFORMATION
#MNEM.UNIT      DATA TYPE    INFORMATION
#----------   ------------   ------------------------------
 STRT.F            0.0000:   START DEPTH
 STOP.F          547.0000:   STOP DEPTH
 STEP.F            0.1000:   STEP LENGTH
 NULL.          -999.2500:   NO VALUE
 COMP.     BROWN JOHN E&C:   COMPANY
 WELL.    NPR 3 #86-1-X-3:   WELL
 FLD .             TEAPOT:   FIELD
 LOC .       S3 T38N R78W:   LOCATION
 CNTY.            NATRONA:   COUNTY
 STAT.            WYOMING:   STATE
 CTRY. UNITED STATES OF AMERICA:   COUNTRY
 SRVC.     Atlas Wireline:   SERVICE COMPANY
 DATE.        09-FEB-1992:   LOGDATE
 API .       490252249800:   API NUMBER
~CURVE INFORMATION
#MNEM.UNIT       API CODE    CURVE DESCRIPTION
#----------   ------------   ------------------------------
 DEPT.F                  :   
 GRR .GAPI   07 310 01 00:   GAMMA RAY
 RFOC.OHMM   07 220 04 00:   RESISTIVITY FOCUSED LOG
 RILD.OHMM   07 120 46 00:   INDUCTION LOG DEEP RESISTIVITY
 RILM.OHMM   07 120 44 00:   INDUCTION LOG MEDIUM RESISTIVITY
 SPR .MV     07 010 01 00:   SPONTANEOUS POTENTIAL
~PARAMETER INFORMATION
#MNEM.UNIT          VALUE    DESCRIPTION
#----------   ------------   ------------------------------
 PD  .                 GL:   PERMANENT DATUM
 EPD .F              5145:   ELEVATION PERMANENT DATUM
 LMF .                 KB:   LOG MEASURED FROM
 DAPD.F                10:   FEET ABOVE PERMANENT DATUM
 DMF .                 KB:   DRILLING MEASURED FROM
 EKB .F              5155:   KELLING BUSHING
 EDF .F              5154:   DRILLING FLOOR
 EGL .F              5145:   GROUND LEVEL
 DATE.        09-FEB-1992:   RUN DATE
 RUN .                  1:   RUN NUMBER
 DD  .F               562:   DEPTH DRILLER
 DL  .F               550:   DEPTH LOGGER
 BLI .F               547:   BOTTOM LOG INTERVAL
 CS  .IN            8.625:   CASING SIZE
 CBD .F               183:   CASING BOTTOM DRILLER
 CBL .F               181:   CASING BOTTOM LOGGER
 BS  .IN            7.875:   BIT SIZE
 BSD .F               562:   BIT SIZE AT DEPTH
 DFT .            GEL BAR:   DRILLING FLUID TYPE
 DFD .               17.8:   DRILLING FLUID DENSITY
 DFV .                 52:   DRILLING FLUID VISCOSITY
 DFPH.                  9:   DRILLING FLUID PH
 DFL .                5.2:   DRILLING FLUID LOSS
 MSS .           FLOWLINE:   MUD SAMPLE SOURCE
 RMS .OHMM           1.78:   RESISTIVITY MUD SAMPLE
 MST .F                68:   MUD SAMPLE TEMPERATURE
 RMF .OHMM          1.335:   RESISTIVITY MUD FILTRATE SAMPLE
 MFST.F                68:   MUD FILTRATE SAMPLE TEMPERATURE
 RMC .OHMM          2.225:   RESISTIVITY MUD CAKE
 MCST.F                68:   MUD CAKE SAMPLE TEMPERATURE
 MFSS.               MEAS:   MUD FILTRATE SAMPLE SOURCE
 MCSS.               MEAS:   MUD CAKE SAMPLE SOURCE
 TCS .HRS               3:   TIME CURCULATED STOPPED
 LUN .            HL 6274:   LOGGING UNIT NUMBER
 LUL .             CASPER:   LOGGING UNIT LOCATION
 ENGI.       P. RASMUSSEN:   RECORDING ENGINEER
 WITN.          G. STRONG:   WITNESSED BY
 CLNT.            A2DTECH:   CLIENT CODE
 ORIG.           5" PRINT:   ORIGIN OF DATA
 UWI .       490252249800:   UNIQUE WELL ID
 DICO. A2D Technologies, Inc.:   DIGITIZING COMPANY
~OTHER INFORMATION
~A    DEPT      GRR      RFOC       RILD       RILM        SPR   
# ...
  414.8000    74.2154    11.7493    13.1400    11.9928   -35.4896
  414.9000    73.7943    11.7103    13.1162    11.9373   -35.4498
  415.0000    73.5445    11.6747    13.0495    11.9377   -35.3243
  415.1000    73.2750    11.6065    13.0502    11.9381   -35.1889
  415.2000    72.8133    11.5468    13.0507    11.9384   -35.0733
  415.3000    72.3119    11.5465    13.0513    11.8972   -34.9478
  415.4000    71.8105    11.4843    13.0518    11.8560   -34.8881
  415.5000    71.4721    11.4173    13.0523    11.8563   -34.8069
  415.6000    71.4426    11.3853    13.0434    11.8566   -34.5870
  415.7000    71.1742    11.3635    12.9626    11.8570   -34.5874
  415.8000    70.9430    11.2971    12.9631    11.8573   -34.3547
  415.9000    70.8760    11.2263    12.9089    11.8576   -34.2863
  416.0000    70.8778    11.2260    12.8739    11.8579   -34.2866
  416.1000    70.9623    11.2257    12.8744    11.8583   -34.2456
  416.2000    71.2156    11.2254    12.8653    11.8586   -34.1201
  416.3000    71.4867    11.2251    12.7859    11.8589   -33.9858
  416.4000    71.4884    11.2248    12.7864    11.8593   -33.9861
  416.5000    71.8582    11.2244    12.7869    11.8596   -34.0784
  416.6000    72.0953    11.2241    12.7875    11.8599   -34.1376
  416.7000    72.2649    11.2238    12.7632    11.8465   -34.1379
  416.8000    72.7360    11.2235    12.6994    11.7781   -34.1550
  416.9000    73.0059    11.2232    12.7000    11.7784   -34.2893
  417.0000    73.2428    11.2229    12.7005    11.7787   -34.2896
  417.1000    73.6814    11.2225    12.7011    11.7791   -34.3825
  417.2000    73.9161    11.2223    12.7016    11.7794   -34.5086
  417.3000    74.0881    11.2704    12.6772    11.7935   -34.5922
  417.4000    74.5231    11.3003    12.6141    11.8626   -34.5925
  417.5000    74.5250    11.3000    12.6148    11.8630   -34.5928
  417.6000    74.5267    11.3090    12.6153    11.8632   -34.5931
  417.7000    74.5285    11.3786    12.6158    11.8223   -34.6866
  417.8000    74.2576    11.3783    12.6163    11.7814   -34.7445
  417.9000    73.8426    11.3780    12.6169    11.7817   -34.7448
  418.0000    73.5928    11.3777    12.6174    11.7820   -34.7270
  418.1000    73.3292    11.3773    12.6179    11.7824   -34.5946
  418.2000    73.0932    11.3770    12.6184    11.7827   -34.5949
  418.3000    72.8434    11.3767    12.6740    11.7830   -34.5952
  418.4000    72.7312    11.3764    12.7080    11.7833   -34.5955
  418.5000    72.7330    11.4258    12.7085    11.7974   -34.5521
  418.6000    72.6975    11.4923    12.7201    11.8666   -34.4452
  418.7000    72.4351    11.5355    12.7987    11.8669   -34.4456
  418.8000    72.4368    11.5352    12.7993    11.8672   -34.3264
  418.9000    72.6275    11.5349    12.7998    11.8676   -34.2953
  419.0000    72.7421    11.5346    12.8003    11.8679   -34.2956
  419.1000    72.7439    11.5342    12.8273    11.8821   -34.2959
  419.2000    72.8229    11.5339    12.8912    11.9517   -34.2962
  419.3000    73.3509    11.5336    12.8917    11.9521   -34.2965
  419.4000    73.5928    11.5437    12.8923    12.0082   -34.1768
  419.5000    74.0363    11.6138    12.9498    12.0365   -34.0513
  419.6000    74.6812    11.6135    12.9838    12.0368   -33.9958
  419.7000    75.6174    11.6132    13.0114    12.0371   -33.9961
  419.8000    76.7975    11.6508    13.0759    12.0375   -33.9964
  419.9000    77.5850    11.6940    13.0765    12.0379   -33.9967
  420.0000    78.5520    11.6936    13.0770    12.0944   -33.8763
  420.1000    79.1777    11.6933    13.0775    12.1653   -33.7508
  420.2000    79.6827    11.6930    13.1210    12.2367   -33.6959
  420.3000    80.0965    11.6927    13.1704    12.2940   -33.6962
  420.4000    80.3499    11.7308    13.1709    12.2944   -33.6965
  420.5000    80.6124    11.7990    13.1715    12.2947   -33.6968
  420.6000    80.6142    11.8563    13.1720    12.2951   -33.6971
  420.7000    80.6160    11.8559    13.1726    12.2954   -33.6974
  420.8000    80.3330    11.8556    13.2167    12.2957   -33.6977
  420.9000    79.8317    11.8552    13.2661    12.2961   -33.6980
  421.0000    79.2881    11.8549    13.2666    12.2964   -33.6983
  421.1000    78.5117    11.8546    13.2672    12.2968   -33.6987
  421.2000    77.7822    11.8542    13.2677    12.2971   -33.6989
  421.3000    77.2229    11.8539    13.3280    12.2975   -33.6992
  421.4000    76.8652    11.7868    13.3619    12.2978   -33.7713
  421.5000    76.5219    11.7707    13.3624    12.2981   -33.8507
  421.6000    76.0205    11.7313    13.3630    12.2985   -33.8510
  421.7000    75.5059    11.6881    13.3636    12.2988   -33.8513
  421.8000    75.2627    11.6878    13.3641    12.2992   -33.8516
  421.9000    74.8182    11.6874    13.4252    12.2995   -33.8519
  422.0000    74.6063    11.6871    13.4590    12.2999   -33.8522
  422.1000    74.5134    11.6868    13.4595    12.3002   -33.8051
  422.2000    74.3080    11.6864    13.4601    12.3006   -33.7019
  422.3000    74.6118    11.6861    13.4607    12.3009   -33.7023
  422.4000    74.6136    11.6858    13.4612    12.3012   -33.7026
  422.5000    75.0075    11.6855    13.4618    12.3016   -33.7029
  422.6000    75.3665    11.6851    13.4624    12.2734   -33.7032
  422.7000    75.6199    11.6848    13.4331    12.2166   -33.7035
  422.8000    75.9650    11.6845    13.3556    12.2170   -33.7038
  422.9000    76.7343    11.6842    13.2772    12.1465   -33.7041
  423.0000    77.2308    11.6838    13.2777    12.1327   -33.7044
  423.1000    77.5384    11.6835    13.2783    12.0908   -33.6060
  423.2000    77.9390    11.6832    13.2337    12.0210   -33.5541
  423.3000    78.3469    11.6295    13.1869    11.9515   -33.5544
  423.4000    78.6003    11.5616    13.1875    11.8825   -33.5547
  423.5000    78.8567    11.5201    13.1880    11.8829   -33.5551
  423.6000    79.3557    11.5071    13.1129    11.8280   -33.5554
  423.7000    79.4637    11.4392    13.0973    11.7597   -33.5557
  423.8000    79.7623    11.3731    13.0530    11.6918   -33.4818
  423.9000    80.0706    11.3589    12.9777    11.6243   -33.4054
  424.0000    80.0724    11.3196    12.9027    11.5571   -33.4057
  424.1000    80.0742    11.2792    12.8277    11.5575   -33.4060
  424.2000    79.8262    11.2662    12.7543    11.4509   -33.5312
  424.3000    79.7762    11.2000    12.6807    11.3581   -33.5575
  424.4000    79.6284    11.1997    12.5642    11.2925   -33.5578
  424.5000    79.4781    11.1994    12.4476    11.2273   -33.5581
  424.6000    79.4799    11.1991    12.3757    11.1624   -33.5584
  424.7000    79.4818    11.1988    12.3041    11.0980   -33.5587
  424.8000    78.9815    11.1984    12.2333    11.0340   -33.6845
  424.9000    78.8820    11.1981    12.1628    11.0086   -33.7101
  425.0000    78.5822    11.1977    12.1349    10.9833   -33.7104
  425.1000    78.1816    11.1975    12.1071    10.9326   -33.7107
  425.2000    77.9318    11.1972    12.0514    10.9329   -33.7110
  425.3000    77.6820    11.1707    12.0519    10.9332   -33.7113
  425.4000    77.3832    11.1186    11.9685    10.8828   -33.7117
  425.5000    77.1825    11.1183    11.9131    10.8577   -33.7119
  425.6000    77.0848    11.1179    11.8861    10.8580   -33.7122
  425.7000    77.2905    11.0657    11.8586    10.8583   -33.7125
  425.8000    77.7436    11.0011    11.8043    10.8586   -33.7128
  425.9000    77.9970    10.9368    11.8048    10.7834   -33.7131
  426.0000    78.2990    10.8861    11.8054    10.7837   -33.7135
  426.1000    78.5037    10.8852    11.7504    10.7840   -33.7137
  426.2000    78.7572    10.8096    11.7241    10.7843   -33.7140
  426.3000    79.1138    10.7585    11.7246    10.7721   -33.7143
  426.4000    79.5656    10.7338    11.7251    10.7098   -33.7146
  426.5000    79.8191    10.7078    11.7255    10.7102   -33.7149
  426.6000    80.1198    10.6585    11.7261    10.7104   -33.7153
  426.7000    80.5303    10.6582    11.6712    10.7107   -33.7155
  426.8000    80.7264    10.6578    11.6454    10.7110   -33.7158
  426.9000    80.8326    10.6576    11.6458    10.6989   -33.7161
