~VERSION INFORMATION
 VERS.                2.0:   CWLS LOG ASCII STANDARD - VERSION 2.0
 WRAP.                 NO:   ONE LINE PER DEPTH STEP
~WELL INFORMATION
#MNEM.UNIT      DATA TYPE    INFORMATION
#----------   ------------   ------------------------------
 STRT.F           34.0000:   START DEPTH
 STOP.F          555.0000:   STOP DEPTH
 STEP.F            0.5000:   STEP LENGTH
 NULL.          -999.2500:   NO VALUE
 COMP. FENIX & SCISSON-U.S. NAVY:   COMPANY
 WELL.    NPR #3 #17-S-11:   WELL
 FLD .             TEAPOT:   FIELD
 LOC .      S11 T38N R78W:   LOCATION
 CNTY.            NATRONA:   COUNTY
 STAT.            WYOMING:   STATE
 CTRY. UNITED STATES OF AMERICA:   COUNTRY
 SRVC.       Schlumberger:   SERVICE COMPANY
 DATE.        20-FEB-1977:   LOGDATE
 API .       490251028100:   API NUMBER
~CURVE INFORMATION
#MNEM.UNIT       API CODE    CURVE DESCRIPTION
#----------   ------------   ------------------------------
 DEPT.F                  :   
 SPR .MV     07 010 01 00:   SPONTANEOUS POTENTIAL
 ILD .OHMM   07 120 46 00:   INDUCTION LOG DEEP
 ILM .OHMM   07 120 44 00:   INDUCTION LOG MEDIUM
 LL8 .OHMM   07 220 08 00:   LATEROLOG-8 RES.
 CALD.IN     45 280 60 00:   CALIPER FROM DENSITY LOG
 GRD .GAPI   45 310 01 00:   GAMMA RAY FROM DENSITY LOG
 CORR.G/C3   45 356 01 00:   DENSITY CORRECTION
 RHOB.G/C3   45 350 01 00:   BULK DENSITY
 DPHI.DEC    45 890 12 00:   DENSITY POROSITY SANDSTONE
~PARAMETER INFORMATION
#MNEM.UNIT          VALUE    DESCRIPTION
#----------   ------------   ------------------------------
 PD  .                 GL:   PERMANENT DATUM
 EPD .F              5204:   ELEVATION PERMANENT DATUM
 LMF .                 GL:   LOG MEASURED FROM
 DMF .                 GL:   DRILLING MEASURED FROM
 EKB .F              5209:   KELLING BUSHING
 EGL .F              5204:   GROUND LEVEL
 DATE.        20-FEB-1977:   RUN DATE
 RUN .                  1:   RUN NUMBER
 DD  .F               556:   DEPTH DRILLER
 DL  .F               556:   DEPTH LOGGER
 BLI .F               555:   BOTTOM LOG INTERVAL
 TLI .F                42:   TOP LOG INTERVAL
 CS  .IN            8.625:   CASING SIZE
 CBD .F                42:   CASING BOTTOM DRILLER
 CBL .F                42:   CASING BOTTOM LOGGER
 BS  .IN            7.875:   BIT SIZE
 BSD .F               556:   BIT SIZE AT DEPTH
 DFT .            KCL MUD:   DRILLING FLUID TYPE
 DFD .                8.8:   DRILLING FLUID DENSITY
 DFV .                 33:   DRILLING FLUID VISCOSITY
 DFPH.                8.0:   DRILLING FLUID PH
 DFL .                7.6:   DRILLING FLUID LOSS
 MSS .           FLOWLINE:   MUD SAMPLE SOURCE
 RMS .OHMM            .44:   RESISTIVITY MUD SAMPLE
 MST .F                66:   MUD SAMPLE TEMPERATURE
 RMF .OHMM            .41:   RESISTIVITY MUD FILTRATE SAMPLE
 MFST.F                66:   MUD FILTRATE SAMPLE TEMPERATURE
 MFSS.               MEAS:   MUD FILTRATE SAMPLE SOURCE
 TCS .HRS               3:   TIME CURCULATED STOPPED
 LUN .               7680:   LOGGING UNIT NUMBER
 LUL .               CSPR:   LOGGING UNIT LOCATION
 ENGI.             TAYLOR:   RECORDING ENGINEER
 WITN.               JAPP:   WITNESSED BY
 CLNT.            A2DTECH:   CLIENT CODE
 ORIG.           5" PRINT:   ORIGIN OF DATA
 UWI .       490251028100:   UNIQUE WELL ID
 DICO. A2D Technologies, Inc.:   DIGITIZING COMPANY
~OTHER INFORMATION
~A   DEPT      SPR        ILD        ILM        LL8       CALD        GRD       CORR       RHOB       DPHI   
# ...
  107.0000   -62.6110     7.2987     6.4817     7.7868     8.2739    94.7964     0.0162     2.4529     0.1214
  107.5000   -62.4695     7.2967     6.4347     7.7316     8.2881    95.2489     0.0154     2.4485     0.1254
  108.0000   -62.4802     7.2947     6.4778     7.7300     8.2874    95.0226     0.0311     2.4674     0.1167
  108.5000   -62.6450     7.2928     6.5654     7.7284     8.2867    94.5701     0.0236     2.4485     0.1185
  109.0000   -62.5008     7.3415     6.6547     7.7264     8.2859    94.5701     0.0116     2.4119     0.1363
  109.5000   -62.5139     7.4418     6.7452     7.7789     8.2852    94.5701     0.0183     2.3988     0.1416
  110.0000   -62.5244     7.5505     6.8370     7.8312     8.2996    93.4087     0.0399     2.4327     0.1305
  110.5000   -62.3828     7.6467     6.9299     7.9383     8.3140    92.0815     0.0526     2.4607     0.1190
  111.0000   -62.3933     7.6972     6.9757     7.9921     8.3283    92.5339     0.0451     2.4690     0.1118
  111.5000   -62.2492     7.8024     7.0706     8.1018     8.3274    92.9864     0.0368     2.4291     0.1259
  112.0000   -62.1076     7.9091     7.2160     8.3268     8.3420    91.4027     0.0293     2.4389     0.1247
  112.5000   -61.9661     8.0177     7.3650     8.3833     8.3411    87.3303     0.0217     2.4736     0.1105
  113.0000   -61.9792     8.1833     7.4651     8.5569     8.3403    85.9728     0.0127     2.4488     0.1214
  113.5000   -61.8377     8.2951     7.5667     8.6743     8.3396    88.0090     0.0204     2.4586     0.1168
  114.0000   -61.8481     8.3505     7.6173     8.7933     8.3389    90.4977     0.0269     2.4707     0.1126
  114.5000   -61.8586     8.4063     7.6677     8.9757     8.3381    92.5339     0.0148     2.4451     0.1173
  115.0000   -61.7171     8.4040     7.6644     9.2256     8.3525    93.8914     0.0133     2.4308     0.1270
  115.5000   -61.5755     8.4017     7.6618     9.4214     8.3517    94.5701     0.0252     2.4392     0.1237
  116.0000   -61.4366     8.4578     7.7125     9.4804     8.3662    93.8914     0.0387     2.4556     0.1144
  116.5000   -61.4471     8.4554     7.7098     9.3479     8.3652    93.6652     0.0506     2.4837     0.1059
  117.0000   -61.4575     8.4531     7.7072     9.2815     8.3645    93.6652     0.0371     2.4528     0.1180
  117.5000   -61.4680     8.3920     7.7045     9.2157     8.3637    93.4389     0.0385     2.4468     0.1216
  118.0000   -61.3239     8.3318     7.7013     9.0873     8.3630    91.4027     0.0497     2.4845     0.1080
  118.5000   -61.3369     8.2150     7.5928     9.0228     8.3623    93.6652     0.0429     2.4875     0.1041
  119.0000   -61.3474     8.0998     7.5379     9.0210     8.3615    95.0226     0.0316     2.4408     0.1185
  119.5000   -61.3578     8.0417     7.4316     8.8953     8.3608    95.4751     0.0376     2.4665     0.1152
  120.0000   -61.3683     7.9840     7.3779     8.8935     8.3600    95.4751     0.0497     2.4786     0.1095
  120.5000   -61.3788     7.9268     7.3245     8.8304     8.3442    95.0226     0.0405     2.4545     0.1146
  121.0000   -61.3892     7.9246     7.2714     8.8286     8.2643    94.1176     0.0240     2.4390     0.1257
  121.5000   -61.3997     7.9224     7.2188     8.7659     7.9189    94.1312     0.0194     2.4613     0.1191
  122.0000   -61.4103     7.9203     7.2164     8.7038     7.8274    93.5656     0.0134     2.4885     0.1085
  122.5000   -61.4210     7.9181     7.1641     8.5825     7.7964    90.9502     0.0058     2.4603     0.1061
  123.0000   -61.4337     7.9160     7.1617     8.5807     7.8411    93.4389     0.0006     2.4773     0.1196
  123.5000   -61.4441     7.9138     7.2090     8.5789     7.9311    94.5701     0.0327     2.4969     0.1006
  124.0000   -61.6065     7.9111     7.2065     8.5768     8.0816    93.2127     0.0380     2.4509     0.1154
  124.5000   -61.6170     7.9090     7.1538     8.5750     8.2170    91.8552     0.0259     2.4479     0.1238
  125.0000   -61.7768     7.9068     7.1514     8.6927     8.3222    90.7240     0.0214     2.4276     0.1271
  125.5000   -61.6353     7.9602     7.1992     8.6909     8.3820    89.5928     0.0183     2.4367     0.1250
  126.0000   -61.4938     7.9575     7.1962     8.7499     8.3812    89.1403     0.0160     2.4488     0.1205
  126.5000   -61.5068     8.0106     7.2443     8.8083     8.3805    90.4977     0.0238     2.4689     0.1147
  127.0000   -61.3627     8.0640     7.3429     8.8065     8.3796    93.6772     0.0501     2.4968     0.1039
  127.5000   -61.2234     8.1743     7.5459     8.8047     8.3637    97.6018     0.0436     2.5054     0.0969
  128.0000   -61.0823     8.2860     7.7017     8.8645     8.3478   100.6787     0.0383     2.4964     0.0990
  128.5000   -61.0927     8.3993     7.7527     8.8622     8.3471    99.0950     0.0323     2.4783     0.1079
  129.0000   -60.9512     8.4554     7.8581     8.8604     8.3312    97.0588     0.0255     2.4520     0.1192
  129.5000   -60.9620     8.4531     7.9129     8.8586     8.3154    97.2851     0.0135     2.4618     0.1177
  130.0000   -60.9747     8.4507     8.0176     8.9182     8.3146    98.4163     0.0187     2.4566     0.1140
  130.5000   -60.9852     8.5154     8.0705     8.9205     8.2988    98.6425     0.0269     2.4249     0.1258
  131.0000   -60.9956     8.6828     8.1239     8.9765     8.2829    95.7014     0.0126     2.4378     0.1294
  131.5000   -61.0061     8.7414     8.1775     9.0991     8.2670    93.2127     0.0200     2.4589     0.1185
  132.0000   -60.8646     8.7384     8.2316     9.2244     8.2663    92.0815     0.0387     2.4906     0.1050
  132.5000   -60.7204     8.7360     8.2281     9.0954     8.2654    92.5339     0.0462     2.4997     0.0995
  133.0000   -60.7335     8.6734     8.2253     9.0309     8.2646    93.2247     0.0484     2.4779     0.1091
  133.5000   -60.7440     8.6112     8.2225     9.2183     8.2639    94.1810     0.0492     2.4920     0.1019
  134.0000   -60.7544     8.6693     8.2197     9.4096     8.2631    95.0226     0.0445     2.5284     0.0901
  134.5000   -60.7649     8.6663     8.2741     9.8062     8.2624    95.2489     0.0190     2.4629     0.1085
  135.0000   -60.7753     8.7242     8.2712    10.0102     8.2647    95.4751     0.0392     2.4961     0.1092
  135.5000   -60.7858     8.8434     8.3259    10.2174     8.2674    96.3801     0.0489     2.5278     0.0895
  136.0000   -60.6443     8.9025     8.3809    10.0056     8.2700    97.9638     0.0466     2.4728     0.1021
  136.5000   -60.6550     8.9619     8.3880     9.9347     8.2727    99.7738     0.0428     2.5067     0.1008
  137.0000   -60.6656     9.0217     8.4334     9.9326     8.2753   101.3575     0.0390     2.5098     0.0964
  137.5000   -60.6782     9.0191     8.4891     9.8622     8.2779   103.1674     0.0337     2.4721     0.1056
  138.0000   -60.6887     9.0795     8.6038     9.9286     8.2806   102.4887     0.0344     2.5098     0.1081
  138.5000   -60.6992     9.2036     8.6607     9.9265     8.2832    98.4102     0.0509     2.5199     0.0927
  139.0000   -60.7096     9.3936     8.7187     9.9929     8.2859    95.2277     0.0396     2.4594     0.1075
  139.5000   -60.7201     9.4569     8.8365    10.0602     8.2885    96.2353     0.0176     2.4488     0.1219
  140.0000   -60.7305     9.5862     8.9567    10.1987     8.2911    98.1900     0.0200     2.4747     0.1126
  140.5000   -60.7410     9.7173     9.0166    10.2674     8.2938    99.7738     0.0365     2.4972     0.1011
  141.0000   -60.5969     9.8501     9.1386    10.3365     8.2964   101.1312     0.0267     2.4783     0.1026
  141.5000   -60.6099     9.9159     9.1989    10.2627     8.2973   102.2624     0.0176     2.4482     0.1189
  142.0000   -60.3161     9.9125     9.3274    10.2606     8.2964   101.5837     0.0363     2.4724     0.1171
  142.5000   -60.3269     9.9787     9.3942    10.3302     8.2956   101.1312     0.0408     2.5056     0.0978
  143.0000   -60.3373     9.9759     9.4476    10.3997     8.2949   100.9050     0.0280     2.4694     0.1122
