~VERSION INFORMATION
 VERS.                2.0:   CWLS LOG ASCII STANDARD - VERSION 2.0
 WRAP.                 NO:   ONE LINE PER DEPTH STEP
~WELL INFORMATION
#MNEM.UNIT      DATA TYPE    INFORMATION
#----------   ------------   ------------------------------
 STRT.F            4.0000:   START DEPTH
 STOP.F          528.0000:   STOP DEPTH
 STEP.F            0.1000:   STEP LENGTH
 NULL.          -999.2500:   NO VALUE
 COMP. BROWN JOHN E&C INC:   COMPANY
 WELL.    84-1 SHX- #84-3:   WELL
 FLD .        TEAPOT DOME:   FIELD
 LOC .       S3 T38N R78W:   LOCATION
 CNTY.            NATRONA:   COUNTY
 STAT.            WYOMING:   STATE
 CTRY. UNITED STATES OF AMERICA:   COUNTRY
 SRVC.     Atlas Wireline:   SERVICE COMPANY
 DATE.        18-JAN-1992:   LOGDATE
 API .       490252249900:   API NUMBER
~CURVE INFORMATION
#MNEM.UNIT       API CODE    CURVE DESCRIPTION
#----------   ------------   ------------------------------
 DEPT.F                  :   
 GRR .GAPI   07 310 01 00:   GAMMA RAY
 RILD.OHMM   07 120 46 00:   INDUCTION LOG DEEP RESISTIVITY
 RILM.OHMM   07 120 44 00:   INDUCTION LOG MEDIUM RESISTIVITY
~PARAMETER INFORMATION
#MNEM.UNIT          VALUE    DESCRIPTION
#----------   ------------   ------------------------------
 PD  .                 GL:   PERMANENT DATUM
 EPD .F              5147:   ELEVATION PERMANENT DATUM
 LMF .                 KB:   LOG MEASURED FROM
 DAPD.F                10:   FEET ABOVE PERMANENT DATUM
 DMF .                 KB:   DRILLING MEASURED FROM
 EKB .F              5157:   KELLING BUSHING
 EDF .F              5156:   DRILLING FLOOR
 EGL .F              5147:   GROUND LEVEL
 DATE.        18-JAN-1992:   RUN DATE
 RUN .                  1:   RUN NUMBER
 DD  .F               842:   DEPTH DRILLER
 DL  .F               837:   DEPTH LOGGER
 BLI .F               835:   BOTTOM LOG INTERVAL
 TLI .F                 4:   TOP LOG INTERVAL
 CS  .IN            8.625:   CASING SIZE
 CBD .F                39:   CASING BOTTOM DRILLER
 CBL .F                56:   CASING BOTTOM LOGGER
 BS  .IN             8.75:   BIT SIZE
 BSD .F               842:   BIT SIZE AT DEPTH
 DFT .                AIR:   DRILLING FLUID TYPE
 LUN .           HL- 6272:   LOGGING UNIT NUMBER
 LUL .             CASPER:   LOGGING UNIT LOCATION
 ENGI.       P. RASMUSSEN:   RECORDING ENGINEER
 WITN.          G. STRONG:   WITNESSED BY
 CLNT.            A2DTECH:   CLIENT CODE
 ORIG.           5" PRINT:   ORIGIN OF DATA
 UWI .       490252249900:   UNIQUE WELL ID
 DICO. A2D Technologies, Inc.:   DIGITIZING COMPANY
~OTHER INFORMATION
~A    DEPT      GRR      RILD       RILM   
# ...
  186.0000   125.3577    10.9764    11.2396
  186.1000   124.8663    10.9769    11.2295
  186.2000   124.2849    10.9379    11.1619
  186.3000   123.8829    10.8768    11.1621
  186.4000   123.1012    10.8160    11.1622
  186.5000   122.1154    10.7523    11.1330
  186.6000   121.1302    10.6954    11.0851
  186.7000   120.0416    10.6788    11.0853
  186.8000   119.1588    10.6501    11.0226
  186.9000   118.6661    10.5906    11.0086
  187.0000   118.4215    10.5328    10.9752
  187.1000   118.1770    10.5334    10.9135
  187.2000   117.9259    10.4868    10.8569
  187.3000   117.9283    10.4614    10.8571
  187.4000   117.9307    10.4620    10.8572
  187.5000   117.9332    10.4626    10.8197
  187.6000   118.0750    10.4632    10.7822
  187.7000   118.5973    10.4637    10.7823
  187.8000   119.7646    10.4643    10.7825
  187.9000   120.3752    10.4649    10.7826
  188.0000   120.9727    10.4655    10.7828
  188.1000   121.4691    10.4661    10.7829
  188.2000   121.9657    10.4666    10.7830
  188.3000   122.5121    10.4672    10.7832
  188.4000   122.5143    10.4678    10.7834
  188.5000   122.5167    10.4684    10.7835
  188.6000   122.4109    10.4690    10.7837
  188.7000   122.0635    10.4696    10.7838
  188.8000   121.3083    10.4702    10.7840
  188.9000   121.3106    10.4372    10.7842
  189.0000   121.1287    10.3986    10.7843
  189.1000   120.7565    10.3992    10.7844
  189.2000   120.3355    10.3998    10.7846
  189.3000   120.1044    10.4521    10.7847
  189.4000   120.1074    10.4737    10.7849
  189.5000   120.1094    10.4742    10.7850
  189.6000   120.1118    10.4748    10.7852
  189.7000   120.1143    10.4754    10.7853
  189.8000   120.1496    10.4759    10.7854
  189.9000   120.4233    10.4766    10.7856
  190.0000   120.6484    10.4772    10.7858
  190.1000   120.8978    10.4777    10.7859
  190.2000   121.0383    10.4783    10.7861
  190.3000   121.0407    10.4790    10.7862
  190.4000   121.0432    10.5272    10.7864
  190.5000   121.2878    10.5533    10.7866
  190.6000   121.1668    10.5743    10.7867
  190.7000   121.0505    10.6283    10.7868
  190.8000   121.0529    10.6290    10.7870
  190.9000   121.0410    10.6295    10.7871
  191.0000   120.7542    10.6301    10.7873
  191.1000   120.5518    10.6307    10.7874
  191.2000   120.3072    10.6313    10.7876
  191.3000   119.9720    10.6319    10.7878
  191.4000   119.4805    10.6324    10.7879
  191.5000   118.9425    10.5895    10.7880
  191.6000   118.0499    10.5598    10.7882
  191.7000   116.8973    10.5604    10.7883
  191.8000   115.4448    10.5590    10.7885
  191.9000   113.8772    10.4884    10.7886
  192.0000   112.8754    10.4889    10.7888
  192.1000   112.1489    10.4894    10.7890
  192.2000   111.9684    10.4900    10.7891
  192.3000   112.0999    10.4906    10.7892
  192.4000   112.3493    10.4912    10.7678
  192.5000   112.6137    10.4395    10.7147
  192.6000   113.1943    10.4195    10.7148
  192.7000   113.8119    10.4201    10.7149
  192.8000   114.7037    10.4207    10.7151
  192.9000   115.6029    10.4213    10.7153
  193.0000   116.3805    10.4218    10.7035
  193.1000   117.4616    10.3795    10.6412
  193.2000   117.9131    10.3506    10.6414
  193.3000   118.4095    10.3355    10.5975
  193.4000   119.1270    10.2777    10.5379
  193.5000   120.0100    10.2092    10.4946
  193.6000   120.5131    10.2097    10.4925
  193.7000   121.0029    10.1770    10.4222
  193.8000   121.3126    10.1399    10.4223
  193.9000   121.4322    10.1405    10.3886
  194.0000   121.5075    10.1411    10.3301
  194.1000   121.7571    10.0910    10.2786
  194.2000   122.0478    10.0718    10.2788
  194.3000   122.2560    10.0243    10.2789
  194.4000   122.5054     9.9334    10.2414
  194.5000   122.6626     9.9341    10.1838
  194.6000   122.7004     9.8806    10.1372
  194.7000   122.9716     9.8662    10.1374
  194.8000   123.1992     9.8388    10.0829
  194.9000   123.2803     9.7988    10.0262
  195.0000   123.3941     9.7971     9.9976
  195.1000   123.5890     9.7319     9.9830
  195.2000   123.5915     9.7324     9.9285
  195.3000   123.5939     9.7011     9.9287
  195.4000   123.5964     9.6659     9.9288
  195.5000   123.5988     9.6665     9.8973
  195.6000   123.6012     9.6670     9.8602
  195.7000   123.6037     9.6191     9.8603
  195.8000   123.6065     9.6009     9.8605
  195.9000   123.6085     9.6014     9.8122
  196.0000   123.6110     9.6020     9.7924
  196.1000   123.6134     9.6025     9.7925
  196.2000   123.6158     9.5507     9.7829
  196.3000   123.6184     9.5369     9.7248
  196.4000   123.8468     9.5103     9.7250
  196.5000   123.9271     9.4425     9.6860
  196.6000   124.0417     9.3343     9.6577
  196.7000   124.2912     9.1486     9.6578
  196.8000   124.5423     9.0653     9.6580
  196.9000   124.7900     8.9344     9.6582
  197.0000   125.0395     8.8192     9.6583
  197.1000   125.1575     8.7579     9.6584
  197.2000   125.2344     8.5949     9.6409
  197.3000   125.4663     8.5521     9.5917
  197.4000   125.4691     8.4101     9.5918
  197.5000   125.4711     8.1636     9.5919
  197.6000   125.4736     7.8376     9.5921
  197.7000   125.4760     7.4791     9.5922
  197.8000   125.4785     7.0447     9.5923
  197.9000   125.4810     6.6751     9.5925
  198.0000   125.2564     6.4702     9.5927
  198.1000   125.0117     6.4076     9.5928
  198.2000   124.7672     6.3735     9.5929
  198.3000   124.4666     6.3739     9.5930
  198.4000   123.9733     6.3742     9.5926
  198.5000   123.7295     6.3958     9.5387
  198.6000   123.4848     6.4455     9.5269
  198.7000   123.1079     6.5240     9.4976
  198.8000   122.6918     6.6478     9.4611
  198.9000   122.4472     6.7160     9.4612
  199.0000   122.1645     6.8187     9.4613
  199.1000   121.9580     6.9532     9.4614
  199.2000   121.7135     7.1125     9.4616
  199.3000   121.5635     7.2800     9.4409
  199.4000   121.6035     7.4431     9.3962
  199.5000   121.8725     7.6142     9.3963
  199.6000   122.1026     7.8121     9.3965
  199.7000   122.6937     8.0497     9.3598
  199.8000   123.5510     8.3224     9.3315
  199.9000   124.5418     8.5482     9.3316
  200.0000   125.5319     8.6640     9.3318
  200.1000   125.5856     8.8051     9.3317
  200.2000   125.6393     8.9463     9.3315
  200.3000   125.6930     9.0875     9.3314
  200.4000   125.7467     9.2287     9.3312
  200.5000   125.8004     9.3583     9.3311
  200.6000   125.7711     9.3581     9.3310
  200.7000   125.5238     9.3130     9.3309
  200.8000   125.2329     9.2602     9.3308
  200.9000   125.0294     9.2078     9.3306
  201.0000   124.4864     9.1556     9.3304
  201.1000   123.8354     9.1003     9.3303
  201.2000   123.3045     9.1002     9.3302
  201.3000   122.5004     9.1001     9.3301
  201.4000   122.0462     9.0755     9.3323
  201.5000   121.5512     9.0367     9.3950
  201.6000   120.9412     9.0365     9.3949
  201.7000   120.2571     9.0364     9.3948
  201.8000   119.7624     9.0363     9.3762
  201.9000   119.2671     9.0362     9.3231
  202.0000   118.5777     9.0360     9.2644
  202.1000   118.1115     9.0359     9.2181
  202.2000   117.7818     9.0357     9.1660
  202.3000   117.2866     9.0356     9.1360
  202.4000   116.7320     9.0355     9.1359
  202.5000   115.8615     9.0354     9.1357
  202.6000   114.8707     9.0261     9.1356
  202.7000   114.3021     8.9724     9.1732
  202.8000   114.3523     8.9722     9.2250
  202.9000   114.6073     8.9721     9.2772
  203.0000   115.0904     8.9720     9.3279
  203.1000   115.4015     8.9852     9.3277
  203.2000   115.9078     9.0345     9.3276
  203.3000   116.5791     9.0344     9.3275
  203.4000   117.1251     9.0343     9.3096
  203.5000   118.5624     9.0636     9.2625
  203.6000   119.3963     9.0971     9.2624
  203.7000   120.2361     9.0970     9.2623
  203.8000   120.9802     9.0969     9.2621
  203.9000   121.6043     9.0968     9.2620
  204.0000   121.6049     9.1306     9.2619
  204.1000   121.6054     9.1601     9.2617
