~VERSION INFORMATION
 VERS.                2.0:   CWLS LOG ASCII STANDARD - VERSION 2.0
 WRAP.                 NO:   ONE LINE PER DEPTH STEP
~WELL INFORMATION
#MNEM.UNIT      DATA TYPE    INFORMATION
#----------   ------------   ------------------------------
 STRT.F           20.0000:   START DEPTH
 STOP.F          468.0000:   STOP DEPTH
 STEP.F            0.1000:   STEP LENGTH
 NULL.          -999.2500:   NO VALUE
 COMP. LAWRENCE/ALLISON INC:   COMPANY
 WELL.    63-51 SX #10-10:   WELL
 FLD .             TEAPOT:   FIELD
 LOC .      S10 T38N R78W:   LOCATION
 CNTY.            NATRONA:   COUNTY
 STAT.            WYOMING:   STATE
 CTRY. UNITED STATES OF AMERICA:   COUNTRY
 SRVC.           Gearhart:   SERVICE COMPANY
 DATE.        01-OCT-1988:   LOGDATE
 API .       490251125100:   API NUMBER
~CURVE INFORMATION
#MNEM.UNIT       API CODE    CURVE DESCRIPTION
#----------   ------------   ------------------------------
 DEPT.F                  :   
 GRR .GAPI   07 310 01 00:   GAMMA RAY
 RILD.OHMM   07 120 46 00:   INDUCTION LOG DEEP RESISTIVITY
 RILM.OHMM   07 120 44 00:   INDUCTION LOG MEDIUM RESISTIVITY
~PARAMETER INFORMATION
#MNEM.UNIT          VALUE    DESCRIPTION
#----------   ------------   ------------------------------
 PD  .                 GL:   PERMANENT DATUM
 EPD .F              5157:   ELEVATION PERMANENT DATUM
 LMF .                 KB:   LOG MEASURED FROM
 DAPD.F                 5:   FEET ABOVE PERMANENT DATUM
 DMF .                 KB:   DRILLING MEASURED FROM
 EKB .F              5162:   KELLING BUSHING
 EGL .F              5157:   GROUND LEVEL
 DATE.        01-OCT-1988:   RUN DATE
 RUN .                  1:   RUN NUMBER
 DD  .F               475:   DEPTH DRILLER
 DL  .F               476:   DEPTH LOGGER
 BLI .F               468:   BOTTOM LOG INTERVAL
 TLI .F                20:   TOP LOG INTERVAL
 CS  .IN            9.625:   CASING SIZE
 CBD .F                45:   CASING BOTTOM DRILLER
 CBL .F                46:   CASING BOTTOM LOGGER
 BS  .IN             7.87:   BIT SIZE
 BSD .F               475:   BIT SIZE AT DEPTH
 TLAB.HRS            1630:   TIME LOGGER AT BOTTOM
 MRT .F                75:   MAXIMUM RECORDED TEMPERATURE
 LUN .               7597:   LOGGING UNIT NUMBER
 LUL .           GILLETTE:   LOGGING UNIT LOCATION
 ENGI.              BENCK:   RECORDING ENGINEER
 WITN.             STRONG:   WITNESSED BY
 CLNT.            A2DTECH:   CLIENT CODE
 ORIG.           5" PRINT:   ORIGIN OF DATA
 UWI .       490251125100:   UNIQUE WELL ID
 DICO. A2D Technologies, Inc.:   DIGITIZING COMPANY
~OTHER INFORMATION
~A   DEPT       GRR      RILD       RILM   
# ...
   92.8000   112.0611     9.1879     7.7675
   92.9000   112.0611     9.2349     7.7673
   93.0000   112.1222     9.2524     7.7670
   93.1000   112.3704     9.2522     7.8038
   93.2000   112.8632     9.2616     7.8216
   93.3000   113.3558     9.3172     7.8213
   93.4000   113.8483     9.3169     7.8211
   93.5000   114.3410     9.3540     7.8209
   93.6000   114.8461     9.4072     7.8598
   93.7000   115.7252     9.4485     7.8757
   93.8000   116.1241     9.4483     7.8933
   93.9000   116.6168     9.5011     7.9310
   94.0000   117.1096     9.5147     7.9308
   94.1000   117.5797     9.5418     7.9306
   94.2000   117.8626     9.5815     7.9610
   94.3000   118.2821     9.5827     8.0062
   94.4000   118.6240     9.6371     8.0425
   94.5000   118.8702     9.6485     8.0422
   94.6000   119.1491     9.6783     8.0860
   94.7000   119.6947     9.7163     8.1319
   94.8000   119.9146     9.7197     8.1557
   94.9000   120.1608     9.7846     8.1666
   95.0000   120.4071     9.7843     8.2129
   95.1000   120.6535     9.7841     8.2595
   95.2000   120.9160     9.7838     8.3064
   95.3000   120.9160     9.7895     8.3535
   95.4000   121.0871     9.8525     8.3874
   95.5000   121.0404     9.8523     8.3892
   95.6000   120.6425     9.8520     8.4462
   95.7000   120.2446     9.8735     8.4846
   95.8000   119.8467     9.9212     8.5327
   95.9000   119.4489     9.9209     8.5654
   96.0000   119.0431     9.9206     8.5692
   96.1000   118.4733     9.9203     8.6255
   96.2000   118.4733     9.9201     8.6253
   96.3000   118.4733     9.9198     8.6547
   96.4000   118.4733     9.9195     8.7038
   96.5000   118.4733     9.9193     8.7470
   96.6000   118.4733     9.8790     8.7467
   96.7000   118.6911     9.8226     8.7465
   96.8000   118.9375     9.7665     8.7143
   96.9000   119.1837     9.7103     8.6646
   97.0000   119.4300     9.6554     8.6153
   97.1000   119.6947     9.5595     8.5625
   97.2000   119.9227     9.4784     8.5174
   97.3000   120.3379     9.4243     8.4689
   97.4000   120.7206     9.3688     8.4206
   97.5000   120.9670     9.2626     8.3825
   97.6000   121.2214     9.1988     8.3822
   97.7000   121.4595     9.1463     8.3361
   97.8000   121.5267     9.0942     8.2886
   97.9000   121.5267     9.0423     8.2642
   98.0000   121.5267     8.9822     8.2523
   98.1000   121.5247     8.9819     8.2053
   98.2000   121.2783     8.9817     8.1586
   98.3000   121.0320     8.9633     8.1476
   98.4000   120.9160     8.9180     8.1474
   98.5000   120.8448     8.9177     8.1338
   98.6000   120.5984     8.9175     8.0897
   98.7000   120.3053     8.9172     8.0895
   98.8000   120.1059     8.9170     8.0893
   98.9000   119.8596     8.9168     8.0629
   99.0000   119.6132     8.9165     8.0320
   99.1000   119.3445     8.9163     8.0359
   99.2000   118.7786     8.9160     8.0883
   99.3000   118.5689     8.9158     8.0882
   99.4000   118.1719     8.9256     8.0880
   99.5000   117.7710     8.9784     8.0877
   99.6000   117.5248     8.9782     8.0875
   99.7000   117.2519     8.9779     8.0872
   99.8000   117.6917     8.9776     8.0870
   99.9000   118.5058     9.0333     8.1169
  100.0000   119.4087     9.1692     8.0865
  100.1000   120.1949     9.1688     8.1320
  100.2000   120.9811     9.1684     8.1431
  100.3000   121.7673     9.1680     8.1427
  100.4000   122.5536     9.1677     8.1423
  100.5000   123.3398     9.1673     8.1420
  100.6000   124.0285     9.1669     8.1417
  100.7000   124.2921     9.1665     8.1414
  100.8000   124.5231     9.1661     8.1410
  100.9000   124.7705     9.1657     8.1406
  101.0000   124.6940     9.1883     8.1403
  101.1000   124.1116     9.2299     8.1400
  101.2000   123.0829     9.2295     8.1396
  101.3000   121.9258     9.2291     8.1392
  101.4000   120.7039     9.2287     8.1389
  101.5000   119.4820     9.2283     8.1386
  101.6000   118.3106     9.2279     8.1382
  101.7000   117.2935     9.2275     8.1379
  101.8000   115.8869     9.2271     8.1375
  101.9000   114.5938     9.2267     8.1372
  102.0000   113.8278     9.2263     8.1384
  102.1000   113.6390     9.2259     8.1842
  102.2000   113.6416     9.2256     8.1937
  102.3000   113.6439     9.2252     8.1933
  102.4000   113.6464     9.2248     8.1930
  102.5000   113.8829     9.2244     8.1927
  102.6000   114.3751     9.2240     8.1923
  102.7000   114.8752     9.2236     8.1554
  102.8000   115.8414     9.1721     8.1341
  102.9000   116.4623     9.1580     8.1338
  103.0000   116.9547     9.1576     8.1334
  103.1000   117.5068     9.1572     8.1330
  103.2000   118.2461     9.1568     8.1327
  103.3000   118.9809     9.1564     8.1324
  103.4000   119.7180     9.1560     8.1320
  103.5000   120.4550     9.1556     8.1317
  103.6000   121.1920     9.1553     8.1313
  103.7000   121.9291     9.1549     8.1310
  103.8000   122.6661     9.1545     8.1307
  103.9000   123.2165     9.1541     8.1303
  104.0000   123.7087     9.1271     8.1300
  104.1000   124.1353     9.0889     8.1296
  104.2000   124.3827     9.0886     8.1293
  104.3000   124.6301     9.0882     8.1289
  104.4000   124.6876     9.0878     8.1286
  104.5000   124.6901     9.0874     8.1283
  104.6000   124.6925     9.0870     8.1278
  104.7000   124.6950     9.0866     8.1275
  104.8000   124.6974     9.0863     8.1272
  104.9000   124.5071     9.0859     8.1269
  105.0000   124.2647     9.0855     8.1266
  105.1000   124.0222     9.0851     8.1261
  105.2000   123.7796     9.0823     8.0876
  105.3000   123.4887     9.0204     8.0684
  105.4000   123.2948     9.0201     8.0681
  105.5000   122.9169     9.0197     8.0678
  105.6000   122.5046     9.0193     8.0674
  105.7000   122.2477     9.0189     8.0671
  105.8000   121.6689     9.0185     8.0667
  105.9000   121.2732     9.0182     8.0664
  106.0000   120.7859     9.0178     8.0661
  106.1000   120.2206     9.0012     8.0657
  106.2000   119.4879     8.9536     8.0654
  106.3000   118.6276     8.9531     8.0650
  106.4000   118.6296     8.9528     8.0485
  106.5000   118.6320     8.9525     8.0078
  106.6000   118.8777     8.9521     8.0073
  106.7000   119.6147     8.9517     8.0070
  106.8000   120.4718     8.9513     8.0067
  106.9000   121.2937     8.9510     8.0064
  107.0000   122.4201     8.9506     8.0061
  107.1000   123.6468     8.9502     8.0056
  107.2000   124.8501     8.9449     8.0053
  107.3000   125.9802     8.8864     8.0050
  107.4000   126.8148     8.8861     7.9879
  107.5000   127.7967     8.8858     7.9482
  107.6000   128.6915     8.8675     7.9478
  107.7000   129.3750     8.8225     7.9474
  107.8000   129.6565     8.8221     7.9471
  107.9000   129.8697     8.8218     7.9297
  108.0000   129.6653     8.7908     7.8907
  108.1000   129.0879     8.7590     7.8903
  108.2000   128.3261     8.7586     7.8900
  108.3000   127.2260     8.7582     7.8896
  108.4000   126.1572     8.7146     7.8720
  108.5000   124.6274     8.6959     7.8336
  108.6000   122.9158     8.6955     7.8332
  108.7000   121.3027     8.6886     7.7935
  108.8000   120.2152     8.6336     7.7776
  108.9000   119.7830     8.6332     7.7599
  109.0000   119.4524     8.6017     7.7224
  109.1000   119.2100     8.5718     7.7220
  109.2000   119.0030     8.5644     7.6825
  109.3000   119.0061     8.5108     7.6671
  109.4000   119.0083     8.5104     7.6668
  109.5000   119.0107     8.4787     7.6596
  109.6000   119.0131     8.4499     7.6123
  109.7000   119.0156     8.4420     7.6120
  109.8000   119.0182     8.3897     7.5833
  109.9000   119.0205     8.3463     7.5228
  110.0000   119.0229     8.2988     7.4518
  110.1000   119.0253     8.2516     7.4515
  110.2000   118.9859     8.2125     7.4127
  110.3000   118.7251     8.2122     7.3706
  110.4000   118.7273     8.1266     7.3114
  110.5000   118.3980     8.0655     7.2431
  110.6000   117.9105     8.0196     7.2428
  110.7000   117.3331     7.9740     7.2048
  110.8000   116.2945     7.9258     7.1367
  110.9000   115.6085     7.8836     7.0733
