~VERSION INFORMATION
 VERS.                2.0:   CWLS LOG ASCII STANDARD - VERSION 2.0
 WRAP.                 NO:   ONE LINE PER DEPTH STEP
~WELL INFORMATION
#MNEM.UNIT      DATA TYPE    INFORMATION
#----------   ------------   ------------------------------
 STRT.F           20.0000:   START DEPTH
 STOP.F          599.0000:   STOP DEPTH
 STEP.F            0.5000:   STEP LENGTH
 NULL.          -999.2500:   NO VALUE
 COMP. FENIX & SCISSON INC:   COMPANY
 WELL.    47 SX 34 #47-34:   WELL
 FLD .             TEAPOT:   FIELD
 LOC .      S34 T39N R78W:   LOCATION
 CNTY.            NATRONA:   COUNTY
 STAT.            WYOMING:   STATE
 CTRY. UNITED STATES OF AMERICA:   COUNTRY
 SRVC.       Schlumberger:   SERVICE COMPANY
 DATE.        24-JAN-1979:   LOGDATE
 API .       490251077000:   API NUMBER
~CURVE INFORMATION
#MNEM.UNIT       API CODE    CURVE DESCRIPTION
#----------   ------------   ------------------------------
 DEPT.F                  :   
 SN  .OHMM   05 040 16 00:   SHORT NORMAL 16"
 ILD .OHMM   05 120 46 00:   INDUCTION LOG DEEP
 SPR .MV     05 010 01 00:   SPONTANEOUS POTENTIAL FROM RES.
 CALD.IN     45 280 60 00:   CALIPER
 GRD .GAPI   45 310 01 00:   GAMMA RAY FROM DENSITY LOG
 DPHI.DEC    45 890 12 00:   DENSITY POROSITY SANDSTONE
 CORR.G/C3   45 356 01 00:   DENSITY CORRECTION
 RHOB.G/C3   45 350 01 00:   BULK DENSITY
~PARAMETER INFORMATION
#MNEM.UNIT          VALUE    DESCRIPTION
#----------   ------------   ------------------------------
 PD  .                 GL:   PERMANENT DATUM
 EPD .F              5132:   ELEVATION PERMANENT DATUM
 LMF .                 KB:   LOG MEASURED FROM
 DAPD.F                 4:   FEET ABOVE PERMANENT DATUM
 DMF .                 KB:   DRILLING MEASURED FROM
 EKB .F              5136:   KELLING BUSHING
 EGL .F              5132:   GROUND LEVEL
 DATE.            1-24-79:   RUN DATE
 RUN .                  1:   RUN NUMBER
 DD  .F               600:   DEPTH DRILLER
 DL  .F               600:   DEPTH LOGGER
 BLI .F               594:   BOTTOM LOG INTERVAL
 TLI .F                28:   TOP LOG INTERVAL
 CS  .IN            8.625:   CASING SIZE
 CBD .F                40:   CASING BOTTOM DRILLER
 BS  .IN            7.875:   BIT SIZE
 BSD .F               600:   BIT SIZE AT DEPTH
 DFT .                KCL:   DRILLING FLUID TYPE
 DFD .                8.8:   DRILLING FLUID DENSITY
 DFV .                 60:   DRILLING FLUID VISCOSITY
 DFPH.                9.5:   DRILLING FLUID PH
 DFL .               10.8:   DRILLING FLUID LOSS
 MSS .           FLOWLINE:   MUD SAMPLE SOURCE
 RMS .OHMM            .22:   RESISTIVITY MUD SAMPLE
 MST .F                60:   MUD SAMPLE TEMPERATURE
 RMF .OHMM             .2:   RESISTIVITY MUD FILTRATE SAMPLE
 MFST.F                61:   MUD FILTRATE SAMPLE TEMPERATURE
 RMC .OHMM             .3:   RESISTIVITY MUD CAKE
 MCST.F                61:   MUD CAKE SAMPLE TEMPERATURE
 MFSS.           MEASURED:   MUD FILTRATE SAMPLE SOURCE
 MCSS.           MEASURED:   MUD CAKE SAMPLE SOURCE
 RMB .OHMM            .23:   RESISTIVITY MUD AT BHT
 BHT .F                58:   BOTTOM HOLE TEMPERATURE
 TCS .HRS               4:   TIME CURCULATED STOPPED
 MRT .F                58:   MAXIMUM RECORDED TEMPERATURE
 LUN .               3029:   LOGGING UNIT NUMBER
 LUL .             CASPER:   LOGGING UNIT LOCATION
 ENGI.         B. ROLLINS:   RECORDING ENGINEER
 WITN.         RICHARDSON:   WITNESSED BY
 CLNT.            A2DTECH:   CLIENT CODE
 ORIG.           5" PRINT:   ORIGIN OF DATA
 UWI .       490251077000:   UNIQUE WELL ID
 DICO. A2D Technologies, Inc.:   DIGITIZING COMPANY
~OTHER INFORMATION
~A   DEPT       SN        ILD        SPR         CALD       GRD        DPHI       CORR       RHOB 
# ...
  425.0000     5.6656     6.4520   -37.8843     8.3251   103.2492     0.1492     0.0050     2.4468
  425.5000     5.2608     5.9798   -38.6997     8.3068   120.3893     0.1674     0.0174     2.4068
  426.0000     4.8489     5.5922   -39.7655     8.2734   132.8734     0.1786     0.0366     2.3783
  426.5000     4.8489     5.3162   -38.9299     8.2402   130.5406     0.1629     0.0146     2.4050
  427.0000     5.0998     5.3162   -37.5874     8.2069   109.1740     0.1419    -0.0150     2.4516
  427.5000     5.4373     5.7223   -36.1694     8.1736    95.3606     0.1193    -0.0071     2.4982
  428.0000     5.7971     6.2738   -35.5943     8.1402    95.9694     0.1034     0.0008     2.5241
  428.5000     6.1807     6.8441   -35.7014     8.1077   102.3300     0.1005     0.0084     2.5289
  429.0000     6.5898     7.3792   -35.8958     8.0946    98.7703     0.0990     0.0141     2.5316
  429.5000     7.0655     7.8965   -35.8938     8.1410    99.7068     0.0990     0.0141     2.5319
  430.0000     7.2334     7.9402   -35.5656     8.1849   103.8945     0.0994     0.0091     2.5307
  430.5000     7.4102     7.9890   -34.8763     8.2288   105.0410     0.1006     0.0034     2.5142
  431.0000     7.5949     8.0431   -34.2667     8.2720   109.0312     0.1019     0.0020     2.5059
  431.5000     7.7844     8.2114   -33.6596     8.3033   111.6714     0.1031     0.0020     2.5056
  432.0000     7.9786     8.4218   -33.0516     8.3257   105.1737     0.1043     0.0035     2.5064
  432.5000     8.1175     8.9924   -32.4537     8.3509   106.4091     0.1056     0.0209     2.5064
  433.0000     8.1892     9.6719   -31.6791     8.3771   107.7186     0.1060     0.0220     2.5009
  433.5000     8.5777    10.4027   -30.4217     8.3751   108.5836     0.1056     0.0294     2.4993
  434.0000     9.0504    11.1888   -29.1786     8.3003    89.6499     0.1054     0.0606     2.5115
  434.5000     9.5538    11.9469   -27.9158     8.2297    74.6555     0.1102     0.0740     2.5261
  435.0000    10.0851    13.1680   -26.9586     8.1588    67.8499     0.1306     0.0493     2.4933
  435.5000    10.6460    14.3861   -26.4509     8.1167    63.2161     0.1556     0.0177     2.4307
  436.0000    11.2381    15.7169   -25.4858     8.1005    69.0103     0.1828     0.0009     2.3685
  436.5000    11.8631    17.1707   -24.5664     8.0846    52.4739     0.2202     0.0527     2.3013
  437.0000    12.2925    18.9258   -23.8924     8.0837    53.7014     0.2331     0.0861     2.2887
  437.5000    12.6366    20.0000   -23.6952     8.0838    55.8857     0.2399     0.0685     2.2778
  438.0000    12.9902    21.2652   -23.1281     8.0838    55.7851     0.2144     0.0416     2.3005
  438.5000    13.2803    22.7496   -22.4970     8.0838    64.7510     0.1906     0.0281     2.3419
  439.0000    13.3415    21.9175   -21.8288     8.0837    63.5298     0.1635     0.0315     2.3837
  439.5000    13.4649    21.0285   -21.1365     8.0912    61.8694     0.1397     0.0366     2.4248
  440.0000    13.3211    20.1756   -21.0946     8.1014    59.8957     0.1409     0.0381     2.4464
  440.5000    13.2117    19.2773   -21.0996     8.1117    64.3603     0.1491     0.0320     2.4392
  441.0000    13.1029    18.9498   -21.1032     8.1220    70.3014     0.1565     0.0253     2.4167
  441.5000    12.9951    18.5925   -21.0750     8.1327    76.5237     0.1617     0.0184     2.4062
  442.0000    12.8882    18.2419   -20.6202     8.1431    80.4339     0.1583     0.0222     2.4126
  442.5000    12.7817    17.8973   -20.2899     8.1629    82.7821     0.1565     0.0302     2.4152
  443.0000    12.6784    17.5615   -20.4498     8.1201    79.1818     0.1689     0.0246     2.4003
  443.5000    12.6224    17.2621   -20.6162     8.0797    72.7338     0.2004     0.0184     2.3676
  444.0000    12.8615    17.4217   -20.6978     8.0429    66.0413     0.2099     0.0278     2.3363
  444.5000    12.8565    18.1582   -20.7045     8.0475    66.5256     0.2215     0.0152     2.3101
  445.0000    13.1239    19.2646   -20.4628     8.0630    67.8420     0.2151     0.0081     2.3166
  445.5000    13.3038    20.4385   -20.1342     8.0777    66.6034     0.2228     0.0084     2.3207
  446.0000    13.4860    21.6839   -19.7922     8.0923    65.2421     0.2337     0.0170     2.2821
  446.5000    13.6706    22.9991   -19.3165     8.1070    66.6600     0.2562     0.0257     2.2518
  447.0000    13.8576    24.2577   -19.2992     8.1218    67.8898     0.2862     0.0179     2.2218
  447.5000    14.0473    24.7445   -19.2919     8.1362    61.8409     0.2884     0.0085     2.1981
  448.0000    14.2395    25.2888   -18.5455     8.1330    53.7520     0.2858     0.0080     2.1957
  448.5000    14.4934    25.8459   -17.7593     8.0902    61.3381     0.2722     0.0076     2.2045
  449.0000    14.3606    26.3579   -16.9371     8.0222    73.2763     0.2602    -0.0001     2.2455
  449.5000    14.1505    26.3579   -17.2136     7.9550    71.1892     0.2581    -0.0012     2.2435
  450.0000    13.8916    26.0772   -17.6800     7.8875    68.1220     0.2601     0.0066     2.2334
  450.5000    13.6375    25.1631   -17.8565     7.8200    64.9967     0.2587     0.0120     2.2322
  451.0000    13.3879    24.2811   -17.7393     7.7523    63.8878     0.2317     0.0123     2.2819
  451.5000    13.1430    23.4299   -17.5034     7.6847    69.0832     0.2060     0.0176     2.3394
  452.0000    12.9025    22.5413   -17.2985     7.6221    72.8659     0.1972     0.0302     2.3510
  452.5000    12.6665    22.3211   -17.7577     7.6681    75.2170     0.1996     0.0285     2.3417
  453.0000    12.4347    21.7318   -18.2684     7.7294    77.6836     0.2016     0.0257     2.3431
  453.5000    12.2072    21.1911   -18.7088     7.7907    79.8838     0.1908     0.0350     2.3540
  454.0000    12.0164    20.6639   -18.7026     7.8520    76.4986     0.1886     0.0441     2.3652
  454.5000    11.8937    20.1498   -18.6993     7.9134    73.6630     0.1864     0.0439     2.3669
  455.0000    11.7723    19.6485   -18.7687     7.9754    76.4031     0.1850     0.0438     2.3685
  455.5000    11.6521    19.1596   -19.2708     8.0248    78.4804     0.1832     0.0479     2.3717
  456.0000    11.4960    18.6829   -19.7239     8.0242    77.3684     0.1779     0.0586     2.3874
  456.5000    11.3295    18.2181   -19.8016     8.0180    76.8497     0.1681     0.0825     2.4138
  457.0000    11.1655    17.7452   -19.8874     7.9985    80.2025     0.1500     0.1128     2.4404
  457.5000    10.9974    17.5328   -19.9749     7.9792    83.4667     0.1416     0.1305     2.4397
  458.0000    10.9974    17.3133   -20.0611     7.9601    85.7342     0.1537     0.1123     2.4224
  458.5000    10.9974    17.2621   -20.2677     7.9409    83.5412     0.1633     0.0895     2.4047
  459.0000    10.9974    17.2621   -20.5635     7.9138    79.6115     0.1668     0.0736     2.3997
  459.5000    10.9974    17.2621   -20.8600     7.8392    80.4022     0.1691     0.0759     2.3997
  460.0000    10.9974    17.2621   -21.0968     7.7638    82.0924     0.1715     0.0827     2.3900
  460.5000    10.9974    17.2621   -20.7246     7.6887    78.1104     0.1838     0.0919     2.3720
  461.0000    11.0034    17.2621   -20.3360     7.6234    79.4332     0.1860     0.1001     2.3652
  461.5000    11.0394    17.2621   -19.9492     7.6382    76.3497     0.1842     0.0967     2.3691
  462.0000    11.0752    17.2621   -19.5623     7.7036    81.0766     0.1877     0.0741     2.3559
  462.5000    11.1109    17.2617   -19.1644     7.7814    75.8942     0.2126     0.0444     2.3289
  463.0000    11.1468    17.2621   -19.0833     7.8598    74.8336     0.2160     0.0310     2.3171
  463.5000    11.1828    17.2590   -19.3442     7.9379    74.3963     0.2150     0.0216     2.3175
  464.0000    11.2190    17.4435   -19.4917     8.0080    72.2369     0.2112     0.0119     2.3222
  464.5000    11.2554    17.5953   -19.3958     8.0285    76.3452     0.2073     0.0095     2.3303
  465.0000    11.3048    17.7452   -18.8338     8.0438    75.4048     0.2039     0.0065     2.3384
