~VERSION INFORMATION
 VERS.                2.0:   CWLS LOG ASCII STANDARD - VERSION 2.0
 WRAP.                 NO:   ONE LINE PER DEPTH STEP
~WELL INFORMATION
#MNEM.UNIT      DATA TYPE    INFORMATION
#----------   ------------   ------------------------------
 STRT.F           12.0000:   START DEPTH
 STOP.F          551.0000:   STOP DEPTH
 STEP.F            0.5000:   STEP LENGTH
 NULL.          -999.2500:   NO VALUE
 COMP. LAWRENCE-ALLISON &AS:   COMPANY
 WELL. NPR 3 #58-46SX3LP4:   WELL
 FLD .             TEAPOT:   FIELD
 LOC .       S3 T38N R78W:   LOCATION
 CNTY.            NATRONA:   COUNTY
 STAT.            WYOMING:   STATE
 CTRY. UNITED STATES OF AMERICA:   COUNTRY
 SRVC.      Dresser Atlas:   SERVICE COMPANY
 DATE.        14-DEC-1984:   LOGDATE
 API .       490251099900:   API NUMBER
~CURVE INFORMATION
#MNEM.UNIT       API CODE    CURVE DESCRIPTION
#----------   ------------   ------------------------------
 DEPT.F                  :   
 RD  .OHMM   11 220 10 00:   RESISTIVITY DEEP
 RS  .OHMM   11 220 09 00:   RESISTIVITY SHALLOW
 SPR .MV     11 010 01 00:   SPONTANEOUS POTENTIAL FROM RES.
 AC  .US/F   60 520 00 00:   ACOUSTIC SONIC
 CALD.IN     45 280 60 00:   CALIPER FROM DENSITY
 CORR.G/C3   45 356 01 00:   DENSITY CORRECTION
 DEN .G/C3   45 350 01 00:   COMPENSATED BULK DENSTIY
 GRD .GAPI   45 310 01 00:   GAMMA RAY FROM DENSITY LOG
 PORD.DEC    45 890 12 00:   POROSITY DENSITY SANDSTONE
 CNC .DEC    42 890 03 00:   NEUTRON POROSITY SANDSTONE
~PARAMETER INFORMATION
#MNEM.UNIT          VALUE    DESCRIPTION
#----------   ------------   ------------------------------
 PD  .                 GL:   PERMANENT DATUM
 EPD .F              5201:   ELEVATION PERMANENT DATUM
 LMF .                 GL:   LOG MEASURED FROM
 DMF .                 GL:   DRILLING MEASURED FROM
 EGL .F              5201:   GROUND LEVEL
 DATE.        14-DEC-1984:   RUN DATE
 RUN .                  1:   RUN NUMBER
 DD  .F               552:   DEPTH DRILLER
 DL  .F               552:   DEPTH LOGGER
 BLI .F               550:   BOTTOM LOG INTERVAL
 TLI .F                20:   TOP LOG INTERVAL
 CS  .IN            8.625:   CASING SIZE
 CBD .F                20:   CASING BOTTOM DRILLER
 CBL .F                20:   CASING BOTTOM LOGGER
 BS  .IN            7.875:   BIT SIZE
 BSD .F               552:   BIT SIZE AT DEPTH
 DFT .          KCL WATER:   DRILLING FLUID TYPE
 MSS .            MUDTANK:   MUD SAMPLE SOURCE
 RMS .OHMM          0.152:   RESISTIVITY MUD SAMPLE
 MST .F                76:   MUD SAMPLE TEMPERATURE
 RMF .OHMM           0.11:   RESISTIVITY MUD FILTRATE SAMPLE
 MFST.F                76:   MUD FILTRATE SAMPLE TEMPERATURE
 RMC .OHMM           0.19:   RESISTIVITY MUD CAKE
 MCST.F                76:   MUD CAKE SAMPLE TEMPERATURE
 MFSS.               CALC:   MUD FILTRATE SAMPLE SOURCE
 MCSS.               CALC:   MUD CAKE SAMPLE SOURCE
 TCS .HRS               5:   TIME CURCULATED STOPPED
 MRT .F               100:   MAXIMUM RECORDED TEMPERATURE
 LUN .               6270:   LOGGING UNIT NUMBER
 ENGI.            LEBSOCK:   RECORDING ENGINEER
 WITN.        GREG GROOMS:   WITNESSED BY
 CLNT.            A2DTECH:   CLIENT CODE
 ORIG.           5" PRINT:   ORIGIN OF DATA
 UWI .       490251099900:   UNIQUE WELL ID
 DICO. A2D Technologies, Inc.:   DIGITIZING COMPANY
~OTHER INFORMATION
~A   DEPT       RD         RS        SPR         AC       CALD       CORR        DEN        GRD       PORD          CNC 
# ...
  481.0000    13.0384    13.2053   -69.7852    95.1951     7.7744     0.0211     2.4906   104.2466     0.1140     0.2645
  481.5000    13.1369    13.3965   -70.0698    94.8141     7.7744     0.0226     2.4951   104.2195     0.1119     0.2639
  482.0000    13.3296    13.5905   -70.4995    94.5084     7.7744     0.0211     2.4966   102.7588     0.1094     0.2621
  482.5000    13.5234    13.6923   -70.7870    94.4293     7.7744     0.0090     2.4859   100.2957     0.1150     0.2584
  483.0000    13.7200    13.6998   -71.0686    94.5743     7.7744    -0.0273     2.4776    99.4472     0.1182     0.2509
  483.5000    13.7285    13.6128   -71.5013    94.8683     7.7744    -0.0152     2.4798    99.2991     0.1181     0.2472
  484.0000    13.6424    13.6203   -71.7217    95.0133     7.8045     0.0101     2.4911    99.1517     0.1161     0.2454
  484.5000    13.6508    13.5338   -72.0543    95.0080     7.8045     0.0362     2.4987    99.7569     0.1093     0.2529
  485.0000    13.5630    13.2632   -72.3704    95.0028     7.7744     0.0486     2.5024   101.8652     0.1054     0.2584
  485.5000    13.2930    12.9913   -72.8074    95.0726     7.7744     0.0662     2.5047   104.8757     0.1036     0.2526
  486.0000    12.8515    12.4563   -72.7763    95.2176     7.7895     0.0691     2.5024   105.4801     0.1029     0.2444
  486.5000    12.4227    11.8541   -72.7645    95.8886     7.7744     0.0654     2.4955   101.8741     0.1044     0.2532
  487.0000    11.8434    11.0301   -72.7503    96.8600     7.7744     0.0344     2.4902    96.3430     0.1090     0.2619
  487.5000    11.1362    10.5876   -72.4422    97.9066     7.7895    -0.0019     2.4902    93.3083     0.1105     0.2616
  488.0000    10.4713    10.0929   -71.6897    98.6527     7.8045     0.0102     2.5024    91.6570     0.1107     0.2556
  488.5000    10.0522     9.7552   -70.6409    99.3987     7.8045     0.0373     2.5082    96.4727     0.1074     0.2522
  489.0000     9.7169     9.3639   -70.1847   100.1448     7.8045     0.0539     2.5082   100.3855     0.0992     0.2531
  489.5000     9.3280     9.0507   -69.7285   100.8908     7.7895     0.0508     2.5049   104.2983     0.1022     0.2564
  490.0000     9.0168     8.6876   -69.4205   101.6369     7.7885     0.0432     2.4968   104.6020     0.1058     0.2546
  490.5000     8.5964     8.2816   -69.1124   102.9089     7.7895     0.0203     2.4885   104.0035     0.1100     0.2534
  491.0000     8.0830     7.6793   -69.1006   104.7819     7.7895     0.0006     2.4779    98.5929     0.1179     0.2535
  491.5000     7.3423     6.8314   -68.9407   108.7586     7.7895    -0.0067     2.4643    97.0921     0.1255     0.2757
  492.0000     6.1757     5.9936   -68.7808   113.4115     7.8045     0.0039     2.4446    97.5463     0.1336     0.3106
  492.5000     5.2167     4.8065   -68.3246   119.6431     7.7895     0.0174     2.4204   101.0079     0.1466     0.3338
  493.0000     3.5259     3.5970   -68.0165   126.1742     7.7872     0.0310     2.3917   100.7101     0.1618     0.3681
  493.5000     2.9537     2.9655   -67.5603   133.4567     7.7565     0.0294     2.3501    99.6605     0.1911     0.4092
  494.0000     2.9179     2.8662   -67.1041   133.2261     7.7444     0.0204     2.2670    95.7537     0.2414     0.4304
  494.5000     3.0228     2.9893   -66.9442   126.3087     7.7444     0.0067     2.1710    93.6514     0.2991     0.4609
  495.0000     3.5212     3.5554   -67.2287   118.4898     7.7594     0.0173     2.1514    92.4514     0.3032     0.4249
  495.5000     4.6772     4.8558   -67.3651   110.1450     7.7594     0.0142     2.1725    93.5070     0.3090     0.3781
  496.0000     6.1700     6.5861   -67.2052   103.6784     7.7744     0.0051     2.2963    96.0664     0.3101     0.3427
  496.5000     7.5435     7.7842   -67.0453   100.7430     7.7594    -0.0009     2.3590    94.1145     0.3012     0.2758
  497.0000     8.2007     8.3451   -66.8854   100.8129     7.7594     0.0247     2.4390    92.4633     0.1450     0.2650
  497.5000     8.5531     8.6460   -66.8736   100.7325     7.7744     0.0292     2.4647    97.7294     0.1304     0.2564
  498.0000     8.7982     8.8862   -67.0100    99.3749     7.7444     0.0216     2.4639   100.7399     0.1270     0.2469
  498.5000     9.1131     9.2688   -67.2948    98.6183     7.7293     0.0171     2.4555    98.7880     0.1285     0.2520
  499.0000     9.5706     9.7338   -67.4311    98.5379     7.7143     0.0169     2.4623    97.7384     0.1313     0.2541
  499.5000    10.0510    10.1517   -67.2710    98.9835     7.7143     0.0276     2.4774    99.0948     0.1291     0.2592
  500.0000    10.2800    10.2973   -67.1111    99.5793     7.7192     0.0351     2.4894   100.1504     0.1207     0.2706
  500.5000    10.4152    10.3053   -67.1740    99.8012     7.7492     0.0350     2.4894    99.1895     0.1138     0.2794
  501.0000    10.4203    10.3821   -67.0792   100.1759     7.7591     0.0305     2.4879    98.3489     0.1121     0.2831
  501.5000    10.4976    10.4606   -67.0645   100.3954     7.7589     0.0336     2.4849    97.2977     0.1134     0.2723
  502.0000    10.5085    10.5398   -67.0497   100.6173     7.7588     0.0396     2.4841    96.8481     0.1161     0.2622
  502.5000    10.5806    10.6195   -67.1868   100.8455     7.7586     0.0410     2.4849   102.2632     0.1173     0.2515
  503.0000    10.5857    10.6335   -67.3203   101.2941     7.7434     0.0357     2.4849   105.5729     0.1155     0.2495
  503.5000    10.6011    10.7065   -67.4537   101.8178     7.7283     0.0243     2.4841   107.0782     0.1158     0.2506
  504.0000    10.6694    10.7132   -67.5871   102.2466     7.7281     0.0243     2.4819   107.2301     0.1170     0.2671
  504.5000    10.6746    10.7199   -67.4205   102.2417     7.7280     0.0291     2.4887   104.9759     0.1145     0.2736
  505.0000    10.6808    10.7265   -67.5576   102.1619     7.7278     0.0378     2.4940   104.9774     0.1106     0.2742
  505.5000    10.6124    10.7332   -67.5392   101.9932     7.7126     0.0468     2.4924   105.8812     0.1103     0.2685
  506.0000    10.6175    10.6656   -67.5245   101.8511     7.6974     0.0513     2.4909   108.2887     0.1109     0.2630
  506.5000    10.6226    10.5841   -67.5098   101.6210     7.6973     0.0407     2.4985   109.1925     0.1100     0.2591
  507.0000    10.4818    10.4599   -67.4950   101.6163     7.7122     0.0226     2.5000   108.8932     0.1056     0.2585
  507.5000    10.2705    10.1810   -67.4803   101.7619     7.7271     0.0211     2.4962   107.8421     0.1048     0.2669
  508.0000     9.9966     9.9782   -67.4656   102.2080     7.7419     0.0708     2.4947   103.7835     0.1091     0.2793
  508.5000     9.8641     9.9155   -67.4509   102.6541     7.7569     0.0874     2.5091   101.0782     0.1064     0.2841
  509.0000     9.7997     9.9217   -67.5843   102.7257     7.7567     0.0753     2.5378   104.0872     0.0909     0.2850
  509.5000     9.9421    10.1360   -67.5695   102.5696     7.7565     0.0315     2.5385   108.1489     0.0839     0.2896
  510.0000    10.2965    10.5719   -67.5548   102.0390     7.7564     0.0239     2.5325   108.1504     0.0830     0.2938
  510.5000    10.5901    10.8752   -67.6882   101.3582     7.7562     0.0345     2.5045   105.5955     0.0927     0.2959
  511.0000    10.7427    10.8069   -67.6735   101.1281     7.7561     0.0420     2.4985   102.7398     0.1042     0.2983
  511.5000    10.6725    10.6615   -67.6588   101.1997     7.7559     0.0540     2.4970   101.0872     0.1064     0.2829
  512.0000    10.4599    10.5251   -67.6441   101.5695     7.7558     0.0600     2.5091   106.2015     0.1042     0.2699
  512.5000    10.2502    10.5379   -67.6293   101.8654     7.7556     0.0419     2.5045   109.8120     0.0988     0.2684
  513.0000    10.1132    10.7592   -67.6146   102.0873     7.7555     0.0358     2.5053   108.3098     0.1027     0.2738
  513.5000    10.2601    10.8494   -67.5999   102.1577     7.7553     0.0267     2.5060   100.1910     0.1036     0.2837
  514.0000    10.3362    10.9226   -67.5851   101.8514     7.7552     0.0101     2.5045    97.6361     0.1036     0.2852
