~VERSION INFORMATION
 VERS.                2.0:   CWLS LOG ASCII STANDARD - VERSION 2.0
 WRAP.                 NO:   ONE LINE PER DEPTH STEP
~WELL INFORMATION
#MNEM.UNIT      DATA TYPE    INFORMATION
#----------   ------------   ------------------------------
 STRT.F           20.0000:   START DEPTH
 STOP.F          930.0000:   STOP DEPTH
 STEP.F            0.5000:   STEP LENGTH
 NULL.          -999.2500:   NO VALUE
 COMP. FENIX & SCISSON INC:   COMPANY
 WELL.     NPR 3 #45-S-14:   WELL
 FLD .        TEAPOT DOME:   FIELD
 LOC .      S14 T38N R78W:   LOCATION
 CNTY.            NATRONA:   COUNTY
 STAT.            WYOMING:   STATE
 CTRY. UNITED STATES OF AMERICA:   COUNTRY
 SRVC.           BIRDWELL:   SERVICE COMPANY
 DATE.        02-JAN-1979:   LOGDATE
 API .       490251076200:   API NUMBER
~CURVE INFORMATION
#MNEM.UNIT       API CODE    CURVE DESCRIPTION
#----------   ------------   ------------------------------
 DEPT.F                  :   
 GRD .GAPI   45 310 01 00:   GAMMA RAY FROM DENSITY LOG
 CALD.IN     45 280 60 00:   CALIPER
 RHOB.G/C3   45 350 01 00:   BULK DENSITY
 DPHI.DEC    45 890 12 00:   DENSITY POROSITY SANDSTONE
 CORR.G/C3   45 356 01 00:   DENSITY CORRECTION
~PARAMETER INFORMATION
#MNEM.UNIT          VALUE    DESCRIPTION
#----------   ------------   ------------------------------
 PD  .                 GL:   PERMANENT DATUM
 EPD .F              5261:   ELEVATION PERMANENT DATUM
 LMF .                 KB:   LOG MEASURED FROM
 DAPD.F                 4:   FEET ABOVE PERMANENT DATUM
 DMF .                 KB:   DRILLING MEASURED FROM
 EKB .F              5265:   KELLING BUSHING
 EGL .F              5261:   GROUND LEVEL
 DATE.             1-7-79:   RUN DATE
 RUN .                  1:   RUN NUMBER
 DD  .F               969:   DEPTH DRILLER
 DL  .F               928:   DEPTH LOGGER
 BLI .F               928:   BOTTOM LOG INTERVAL
 TLI .F                20:   TOP LOG INTERVAL
 CS  .IN            8.625:   CASING SIZE
 CBD .F                40:   CASING BOTTOM DRILLER
 CBL .F                46:   CASING BOTTOM LOGGER
 BS  .IN            7.875:   BIT SIZE
 BSD .F               969:   BIT SIZE AT DEPTH
 DFT .                KCL:   DRILLING FLUID TYPE
 DFD .                8.8:   DRILLING FLUID DENSITY
 DFV .                 42:   DRILLING FLUID VISCOSITY
 DFPH.                9.2:   DRILLING FLUID PH
 DFL .                 10:   DRILLING FLUID LOSS
 MSS .           FLOWLINE:   MUD SAMPLE SOURCE
 RMS .OHMM            .95:   RESISTIVITY MUD SAMPLE
 MST .F                60:   MUD SAMPLE TEMPERATURE
 RMF .OHMM            1.7:   RESISTIVITY MUD FILTRATE SAMPLE
 MFST.F                60:   MUD FILTRATE SAMPLE TEMPERATURE
 RMC .OHMM            1.6:   RESISTIVITY MUD CAKE
 MCST.F                60:   MUD CAKE SAMPLE TEMPERATURE
 MFSS.           MEASURED:   MUD FILTRATE SAMPLE SOURCE
 MCSS.           MEASURED:   MUD CAKE SAMPLE SOURCE
 RMB .OHMM            .98:   RESISTIVITY MUD AT BHT
 BHT .F                58:   BOTTOM HOLE TEMPERATURE
 TCS .HRS               4:   TIME CURCULATED STOPPED
 MRT .F                58:   MAXIMUM RECORDED TEMPERATURE
 LUN .               3006:   LOGGING UNIT NUMBER
 LUL .             CASPER:   LOGGING UNIT LOCATION
 ENGI.            ROLLINS:   RECORDING ENGINEER
 WITN.           DINSMORE:   WITNESSED BY
 CLNT.            A2DTECH:   CLIENT CODE
 ORIG.           5" PRINT:   ORIGIN OF DATA
 UWI .       490251076200:   UNIQUE WELL ID
 DICO. A2D Technologies, Inc.:   DIGITIZING COMPANY
~OTHER INFORMATION
~A   DEPT      GRD         CALD     RHOB       DPHI       CORR   
# ...
  142.0000    93.3270     7.6770     2.3510     0.1930     0.0530
  142.5000    89.0180     7.8110     2.3600     0.1870     0.0520
  143.0000    88.7670     7.8230     2.3680     0.1870     0.0460
  143.5000    89.6150     7.8150     2.3710     0.1880     0.0400
  144.0000    88.4920     7.8070     2.3720     0.1860     0.0340
  144.5000    86.9830     7.7990     2.3720     0.1840     0.0290
  145.0000    87.9440     7.7900     2.3720     0.1810     0.0290
  145.5000    89.9490     7.7600     2.3720     0.1810     0.0290
  146.0000    91.5770     7.7950     2.3720     0.1830     0.0290
  146.5000    89.8000     7.8630     2.3690     0.1870     0.0290
  147.0000    85.5360     7.8660     2.3660     0.1900     0.0290
  147.5000    85.2900     7.8610     2.3660     0.1910     0.0290
  148.0000    91.1020     7.8550     2.3650     0.1840     0.0290
  148.5000    96.4950     7.8500     2.3660     0.1840     0.0300
  149.0000   100.5930     7.8450     2.3660     0.1900     0.0250
  149.5000   101.2940     7.8400     2.3630     0.1950     0.0510
  150.0000   101.4630     7.8350     2.3600     0.1960     0.0440
  150.5000   100.7200     7.8300     2.3670     0.1810     0.0750
  151.0000    99.6630     7.8240     2.3790     0.1680     0.0940
  151.5000   100.1260     7.8190     2.3910     0.1660     0.0980
  152.0000   102.2670     7.8140     2.4000     0.1700     0.0960
  152.5000   103.0330     7.8060     2.3980     0.1720     0.0940
  153.0000    98.1610     7.7900     2.3940     0.1710     0.0910
  153.5000    91.9110     7.7730     2.3940     0.1720     0.0890
  154.0000    87.9980     7.7790     2.3940     0.1740     0.0880
  154.5000    87.4720     7.7900     2.3940     0.1730     0.1030
  155.0000    89.2950     7.8010     2.3960     0.1560     0.1310
  155.5000    91.0810     7.8120     2.4120     0.1390     0.1700
  156.0000    92.5170     7.8230     2.4390     0.1300     0.1720
  156.5000    91.5890     7.8340     2.4640     0.1210     0.1690
  157.0000    90.5880     7.8450     2.4770     0.1180     0.1670
  157.5000    92.1890     7.8460     2.4800     0.1160     0.1640
  158.0000    95.4640     7.8380     2.4840     0.1280     0.1480
  158.5000   102.6410     7.8300     2.4790     0.1500     0.0840
  159.0000   106.2970     7.8220     2.4520     0.1620     0.0580
  159.5000   102.0540     7.8140     2.4170     0.1710     0.0410
  160.0000    98.7920     7.8100     2.3990     0.1760     0.0340
  160.5000   100.0730     7.8100     2.3830     0.1780     0.0300
  161.0000   102.8780     7.8100     2.3810     0.1770     0.0290
  161.5000   104.1920     7.8100     2.3810     0.1750     0.0280
  162.0000   101.3620     7.8100     2.3800     0.1770     0.0280
  162.5000    98.4300     7.8100     2.3780     0.1800     0.0270
  163.0000    96.9540     7.8100     2.3750     0.1870     0.0270
  163.5000    96.6590     7.8100     2.3730     0.1870     0.0270
  164.0000    96.3860     7.7620     2.3720     0.1880     0.0260
  164.5000    97.3400     7.7360     2.3730     0.1880     0.0260
  165.0000   100.0660     7.8120     2.3730     0.1850     0.0250
  165.5000   102.7530     7.5430     2.3760     0.1790     0.0250
  166.0000   102.2330     7.9240     2.3820     0.1760     0.0250
  166.5000    98.6190     7.8940     2.3860     0.1760     0.0240
  167.0000    96.9420     7.8890     2.3900     0.1740     0.0240
  167.5000    99.9540     7.8900     2.3910     0.1710     0.0230
  168.0000   102.8010     7.8910     2.3940     0.1670     0.0230
  168.5000   103.4920     7.8910     2.3960     0.1740     0.0230
  169.0000   103.0290     7.8910     2.3880     0.1800     0.0230
  169.5000   102.3010     7.8900     2.3790     0.1860     0.0230
  170.0000   102.6790     7.8840     2.3720     0.1880     0.0260
  170.5000   105.0120     7.8780     2.3720     0.1860     0.0310
  171.0000   104.9660     7.8720     2.3740     0.1840     0.0360
  171.5000    97.4400     7.8660     2.3770     0.1800     0.0350
  172.0000    95.7840     7.8610     2.3790     0.1780     0.0310
  172.5000    94.9750     7.8550     2.3800     0.1770     0.0290
  173.0000    99.1200     7.8490     2.3790     0.1760     0.0300
  173.5000   102.6400     7.8430     2.3790     0.1780     0.0310
  174.0000   104.3360     7.8370     2.3790     0.1810     0.0310
  174.5000   105.4610     7.8310     2.3800     0.1820     0.0320
  175.0000   102.4630     7.8250     2.3810     0.1770     0.0330
  175.5000    99.7820     7.8190     2.3900     0.1670     0.0330
  176.0000    98.4280     7.8130     2.4050     0.1600     0.0340
  176.5000   101.7520     7.8070     2.4180     0.1510     0.0350
  177.0000   104.6050     7.8010     2.4320     0.1400     0.0370
  177.5000   101.6770     7.7950     2.4450     0.1290     0.0390
  178.0000    93.0600     7.7820     2.4580     0.1300     0.0430
  178.5000    86.4160     7.7330     2.4590     0.1330     0.0680
  179.0000    81.9330     7.4100     2.4560     0.1330     0.0960
  179.5000    90.3660     7.4120     2.4560     0.1400     0.0880
  180.0000   101.6460     7.4230     2.4510     0.1600     0.0680
  180.5000   107.5440     7.4110     2.4250     0.1750     0.0580
  181.0000   104.7360     7.3470     2.3960     0.1770     0.0700
  181.5000   100.7890     7.3220     2.3910     0.1680     0.0900
  182.0000    98.4180     7.3570     2.3990     0.1600     0.1090
  182.5000    97.9960     7.3940     2.4190     0.1520     0.1240
  183.0000    99.0420     7.5320     2.4330     0.1430     0.1300
  183.5000    99.6280     7.7400     2.4380     0.1390     0.1290
  184.0000   105.0190     7.8270     2.4440     0.1390     0.1280
  184.5000   107.4190     7.8250     2.4440     0.1440     0.1100
  185.0000   105.6810     7.8220     2.4350     0.1490     0.0870
  185.5000   101.8900     7.8180     2.4250     0.1540     0.0690
  186.0000    99.0940     7.8150     2.4180     0.1570     0.0620
  186.5000    99.8270     7.8120     2.4130     0.1680     0.0650
  187.0000   103.6530     7.8100     2.4020     0.1690     0.0720
  187.5000   109.1100     7.5140     2.3960     0.1690     0.0750
  188.0000   108.9190     7.5550     2.3940     0.1740     0.0750
  188.5000   101.8940     7.7130     2.3950     0.1740     0.0750
  189.0000    99.5180     7.7090     2.3990     0.1590     0.0740
  189.5000    99.5860     7.7800     2.4060     0.1590     0.0670
  190.0000    99.7340     7.8090     2.4090     0.1600     0.0600
  190.5000    99.7120     7.7930     2.4070     0.1620     0.0590
  191.0000    98.6780     7.7310     2.4040     0.1630     0.0540
  191.5000    98.2610     7.7110     2.4030     0.1630     0.0460
  192.0000    97.5150     7.7540     2.4030     0.1650     0.0370
  192.5000    96.3020     7.8080     2.4030     0.1710     0.0310
  193.0000    95.0960     7.8120     2.4030     0.1710     0.0310
  193.5000    95.9210     7.8130     2.4030     0.1640     0.0300
  194.0000   100.6480     7.8150     2.4030     0.1610     0.0300
  194.5000   103.6320     7.8170     2.4030     0.1640     0.0290
  195.0000   102.1640     7.8180     2.4010     0.1670     0.0290
  195.5000   100.9850     7.8200     2.3980     0.1710     0.0290
  196.0000   102.3840     7.8210     2.3920     0.1750     0.0280
  196.5000   104.9280     7.8230     2.3890     0.1780     0.0280
  197.0000   103.5290     7.8250     2.3870     0.1780     0.0270
  197.5000   102.1830     7.8260     2.3870     0.1770     0.0270
  198.0000   101.4240     7.8280     2.3880     0.1750     0.0270
  198.5000   102.0630     7.8290     2.3880     0.1730     0.0260
  199.0000   102.6670     7.8300     2.3880     0.1740     0.0260
  199.5000   102.8720     7.8300     2.3870     0.1740     0.0250
  200.0000   103.0540     7.8300     2.3870     0.1760     0.0250
  200.5000   103.1280     7.8300     2.3870     0.1780     0.0260
  201.0000   102.0730     7.8300     2.3870     0.1780     0.0280
  201.5000   101.0460     7.8300     2.3860     0.1740     0.0290
  202.0000   101.6230     7.8300     2.3880     0.1710     0.0300
  202.5000   104.3590     7.8300     2.3900     0.1700     0.0300
