~VERSION INFORMATION
 VERS.                2.0:   CWLS LOG ASCII STANDARD - VERSION 2.0
 WRAP.                 NO:   ONE LINE PER DEPTH STEP
~WELL INFORMATION
#MNEM.UNIT      DATA TYPE    INFORMATION
#----------   ------------   ------------------------------
 STRT.F           28.0000:   START DEPTH
 STOP.F          546.5000:   STOP DEPTH
 STEP.F            0.5000:   STEP LENGTH
 NULL.          -999.2500:   NO VALUE
 COMP. LAWRENCE/ALLISON INC:   COMPANY
 WELL.    55-66 SX #10-10:   WELL
 FLD .            WILDCAT:   FIELD
 LOC .      S10 T38N R78W:   LOCATION
 CNTY.            NATRONA:   COUNTY
 STAT.            WYOMING:   STATE
 CTRY. UNITED STATES OF AMERICA:   COUNTRY
 SRVC.            Unknown:   SERVICE COMPANY
 DATE.        20-AUG-1984:   LOGDATE
 API .       490251098000:   API NUMBER
~CURVE INFORMATION
#MNEM.UNIT       API CODE    CURVE DESCRIPTION
#----------   ------------   ------------------------------
 DEPT.F                  :   
 CNC .DEC    42 890 03 00:   NEUTRON POROSITY SANDSTONE
 CALD.IN     45 280 60 00:   CALIPER FROM DENSITY LOG
 DEN .G/C3   45 350 01 00:   COMPENSATED BULK DENSTIY
 PORD.DEC    45 890 12 00:   POROSITY DENSITY STONESTONE
 CORR.G/C3   45 356 01 00:   DENSITY CORRECTION
 SPR .MV     07 010 01 00:   SPONTANEOUS POTENTIAL
 RFOC.OHMM   07 220 04 00:   RESISTIVITY FOCUSED LOG
 RILD.OHMM   07 120 46 00:   INDUCTION LOG DEEP RESISTIVITY
 RILM.OHMM   07 120 44 00:   INDUCTION LOG MEDIUM RESISTIVITY
 AC  .US/F   60 520 00 00:   ACCOUSTIC
 GRD .GAPI   45 310 01 00:   GAMMA RAY FROM DENSITY LOG
~PARAMETER INFORMATION
#MNEM.UNIT          VALUE    DESCRIPTION
#----------   ------------   ------------------------------
 PD  .                 GL:   PERMANENT DATUM
 EPD .F              5200:   ELEVATION PERMANENT DATUM
 LMF .                 GL:   LOG MEASURED FROM
 DMF .                 GL:   DRILLING MEASURED FROM
 EGL .F              5200:   GROUND LEVEL
 DATE.        20-AUG-1984:   RUN DATE
 RUN .                  1:   RUN NUMBER
 DD  .F               554:   DEPTH DRILLER
 DL  .F               548:   DEPTH LOGGER
 BLI .F               546:   BOTTOM LOG INTERVAL
 TLI .F                30:   TOP LOG INTERVAL
 CS  .IN            9.625:   CASING SIZE
 CBD .F                46:   CASING BOTTOM DRILLER
 CBL .F                41:   CASING BOTTOM LOGGER
 BS  .IN            7.875:   BIT SIZE
 BSD .F               554:   BIT SIZE AT DEPTH
 DFT .          KCL WATER:   DRILLING FLUID TYPE
 MSS .           FLOWLINE:   MUD SAMPLE SOURCE
 RMS .OHMM           .691:   RESISTIVITY MUD SAMPLE
 MST .F                82:   MUD SAMPLE TEMPERATURE
 MRT .F               100:   MAXIMUM RECORDED TEMPERATURE
 LUN .               6307:   LOGGING UNIT NUMBER
 LUL .               GLTE:   LOGGING UNIT LOCATION
 ENGI.           FAHLSING:   RECORDING ENGINEER
 WITN.           JENNINGS:   WITNESSED BY
 CLNT.            A2DTECH:   CLIENT CODE
 ORIG.       2", 5" PRINT:   ORIGIN OF DATA
 UWI .       490251098000:   UNIQUE WELL ID
 DICO. A2D Technologies, Inc.:   DIGITIZING COMPANY
~OTHER INFORMATION
~A   DEPT      CNC       CALD        DEN       PORD       CORR        SPR       RFOC       RILD       RILM         AC        GRD   
# ...
  211.0000     0.4033     7.8120     2.2610     0.2260     0.0550   -44.3430     5.0860     3.0380     4.4450   126.7510    97.7880
  211.5000     0.3505     7.8120     2.3050     0.2010     0.0410   -43.5100     5.7770     3.3460     5.0560   121.8510   102.3440
  212.0000     0.3253     7.8130     2.3500     0.1760     0.0240   -42.6760     6.4680     4.0640     5.6670   116.9510   108.2530
  212.5000     0.3339     7.8130     2.3940     0.1600     0.0070   -41.8410     7.2030     4.8230     6.2770   111.8060   110.8360
  213.0000     0.3367     7.8140     2.4280     0.1460    -0.0050   -41.0050     8.0180     5.5820     6.9180   110.0420   111.1140
  213.5000     0.3351     7.8140     2.4340     0.1440    -0.0250   -40.2050     8.6250     6.3410     7.1310   108.7140   111.0680
  214.0000     0.3319     7.8150     2.4400     0.1400    -0.0130   -40.2460     8.4680     6.9810     7.3560   108.2210   111.6440
  214.5000     0.3300     7.8150     2.4470     0.1370     0.0110   -40.3280     8.1690     7.3100     7.5800   108.2030   112.2320
  215.0000     0.3288     7.8160     2.4530     0.1340     0.0340   -40.4120     7.7960     7.4450     7.7670   108.4530   109.6350
  215.5000     0.3293     7.8160     2.4600     0.1310     0.0430   -40.4950     7.9400     7.5140     7.7960   108.7130   106.6970
  216.0000     0.3655     7.8170     2.4650     0.1280     0.0360   -40.5780     8.1760     7.5140     7.6540   108.4880   105.4990
  216.5000     0.3608     7.8170     2.4670     0.1290     0.0290   -40.6620     8.3890     7.2500     7.3890   108.2550   109.7710
  217.0000     0.3465     7.8180     2.4660     0.1310     0.0230   -40.7460     8.6010     6.8910     7.1350   108.0140   112.8610
  217.5000     0.3409     7.8180     2.4640     0.1310     0.0160   -40.9320     8.9210     6.5320     6.8810   108.5130   112.8930
  218.0000     0.3594     7.8190     2.4590     0.1350     0.0220   -41.3000     8.6410     6.1720     6.6270   110.6290   115.4660
  218.5000     0.3711     7.8190     2.4420     0.1460     0.0330   -41.6650     7.8160     5.8130     6.3730   112.8110   118.7440
  219.0000     0.3791     7.8200     2.4230     0.1560     0.0430   -42.0290     6.9900     5.4540     6.1190   114.5430   122.0490
  219.5000     0.3816     7.8200     2.4060     0.1660     0.0480   -42.3930     6.1640     5.0940     5.8650   114.9700   125.2760
  220.0000     0.3781     7.8210     2.4030     0.1660     0.0310   -42.7580     5.6960     5.0150     5.8090   114.5630   123.9890
  220.5000     0.3664     7.8210     2.4020     0.1630     0.0150   -42.9530     6.1270     5.0150     5.8630   113.8980   118.8300
  221.0000     0.3482     7.8220     2.4060     0.1610     0.0180   -42.7290     6.4720     5.1550     6.0090   113.1030   113.6770
  221.5000     0.3448     7.8220     2.4140     0.1560     0.0290   -42.3510     6.7630     5.4620     6.2150   112.3070   108.8470
  222.0000     0.3383     7.8230     2.4330     0.1460     0.0400   -42.0740     7.0400     5.7750     6.4210   111.5120   111.2760
  222.5000     0.3308     7.8230     2.4500     0.1380     0.0420   -41.6630     7.3170     6.0880     6.6280   110.7090   116.1040
  223.0000     0.3382     7.8240     2.4560     0.1340     0.0330   -41.2670     7.5930     6.4000     6.8340   109.5280   120.8210
  223.5000     0.3540     7.8240     2.4620     0.1300     0.0240   -40.8730     7.8700     6.7130     6.9750   108.3360   120.5860
  224.0000     0.3493     7.8250     2.4680     0.1260     0.0150   -40.4790     8.1460     7.0250     7.2740   107.1440   116.8950
  224.5000     0.3266     7.8250     2.4740     0.1240     0.0070   -40.0860     8.4230     7.3380     7.5730   105.9510   113.1680
  225.0000     0.3062     7.8260     2.4700     0.1300    -0.0020   -39.6920     8.6990     7.6510     7.8720   104.7590   114.2030
  225.5000     0.2999     7.8260     2.4600     0.1350    -0.0110   -39.2970     8.9760     7.9630     8.1700   104.4210   113.8970
  226.0000     0.3315     7.8270     2.4510     0.1400    -0.0200   -38.8910     9.0520     8.0960     8.4680   104.3490   112.3560
  226.5000     0.3351     7.8270     2.4410     0.1410    -0.0290   -38.8890     9.1050     8.1090     8.5460   104.4850   112.1860
  227.0000     0.3363     7.8280     2.4450     0.1380    -0.0240   -39.0160     9.1570     8.1220     8.6250   104.6210   116.4990
  227.5000     0.3288     7.8280     2.4510     0.1350    -0.0150   -39.1460     9.2100     8.1360     8.6250   104.9230   120.1940
  228.0000     0.3075     7.8290     2.4560     0.1350    -0.0070   -39.2780     9.2760     8.1490     8.6030   105.2200   118.4340
  228.5000     0.2790     7.8290     2.4540     0.1380     0.0010   -39.4090     9.1750     8.1620     8.4990   105.6260   115.6450
  229.0000     0.2965     7.8300     2.4520     0.1380     0.0080   -39.5410     8.9980     8.0140     8.3950   106.1260   113.2180
  229.5000     0.3056     7.8300     2.4540     0.1360     0.0030   -39.6720     8.8220     7.9670     8.2910   106.6170   115.0950
  230.0000     0.3156     7.8310     2.4560     0.1320    -0.0020   -39.8040     8.6450     7.9210     8.1870   107.0300   117.2500
  230.5000     0.3162     7.8310     2.4580     0.1320     0.0140   -39.9320     8.4680     7.8760     8.0830   107.4370   116.9480
  231.0000     0.3161     7.8320     2.4590     0.1330     0.0370   -40.0550     8.2910     7.7960     7.9790   107.8430   116.2870
  231.5000     0.3167     7.8320     2.4560     0.1340     0.0410   -40.0380     8.1150     7.6320     7.7360   108.3850   115.6340
  232.0000     0.3470     7.8330     2.4540     0.1370     0.0230   -40.3770     7.9880     7.2220     7.4090   108.9570   115.7090
  232.5000     0.3599     7.8330     2.4470     0.1390     0.0060   -40.7890     7.9270     6.8130     7.0830   109.5280   117.6650
  233.0000     0.3571     7.8340     2.4470     0.1390     0.0100   -41.2040     7.8680     6.4030     6.7560   110.1000   119.6450
  233.5000     0.3552     7.8340     2.4480     0.1390     0.0180   -41.6120     7.5140     5.9930     6.4290   110.9420   120.9230
  234.0000     0.3607     7.8350     2.4440     0.1400     0.0170   -41.9140     7.0220     5.5830     6.1030   112.7750   120.5680
  234.5000     0.4103     7.8350     2.4270     0.1520     0.0060   -41.5450     6.6650     5.1740     5.7760   115.0000   120.2380
  235.0000     0.4237     7.8360     2.4100     0.1630    -0.0040   -41.1830     6.3090     5.1080     5.3970   116.7880   118.5830
  235.5000     0.4091     7.8360     2.3930     0.1740     0.0050   -40.8230     6.1380     5.1080     5.7380   118.0940   116.6000
  236.0000     0.3256     7.8370     2.3890     0.1730     0.0140   -40.4640     6.4860     5.2630     6.1440   116.5210   114.6910
  236.5000     0.3082     7.8370     2.4060     0.1590     0.0230   -40.1040     7.1340     5.7090     6.5500   113.4210   116.9680
  237.0000     0.3153     7.8380     2.4340     0.1440     0.0320   -39.7430     7.7550     6.1540     6.9560   110.3210   119.5770
  237.5000     0.3223     7.8380     2.4630     0.1300     0.0410   -39.3960     8.3750     6.6000     7.3620   108.0350   118.4930
  238.0000     0.3208     7.8390     2.4720     0.1240     0.0500   -39.3020     8.5460     7.0450     7.7680   106.8160   116.4310
  238.5000     0.3179     7.8390     2.4720     0.1250     0.0590   -39.0930     8.6120     7.4100     8.1740   106.4660   114.3510
  239.0000     0.3154     7.8400     2.4710     0.1260     0.0530   -38.8860     8.6750     7.7610     8.3600   106.8440   113.3270
  239.5000     0.3212     7.8400     2.4690     0.1280     0.0370   -38.6790     8.7380     8.1120     8.4630   107.3440   117.3280
  240.0000     0.3305     7.8410     2.4660     0.1290     0.0210   -38.4710     8.8110     8.2460     8.5660   107.7150   120.4240
  240.5000     0.3289     7.8410     2.4610     0.1320     0.0060   -38.2640     8.9120     8.3730     8.6680   107.5330   119.0020
  241.0000     0.3152     7.8420     2.4560     0.1350    -0.0100   -38.0570     9.0130     8.5000     8.7710   107.1410   117.4840
