~VERSION INFORMATION
 VERS.                2.0:   CWLS LOG ASCII STANDARD - VERSION 2.0
 WRAP.                 NO:   ONE LINE PER DEPTH STEP
~WELL INFORMATION
#MNEM.UNIT      DATA TYPE    INFORMATION
#----------   ------------   ------------------------------
 STRT.F            3.0000:   START DEPTH
 STOP.F         3449.0000:   STOP DEPTH
 STEP.F            0.5000:   STEP LENGTH
 NULL.          -999.2500:   NO VALUE
 COMP. LAWRENCE/ALLISON INC:   COMPANY
 WELL.       NPR 3 #24-10:   WELL
 FLD .             TEAPOT:   FIELD
 LOC .      S10 T38N R78W:   LOCATION
 CNTY.            NATRONA:   COUNTY
 STAT.            WYOMING:   STATE
 CTRY. UNITED STATES OF AMERICA:   COUNTRY
 SRVC.      Dresser Atlas:   SERVICE COMPANY
 DATE.        28-JUL-1985:   LOGDATE
 API .       490251104400:   API NUMBER
~CURVE INFORMATION
#MNEM.UNIT       API CODE    CURVE DESCRIPTION
#----------   ------------   ------------------------------
 DEPT.F                  :   
 PORD.DEC    45 890 12 00:   POROSITY DENSITY SANDSTONE
 CNC .DEC    42 890 03 00:   NEUTRON POROSITY SANDSTONE
 CORR.G/C3   45 356 01 00:   DENSITY CORRECTION
 DEN .G/C3   45 350 01 00:   COMPENSATED BULK DENSTIY
 AC  .US/F   60 520 00 00:   ACCOUSTIC
 CALR.IN     07 280 01 00:   CALIPER FROM RESISTIVITY
 GRR .GAPI   07 310 01 00:   GAMMA RAY
 RFOC.OHMM   07 220 04 00:   RESISTIVITY FOCUSED LOG
 RILD.OHMM   07 120 46 00:   INDUCTION LOG DEEP RESISTIVITY
 RILM.OHMM   07 120 44 00:   INDUCTION LOG MEDIUM RESISTIVITY
 SPR .MV     07 010 01 00:   SPONTANEOUS POTENTIAL
~PARAMETER INFORMATION
#MNEM.UNIT          VALUE    DESCRIPTION
#----------   ------------   ------------------------------
 PD  .                 GL:   PERMANENT DATUM
 EPD .F              5242:   ELEVATION PERMANENT DATUM
 LMF .                 KB:   LOG MEASURED FROM
 DAPD.F                13:   FEET ABOVE PERMANENT DATUM
 DMF .                 KB:   DRILLING MEASURED FROM
 EKB .F              5255:   KELLING BUSHING
 EGL .F              5242:   GROUND LEVEL
 DATE.        28-JUL-1985:   RUN DATE
 RUN .                  1:   RUN NUMBER
 DD  .F              3451:   DEPTH DRILLER
 DL  .F              3451:   DEPTH LOGGER
 BLI .F              3449:   BOTTOM LOG INTERVAL
 CS  .IN            8.625:   CASING SIZE
 CBD .F               688:   CASING BOTTOM DRILLER
 CBL .F               686:   CASING BOTTOM LOGGER
 BS  .IN            7.875:   BIT SIZE
 BSD .F              3451:   BIT SIZE AT DEPTH
 DFT .            KCL GEL:   DRILLING FLUID TYPE
 DFD .                8.9:   DRILLING FLUID DENSITY
 DFV .                 40:   DRILLING FLUID VISCOSITY
 DFPH.                8.0:   DRILLING FLUID PH
 DFL .                 10:   DRILLING FLUID LOSS
 MSS .           FLOWLINE:   MUD SAMPLE SOURCE
 RMS .OHMM           0.87:   RESISTIVITY MUD SAMPLE
 MST .F                92:   MUD SAMPLE TEMPERATURE
 RMF .OHMM             65:   RESISTIVITY MUD FILTRATE SAMPLE
 MFST.F                92:   MUD FILTRATE SAMPLE TEMPERATURE
 RMC .OHMM           1.09:   RESISTIVITY MUD CAKE
 MCST.F                92:   MUD CAKE SAMPLE TEMPERATURE
 MFSS.               CALC:   MUD FILTRATE SAMPLE SOURCE
 MCSS.               CALC:   MUD CAKE SAMPLE SOURCE
 RMB .OHMM            .66:   RESISTIVITY MUD AT BHT
 BHT .F               121:   BOTTOM HOLE TEMPERATURE
 TCS .HRS               4:   TIME CURCULATED STOPPED
 MRT .F               121:   MAXIMUM RECORDED TEMPERATURE
 LUN .               6264:   LOGGING UNIT NUMBER
 LUL .               GLTE:   LOGGING UNIT LOCATION
 ENGI.           FAHLSING:   RECORDING ENGINEER
 WITN.             STRONG:   WITNESSED BY
 CLNT.            A2DTECH:   CLIENT CODE
 ORIG.        2" 5" PRINT:   ORIGIN OF DATA
 UWI .       490251104400:   UNIQUE WELL ID
 DICO. A2D Technologies, Inc.:   DIGITIZING COMPANY
 R1  . POROSITY WITH SANDSTONE:   REMARKS 1
~OTHER INFORMATION
~A    DEPT    PORD        CNC       CORR        DEN         AC       CALR         GRR      RFOC       RILD       RILM        SPR   
# ...
  887.5000  -999.2500  -999.2500  -999.2500  -999.2500  -999.2500     9.8084   101.0354     5.7530     5.6834     5.6583   -40.3575
  888.0000  -999.2500  -999.2500  -999.2500  -999.2500  -999.2500     9.7936   102.1622     5.7526     5.6826     5.6576   -40.2175
  888.5000  -999.2500  -999.2500  -999.2500  -999.2500  -999.2500     9.7638   103.5154     5.7522     5.6818     5.6568   -40.0649
  889.0000  -999.2500  -999.2500  -999.2500  -999.2500  -999.2500     9.7490   104.8686     5.7518     5.7208     5.6955   -40.0632
  889.5000  -999.2500  -999.2500  -999.2500  -999.2500  -999.2500     9.7342   105.9959     5.7915     5.7199     5.7345   -40.0617
  890.0000  -999.2500  -999.2500  -999.2500  -999.2500  -999.2500     9.7194   106.8973     5.7911     5.7592     5.7336   -40.2116
  890.5000  -999.2500  -999.2500  -999.2500  -999.2500  -999.2500     9.7047   107.5733     5.7907     5.7582     5.7329   -40.2097
  891.0000  -999.2500  -999.2500  -999.2500  -999.2500  -999.2500     9.6899   107.5705     5.7903     5.7574     5.7321   -40.2082
  891.5000  -999.2500  -999.2500  -999.2500  -999.2500  -999.2500     9.6902   107.5683     5.7899     5.7969     5.7311   -40.0557
  892.0000  -999.2500  -999.2500  -999.2500  -999.2500  -999.2500     9.6905   105.9847     5.7896     5.7959     5.6906   -40.0542
  892.5000  -999.2500  -999.2500  -999.2500  -999.2500  -999.2500     9.6908   104.6271     5.7892     5.7951     5.6898   -40.2041
  893.0000  -999.2500  -999.2500  -999.2500  -999.2500  -999.2500     9.6911   105.0766     5.7487     5.7943     5.6496   -40.2023
  893.5000  -999.2500  -999.2500  -999.2500  -999.2500  -999.2500     9.6914   105.7521     5.7442     5.7935     5.6098   -40.0497
  894.0000  -999.2500  -999.2500  -999.2500  -999.2500  -999.2500     9.6917   102.8131     5.7080     5.7526     5.5700   -39.8972
  894.5000  -999.2500  -999.2500  -999.2500  -999.2500  -999.2500     9.6920   101.6814     5.7077     5.7518     5.5692   -39.8957
  895.0000  -999.2500  -999.2500  -999.2500  -999.2500  -999.2500     9.6924   101.2273     5.7072     5.7112     5.5685   -39.8942
  895.5000  -999.2500  -999.2500  -999.2500  -999.2500  -999.2500     9.6775   105.0655     5.7068     5.7104     5.5677   -40.0438
  896.0000  -999.2500  -999.2500  -999.2500  -999.2500  -999.2500     9.6779   109.8072     5.7064     5.7091     5.5669   -40.1933
  896.5000  -999.2500  -999.2500  -999.2500  -999.2500  -999.2500     9.6782   112.7450     5.7060     5.6693     5.5662   -40.4939
  897.0000  -999.2500  -999.2500  -999.2500  -999.2500  -999.2500     9.6633   113.6431     5.7056     5.6685     5.6043   -40.6435
  897.5000  -999.2500  -999.2500  -999.2500  -999.2500  -999.2500     9.6485   108.5124     5.7451     5.6677     5.6035   -40.8057
  898.0000  -999.2500  -999.2500  -999.2500  -999.2500  -999.2500     9.6489   103.0483     5.7446     5.7064     5.6419   -41.0937
  898.5000  -999.2500  -999.2500  -999.2500  -999.2500  -999.2500     9.6340    99.8557     5.7844     5.7453     5.6804   -41.0921
  899.0000  -999.2500  -999.2500  -999.2500  -999.2500  -999.2500     9.6193    99.1763     5.7839     5.7846     5.7193   -41.0903
  899.5000  -999.2500  -999.2500  -999.2500  -999.2500  -999.2500     9.6045   101.8844     5.8239     5.8241     5.7185   -40.9378
  900.0000  -999.2500  -999.2500  -999.2500  -999.2500  -999.2500     9.6048   103.3211     5.8427     5.8344     5.7576   -40.9107
  900.5000  -999.2500  -999.2500  -999.2500  -999.2500  -999.2500     9.6016   104.3283     5.8799     5.8667     5.7883   -40.5940
  901.0000  -999.2500  -999.2500  -999.2500  -999.2500  -999.2500     9.5989   105.0452     5.9631     5.8991     5.8189   -40.2772
  901.5000  -999.2500  -999.2500  -999.2500  -999.2500  -999.2500     9.5962   102.7409     6.0897     5.9315     5.8496   -40.0256
  902.0000  -999.2500  -999.2500  -999.2500  -999.2500  -999.2500     9.5934   100.9489     6.1331     5.9910     5.8791   -39.8730
  902.5000  -999.2500  -999.2500  -999.2500  -999.2500  -999.2500     9.5907   100.3012     6.2633     5.9918     5.9201   -39.8715
  903.0000  -999.2500  -999.2500  -999.2500  -999.2500  -999.2500     9.5897   106.6265     6.3079     6.0345     5.9201   -39.8700
  903.5000  -999.2500  -999.2500  -999.2500  -999.2500  -999.2500     9.5897   114.0813     6.3528     6.0353     5.9201   -39.8685
  904.0000  -999.2500  -999.2500  -999.2500  -999.2500  -999.2500     9.5747   120.4066     6.3094     6.0366     5.9201   -39.8670
  904.5000  -999.2500  -999.2500  -999.2500  -999.2500  -999.2500     9.5747   118.1476     6.2668     6.0791     5.9201   -40.0166
  905.0000  -999.2500  -999.2500  -999.2500  -999.2500  -999.2500     9.5596   112.2741     6.2242     6.0799     5.9614   -40.1662
  905.5000  -999.2500  -999.2500  -999.2500  -999.2500  -999.2500     9.5445   105.7229     6.2251     6.0807     5.9614   -40.4668
  906.0000  -999.2500  -999.2500  -999.2500  -999.2500  -999.2500     9.5445   101.4307     6.2259     6.0816     5.9614   -40.7674
  906.5000  -999.2500  -999.2500  -999.2500  -999.2500  -999.2500     9.5445    99.6235     6.1836     6.0826     6.0030   -40.9321
  907.0000  -999.2500  -999.2500  -999.2500  -999.2500  -999.2500     9.5445    99.1717     6.1845     6.0835     6.0030   -41.0665
  907.5000  -999.2500  -999.2500  -999.2500  -999.2500  -999.2500     9.5445   103.2380     6.1853     6.0419     6.0030   -41.0649
  908.0000  -999.2500  -999.2500  -999.2500  -999.2500  -999.2500     9.5445   105.0452     6.1862     6.0430     6.0030   -41.0631
  908.5000  -999.2500  -999.2500  -999.2500  -999.2500  -999.2500     9.5445    99.6235     6.2302     6.0438     6.0030   -40.9106
  909.0000  -999.2500  -999.2500  -999.2500  -999.2500  -999.2500     9.5596    96.4608     6.2746     6.0026     5.9614   -40.7580
  909.5000  -999.2500  -999.2500  -999.2500  -999.2500  -999.2500     9.5752    96.0090     6.2320     5.9618     5.9201   -40.6055
  910.0000  -999.2500  -999.2500  -999.2500  -999.2500  -999.2500     9.5897    96.9127     6.1896     5.8805     5.8791   -40.6040
  910.5000  -999.2500  -999.2500  -999.2500  -999.2500  -999.2500     9.6048    97.8163     6.1469     5.8813     5.8383   -40.4514
  911.0000  -999.2500  -999.2500  -999.2500  -999.2500  -999.2500     9.6220    98.0422     6.0635     5.8821     5.7978   -40.4499
  911.5000  -999.2500  -999.2500  -999.2500  -999.2500  -999.2500     9.6350    98.0422     6.0223     5.8829     5.7978   -40.4484
  912.0000  -999.2500  -999.2500  -999.2500  -999.2500  -999.2500     9.6501    96.9127     6.0259     5.8837     5.7978   -40.5980
  912.5000  -999.2500  -999.2500  -999.2500  -999.2500  -999.2500     9.6501    96.0090     6.0695     5.8845     5.7978   -40.5965
  913.0000  -999.2500  -999.2500  -999.2500  -999.2500  -999.2500     9.6652    93.2982     6.2949     5.8854     5.7576   -40.7464
  913.5000  -999.2500  -999.2500  -999.2500  -999.2500  -999.2500     9.6802    86.2952     7.0452     5.8862     5.7576   -40.8960
  914.0000  -999.2500  -999.2500  -999.2500  -999.2500  -999.2500     9.6953    81.0994     7.8101     5.8870     5.6781   -40.8941
  914.5000  -999.2500  -999.2500  -999.2500  -999.2500  -999.2500     9.7255    82.9066     8.0895     5.8878     5.6362   -40.8926
  915.0000  -999.2500  -999.2500  -999.2500  -999.2500  -999.2500     9.7557    90.1355     7.5235     5.8478     5.5608   -40.8911
  915.5000  -999.2500  -999.2500  -999.2500  -999.2500  -999.2500     9.7858    98.0959     6.2543     5.8081     5.5170   -40.8896
  916.0000  -999.2500  -999.2500  -999.2500  -999.2500  -999.2500     9.8311   103.2380     5.9880     5.7666     5.4460   -40.7371
  916.5000  -999.2500  -999.2500  -999.2500  -999.2500  -999.2500     9.8612   100.2335     5.9063     5.6898     5.4082   -40.7356
  917.0000  -999.2500  -999.2500  -999.2500  -999.2500  -999.2500     9.8914    98.2080     5.8255     5.6512     5.4082   -40.8851
  917.5000  -999.2500  -999.2500  -999.2500  -999.2500  -999.2500     9.9216    99.9999     5.8263     5.6448     5.4082   -41.0348
