~VERSION INFORMATION
 VERS.                2.0:   CWLS LOG ASCII STANDARD - VERSION 2.0
 WRAP.                 NO:   ONE LINE PER DEPTH STEP
~WELL INFORMATION
#MNEM.UNIT      DATA TYPE    INFORMATION
#----------   ------------   ------------------------------
 STRT.F           32.0000:   START DEPTH
 STOP.F          688.5000:   STOP DEPTH
 STEP.F            0.5000:   STEP LENGTH
 NULL.          -999.2500:   NO VALUE
 COMP. FENIX & SCISSON INC:   COMPANY
 WELL.       NPR 3 #78-34:   WELL
 FLD .  TEAPOT DOME NPR-3:   FIELD
 LOC .      S34 T39N R78W:   LOCATION
 CNTY.            NATRONA:   COUNTY
 STAT.            WYOMING:   STATE
 CTRY. UNITED STATES OF AMERICA:   COUNTRY
 SRVC.           BIRDWELL:   SERVICE COMPANY
 DATE.        16-AUG-1978:   LOGDATE
 API .       490251070700:   API NUMBER
~CURVE INFORMATION
#MNEM.UNIT       API CODE    CURVE DESCRIPTION
#----------   ------------   ------------------------------
 DEPT.F                  :   
 SPR .MV     05 010 01 00:   SPONTANEOUS POTENTIAL
 SN  .OHMM   05 040 16 00:   SHORT NORMAL 16'
 ILD .OHMM   05 120 46 00:   INDUCTION LOG DEEP RESISTIVITY
 CALD.IN     45 280 60 00:   CALIPER
 GRD .GAPI   45 310 01 00:   GAMMA RAY FROM DENSITY LOG
 RHOB.G/C3   45 350 01 00:   BULK DENSITY
 DPHI.DEC    45 890 12 00:   DENSITY POROSITY SANDSTONE
 CORR.G/C3   45 356 01 00:   DENSITY CORRECTION
~PARAMETER INFORMATION
#MNEM.UNIT          VALUE    DESCRIPTION
#----------   ------------   ------------------------------
 PD  .                 GL:   PERMANENT DATUM
 EPD .F              5085:   ELEVATION PERMANENT DATUM
 LMF .                 KB:   LOG MEASURED FROM
 DAPD.F                 4:   FEET ABOVE PERMANENT DATUM
 DMF .                 KB:   DRILLING MEASURED FROM
 EKB .F              5089:   KELLING BUSHING
 EGL .F              5085:   GROUND LEVEL
 DATE.          8-16-1978:   RUN DATE
 RUN .                  1:   RUN NUMBER
 DD  .F               680:   DEPTH DRILLER
 DL  .F               688:   DEPTH LOGGER
 BLI .F               682:   BOTTOM LOG INTERVAL
 TLI .F                50:   TOP LOG INTERVAL
 CS  .IN            8.625:   CASING SIZE
 CBD .F                40:   CASING BOTTOM DRILLER
 BS  .IN            7.875:   BIT SIZE
 BSD .F               680:   BIT SIZE AT DEPTH
 DFT .                KCL:   DRILLING FLUID TYPE
 RMS .OHMM            .32:   RESISTIVITY MUD SAMPLE
 MST .F                64:   MUD SAMPLE TEMPERATURE
 RMF .OHMM             .3:   RESISTIVITY MUD FILTRATE SAMPLE
 MFST.F                76:   MUD FILTRATE SAMPLE TEMPERATURE
 RMC .OHMM            .16:   RESISTIVITY MUD CAKE
 MCST.F                64:   MUD CAKE SAMPLE TEMPERATURE
 MFSS.               MEAS:   MUD FILTRATE SAMPLE SOURCE
 MCSS.               MEAS:   MUD CAKE SAMPLE SOURCE
 TCS .HRS               1:   TIME CURCULATED STOPPED
 LUN .               3006:   LOGGING UNIT NUMBER
 LUL .               CASP:   LOGGING UNIT LOCATION
 ENGI.             MILLER:   RECORDING ENGINEER
 WITN.           MCGINLEY:   WITNESSED BY
 CLNT.            A2DTECH:   CLIENT CODE
 ORIG.           5" PRINT:   ORIGIN OF DATA
 UWI .       490251070700:   UNIQUE WELL ID
 DICO. A2D Technologies, Inc.:   DIGITIZING COMPANY
~OTHER INFORMATION
~A   DEPT      SPR         SN        ILD       CALD         GRD      RHOB       DPHI       CORR   
# ...
  558.5000   -26.9314     9.9734     8.8302     7.0454    77.3389     2.4157     0.1625     0.0463
  559.0000   -26.9376     9.9834     8.8320     7.0544    77.1146     2.4182     0.1599     0.0510
  559.5000   -26.9438     9.9935     8.8338     7.0635    75.1940     2.4210     0.1553     0.0557
  560.0000   -26.9499    10.0035     8.8356     7.0567    72.5738     2.4240     0.1566     0.0548
  560.5000   -26.9540    10.0135     8.8373     7.0361    71.6314     2.4315     0.1508     0.0535
  561.0000   -26.9539    10.0236     8.8391     7.0463    71.1394     2.4463     0.1404     0.0522
  561.5000   -26.9539    10.0336     8.8409     7.1559    70.6742     2.4608     0.1323     0.0510
  562.0000   -26.9539    10.0437     8.8427     7.2641    70.9707     2.4659     0.1297     0.0503
  562.5000   -26.9539    10.0538     8.8445     7.3728    72.2566     2.4686     0.1288     0.0540
  563.0000   -26.9539    10.0639     8.8463     7.4826    73.5932     2.4702     0.1266     0.0581
  563.5000   -26.9539    10.0740     8.8481     7.5064    73.2927     2.4723     0.1286     0.0705
  564.0000   -26.9539    10.0841     8.8498     7.5257    69.8162     2.4808     0.1234     0.0835
  564.5000   -26.9539    10.0942     8.8516     7.5455    69.5545     2.4953     0.1119     0.0964
  565.0000   -26.9539    10.1043     8.8534     7.5654    69.6732     2.5056     0.1054     0.1093
  565.5000   -26.9540    10.1145     8.8552     7.5852    68.2317     2.5041     0.1076     0.1222
  566.0000   -26.9511    10.1246     8.8570     7.6065    70.0794     2.5063     0.1110     0.1349
  566.5000   -26.9697    10.1348     8.8588     7.6669    77.7415     2.5110     0.1055     0.1541
  567.0000   -26.7592    10.1449     8.8606     7.7322    81.3134     2.5159     0.1002     0.1748
  567.5000   -26.4485    10.1552     8.8623     7.7975    80.5817     2.5186     0.0980     0.1956
  568.0000   -25.6727    10.1655     8.8641     7.8460    78.6610     2.5166     0.0984     0.2055
  568.5000   -24.9103    10.1755     8.8659     7.8085    76.7468     2.5144     0.1013     0.2111
  569.0000   -24.1448    10.2709     9.0337     7.7718    75.2990     2.5123     0.1041     0.2167
  569.5000   -23.3848    10.4615     9.2313     7.7342    74.3195     2.5061     0.1079     0.2223
  570.0000   -22.9680    10.9434     9.7425     7.7298    73.3419     2.4993     0.1129     0.2275
  570.5000   -22.7191    11.4803    10.3938     7.7341    72.3609     2.4965     0.1179     0.2254
  571.0000   -22.5257    12.1941    11.0883     7.7386    71.9913     2.4870     0.1259     0.2121
  571.5000   -22.5723    13.0443    11.8290     7.7430    72.0526     2.4624     0.1403     0.1971
  572.0000   -22.8520    13.9538    12.6191     7.7474    68.2646     2.4381     0.1549     0.1807
  572.5000   -23.1305    14.9268    13.4628     7.7518    62.8390     2.4145     0.1782     0.1305
  573.0000   -23.3440    15.9675    14.3609     7.7562    59.9431     2.3579     0.2074     0.0780
  573.5000   -23.2968    16.7205    15.2499     7.7605    57.7143     2.2935     0.2366     0.0642
  574.0000   -23.2552    17.0282    15.6931     7.7652    56.4579     2.2745     0.2468     0.0807
  574.5000   -23.2139    17.0282    15.6871     7.7467    56.5816     2.2728     0.2484     0.1187
  575.0000   -23.1727    16.7386    15.0714     7.7169    57.0177     2.3122     0.2117     0.1570
  575.5000   -23.1315    16.3686    14.5645     7.6867    57.8284     2.3622     0.1621     0.1734
  576.0000   -23.0902    16.0069    14.0741     7.6565    58.6367     2.4228     0.1848     0.1216
  576.5000   -23.0490    15.6531    13.6008     7.6264    59.3606     2.3560     0.2144     0.0497
  577.0000   -23.0078    15.3071    13.1434     7.5962    59.7735     2.3261     0.2160     0.0348
  577.5000   -22.9666    14.9688    12.7014     7.5661    62.2238     2.3333     0.2129     0.0340
  578.0000   -22.9254    14.6380    12.3438     7.5355    64.8897     2.3416     0.2088     0.0345
  578.5000   -22.8842    14.3145    12.1189     7.5308    67.5566     2.3466     0.2056     0.0349
  579.0000   -22.8429    14.0224    12.0081     7.5360    70.0467     2.3469     0.2046     0.0353
  579.5000   -22.8018    13.8956    12.0081     7.5412    70.8253     2.3467     0.2033     0.0357
  580.0000   -22.7597    13.7700    12.0206     7.5521    70.7938     2.3400     0.2079     0.0367
  580.5000   -22.7810    13.6455    12.0366     7.5463    70.5882     2.3340     0.2112     0.0394
  581.0000   -22.8351    13.5221    12.0527     7.5223    70.3795     2.3496     0.2023     0.0418
  581.5000   -22.8902    13.3998    12.0687     7.4976    70.2797     2.3579     0.1940     0.0408
  582.0000   -22.9453    13.2787    12.0847     7.4720    71.0712     2.3527     0.1990     0.0396
  582.5000   -23.0002    13.1586    12.1008     7.4791    69.7052     2.3447     0.2048     0.0385
  583.0000   -23.0552    13.0397    12.1182     7.4949    67.7380     2.3418     0.2080     0.0391
  583.5000   -23.1101    12.9218    12.0625     7.5068    66.4391     2.3430     0.2049     0.0412
  584.0000   -23.1651    12.8049    11.9985     7.4961    66.6298     2.3519     0.2007     0.0434
  584.5000   -23.2199    12.6889    11.9348     7.4871    68.2712     2.3638     0.1965     0.0457
  585.0000   -23.2754    12.5728    11.8715     7.5296    69.7923     2.3758     0.1853     0.0438
  585.5000   -23.3281    12.6123    11.8085     7.5785    67.7372     2.3812     0.1805     0.0414
  586.0000   -23.5045    12.6728    11.7458     7.5511    62.9708     2.3764     0.1861     0.0389
  586.5000   -23.7253    12.7337    11.6835     7.5079    61.6374     2.3716     0.1900     0.0364
  587.0000   -23.9496    12.7949    11.6215     7.5005    64.5171     2.3677     0.1892     0.0369
  587.5000   -24.1738    12.8563    11.5597     7.4945    68.7337     2.3678     0.1907     0.0381
  588.0000   -24.3950    12.9244    11.4993     7.4883    71.3968     2.3677     0.1925     0.0393
  588.5000   -24.5737    12.9065    11.4224     7.4926    71.1552     2.3732     0.1854     0.0405
  589.0000   -24.6438    12.8867    11.2794     7.5309    70.7089     2.3809     0.1775     0.0417
  589.5000   -24.7163    12.8667    11.1381     7.5690    70.2581     2.3884     0.1760     0.0430
  590.0000   -24.7880    12.8468    10.9986     7.6069    69.8191     2.3899     0.1780     0.0441
  590.5000   -24.8597    12.8270    10.9535     7.6285    69.3354     2.3904     0.1750     0.0452
  591.0000   -24.9263    12.8072    10.9535     7.5359    67.9059     2.3899     0.1753     0.0480
  591.5000   -25.3042    12.7874    10.9535     7.4088    66.4923     2.3891     0.1777     0.0572
  592.0000   -25.7733    12.7677    10.9537     7.3269    67.0326     2.3928     0.1733     0.0661
  592.5000   -26.2479    12.7480    10.9542     7.3558    70.7264     2.4019     0.1676     0.0749
  593.0000   -26.7311    12.7283    10.9090     7.4265    73.0635     2.4110     0.1620     0.0820
  593.5000   -26.7575    12.7086    10.8426     7.4970    71.4902     2.4202     0.1539     0.0819
  594.0000   -26.7588    12.6883    10.7774     7.5675    69.7048     2.4373     0.1425     0.0819
  594.5000   -26.7861    12.6028    10.7124     7.6274    69.4430     2.4542     0.1312     0.0770
  595.0000   -26.8136    12.5169    10.6479     7.5828    69.7841     2.4710     0.1194     0.0707
  595.5000   -26.8411    12.4316    10.5837     7.5061    69.6242     2.4847     0.1190     0.0644
  596.0000   -26.8686    12.3469    10.5200     7.4456    68.6596     2.4838     0.1332     0.0617
  596.5000   -26.8960    12.2628    10.4566     7.4569    67.6943     2.4509     0.1451     0.0813
  597.0000   -26.9229    12.1792    10.3936     7.5060    67.6529     2.4376     0.1517     0.1110
  597.5000   -26.9442    12.0963    10.3310     7.6427    69.0710     2.4432     0.1441     0.1274
  598.0000   -27.1682    12.0138    10.2688     7.7718    71.1460     2.4495     0.1405     0.1314
  598.5000   -27.4097    11.9320    10.2069     7.7824    72.4264     2.4446     0.1463     0.1349
