~VERSION INFORMATION
 VERS.                2.0:   CWLS LOG ASCII STANDARD - VERSION 2.0
 WRAP.                 NO:   ONE LINE PER DEPTH STEP
~WELL INFORMATION
#MNEM.UNIT      DATA TYPE    INFORMATION
#----------   ------------   ------------------------------
 STRT.F          372.0000:   START DEPTH
 STOP.F         1845.0000:   STOP DEPTH
 STEP.F            0.5000:   STEP LENGTH
 NULL.          -999.2500:   NO VALUE
 COMP.             T.H.E.:   COMPANY
 WELL. 63-1-STX-29 #63-29:   WELL
 FLD .             TEAPOT:   FIELD
 LOC .      S29 T39N R78W:   LOCATION
 CNTY.            NATRONA:   COUNTY
 STAT.            WYOMING:   STATE
 CTRY. UNITED STATES OF AMERICA:   COUNTRY
 SRVC.            Unknown:   SERVICE COMPANY
 DATE.        20-MAY-1996:   LOGDATE
 API .       490252279200:   API NUMBER
~CURVE INFORMATION
#MNEM.UNIT       API CODE    CURVE DESCRIPTION
#----------   ------------   ------------------------------
 DEPT.F                  :   
 ROP .MIN/FT 91 810 01 00:   RATE OF DRILLING PENETRATION
 TGAS.UNITS  91 830 01 00:   TOTAL GAS FROM HOTWIRE
~PARAMETER INFORMATION
#MNEM.UNIT          VALUE    DESCRIPTION
#----------   ------------   ------------------------------
 EKB .F              4983:   KELLING BUSHING
 EGL .F              4973:   GROUND LEVEL
 DATE.          5-20-1996:   RUN DATE
 RUN .                  1:   RUN NUMBER
 BLI .F              1845:   BOTTOM LOG INTERVAL
 TLI .F               372:   TOP LOG INTERVAL
 CS  .IN                7:   CASING SIZE
 CBD .F               354:   CASING BOTTOM DRILLER
 ENGI.   C. TOWER/R. HUSK:   RECORDING ENGINEER
 CLNT.            A2DTECH:   CLIENT CODE
 ORIG.           5" PRINT:   ORIGIN OF DATA
 UWI .       490252279200:   UNIQUE WELL ID
 DICO. A2D Technologies, Inc.:   DIGITIZING COMPANY
~OTHER INFORMATION
~A   DEPT        ROP     TGAS   
# ...
  979.5000     0.8758     3.2122
  980.0000     0.8863     2.8853
  980.5000     0.8863     2.6757
  981.0000     0.8862     2.1528
  981.5000     0.8756     1.9403
  982.0000     1.0019     1.9394
  982.5000     1.0018     1.7271
  983.0000     1.0018     1.7260
  983.5000     1.0017     1.8513
  984.0000     1.0187     1.9354
  984.5000     1.0437     1.9342
  985.0000     1.0437     1.9330
  985.5000     1.0501     1.9320
  986.0000     1.0144     1.9310
  986.5000     0.9488     1.9299
  987.0000     0.9593     1.9289
  987.5000     0.9803     1.9278
  988.0000     0.9954     1.9268
  988.5000     1.0012     1.9256
  989.0000     1.0012     1.7134
  989.5000     1.0116     1.7123
  990.0000     1.0116     1.7113
  990.5000     1.0115     1.7100
  991.0000     1.0220     1.7092
  991.5000     1.0325     1.7403
  992.0000     1.0324     1.9183
  992.5000     0.8287     2.1285
  993.0000     0.8218     2.3389
  993.5000     0.8217     2.3377
  994.0000     1.0427     2.3365
  994.5000     1.0427     2.4380
  995.0000     1.0426     2.7572
  995.5000     1.0426     2.7559
  996.0000     1.0215     2.9662
  996.5000     0.9162     3.0441
  997.0000     0.9266     3.1754
  997.5000     0.9476     3.1742
  998.0000     0.9476     3.0592
  998.5000     0.9534     2.9609
  999.0000     0.9580     2.9598
  999.5000     0.9704     2.9586
 1000.0000     0.9684     2.8290
 1000.5000     0.8565     2.5340
 1001.0000     0.8525     2.5331
 1001.5000     0.8508     2.5320
 1002.0000     0.8419     2.5310
 1002.5000     0.8418     2.5298
 1003.0000     0.8628     2.5289
 1003.5000     0.8733     2.5278
 1004.0000     0.5289     2.5268
 1004.5000     0.5292     2.5256
 1005.0000     0.5295     2.5246
 1005.5000     0.5298     2.4426
 1006.0000     0.5301     2.3113
 1006.5000     0.5305     2.3102
 1007.0000     0.5307     2.3090
 1007.5000     0.5311     2.3081
 1008.0000     0.5314     2.3070
 1008.5000     0.5212     2.3060
 1009.0000     0.5215     2.3048
 1009.5000     0.5218     2.3039
 1010.0000     0.5221     2.3028
 1010.5000     0.5225     2.3018
 1011.0000     0.5178     2.3006
 1011.5000     0.5125     2.2996
 1012.0000     0.5133     2.2986
 1012.5000     0.7764     2.2975
 1013.0000     0.7720     2.2964
 1013.5000     0.7769     2.2954
 1014.0000     0.7781     2.2944
 1014.5000     0.8513     2.2933
 1015.0000     1.2621     2.2922
 1015.5000     1.2624     2.2912
 1016.0000     1.2733     2.2901
 1016.5000     0.9683     2.2891
 1017.0000     0.9686     2.2880
 1017.5000     0.9795     2.2868
 1018.0000     0.9813     2.2859
 1018.5000     1.0012     2.2849
 1019.0000     1.0015     2.2838
 1019.5000     1.0018     2.2826
 1020.0000     1.0021     2.2817
 1020.5000     1.0024     2.2806
 1021.0000     1.0028     2.2796
 1021.5000     1.0031     2.2784
 1022.0000     0.9928     1.9533
 1022.5000     0.9932     1.6426
 1023.0000     0.9935     1.4303
 1023.5000     0.9888     1.2179
 1024.0000     0.9811     1.2169
 1024.5000     0.9734     1.4273
 1025.0000     1.1422     1.1922
 1025.5000     1.1424     1.0024
 1026.0000     1.1427     1.0014
 1026.5000     1.1431     1.0004
 1027.0000     1.1434     0.9993
 1027.5000     1.1437     0.7868
 1028.0000     1.1440     0.7857
 1028.5000     1.1362     0.7849
 1029.0000     0.9973     0.7838
 1029.5000     1.0028     0.7827
 1030.0000     1.0084     0.7815
 1030.5000     1.0087     0.6770
 1031.0000     1.0091     0.5683
 1031.5000     1.0094     0.7785
 1032.0000     1.0097     0.7773
 1032.5000     0.9852     0.7764
 1033.0000     0.7893     0.7754
 1033.5000     0.7791     0.7743
 1034.0000     0.7794     0.7730
 1034.5000     0.7902     0.7722
 1035.0000     0.7905     0.7711
 1035.5000     0.8014     0.7701
 1036.0000     0.8167     0.7689
 1036.5000     0.5493     0.7680
 1037.0000     0.5497     0.7669
 1037.5000     0.5501     0.7658
 1038.0000     0.5503     0.7647
 1038.5000     0.5506     0.7635
 1039.0000     0.5510     0.7627
 1039.5000     0.5513     0.7616
 1040.0000     0.5516     0.7605
 1040.5000     0.5545     0.7593
 1041.0000     0.5627     0.7585
 1041.5000     0.5605     0.7574
 1042.0000     0.5634     0.7563
 1042.5000     0.5637     0.7552
 1043.0000     0.5640     0.7542
 1043.5000     0.5749     0.7532
 1044.0000     0.5752     0.7520
 1044.5000     0.5860     0.7509
 1045.0000     0.5863     0.7500
 1045.5000     0.5867     0.7489
 1046.0000     0.5975     0.7477
 1046.5000     0.5978     0.7468
 1047.0000     0.5981     0.7457
 1047.5000     0.5984     0.7447
 1048.0000     0.5987     0.7437
 1048.5000     0.5991     0.7426
 1049.0000     0.5980     0.7414
 1049.5000     0.5892     0.7405
 1050.0000     0.5827     0.7394
 1050.5000     0.5793     0.7384
 1051.0000     0.5690     0.7372
 1051.5000     0.5694     0.7363
 1052.0000     0.5697     0.7352
 1052.5000     0.5700     0.7342
 1053.0000     0.5683     0.7330
 1053.5000     0.5601     0.7320
 1054.0000     0.5289     0.7310
 1054.5000     0.6506     0.7299
 1055.0000     0.6347     0.7288
 1055.5000     0.6245     0.7278
 1056.0000     0.6249     0.7268
 1056.5000     0.6252     0.7257
 1057.0000     0.6255     0.7246
 1057.5000     0.6363     0.7236
 1058.0000     0.9840     0.7225
 1058.5000     0.9948     0.7215
 1059.0000     0.9952     0.7204
 1059.5000     0.9959     0.7192
 1060.0000     1.5853     0.7183
 1060.5000     1.5856     0.7173
 1061.0000     1.5859     0.7162
 1061.5000     1.5862     0.7150
 1062.0000     1.5971     0.7141
 1062.5000     1.2978     0.7130
 1063.0000     1.0818     0.7120
 1063.5000     1.1149     0.7108
 1064.0000     1.1247     0.7099
 1064.5000     0.7631     0.7088
 1065.0000     0.7884     0.7077
 1065.5000     0.7902     0.7066
 1066.0000     0.8207     0.7056
 1066.5000     0.5368     0.7046
 1067.0000     0.5371     0.7035
 1067.5000     0.5479     0.7024
 1068.0000     0.5482     0.7012
 1068.5000     0.5486     0.7004
 1069.0000     0.5488     0.6993
 1069.5000     0.5597     0.6982
 1070.0000     0.5600     0.6970
 1070.5000     0.5498     0.6961
 1071.0000     0.5501     0.6951
 1071.5000     0.5399     0.6940
 1072.0000     0.5402     0.6928
 1072.5000     0.5300     0.6919
 1073.0000     0.5198     0.6908
 1073.5000     0.5229     0.6898
 1074.0000     0.5309     0.6886
 1074.5000     0.5313     0.6877
 1075.0000     0.5316     0.6866
 1075.5000     0.5319     0.6856
 1076.0000     0.5211     0.6844
 1076.5000     0.5115     0.6835
 1077.0000     0.5118     0.6824
 1077.5000     0.5121     0.6813
 1078.0000     0.5229     0.6802
 1078.5000     0.5233     0.6790
 1079.0000     0.5236     0.6782
 1079.5000     0.5134     0.6771
 1080.0000     0.5125     0.6760
 1080.5000     0.5035     0.6748
 1081.0000     0.5038     0.6739
 1081.5000     0.5041     0.6729
 1082.0000     0.5029     0.6718
 1082.5000     0.4732     0.6706
 1083.0000     0.4629     0.6697
 1083.5000     0.4572     0.6687
 1084.0000     0.4636     0.6676
 1084.5000     0.4639     0.6664
 1085.0000     0.4853     0.6655
 1085.5000     0.4961     0.6644
 1086.0000     0.5069     0.6634
 1086.5000     0.6441     0.6622
 1087.0000     0.6760     0.6613
 1087.5000     0.6502     0.6602
 1088.0000     0.6345     0.6592
 1088.5000     0.6348     0.6580
 1089.0000     0.6352     0.6568
 1089.5000     0.6409     0.6560
 1090.0000     0.6463     0.6549
 1090.5000     0.6711     0.6538
 1091.0000     0.7838     0.6526
 1091.5000     0.7718     0.6518
 1092.0000     0.7717     0.6507
 1092.5000     0.9931     0.6496
 1093.0000     1.0036     0.6484
 1093.5000     1.0035     0.6475
 1094.0000     0.6342     0.6465
 1094.5000     0.6341     0.6454
 1095.0000     0.6340     0.6443
 1095.5000     0.6339     0.6433
 1096.0000     0.6443     0.6423
 1096.5000     0.6547     0.6412
 1097.0000     0.6546     0.6401
 1097.5000     0.6545     0.6391
 1098.0000     0.6228     0.6380
 1098.5000     0.5172     0.6370
 1099.0000     0.5065     0.6359
 1099.5000     0.5064     0.6347
 1100.0000     0.5063     0.6338
 1100.5000     0.5062     0.6327
