~VERSION INFORMATION
 VERS.                2.0:   CWLS LOG ASCII STANDARD - VERSION 2.0
 WRAP.                 NO:   ONE LINE PER DEPTH STEP
~WELL INFORMATION
#MNEM.UNIT      DATA TYPE    INFORMATION
#----------   ------------   ------------------------------
 STRT.F            0.1000:   START DEPTH
 STOP.F          550.8000:   STOP DEPTH
 STEP.F            0.1000:   STEP LENGTH
 NULL.          -999.2500:   NO VALUE
 COMP.       F D SERV INC:   COMPANY
 WELL.  82-1 SX 10 #82-10:   WELL
 FLD .             TEAPOT:   FIELD
 LOC .      S10 T38N R78W:   LOCATION
 CNTY.            NATRONA:   COUNTY
 STAT.            WYOMING:   STATE
 CTRY. UNITED STATES OF AMERICA:   COUNTRY
 SRVC.     Atlas Wireline:   SERVICE COMPANY
 DATE.        11-DEC-1992:   LOGDATE
 API .       490252257600:   API NUMBER
~CURVE INFORMATION
#MNEM.UNIT       API CODE    CURVE DESCRIPTION
#----------   ------------   ------------------------------
 DEPT.F                  :   
 GRR .GAPI   07 310 01 00:   GAMMA RAY
 RILD.OHMM   07 120 46 00:   INDUCTION LOG DEEP RESISTIVITY
 RILM.OHMM   07 120 44 00:   INDUCTION LOG MEDIUM RESISTIVITY
~PARAMETER INFORMATION
#MNEM.UNIT          VALUE    DESCRIPTION
#----------   ------------   ------------------------------
 PD  .                 GL:   PERMANENT DATUM
 EPD .F              5136:   ELEVATION PERMANENT DATUM
 LMF .                 KB:   LOG MEASURED FROM
 DAPD.F                10:   FEET ABOVE PERMANENT DATUM
 DMF .                 KB:   DRILLING MEASURED FROM
 EKB .F              5146:   KELLING BUSHING
 EDF .F              5145:   DRILLING FLOOR
 EGL .F              5136:   GROUND LEVEL
 DATE.        11-DEC-1992:   RUN DATE
 RUN .                  1:   RUN NUMBER
 DD  .F               560:   DEPTH DRILLER
 DL  .F               560:   DEPTH LOGGER
 BLI .F               551:   BOTTOM LOG INTERVAL
 CS  .IN            8.625:   CASING SIZE
 CBD .F                53:   CASING BOTTOM DRILLER
 CBL .F                54:   CASING BOTTOM LOGGER
 BS  .IN            7.875:   BIT SIZE
 BSD .F               560:   BIT SIZE AT DEPTH
 DFT .           AIR FOAM:   DRILLING FLUID TYPE
 BHT .F                60:   BOTTOM HOLE TEMPERATURE
 MRT .F                60:   MAXIMUM RECORDED TEMPERATURE
 LUN .           HL- 6274:   LOGGING UNIT NUMBER
 LUL .             CASPER:   LOGGING UNIT LOCATION
 ENGI.       P. RASMUSSEN:   RECORDING ENGINEER
 WITN.          G. STRONG:   WITNESSED BY
 CLNT.            A2DTECH:   CLIENT CODE
 ORIG.           5" PRINT:   ORIGIN OF DATA
 UWI .       490252257600:   UNIQUE WELL ID
 DICO. A2D Technologies, Inc.:   DIGITIZING COMPANY
~OTHER INFORMATION
~A    DEPT      GRR      RILD       RILM   
# ...
  491.5000   120.7549     9.6659     9.5435
  491.6000   120.7098     9.6340     9.4976
  491.7000   120.4505     9.5763     9.4778
  491.8000   120.4485     9.5329     9.4493
  491.9000   120.2226     9.5277     9.4124
  492.0000   119.5909     9.4671     9.4012
  492.1000   118.8065     9.4139     9.3476
  492.2000   118.1269     9.4018     9.3476
  492.3000   117.6034     9.3662     9.2974
  492.4000   117.0799     9.3101     9.2417
  492.5000   116.5262     9.2725     9.2192
  492.6000   115.7871     9.2628     9.1947
  492.7000   115.2086     9.2085     9.1557
  492.8000   114.8511     9.2085     9.1479
  492.9000   114.7146     9.1607     9.0926
  493.0000   114.7990     9.1058     9.0926
  493.1000   115.0580     9.0513     9.0469
  493.2000   115.3171     9.0191     8.9928
  493.3000   115.6094     9.0191     8.9677
  493.4000   116.0626     9.0136     8.9470
  493.5000   116.5825     8.9569     8.9059
  493.6000   117.2499     8.9569     8.9059
  493.7000   118.1384     8.9142     8.9059
  493.8000   119.3155     8.8951     8.8563
  493.9000   120.8789     8.8951     8.8445
  494.0000   122.5142     8.8951     8.8445
  494.1000   123.7151     8.8951     8.8192
  494.2000   124.1316     8.8934     8.7836
  494.3000   124.3134     8.8337     8.7836
  494.4000   124.3116     8.8337     8.7823
  494.5000   124.3098     8.8337     8.7231
  494.6000   124.3573     8.8337     8.7231
  494.7000   124.6070     8.8337     8.7231
  494.8000   124.6049     8.8196     8.7231
  494.9000   124.6033     8.7727     8.7231
  495.0000   124.6015     8.7727     8.7231
  495.1000   124.7503     8.7727     8.7231
  495.2000   124.8987     8.7727     8.7231
  495.3000   124.8968     8.7727     8.6630
  495.4000   124.9259     8.7727     8.6630
  495.5000   125.1939     8.7727     8.6630
  495.6000   125.7933     8.7727     8.6630
  495.7000   126.4276     8.7704     8.6630
  495.8000   127.2084     8.7122     8.6630
  495.9000   127.9892     8.7122     8.6630
  496.0000   128.6776     8.7122     8.6630
  496.1000   129.1452     8.7122     8.6630
  496.2000   129.4043     8.7122     8.6630
  496.3000   129.6906     8.7122     8.6630
  496.4000   129.6890     8.7122     8.6630
  496.5000   129.6872     8.7122     8.6630
  496.6000   129.6854     8.7122     8.6630
  496.7000   129.6836     8.7122     8.6630
  496.8000   129.6080     8.7122     8.6630
  496.9000   129.3454     8.7122     8.6630
  497.0000   129.0766     8.7122     8.6630
  497.1000   129.0746     8.7122     8.6630
  497.2000   129.0731     8.7122     8.6630
  497.3000   129.0713     8.7122     8.6630
  497.4000   129.2046     8.7122     8.6630
  497.5000   129.3684     8.7122     8.6630
  497.6000   129.4220     8.7122     8.6630
  497.7000   129.6811     8.7122     8.6630
  497.8000   129.9643     8.7275     8.6630
  497.9000   130.1991     8.7727     8.6630
  498.0000   130.2617     8.7727     8.6630
  498.1000   130.4165     8.7727     8.6630
  498.2000   130.4421     8.7727     8.6630
  498.3000   130.1795     8.7727     8.6630
  498.4000   129.9168     8.7727     8.6630
  498.5000   129.6511     8.7727     8.6630
  498.6000   129.3483     8.7727     8.6630
  498.7000   128.9109     8.7727     8.6630
  498.8000   127.8533     8.7727     8.6630
  498.9000   126.6854     8.7727     8.6630
  499.0000   125.7384     8.7727     8.6630
  499.1000   125.0124     8.7727     8.6630
  499.2000   124.4888     8.7727     8.6630
  499.3000   123.9223     8.7569     8.6630
  499.4000   123.4418     8.7122     8.6630
  499.5000   122.9182     8.7122     8.6630
  499.6000   122.5544     8.6521     8.6630
  499.7000   122.4114     8.6521     8.6630
  499.8000   122.5692     8.6521     8.6630
  499.9000   123.0096     8.6242     8.6153
  500.0000   124.2108     8.5726     8.6033
  500.1000   126.9748     8.5331     8.5715
  500.2000   128.7254     8.5331     8.5202
  500.3000   129.6164     8.5331     8.4851
  500.4000   129.8205     8.4858     8.4768
  500.5000   130.0702     8.4742     8.4266
  500.6000   130.3198     8.4428     8.4266
  500.7000   130.5694     8.4157     8.3833
  500.8000   130.8190     8.4157     8.3686
  500.9000   131.1058     8.4076     8.3406
  501.0000   131.1038     8.3576     8.2907
  501.1000   131.1013     8.3576     8.2410
  501.2000   131.0990     8.3149     8.1968
  501.3000   131.0965     8.2999     8.1968
  501.4000   131.0941     8.2727     8.1968
  501.5000   131.0915     8.2231     8.1968
  501.6000   131.0893     8.1858     8.1968
  501.7000   130.9127     8.1858     8.1723
  501.8000   130.7838     8.1858     8.1403
  501.9000   130.7046     8.1399     8.1403
  502.0000   130.3940     8.0911     8.1403
  502.1000   129.5733     8.0732     8.1403
  502.2000   129.1083     8.0732     8.1403
  502.3000   128.6019     8.0575     8.1041
  502.4000   128.3633     8.0175     8.0842
  502.5000   128.3609     8.0175     8.0628
  502.6000   128.3585     8.0175     8.0285
  502.7000   128.3560     8.0175     8.0285
  502.8000   128.5935     7.9832     8.0285
  502.9000   128.8431     7.9621     8.0285
  503.0000   129.0927     7.9562     7.9883
  503.1000   129.4359     7.8051     7.9732
  503.2000   129.8927     7.7950     7.9732
  503.3000   130.1461     7.7500     7.9549
  503.4000   130.1438     7.6984     7.9182
  503.5000   130.3409     7.6986     7.9182
  503.6000   130.2889     7.6697     7.9182
  503.7000   130.0345     7.6459     7.8742
  503.8000   129.7267     7.6341     7.8637
  503.9000   129.2156     7.5936     7.8637
  504.0000   128.3244     7.5938     7.8253
  504.1000   127.9066     7.5549     7.7447
  504.2000   127.4001     7.5418     7.6536
  504.3000   126.7831     7.5199     7.6537
  504.4000   126.0864     7.4902     7.6538
  504.5000   125.5668     7.4850     7.6325
  504.6000   124.7010     7.4389     7.6013
  504.7000   123.8336     7.4391     7.6014
  504.8000   123.1583     7.4393     7.6015
  504.9000   122.6518     7.4159     7.5617
  505.0000   122.2857     7.3884     7.5493
  505.1000   122.2619     7.3815     7.5266
  505.2000   121.9799     7.3378     7.4832
  505.3000   121.9777     7.2966     7.4400
  505.4000   121.9753     7.2545     7.3947
  505.5000   122.2275     7.2375     7.3544
  505.6000   122.7292     7.2209     7.2802
  505.7000   123.2309     7.1706     7.2197
  505.8000   123.7701     7.0885     7.1628
  505.9000   124.4673     7.0405     7.0875
  506.0000   125.0366     6.9736     7.0459
  506.1000   125.9455     6.8932     6.9661
  506.2000   127.0292     6.8312     6.8546
  506.3000   127.7827     6.7819     6.7134
  506.4000   128.5677     6.7060     6.5748
  506.5000   129.2902     6.6622     6.4535
  506.6000   130.0440     6.5296     6.3069
  506.7000   130.6534     6.4048     6.2219
  506.8000   131.1550     6.3296     6.1331
  506.9000   131.7034     6.2931     6.0719
  507.0000   132.4631     6.2605     6.0524
  507.1000   133.7110     6.2607     6.0437
  507.2000   134.7673     6.2278     6.0109
  507.3000   135.4678     6.2178     6.0110
  507.4000   136.0734     6.1989     6.0111
  507.5000   136.6065     6.1752     6.0112
  507.6000   136.3521     6.1754     6.0281
  507.7000   136.0549     6.1756     6.0530
  507.8000   135.4238     6.1758     6.0566
  507.9000   134.8263     6.1759     6.0952
  508.0000   134.3198     6.1761     6.0953
  508.1000   133.7497     6.1763     6.0954
  508.2000   132.9321     6.1764     6.1139
  508.3000   130.9278     6.1766     6.1496
  508.4000   130.2712     6.1768     6.1854
  508.5000   129.5127     6.1770     6.2235
  508.6000   128.7542     6.1993     6.2236
  508.7000   127.9958     6.2202     6.2509
  508.8000   127.2605     6.2204     6.2873
  508.9000   126.7029     6.2220     6.3105
  509.0000   126.2477     6.2640     6.3170
  509.1000   125.5634     6.2641     6.3545
  509.2000   124.8048     6.2883     6.3909
  509.3000   123.9659     6.3252     6.3987
  509.4000   122.9553     6.3622     6.4211
  509.5000   121.8765     6.3995     6.4585
  509.6000   121.1694     6.4410     6.5042
