~VERSION INFORMATION
 VERS.                2.0:   CWLS LOG ASCII STANDARD - VERSION 2.0
 WRAP.                 NO:   ONE LINE PER DEPTH STEP
~WELL INFORMATION
#MNEM.UNIT      DATA TYPE    INFORMATION
#----------   ------------   ------------------------------
 STRT.F            3.0000:   START DEPTH
 STOP.F          423.0000:   STOP DEPTH
 STEP.F            0.5000:   STEP LENGTH
 NULL.          -999.2500:   NO VALUE
 COMP. LAWRENCE/ALLISON INC:   COMPANY
 WELL.    53-62 STX #3-10:   WELL
 FLD .             TEAPOT:   FIELD
 LOC .      S10 T38N R78W:   LOCATION
 CNTY.            NATRONA:   COUNTY
 STAT.            WYOMING:   STATE
 CTRY. UNITED STATES OF AMERICA:   COUNTRY
 SRVC.           Gearhart:   SERVICE COMPANY
 DATE.        31-MAY-1988:   LOGDATE
 API .       490251122700:   API NUMBER
~CURVE INFORMATION
#MNEM.UNIT       API CODE    CURVE DESCRIPTION
#----------   ------------   ------------------------------
 DEPT.F                  :   
 GRR .GAPI   07 310 01 00:   GAMMA RAY
 RILD.OHMM   07 120 46 00:   INDUCTION LOG DEEP RESISTIVITY
 RILM.OHMM   07 120 44 00:   INDUCTION LOG MEDIUM RESISTIVITY
~PARAMETER INFORMATION
#MNEM.UNIT          VALUE    DESCRIPTION
#----------   ------------   ------------------------------
 PD  .                 GL:   PERMANENT DATUM
 EPD .F              5164:   ELEVATION PERMANENT DATUM
 LMF .                 KB:   LOG MEASURED FROM
 DAPD.F                10:   FEET ABOVE PERMANENT DATUM
 DMF .                 KB:   DRILLING MEASURED FROM
 EKB .F              5174:   KELLING BUSHING
 EGL .F              5164:   GROUND LEVEL
 DATE.        31-MAY-1988:   RUN DATE
 RUN .                  1:   RUN NUMBER
 DD  .F               435:   DEPTH DRILLER
 DL  .F             431.5:   DEPTH LOGGER
 BLI .F               423:   BOTTOM LOG INTERVAL
 CS  .IN            8.625:   CASING SIZE
 CBD .F                49:   CASING BOTTOM DRILLER
 CBL .F                49:   CASING BOTTOM LOGGER
 BS  .IN            7.875:   BIT SIZE
 BSD .F               435:   BIT SIZE AT DEPTH
 DFT .                AIR:   DRILLING FLUID TYPE
 TLAB.HRS            0330:   TIME LOGGER AT BOTTOM
 MRT .F                70:   MAXIMUM RECORDED TEMPERATURE
 LUN .               7597:   LOGGING UNIT NUMBER
 LUL .           GILLETTE:   LOGGING UNIT LOCATION
 ENGI.          HUCKFELDT:   RECORDING ENGINEER
 WITN.             STRONG:   WITNESSED BY
 CLNT.            A2DTECH:   CLIENT CODE
 ORIG.           5" PRINT:   ORIGIN OF DATA
 UWI .       490251122700:   UNIQUE WELL ID
 DICO. A2D Technologies, Inc.:   DIGITIZING COMPANY
~OTHER INFORMATION
~A    DEPT      GRR      RILD       RILM   
# ...
   94.0000   113.1699     9.6597     9.4739
   94.5000   114.0892     9.6564     9.4726
   95.0000   113.7893     9.5865     9.5378
   95.5000   112.5791     9.7183     9.6035
   96.0000   111.3675     9.7833     9.6696
   96.5000   111.0676     9.8486     9.6682
   97.0000   116.2501     9.9144     9.6719
   97.5000   118.3870     9.9806     9.8018
   98.0000   120.5239     9.9763     9.8693
   98.5000   119.6167     9.9729     9.8676
   99.0000   116.2741     9.9694     9.9358
   99.5000   114.1492     9.9660     9.9341
  100.0000   112.3288     9.8930     9.9192
  100.5000   114.1618     9.8902     9.7927
  101.0000   118.4297     9.8874     9.7906
  101.5000   120.5651     9.7472     9.8578
  102.0000   115.7021     9.6764     9.7183
  102.5000   112.6640     9.6737     9.5143
  103.0000   111.1465     9.6035     9.4460
  103.5000   112.9805     9.4673     9.3782
  104.0000   117.8572     9.4593     9.3108
  104.5000   120.9074     9.3303     9.1795
  105.0000   120.3047     9.1915     9.1775
  105.5000   118.4842     9.0674     9.1116
  106.0000   116.6638     9.0573     8.9204
  106.5000   116.9743     8.9363     8.7946
  107.0000   116.6759     8.7481     8.6705
  107.5000   113.6379     8.6240     8.4886
  108.0000   111.5130     8.4921     8.3088
  108.5000   111.1995     8.2449     7.9955
  109.0000   114.5693     7.9122     7.6851
  109.5000   115.1893     7.5838     7.3223
  110.0000   112.4505     7.2790     7.2123
  110.5000   111.2389     7.1256     7.1171
  111.0000   111.2450     7.1236     7.0660
  111.5000   110.6271     7.1217     7.0645
  112.0000   110.3439     7.1197     7.0631
  112.5000   110.0455     7.2181     7.1112
  113.0000   113.2486     7.4211     7.2100
  113.5000   116.5215     7.6834     7.3706
  114.0000   117.3697     8.0110     7.6956
  114.5000   115.8082     8.2363     7.9579
  115.0000   113.6277     8.3501     8.1707
  115.5000   112.2128     8.4661     8.3427
  116.0000   111.9145     8.5826     8.3996
  116.5000   112.8353     8.5203     8.3974
  117.0000   112.8413     8.5179     8.4550
  117.5000   112.2386     8.5760     8.5126
  118.0000   111.0270     8.6332     8.5706
  118.5000   112.8595     8.5706     8.5086
  119.0000   114.0833     8.5084     8.3886
  119.5000   114.6981     8.3292     8.2126
  120.0000   115.6175     8.1537     8.1536
  120.5000   116.5368     7.9819     8.0385
  121.0000   117.1501     7.8138     7.8150
  121.5000   114.1136     7.4901     7.4920
  122.0000   112.9020     7.0800     7.0332
  122.5000   111.9933     6.6923     6.6025
  123.0000   116.2627     6.5056     6.2855
  123.5000   117.1820     6.2800     5.9837
  124.0000   114.7527     6.1048     5.6964
  124.5000   111.1058     5.9344     5.3476
  125.0000   108.0677     5.8914     5.0553
  125.5000   105.6385     5.9315     4.9840
  126.0000   106.2534     6.0131     5.1245
  126.5000   110.2168     6.2694     5.8112
  127.0000   112.3538     6.6289     6.3190
  127.5000   114.1863     7.0090     6.7285
  128.0000   115.7145     7.3078     7.2654
  128.5000   116.6338     7.6193     7.7361
  129.0000   116.0310     7.8886     7.8990
  129.5000   114.8194     7.9982     8.1212
  130.0000   113.3034     8.0522     8.1769
  130.5000   111.7874     8.1635     8.2322
  131.0000   110.5743     8.2186     8.2305
  131.5000   111.4951     8.3322     8.3447
  132.0000   115.4585     8.4474     8.5200
  132.5000   116.6823     8.5044     8.5785
  133.0000   116.3824     8.6213     8.6369
  133.5000   116.0841     8.6801     8.6958
  134.0000   117.2025     8.7387     8.8160
  134.5000   120.0556     8.8589     8.8761
  135.0000   120.3645     9.0444     8.9370
  135.5000   116.1103     9.1701     9.1243
  136.0000   113.6811     9.4274     9.1869
  136.5000   113.3812     9.6925     9.2495
  137.0000   114.6064     9.8272     9.3125
  137.5000   117.3522     9.9630     9.3759
  138.0000   120.7068    10.1007     9.2432
  138.5000   119.1908    10.0267     9.1768
  139.0000   116.7616     9.8845     9.1109
  139.5000   115.2456     9.6087     9.0454
  140.0000   114.0340     9.3407     8.9805
  140.5000   116.4754     9.2729     8.9160
  141.0000   117.0903     9.2056     8.7902
  141.5000   117.7052     9.2030     8.7884
  142.0000   118.9289     9.1362     8.7252
  142.5000   119.8482     9.0699     8.7234
  143.0000   119.5483     9.0041     8.7216
  143.5000   119.5559     8.8764     8.7197
  144.0000   119.8664     8.7504     8.6571
  144.5000   116.8283     8.6869     8.5350
  145.0000   115.9211     8.5637     8.2976
  145.5000   114.4051     8.4422     7.6276
  146.0000   116.5421     8.2644     7.4676
  146.5000   117.7658     8.0338     7.1590
  147.0000   116.2498     7.7010     6.9113
  147.5000   115.0381     7.1280     6.5336
  148.0000   113.8265     6.2819     6.0061
  148.5000   115.0503     5.2714     5.7177
  149.0000   117.4917     4.7444     5.2560
  149.5000   120.8463     4.3302     4.2896
  150.0000   121.4612     3.8701     3.4522
  150.5000   121.1628     3.4107     3.0641
  151.0000   119.3117     3.2239     2.9373
  151.5000   116.2589     3.0474     2.8355
  152.0000   112.8807     2.9417     2.8151
  152.5000   108.9089     2.9203     2.8540
  153.0000   105.9725     3.0878     2.8730
  153.5000   107.9115     3.4289     2.9538
  154.0000   114.3664     3.7547     3.0156
  154.5000   121.3030     4.1988     3.3957
  155.0000   121.8265     4.6301     4.0722
  155.5000   121.1680     4.9300     4.5217
  156.0000   120.0134     5.2493     5.0916
  156.5000   123.0636     5.7079     5.5750
  157.0000   125.5050     6.1203     6.1043
  157.5000   126.7287     6.3813     6.4541
  158.0000   126.7347     6.5607     6.6355
  158.5000   125.8276     6.7453     6.6807
  159.0000   124.0071     6.8385     6.6783
  159.5000   121.5779     6.8366     6.7238
  160.0000   123.7149     6.7396     6.6746
  160.5000   125.8518     6.3684     6.5800
  161.0000   125.5520     5.9352     6.0483
  161.5000   125.5595     5.5679     5.5207
  162.0000   127.6965     5.2244     5.1461
  162.5000   131.3555     5.0828     5.0378
  163.0000   132.5792     5.0878     5.1074
  163.5000   129.8456     5.1951     5.2143
  164.0000   126.5031     5.3744     5.3985
  164.5000   124.0738     5.5372     5.7078
  165.0000   123.1651     5.8560     5.9509
  165.5000   123.7816     6.2012     6.2044
  166.0000   126.5273     6.5770     6.3788
  166.5000   128.0555     6.8095     6.6505
  167.0000   128.6689     7.1496     6.9351
  167.5000   126.5455     7.4544     7.4397
  168.0000   125.6368     7.8268     7.8632
  168.5000   125.6444     8.1035     8.0853
  169.0000   125.0416     8.3900     8.3137
  169.5000   123.8285     8.5060     8.4231
  170.0000   123.2258     8.4443     8.3619
  170.5000   125.9731     8.3836     8.2924
  171.0000   127.1968     8.3806     8.1737
  171.5000   125.9852     8.2618     8.0113
  172.0000   123.2515     8.2018     7.9528
  172.5000   121.4311     8.0855     7.7854
  173.0000   120.8268     7.9708     7.5684
  173.5000   123.8786     7.7484     7.4090
  174.0000   125.7111     7.5322     7.2025
  174.5000   125.7172     7.3221     6.9044
  175.0000   125.7232     6.9698     6.5266
  175.5000   127.2514     6.7753     6.2565
  176.0000   129.3883     6.5404     6.0396
  176.5000   131.2209     6.2694     5.7897
  177.0000   132.4446     5.9262     5.3968
  177.5000   132.4760     5.6017     5.1374
  178.0000   130.0214     5.4074     4.9247
  178.5000   125.1568     5.4059     4.7874
  179.0000   125.1423     5.5579     4.7861
  179.5000   128.8219     5.7948     4.8863
  180.0000   130.9589     6.1271     5.1662
  180.5000   130.3510     6.3883     5.7365
  181.0000   128.8299     6.7074     6.2373
  181.5000   126.9895     7.1419     6.8295
  182.0000   125.8081     7.4463     7.3740
  182.5000   129.7972     7.7638     7.6881
  183.0000   130.6911     7.9827     7.8491
  183.5000   131.0016     8.2066     7.9026
  184.0000   131.6164     8.3206     8.0112
  184.5000   128.2737     8.3762     8.0657
