~VERSION INFORMATION
 VERS.                2.0:   CWLS LOG ASCII STANDARD - VERSION 2.0
 WRAP.                 NO:   ONE LINE PER DEPTH STEP
~WELL INFORMATION
#MNEM.UNIT      DATA TYPE    INFORMATION
#----------   ------------   ------------------------------
 STRT.F           29.0000:   START DEPTH
 STOP.F          503.0000:   STOP DEPTH
 STEP.F            0.5000:   STEP LENGTH
 NULL.          -999.2500:   NO VALUE
 COMP. FENIX & SCISSON INC:   COMPANY
 WELL.      78 SX 3 #78-3:   WELL
 FLD .             TEAPOT:   FIELD
 LOC .       S3 T38N R78W:   LOCATION
 CNTY.            NATRONA:   COUNTY
 STAT.            WYOMING:   STATE
 CTRY. UNITED STATES OF AMERICA:   COUNTRY
 SRVC.            Unknown:   SERVICE COMPANY
 DATE.        17-OCT-1978:   LOGDATE
 API .       490251072400:   API NUMBER
~CURVE INFORMATION
#MNEM.UNIT       API CODE    CURVE DESCRIPTION
#----------   ------------   ------------------------------
 DEPT.F                  :   
 CALD.IN     45 280 60 00:   CALIPER
 GRD .GAPI   45 310 01 00:   GAMMA RAY FROM DENSITY LOG
 CORR.G/C3   45 356 01 00:   DENSITY CORRECTION
 RHOB.G/C3   45 350 01 00:   BULK DENSITY
 DPHI.DEC    45 890 12 00:   DENSITY POROSITY SANDSTONE
 SPR .MV     05 010 01 00:   SPONTANEOUS POTENTIAL FROM RES.
 IL  .OHMM   05 120 00 00:   INDUCTION LOG
 SN  .OHMM   05 040 16 00:   SHORT NORMAL 16"
~PARAMETER INFORMATION
#MNEM.UNIT          VALUE    DESCRIPTION
#----------   ------------   ------------------------------
 PD  .                 GL:   PERMANENT DATUM
 EPD .F              5154:   ELEVATION PERMANENT DATUM
 LMF .                 KB:   LOG MEASURED FROM
 DAPD.F                 4:   FEET ABOVE PERMANENT DATUM
 DMF .                 KB:   DRILLING MEASURED FROM
 EKB .F              5158:   KELLING BUSHING
 EGL .F              5154:   GROUND LEVEL
 DATE.           10-17-78:   RUN DATE
 RUN .                  1:   RUN NUMBER
 DD  .F               498:   DEPTH DRILLER
 DL  .F               503:   DEPTH LOGGER
 BLI .F               497:   BOTTOM LOG INTERVAL
 TLI .F                46:   TOP LOG INTERVAL
 CS  .IN            8.625:   CASING SIZE
 CBD .F                40:   CASING BOTTOM DRILLER
 BS  .IN            7.875:   BIT SIZE
 BSD .F               498:   BIT SIZE AT DEPTH
 DFT .                KCL:   DRILLING FLUID TYPE
 DFD .                8.7:   DRILLING FLUID DENSITY
 DFV .                 38:   DRILLING FLUID VISCOSITY
 DFPH.                  9:   DRILLING FLUID PH
 DFL .                9.6:   DRILLING FLUID LOSS
 MSS .          FLOW LINE:   MUD SAMPLE SOURCE
 RMS .OHMM             .2:   RESISTIVITY MUD SAMPLE
 MST .F                52:   MUD SAMPLE TEMPERATURE
 RMF .OHMM            .18:   RESISTIVITY MUD FILTRATE SAMPLE
 MFST.F                58:   MUD FILTRATE SAMPLE TEMPERATURE
 RMC .OHMM            .16:   RESISTIVITY MUD CAKE
 MCST.F                64:   MUD CAKE SAMPLE TEMPERATURE
 MFSS.               MEAS:   MUD FILTRATE SAMPLE SOURCE
 MCSS.               MEAS:   MUD CAKE SAMPLE SOURCE
 TCS .HRS               1:   TIME CURCULATED STOPPED
 MRT .F                72:   MAXIMUM RECORDED TEMPERATURE
 LUN .               2958:   LOGGING UNIT NUMBER
 LUL .               CASP:   LOGGING UNIT LOCATION
 ENGI.             MILLER:   RECORDING ENGINEER
 WITN.           DINSMORE:   WITNESSED BY
 CLNT.            A2DTECH:   CLIENT CODE
 ORIG.           5" PRINT:   ORIGIN OF DATA
 UWI .       490251072400:   UNIQUE WELL ID
 DICO. A2D Technologies, Inc.:   DIGITIZING COMPANY
~OTHER INFORMATION
~A   DEPT     CALD         GRD      CORR       RHOB       DPHI        SPR         IL         SN   
# ...
  272.0000     7.9862   121.1405     0.0759     2.5340     0.0788   -27.1353     9.2855     8.5298
  272.5000     7.9916   122.6050     0.0711     2.5331     0.0812   -26.9275     9.7919     8.8689
  273.0000     7.9970   123.7156     0.0509     2.5309     0.0904   -26.6011     9.8928     9.1032
  273.5000     8.0025   120.2624     0.0307     2.5196     0.0998   -26.2071     9.9949     9.3409
  274.0000     8.0079   116.8773     0.0102     2.5018     0.1093   -24.6154    10.0980     9.5852
  274.5000     8.0134   116.4012     0.0068     2.4845     0.1143   -23.3157    10.3705     9.8380
  275.0000     8.0188   116.2866     0.0167     2.4790     0.1161   -23.3134    11.3083    10.1274
  275.5000     8.0243   116.1786     0.0273     2.4740     0.1180   -23.3197    12.3309    10.4846
  276.0000     8.0297   115.4032     0.0377     2.4676     0.1252   -21.7747    13.4460    11.1943
  276.5000     8.0338   111.0451     0.0482     2.4611     0.1287   -20.0963    14.6620    11.8918
  277.0000     8.0257    99.3668     0.0580     2.4548     0.1306   -19.1555    16.1106    12.3471
  277.5000     8.0176    87.7971     0.0547     2.4489     0.1439   -18.2912    17.7998    12.6442
  278.0000     8.0096    76.1643     0.0460     2.4189     0.1646   -18.0152    19.6833    13.0518
  278.5000     8.0016    68.4073     0.0373     2.3849     0.1851   -17.7633    21.7750    13.5246
  279.0000     7.9936    68.9113     0.0286     2.3508     0.2056   -17.8726    24.2077    13.9695
  279.5000     7.9855    69.2381     0.0204     2.3169     0.2252   -17.9771    23.4472    14.1317
  280.0000     7.9775    69.5914     0.0213     2.2890     0.2322   -18.0803    22.6147    14.2958
  280.5000     7.9695    69.9430     0.0422     2.2842     0.2213   -18.1837    22.0928    14.4001
  281.0000     7.9615    70.0263     0.0632     2.3035     0.2108   -18.2876    22.3118    14.5171
  281.5000     7.9535    69.8999     0.0837     2.3190     0.2004   -18.3758    22.7186    14.8333
  282.0000     7.9455    69.7706     0.0827     2.3347     0.1986   -17.5132    23.1328    15.1564
  282.5000     7.9375    69.6405     0.0673     2.3411     0.2012   -16.2018    23.5545    15.4562
  283.0000     7.9294    69.5109     0.0524     2.3300     0.2111   -13.6956    23.9995    15.5996
  283.5000     7.9214    69.3821     0.0376     2.3137     0.2209   -10.1940    24.0968    15.7443
  284.0000     7.9134    69.2949     0.0222     2.3037     0.2248    -5.0912    24.1982    15.8904
  284.5000     7.9054    69.4649     0.0145     2.2994     0.2270    -2.9629    24.3000    16.0551
  285.0000     7.8974    69.6770     0.0142     2.2913     0.2369    -1.5204    24.4481    16.3041
  285.5000     7.8894    69.8905     0.0268     2.2739     0.2515    -0.0902    24.4339    16.6058
  286.0000     7.8814    70.1028     0.0393     2.2563     0.2464     0.7808    26.8694    16.9936
  286.5000     7.8733    70.3115     0.0517     2.2523     0.2368     1.2845    29.1131    17.2824
  287.0000     7.8653    70.5287     0.0436     2.2818     0.2212     1.7694    30.7649    17.4056
  287.5000     7.8572    71.1038     0.0340     2.3141     0.2035     2.8792    30.4069    17.5544
  288.0000     7.8567    73.3625     0.0246     2.3389     0.2019     4.1818    29.9634    17.5112
  288.5000     7.8607    75.5768     0.0179     2.3361     0.2056     4.9520    29.5264    17.4574
  289.0000     7.8649    76.9168     0.0166     2.3291     0.2083     5.2041    29.0958    17.4038
  289.5000     7.8690    76.9111     0.0153     2.3219     0.2094     5.3787    28.8466    17.3503
  290.0000     7.8731    76.8338     0.0146     2.3199     0.2138     5.5534    29.6205    17.2969
  290.5000     7.8772    74.9431     0.0149     2.3147     0.2207     5.7290    30.9181    17.2435
  291.0000     7.8814    73.0100     0.0153     2.3019     0.2275     5.9050    32.2726    17.2345
  291.5000     7.8855    71.8902     0.0157     2.2891     0.2303     6.0815    33.1384    17.2345
  292.0000     7.8896    71.9013     0.0160     2.2987     0.2201     6.2464    33.7289    17.0696
  292.5000     7.8938    71.8993     0.0163     2.3136     0.2099     6.2510    32.7047    16.8737
  293.0000     7.8979    71.9014     0.0180     2.3289     0.2017     6.2502    31.8998    16.6801
  293.5000     7.9020    71.8923     0.0199     2.3351     0.2013     6.2500    31.1126    16.5670
  294.0000     7.9061    71.7042     0.0219     2.3363     0.2008     6.2500    30.3457    16.4976
  294.5000     7.9103    71.5147     0.0238     2.3375     0.2003     6.2500    29.5977    16.3276
  295.0000     7.9144    71.3262     0.0258     2.3386     0.1999     6.2500    28.8681    16.0402
  295.5000     7.9185    71.1379     0.0246     2.3404     0.1987     6.2500    28.1616    15.7200
  296.0000     7.9226    70.9497     0.0219     2.3447     0.1926     6.2511    27.4024    15.8653
  296.5000     7.9268    70.7564     0.0192     2.3521     0.1867     6.2548    26.6660    15.6880
  297.0000     7.9309    70.6875     0.0165     2.3603     0.1808     6.2169    25.9460    15.4268
  297.5000     7.9350    70.7821     0.0146     2.3728     0.1750     5.5430    25.2457    15.2615
  298.0000     7.9392    72.4937     0.0153     2.3850     0.1702     5.0502    24.5643    15.1976
  298.5000     7.9433    74.1790     0.0159     2.3904     0.1695     5.0587    24.2213    15.0794
  299.0000     7.9474    75.7312     0.0166     2.3861     0.1721     5.0593    24.4077    14.8274
  299.5000     7.9516    76.5137     0.0172     2.3821     0.1748     5.0595    24.5861    14.6046
  300.0000     7.9557    76.8673     0.0179     2.3780     0.1774     5.0595    24.6771    14.6046
  300.5000     7.9598    77.2015     0.0187     2.3740     0.1803     5.0596    24.1379    14.5811
  301.0000     7.9639    77.5387     0.0204     2.3705     0.1785     5.0600    23.6632    14.3555
  301.5000     7.9681    78.4306     0.0222     2.3728     0.1765     5.0655    23.3463    14.2033
  302.0000     7.9722    79.7478     0.0240     2.3750     0.1758     4.7765    23.9597    14.1850
  302.5000     7.9763    80.2737     0.0248     2.3772     0.1751     4.3899    24.5238    14.1682
  303.0000     7.9805    80.3072     0.0254     2.3774     0.1743     3.9990    25.0986    14.1513
  303.5000     7.9846    80.3049     0.0260     2.3774     0.1735     3.5152    25.8321    14.1345
  304.0000     7.9887    80.0914     0.0273     2.3786     0.1718     2.5760    25.3588    14.1176
  304.5000     7.9928    78.4741     0.0352     2.3826     0.1695     2.0457    24.7475    14.1010
  305.0000     7.9970    76.8357     0.0430     2.3866     0.1683     1.4709    24.1510    14.0842
  305.5000     8.0011    76.1085     0.0478     2.3894     0.1699     0.2247    23.5621    13.8882
  306.0000     8.0052    76.2882     0.0425     2.3867     0.1752     0.1599    24.3131    13.7832
  306.5000     8.0094    78.2003     0.0373     2.3729     0.1811     2.6251    25.3032    13.7360
  307.0000     8.0137    79.9523     0.0320     2.3665     0.1810     3.2881    26.3069    13.6889
  307.5000     8.0111    79.9641     0.0267     2.3668     0.1808     3.2756    25.7764    13.6420
  308.0000     8.0067    80.0065     0.0264     2.3675     0.1807     3.2701    25.2875    13.5952
  308.5000     8.0022    80.0573     0.0264     2.3681     0.1788     3.1537    24.8144    13.5385
  309.0000     7.9978    80.2482     0.0284     2.3704     0.1761     3.0354    24.3502    13.4690
  309.5000     7.9934    81.1814     0.0305     2.3775     0.1735     2.9163    23.8946    13.3998
  310.0000     7.9889    82.1192     0.0326     2.3846     0.1709     2.8775    23.5621    13.3312
  310.5000     7.9845    82.3082     0.0344     2.3905     0.1691     2.8768    25.3612    13.2639
  311.0000     7.9800    82.0025     0.0328     2.3902     0.1691     2.8769    24.8879    13.1994
  311.5000     7.9756    81.7049     0.0310     2.3897     0.1691     2.8770    24.5178    12.8745
  312.0000     7.9712    82.2964     0.0293     2.3893     0.1691     2.8770    24.1527    12.8186
