~VERSION INFORMATION
 VERS.                2.0:   CWLS LOG ASCII STANDARD - VERSION 2.0
 WRAP.                 NO:   ONE LINE PER DEPTH STEP
~WELL INFORMATION
#MNEM.UNIT      DATA TYPE    INFORMATION
#----------   ------------   ------------------------------
 STRT.F            0.0000:   START DEPTH
 STOP.F          547.0000:   STOP DEPTH
 STEP.F            0.1000:   STEP LENGTH
 NULL.          -999.2500:   NO VALUE
 COMP.     BROWN JOHN E&C:   COMPANY
 WELL.    NPR 3 #86-1-X-3:   WELL
 FLD .             TEAPOT:   FIELD
 LOC .       S3 T38N R78W:   LOCATION
 CNTY.            NATRONA:   COUNTY
 STAT.            WYOMING:   STATE
 CTRY. UNITED STATES OF AMERICA:   COUNTRY
 SRVC.     Atlas Wireline:   SERVICE COMPANY
 DATE.        09-FEB-1992:   LOGDATE
 API .       490252249800:   API NUMBER
~CURVE INFORMATION
#MNEM.UNIT       API CODE    CURVE DESCRIPTION
#----------   ------------   ------------------------------
 DEPT.F                  :   
 GRR .GAPI   07 310 01 00:   GAMMA RAY
 RFOC.OHMM   07 220 04 00:   RESISTIVITY FOCUSED LOG
 RILD.OHMM   07 120 46 00:   INDUCTION LOG DEEP RESISTIVITY
 RILM.OHMM   07 120 44 00:   INDUCTION LOG MEDIUM RESISTIVITY
 SPR .MV     07 010 01 00:   SPONTANEOUS POTENTIAL
~PARAMETER INFORMATION
#MNEM.UNIT          VALUE    DESCRIPTION
#----------   ------------   ------------------------------
 PD  .                 GL:   PERMANENT DATUM
 EPD .F              5145:   ELEVATION PERMANENT DATUM
 LMF .                 KB:   LOG MEASURED FROM
 DAPD.F                10:   FEET ABOVE PERMANENT DATUM
 DMF .                 KB:   DRILLING MEASURED FROM
 EKB .F              5155:   KELLING BUSHING
 EDF .F              5154:   DRILLING FLOOR
 EGL .F              5145:   GROUND LEVEL
 DATE.        09-FEB-1992:   RUN DATE
 RUN .                  1:   RUN NUMBER
 DD  .F               562:   DEPTH DRILLER
 DL  .F               550:   DEPTH LOGGER
 BLI .F               547:   BOTTOM LOG INTERVAL
 CS  .IN            8.625:   CASING SIZE
 CBD .F               183:   CASING BOTTOM DRILLER
 CBL .F               181:   CASING BOTTOM LOGGER
 BS  .IN            7.875:   BIT SIZE
 BSD .F               562:   BIT SIZE AT DEPTH
 DFT .            GEL BAR:   DRILLING FLUID TYPE
 DFD .               17.8:   DRILLING FLUID DENSITY
 DFV .                 52:   DRILLING FLUID VISCOSITY
 DFPH.                  9:   DRILLING FLUID PH
 DFL .                5.2:   DRILLING FLUID LOSS
 MSS .           FLOWLINE:   MUD SAMPLE SOURCE
 RMS .OHMM           1.78:   RESISTIVITY MUD SAMPLE
 MST .F                68:   MUD SAMPLE TEMPERATURE
 RMF .OHMM          1.335:   RESISTIVITY MUD FILTRATE SAMPLE
 MFST.F                68:   MUD FILTRATE SAMPLE TEMPERATURE
 RMC .OHMM          2.225:   RESISTIVITY MUD CAKE
 MCST.F                68:   MUD CAKE SAMPLE TEMPERATURE
 MFSS.               MEAS:   MUD FILTRATE SAMPLE SOURCE
 MCSS.               MEAS:   MUD CAKE SAMPLE SOURCE
 TCS .HRS               3:   TIME CURCULATED STOPPED
 LUN .            HL 6274:   LOGGING UNIT NUMBER
 LUL .             CASPER:   LOGGING UNIT LOCATION
 ENGI.       P. RASMUSSEN:   RECORDING ENGINEER
 WITN.          G. STRONG:   WITNESSED BY
 CLNT.            A2DTECH:   CLIENT CODE
 ORIG.           5" PRINT:   ORIGIN OF DATA
 UWI .       490252249800:   UNIQUE WELL ID
 DICO. A2D Technologies, Inc.:   DIGITIZING COMPANY
~OTHER INFORMATION
~A    DEPT      GRR      RFOC       RILD       RILM        SPR   
# ...
  329.4000    96.4535     7.8285     7.4266     7.0530   -36.0035
  329.5000    96.9636     7.8287     7.4688     7.0526   -36.1292
  329.6000    97.4735     7.8722     7.4781     7.0524   -36.2662
  329.7000    97.9835     7.9186     7.5034     7.0794   -36.3807
  329.8000    98.5324     7.9395     7.5471     7.1012   -36.5064
  329.9000    99.3296     7.9397     7.5824     7.1009   -36.5666
  330.0000   100.0607     7.9474     7.5820     7.1039   -36.6059
  330.1000   100.4383     7.9958     7.6348     7.1500   -36.7316
  330.2000   100.6943     7.9960     7.6346     7.2244   -36.8668
  330.3000   100.9502     7.9962     7.6615     7.2500   -36.9831
  330.4000   101.1620     7.9965     7.6875     7.2497   -37.0164
  330.5000   100.8602     7.9967     7.6970     7.2494   -37.0826
  330.6000   100.8620     8.0053     7.7418     7.2491   -37.2083
  330.7000   100.6657     8.0532     7.7946     7.2488   -37.3341
  330.8000   100.4134     8.0534     7.7943     7.2876   -37.4674
  330.9000   100.1611     8.0907     7.7940     7.2990   -37.7048
  331.0000    99.9571     8.1383     7.8137     7.3215   -37.8632
  331.1000    99.9593     8.1673     7.8480     7.3495   -37.9890
  331.2000    99.7082     8.1770     7.8477     7.3492   -38.1147
  331.3000    99.6590     8.2251     7.8473     7.3489   -38.2215
  331.4000    99.5076     8.2829     7.8470     7.3897   -38.2200
  331.5000    99.3587     8.2831     7.8770     7.3998   -38.3399
  331.6000    99.3070     8.3129     7.9014     7.3995   -38.3696
  331.7000    99.0547     8.3416     7.9134     7.4154   -38.3684
  331.8000    98.7566     8.3419     7.9595     7.4507   -38.3672
  331.9000    98.7581     8.3421     8.0116     7.4504   -38.3660
  332.0000    98.6018     8.3424     8.0113     7.4501   -38.3647
  332.1000    98.4577     8.3829     8.0109     7.4844   -38.2406
  332.2000    98.4596     8.4013     8.0106     7.5016   -38.1125
  332.3000    98.4528     8.4015     8.0239     7.5192   -37.9843
  332.4000    98.1596     8.4017     8.0661     7.5630   -37.8561
  332.5000    98.1611     8.4020     8.0657     7.6062   -37.7280
  332.6000    98.1629     8.4022     8.0654     7.6058   -37.5975
  332.7000    97.9386     8.4024     8.0651     7.5689   -37.5963
  332.8000    97.4954     8.3710     8.0647     7.5523   -37.5951
  332.9000    97.2365     8.3444     8.0644     7.5326   -37.5193
  333.0000    96.8572     8.3447     8.0641     7.4991   -37.4407
  333.1000    96.4778     8.3449     8.0637     7.4965   -37.4395
  333.2000    96.0985     8.3452     8.0634     7.4463   -37.4383
  333.3000    95.7274     8.3454     8.0630     7.4460   -37.4371
  333.4000    95.4422     8.3132     8.0627     7.4167   -37.4359
  333.5000    94.5604     8.2878     8.0624     7.3732   -37.4347
  333.6000    94.0588     8.2880     8.0620     7.3418   -37.4334
  333.7000    93.9277     8.2882     8.0617     7.3378   -37.4322
  333.8000    94.0008     8.2885     8.0614     7.2901   -37.4310
  333.9000    94.2782     8.2887     8.0610     7.2898   -37.4296
  334.0000    94.8452     8.2558     8.0607     7.2895   -37.5319
  334.1000    95.5241     8.2315     8.0433     7.2892   -37.5793
  334.2000    96.2882     8.2176     8.0039     7.2889   -37.5781
  334.3000    97.0524     8.1700     8.0035     7.2886   -37.6052
  334.4000    97.8165     8.1180     8.0032     7.2883   -37.7309
  334.5000    98.6067     8.0757     8.0393     7.2880   -37.8782
  334.6000    99.7193     8.0289     8.1139     7.2877   -37.9824
  334.7000   100.4127     7.9588     8.2089     7.2874   -38.1081
  334.8000   101.1769     7.8809     8.2957     7.2871   -38.1787
  334.9000   101.9410     7.8352     8.3441     7.2868   -38.1775
  335.0000   102.7052     7.7862     8.3437     7.2864   -38.1763
  335.1000   103.4382     7.7447     8.3827     7.2861   -38.1749
  335.2000   103.9855     7.6999     8.4315     7.2858   -38.0669
  335.3000   104.2227     7.6553     8.4805     7.3101   -38.0207
  335.4000   104.4786     7.6109     8.5299     7.3527   -37.9625
  335.5000   105.0060     7.5728     8.5806     7.3874   -37.8663
  335.6000   105.5984     7.6261     8.6988     7.3871   -37.8650
  335.7000   105.8182     7.6682     8.7406     7.4385   -37.8637
  335.8000   105.8202     7.7134     8.7592     7.4382   -37.8626
  335.9000   105.5816     7.7587     8.7811     7.4644   -37.8614
  336.0000   105.5198     7.8044     8.8198     7.4897   -37.8602
  336.1000   105.2403     7.8432     8.8195     7.4991   -37.8590
  336.2000   104.7339     7.8434     8.8190     7.5440   -37.8577
  336.3000   104.1455     7.9320     8.8626     7.6472   -37.8564
  336.4000   103.0955     7.9897     8.8802     7.6470   -37.8553
  336.5000   102.1166     8.0367     8.8798     7.6754   -37.8541
  336.6000   100.7115     8.0665     8.8795     7.7201   -37.8529
  336.7000    99.4795     8.0749     8.8791     7.7651   -37.8517
  336.8000    98.4649     8.1234     8.8787     7.8103   -37.8610
  336.9000    97.4046     8.1702     8.8783     7.8619   -38.0011
  337.0000    96.1155     8.1808     8.8429     7.9016   -38.2249
  337.1000    94.3670     8.2091     8.8158     7.9477   -38.3902
  337.2000    92.7901     8.2574     8.8007     7.9940   -38.5159
  337.3000    91.1170     8.2966     8.7398     8.0270   -38.6417
  337.4000    89.4407     8.2968     8.5717     8.0400   -38.7674
  337.5000    88.0700     8.3552     8.4821     8.1962   -38.9057
  337.6000    87.3111     8.3946     8.3491     8.0255   -38.9046
  337.7000    87.0101     8.4142     8.1797     7.9043   -38.9926
  337.8000    87.0116     8.4345     7.9902     7.7888   -39.0541
  337.9000    87.1686     8.4841     7.7997     7.6528   -39.1313
  338.0000    87.3191     8.5340     7.5566     7.5083   -39.3698
  338.1000    87.3765     8.5933     7.3960     7.2770   -39.5063
  338.2000    87.6382     8.6348     7.2249     7.0813   -39.6213
  338.3000    88.2368     8.6540     7.0361     6.8771   -39.8381
  338.4000    88.6581     8.6542     6.8199     6.7208   -40.0247
  338.5000    89.1681     8.6544     6.5892     6.5768   -40.1094
  338.6000    89.5679     8.6547     6.3882     6.3865   -40.1242
  338.7000    89.8239     8.6550     6.2489     6.1957   -40.2589
  338.8000    90.0693     8.6977     6.1309     5.9559   -40.2578
  338.9000    90.0714     8.7161     6.0241     5.3547   -40.3494
  339.0000    90.0729     8.7163     5.8947     5.0083   -40.4073
  339.1000    90.0748     8.7166     5.6881     4.9430   -40.3632
  339.2000    90.0766     8.7140     5.2885     4.9140   -40.2529
  339.3000    90.0784     8.6564     5.1702     4.8851   -40.2516
  339.4000    90.0802     8.4856     5.0933     4.8509   -40.2505
  339.5000    90.0823     8.2273     5.0298     4.8279   -40.1545
  339.6000    90.0839     8.0081     4.9653     4.7995   -40.0263
  339.7000    90.0857     7.7743     4.9651     4.7713   -39.8982
  339.8000    90.2075     7.2915     4.9649     4.7433   -39.7700
  339.9000    90.6738     6.8281     4.9647     4.7154   -39.6364
  340.0000    91.6717     6.2061     4.9644     4.6833   -39.5137
  340.1000    92.5248     5.6201     4.9642     4.6831   -39.3855
  340.2000    93.6493     5.2160     4.9638     4.6652   -39.1858
  340.3000    95.0961     4.9328     4.9292     4.6378   -38.9772
  340.4000    96.3728     4.6155     4.9290     4.6176   -38.8490
  340.5000    97.6160     4.1888     4.9288     4.6156   -38.7173
  340.6000    99.3713     4.0601     4.9286     4.5850   -38.5927
  340.7000   101.0464     3.9365     4.9219     4.5849   -38.4645
  340.8000   101.9656     3.8234     4.8939     4.5847   -38.3364
  340.9000   102.9839     3.7265     4.8937     4.5845   -38.2565
  341.0000   104.0022     3.6665     4.8935     4.5922   -38.2320
  341.1000   104.9405     3.6435     4.9117     4.6162   -38.1021
  341.2000   105.6446     3.6828     4.9274     4.6160   -38.1009
  341.3000   105.9205     3.7261     4.9345     4.6404   -38.0997
  341.4000   106.3907     3.8778     4.9632     4.6480   -38.0985
  341.5000   106.9007     4.1179     4.9961     4.6620   -38.1474
