~VERSION INFORMATION
 VERS.                2.0:   CWLS LOG ASCII STANDARD - VERSION 2.0
 WRAP.                 NO:   ONE LINE PER DEPTH STEP
~WELL INFORMATION
#MNEM.UNIT      DATA TYPE    INFORMATION
#----------   ------------   ------------------------------
 STRT.F           20.0000:   START DEPTH
 STOP.F          565.0000:   STOP DEPTH
 STEP.F            0.5000:   STEP LENGTH
 NULL.          -999.2500:   NO VALUE
 COMP. FENIX & SCISSON INC:   COMPANY
 WELL.     NPR-3 #12-SX-3:   WELL
 FLD .        TEAPOT DOME:   FIELD
 LOC .       S3 T38N R78W:   LOCATION
 CNTY.            NATRONA:   COUNTY
 STAT.            WYOMING:   STATE
 CTRY. UNITED STATES OF AMERICA:   COUNTRY
 SRVC.           BIRDWELL:   SERVICE COMPANY
 DATE.        29-JUL-1978:   LOGDATE
 API .       490251067000:   API NUMBER
~CURVE INFORMATION
#MNEM.UNIT       API CODE    CURVE DESCRIPTION
#----------   ------------   ------------------------------
 DEPT.F                  :   
 SPR .MV     05 010 01 00:   SPONTANEOUS POTENTIAL FROM RES.
 SN  .OHMM   05 040 16 00:   SHORT NORMAL 16"
 IL  .OHMM   05 120 00 00:   INDUCTION LOG
 GRD .GAPI   45 310 01 00:   GAMMA RAY FROM DENSITY LOG
 CALD.IN     45 280 60 00:   CALIPER
 CORR.G/C3   45 356 01 00:   DENSITY CORRECTION
 RHOB.G/C3   45 350 01 00:   BULK DENSITY
 DPHI.DEC    45 890 12 00:   DENSITY POROSITY SANDSTONE
~PARAMETER INFORMATION
#MNEM.UNIT          VALUE    DESCRIPTION
#----------   ------------   ------------------------------
 PD  .                 GL:   PERMANENT DATUM
 EPD .F              5191:   ELEVATION PERMANENT DATUM
 LMF .                 KB:   LOG MEASURED FROM
 DAPD.F                 4:   FEET ABOVE PERMANENT DATUM
 DMF .                 KB:   DRILLING MEASURED FROM
 EKB .F              5195:   KELLING BUSHING
 EGL .F              5191:   GROUND LEVEL
 DATE.            7-29-78:   RUN DATE
 RUN .                  1:   RUN NUMBER
 DD  .F               565:   DEPTH DRILLER
 DL  .F               571:   DEPTH LOGGER
 BLI .F               565:   BOTTOM LOG INTERVAL
 TLI .F                40:   TOP LOG INTERVAL
 CS  .IN            8.625:   CASING SIZE
 CBD .F                40:   CASING BOTTOM DRILLER
 CBL .F                40:   CASING BOTTOM LOGGER
 BS  .IN            7.875:   BIT SIZE
 BSD .F               565:   BIT SIZE AT DEPTH
 DFT .                KCL:   DRILLING FLUID TYPE
 DFD .                8.6:   DRILLING FLUID DENSITY
 DFV .                 31:   DRILLING FLUID VISCOSITY
 DFPH.                  9:   DRILLING FLUID PH
 RMS .OHMM            .32:   RESISTIVITY MUD SAMPLE
 MST .F                70:   MUD SAMPLE TEMPERATURE
 TCS .HRS               1:   TIME CURCULATED STOPPED
 LUN .               2958:   LOGGING UNIT NUMBER
 LUL .               CASP:   LOGGING UNIT LOCATION
 ENGI.              HONEA:   RECORDING ENGINEER
 WITN.              AMEND:   WITNESSED BY
 CLNT.            A2DTECH:   CLIENT CODE
 ORIG.           5" PRINT:   ORIGIN OF DATA
 UWI .       490251067000:   UNIQUE WELL ID
 DICO. A2D Technologies, Inc.:   DIGITIZING COMPANY
~OTHER INFORMATION
~A   DEPT      SPR         SN         IL         GRD      CALD       CORR       RHOB       DPHI   
# ...
  263.0000   -33.0297     9.4413     8.0483    77.8650     7.6320     0.0418     2.4385     0.1365
  263.5000   -32.8459     9.4451     8.0731    78.3851     7.6316     0.0421     2.4516     0.1356
  264.0000   -32.7859     9.4494     8.0980    77.0902     7.6312     0.0538     2.4559     0.1349
  264.5000   -32.8184     9.4535     8.1230    76.3751     7.6308     0.0578     2.4553     0.1344
  265.0000   -32.8523     9.4576     8.1481    76.4752     7.6304     0.0577     2.4658     0.1353
  265.5000   -32.8865     9.4617     8.1733    76.6731     7.6301     0.0577     2.4651     0.1388
  266.0000   -32.9206     9.4658     8.1985    78.9161     7.6297     0.0576     2.4559     0.1419
  266.5000   -32.9546     9.4699     8.2238    81.4211     7.6293     0.0577     2.4464     0.1418
  267.0000   -32.9886     9.4740     8.2492    80.6989     7.6289     0.0576     2.4446     0.1417
  267.5000   -33.0227     9.4781     8.2747    77.4278     7.6285     0.0577     2.4432     0.1416
  268.0000   -33.0567     9.4822     8.2991    73.9500     7.6281     0.0541     2.4417     0.1403
  268.5000   -33.0907     9.4863     8.2231    73.5055     7.6277     0.0474     2.4410     0.1402
  269.0000   -33.1248     9.4904     8.1510    77.1035     7.6273     0.0416     2.4527     0.1447
  269.5000   -33.1597     9.4945     8.0796    80.1007     7.6270     0.0422     2.4444     0.1446
  270.0000   -33.1663     9.4986     8.0087    80.3237     7.6266     0.0457     2.4369     0.1443
  270.5000   -33.1664     9.5027     7.9256    79.9853     7.6262     0.0490     2.4428     0.1543
  271.0000   -33.1664     9.5068     7.9564    79.6418     7.6258     0.0523     2.4361     0.1559
  271.5000   -33.1663     9.5109     7.9855    79.5327     7.6254     0.0561     2.4231     0.1592
  272.0000   -33.1663     9.5150     8.0147    80.0861     7.6251     0.0709     2.4178     0.1557
  272.5000   -33.1663     9.5191     8.0440    80.8518     7.6247     0.0862     2.4001     0.1490
  273.0000   -33.1663     9.5232     8.0734    81.6224     7.6243     0.0896     2.4241     0.1457
  273.5000   -33.1663     9.5292     8.1030    82.4004     7.6239     0.0869     2.4299     0.1426
  274.0000   -33.1663     9.5321     8.1327    82.6840     7.6235     0.0841     2.4360     0.1378
  274.5000   -33.1664     9.4128     8.1476    80.9045     7.6231     0.0813     2.4513     0.1353
  275.0000   -33.1658     9.2848     8.1282    77.2616     7.6227     0.0785     2.4529     0.1349
  275.5000   -33.2126     9.1584     8.0637    77.3820     7.6224     0.0757     2.4536     0.1346
  276.0000   -33.2883     9.0333     7.9997    78.5724     7.6220     0.0730     2.4544     0.1336
  276.5000   -33.3646     8.9117     7.9361    81.6590     7.6216     0.0652     2.4553     0.1319
  277.0000   -33.4409     8.8503     7.8731    83.9259     7.6212     0.0517     2.4591     0.1301
  277.5000   -33.5172     8.8844     7.8106    82.7320     7.6208     0.0384     2.4692     0.1330
  278.0000   -33.5934     8.9138     7.7096    81.6372     7.6204     0.0297     2.4734     0.1400
  278.5000   -33.6697     8.9337     7.6355    79.5372     7.6200     0.0284     2.4436     0.1396
  279.0000   -33.7459     8.9382     7.5562    77.6936     7.6197     0.0270     2.4440     0.1387
  279.5000   -33.8222     8.8351     7.4777    77.9307     7.6193     0.0256     2.4474     0.1377
  280.0000   -33.8984     8.6787     7.4001    79.4512     7.6189     0.0241     2.4506     0.1378
  280.5000   -33.9747     8.5300     7.3232    81.0088     7.6185     0.0227     2.4537     0.1383
  281.0000   -34.0509     8.3834     7.2474    81.1713     7.6181     0.0212     2.4555     0.1388
  281.5000   -34.1272     8.2393     7.0869    80.6483     7.6177     0.0198     2.4548     0.1388
  282.0000   -34.2038     8.0977     6.9018    80.1413     7.6174     0.0183     2.4538     0.1396
  282.5000   -34.2810     7.9585     6.7218    79.6357     7.6170     0.0179     2.4487     0.1512
  283.0000   -34.3519     7.8217     6.5466    79.1302     7.6166     0.0207     2.4402     0.1547
  283.5000   -34.2216     7.7096     6.4719    78.7481     7.6162     0.0247     2.4192     0.1559
  284.0000   -34.1178     7.8398     6.4719    78.8663     7.6158     0.0300     2.4167     0.1551
  284.5000   -33.7737     7.9529     6.5040    80.9664     7.6154     0.0345     2.4145     0.1539
  285.0000   -33.4615     8.0681     6.5905    83.9554     7.6150     0.0388     2.4127     0.1480
  285.5000   -33.1531     8.1846     6.6781    85.6745     7.6147     0.0418     2.4242     0.1405
  286.0000   -32.8444     8.3029     6.7147    83.8712     7.6140     0.0417     2.4424     0.1394
  286.5000   -32.5365     8.3759     6.8582    80.5436     7.6117     0.0418     2.4636     0.1402
  287.0000   -32.3635     8.4534     6.9983    77.9870     7.6093     0.0433     2.4676     0.1408
  287.5000   -32.3649     8.5316     7.1413    76.3401     7.6069     0.0477     2.4506     0.1394
  288.0000   -32.3643     8.5184     7.2282    77.0409     7.6046     0.0518     2.4408     0.1377
  288.5000   -32.3631     8.4967     7.2282    78.9858     7.6022     0.0558     2.4474     0.1371
  289.0000   -32.4238     8.4748     7.2282    80.7149     7.5998     0.0596     2.4541     0.1388
  289.5000   -32.4929     8.4530     7.2197    80.9552     7.5975     0.0573     2.4581     0.1404
  290.0000   -32.5624     8.4313     7.2093    80.9393     7.5951     0.0537     2.4456     0.1378
  290.5000   -32.6306     8.4097     7.1989    80.2967     7.5927     0.0501     2.4412     0.1368
  291.0000   -32.6971     8.3881     7.1884    79.2932     7.5903     0.0465     2.4550     0.1381
  291.5000   -32.8118     8.3759     7.1782    78.5992     7.5880     0.0429     2.4542     0.1393
  292.0000   -33.0602     8.1805     7.1680    78.7804     7.5856     0.0402     2.4506     0.1382
  292.5000   -33.1830     8.0024     7.1617    79.2886     7.5832     0.0414     2.4431     0.1347
  293.0000   -33.2983     7.8279     6.9850    79.7905     7.5809     0.0398     2.4498     0.1324
  293.5000   -33.4138     7.6571     6.9029    80.2945     7.5785     0.0338     2.4596     0.1345
  294.0000   -33.5297     7.5012     6.4363    80.8216     7.5762     0.0298     2.4676     0.1411
  294.5000   -33.6455     7.3531     6.0205    82.5707     7.5790     0.0306     2.4472     0.1425
  295.0000   -33.7614     7.1851     5.6316    85.0344     7.5926     0.0316     2.4505     0.1482
  295.5000   -33.8773     7.0209     5.4329    83.1716     7.6059     0.0326     2.4430     0.1596
  296.0000   -33.9934     6.9029     5.4460    80.2077     7.6144     0.0336     2.4151     0.1669
  296.5000   -34.1068     6.8396     5.4550    79.6966     7.6136     0.0321     2.3976     0.1698
  297.0000   -34.1826     6.8963     5.4640    79.6125     7.6128     0.0293     2.3856     0.1646
  297.5000   -33.3949     6.9497     5.4767    79.4986     7.6120     0.0265     2.3939     0.1567
  298.0000   -32.2868     7.1591     5.4790    78.4090     7.6112     0.0238     2.4076     0.1481
  298.5000   -31.8444     7.4512     5.6734    77.3458     7.6105     0.0259     2.4224     0.1399
  299.0000   -31.7627     7.7551     5.9877    79.4918     7.6097     0.0258     2.4388     0.1388
  299.5000   -31.7993     8.0715     6.3210    82.3193     7.6089     0.0260     2.4483     0.1392
  300.0000   -31.8356     8.4008     6.6731    82.6515     7.6082     0.0313     2.4514     0.1366
  300.5000   -31.8702     8.7435     7.0420    76.8447     7.6074     0.0319     2.4495     0.1328
  301.0000   -31.9046     8.8522     7.2282    77.5417     7.6066     0.0312     2.4555     0.1340
  301.5000   -31.9391     8.8924     7.2345    79.5180     7.6059     0.0301     2.4614     0.1354
  302.0000   -31.9735     8.9372     7.2437    81.4553     7.6051     0.0298     2.4610     0.1369
  302.5000   -32.0080     8.9827     7.2529    83.3940     7.6043     0.0306     2.4504     0.1348
  303.0000   -32.0424     9.0285     7.2622    85.3234     7.6035     0.0315     2.4546     0.1317
