~VERSION INFORMATION
 VERS.                2.0:   CWLS LOG ASCII STANDARD - VERSION 2.0
 WRAP.                 NO:   ONE LINE PER DEPTH STEP
~WELL INFORMATION
#MNEM.UNIT      DATA TYPE    INFORMATION
#----------   ------------   ------------------------------
 STRT.F           28.0000:   START DEPTH
 STOP.F          468.0000:   STOP DEPTH
 STEP.F            0.5000:   STEP LENGTH
 NULL.          -999.2500:   NO VALUE
 COMP. FENIX & SCISSON INC:   COMPANY
 WELL. NAVAL PETROLEUM RESERVE 3 SX3F #35-3:   WELL
 FLD .             TEAPOT:   FIELD
 LOC .       S3 T38N R78W:   LOCATION
 CNTY.            NATRONA:   COUNTY
 STAT.            WYOMING:   STATE
 CTRY. UNITED STATES OF AMERICA:   COUNTRY
 SRVC.              Welex:   SERVICE COMPANY
 DATE.        07-JUL-1980:   LOGDATE
 API .       490251081700:   API NUMBER
~CURVE INFORMATION
#MNEM.UNIT       API CODE    CURVE DESCRIPTION
#----------   ------------   ------------------------------
 DEPT.F                  :   
 CORR.G/C3   45 356 01 00:   DENSITY CORRECTION
 RHOB.G/C3   45 350 01 00:   BULK DENSITY
 CALD.IN     45 280 60 00:   CALIPER
 GRD .GAPI   45 310 01 00:   GAMMA RAY FROM DENSITY LOG
 DPHI.DEC    45 890 12 00:   DENSITY POROSITY SANDSTONE
~PARAMETER INFORMATION
#MNEM.UNIT          VALUE    DESCRIPTION
#----------   ------------   ------------------------------
 PD  .                 GL:   PERMANENT DATUM
 EPD .F              5162:   ELEVATION PERMANENT DATUM
 LMF .                 KB:   LOG MEASURED FROM
 DAPD.F                 5:   FEET ABOVE PERMANENT DATUM
 DMF .                 KB:   DRILLING MEASURED FROM
 EKB .F              5167:   KELLING BUSHING
 EGL .F              5162:   GROUND LEVEL
 DATE.             7-7-80:   RUN DATE
 RUN .                  1:   RUN NUMBER
 DD  .F               470:   DEPTH DRILLER
 DL  .F               470:   DEPTH LOGGER
 BLI .F               468:   BOTTOM LOG INTERVAL
 TLI .F                30:   TOP LOG INTERVAL
 BS  .IN             6.25:   BIT SIZE
 BSD .F               470:   BIT SIZE AT DEPTH
 DFT .        ARI DRILLED:   DRILLING FLUID TYPE
 TCS .HRS             1.5:   TIME CURCULATED STOPPED
 MRT .F                74:   MAXIMUM RECORDED TEMPERATURE
 ENGI.            TOTHILL:   RECORDING ENGINEER
 WITN.             AMENDS:   WITNESSED BY
 CLNT.            A2DTECH:   CLIENT CODE
 ORIG.           5" PRINT:   ORIGIN OF DATA
 UWI .       490251081700:   UNIQUE WELL ID
 DICO. A2D Technologies, Inc.:   DIGITIZING COMPANY
~OTHER INFORMATION
~A   DEPT      CORR        RHOB       CALD       GRD        DPHI 
# ...
  211.0000     0.0595     2.4658     6.0736   125.9995     0.1248
  211.5000     0.0594     2.4703     6.0616   124.6320     0.1233
  212.0000     0.0583     2.4725     6.0748   124.8183     0.1222
  212.5000     0.0584     2.4750     6.0949   125.9248     0.1187
  213.0000     0.0609     2.4790     6.1152   126.3062     0.1181
  213.5000     0.0644     2.4723     6.1357   126.6810     0.1204
  214.0000     0.0678     2.4712     6.1392   127.1357     0.1227
  214.5000     0.0720     2.4659     6.1362   128.0692     0.1250
  215.0000     0.0760     2.4605     6.1330   128.7622     0.1272
  215.5000     0.0850     2.4640     6.1299   127.6020     0.1274
  216.0000     0.0942     2.4629     6.1268   126.4147     0.1272
  216.5000     0.1034     2.4631     6.1237   125.2319     0.1278
  217.0000     0.1128     2.4634     6.1206   124.0605     0.1277
  217.5000     0.1183     2.4622     6.1175   123.4532     0.1276
  218.0000     0.1254     2.4661     6.1144   124.4337     0.1249
  218.5000     0.1333     2.4704     6.1113   126.3119     0.1223
  219.0000     0.1284     2.4669     6.1082   128.2040     0.1243
  219.5000     0.1051     2.4628     6.1051   130.0362     0.1270
  220.0000     0.0987     2.4661     6.1019   131.4281     0.1267
  220.5000     0.0938     2.4575     6.0995   132.0803     0.1309
  221.0000     0.0749     2.4487     6.0973   131.9334     0.1364
  221.5000     0.0643     2.4463     6.0951   132.8356     0.1388
  222.0000     0.0758     2.4555     6.0929   134.6701     0.1319
  222.5000     0.0939     2.4570     6.0907   136.4885     0.1299
  223.0000     0.0908     2.4503     6.0885   137.5189     0.1372
  223.5000     0.0741     2.4452     6.0863   136.4870     0.1383
  224.0000     0.0751     2.4551     6.0841   134.8583     0.1311
  224.5000     0.0944     2.4632     6.0819   132.1529     0.1262
  225.0000     0.0952     2.4554     6.0797   135.0481     0.1309
  225.5000     0.0925     2.4591     6.0775   135.0390     0.1281
  226.0000     0.0924     2.4651     6.0753   133.9366     0.1258
  226.5000     0.0976     2.4669     6.0731   132.8486     0.1253
  227.0000     0.1007     2.4722     6.0709   133.8907     0.1227
  227.5000     0.1006     2.4726     6.0687   135.1964     0.1216
  228.0000     0.1004     2.4716     6.0665   136.3586     0.1220
  228.5000     0.1089     2.4786     6.0643   135.8653     0.1187
  229.0000     0.1183     2.4845     6.0622   133.6998     0.1154
  229.5000     0.1209     2.4840     6.0611   130.3997     0.1135
  230.0000     0.1184     2.4874     6.0629   127.6011     0.1137
  230.5000     0.1061     2.4844     6.0647   126.0877     0.1156
  231.0000     0.0950     2.4807     6.0665   125.6410     0.1174
  231.5000     0.0979     2.4826     6.0682   126.8154     0.1158
  232.0000     0.0979     2.4869     6.0700   128.2688     0.1129
  232.5000     0.0841     2.4777     6.0718   127.9101     0.1187
  233.0000     0.0706     2.4718     6.0735   126.5656     0.1212
  233.5000     0.0656     2.4754     6.0753   125.2054     0.1210
  234.0000     0.0638     2.4708     6.0771   125.9563     0.1233
  234.5000     0.0690     2.4734     6.0788   127.5190     0.1194
  235.0000     0.0781     2.4778     6.0806   129.0972     0.1194
  235.5000     0.0783     2.4803     6.0871   130.4132     0.1176
  236.0000     0.0680     2.4786     6.0940   129.6501     0.1209
  236.5000     0.0601     2.4700     6.1010   129.2009     0.1254
  237.0000     0.0648     2.4703     6.1080   130.3178     0.1225
  237.5000     0.0757     2.4749     6.1150   131.1502     0.1196
  238.0000     0.0865     2.4792     6.1189   130.1967     0.1190
  238.5000     0.0962     2.4793     6.0975   129.5243     0.1179
  239.0000     0.1027     2.4830     6.0758   129.9100     0.1157
  239.5000     0.1088     2.4853     6.0612   131.5645     0.1141
  240.0000     0.1150     2.4797     6.0698   134.4979     0.1167
  240.5000     0.1206     2.4742     6.0783   135.9839     0.1205
  241.0000     0.1208     2.4683     6.0759   134.6792     0.1228
  241.5000     0.1209     2.4701     6.0589   132.8471     0.1230
  242.0000     0.1143     2.4698     6.0434   132.2787     0.1230
  242.5000     0.1069     2.4666     6.0214   135.1509     0.1248
  243.0000     0.0997     2.4636     6.0374   138.3171     0.1274
  243.5000     0.0913     2.4610     6.0528   139.2949     0.1300
  244.0000     0.0831     2.4563     6.0684   140.3073     0.1326
  244.5000     0.0747     2.4508     6.0840   140.8053     0.1352
  245.0000     0.0704     2.4512     6.0994   139.8110     0.1340
  245.5000     0.0704     2.4530     6.1019   138.0954     0.1319
  246.0000     0.0705     2.4593     6.1034   134.9377     0.1264
  246.5000     0.0708     2.4755     6.1050   131.9478     0.1201
  247.0000     0.0592     2.4748     6.1066   133.4655     0.1215
  247.5000     0.0464     2.4645     6.1082   132.5968     0.1274
  248.0000     0.0336     2.4534     6.1097   129.9736     0.1333
  248.5000     0.0223     2.4488     6.1113   126.4115     0.1363
  249.0000     0.0277     2.4469     6.1129   125.9416     0.1363
  249.5000     0.0388     2.4530     6.1145   124.9508     0.1339
  250.0000     0.0534     2.4542     6.1161   123.8986     0.1292
  250.5000     0.0690     2.4648     6.1177   123.8275     0.1246
  251.0000     0.0841     2.4674     6.1193   125.1175     0.1252
  251.5000     0.0930     2.4635     6.1209   126.8515     0.1270
  252.0000     0.0850     2.4523     6.1212   128.3658     0.1351
  252.5000     0.0655     2.4414     6.1212   128.2377     0.1434
  253.0000     0.0633     2.4346     6.1212   127.6160     0.1456
  253.5000     0.0861     2.4441     6.1212   127.2680     0.1383
  254.0000     0.1007     2.4528     6.1212   128.2480     0.1324
  254.5000     0.0682     2.4660     6.1212   132.2144     0.1243
  255.0000     0.0729     2.4794     6.1212   135.2588     0.1152
  255.5000     0.0768     2.4895     6.1212   134.4800     0.1117
  256.0000     0.0667     2.4845     6.1212   130.9322     0.1150
  256.5000     0.0547     2.4802     6.1226   127.6551     0.1178
  257.0000     0.0575     2.4850     6.1309   124.8797     0.1147
  257.5000     0.0653     2.4925     6.1392   124.3290     0.1094
  258.0000     0.0724     2.4966     6.1475   123.3635     0.1073
  258.5000     0.0680     2.4912     6.1557   121.7983     0.1108
  259.0000     0.0551     2.4853     6.1595   120.4024     0.1148
  259.5000     0.0438     2.4830     6.1501   121.1280     0.1178
  260.0000     0.0513     2.4884     6.1411   122.0653     0.1143
  260.5000     0.0608     2.4889     6.1321   120.9931     0.1121
  261.0000     0.0600     2.4878     6.1230   120.9162     0.1128
  261.5000     0.0564     2.4866     6.1177   122.6452     0.1133
  262.0000     0.0574     2.4906     6.1132   124.4166     0.1113
  262.5000     0.0640     2.4927     6.1087   123.1660     0.1082
  263.0000     0.0710     2.4972     6.1042   121.3563     0.1095
  263.5000     0.0671     2.4920     6.1012   120.8845     0.1086
  264.0000     0.0622     2.4845     6.1061   122.2456     0.1121
  264.5000     0.0703     2.4918     6.1108   123.5764     0.1105
  265.0000     0.0765     2.4937     6.1155   124.4228     0.1098
  265.5000     0.0729     2.4916     6.1203   123.6243     0.1102
  266.0000     0.0674     2.4890     6.1225   122.8055     0.1114
  266.5000     0.0623     2.4871     6.1242   122.0306     0.1125
  267.0000     0.0683     2.4948     6.1259   122.0651     0.1085
  267.5000     0.0768     2.4945     6.1276   123.2173     0.1099
  268.0000     0.0696     2.4830     6.1293   123.9858     0.1171
  268.5000     0.0508     2.4708     6.1310   123.4623     0.1237
  269.0000     0.0460     2.4587     6.1327   126.7630     0.1299
  269.5000     0.0416     2.4475     6.1344   130.7757     0.1361
  270.0000     0.0388     2.4405     6.1361   132.7712     0.1405
  270.5000     0.0417     2.4330     6.1378   134.6717     0.1457
  271.0000     0.0490     2.4260     6.1394   136.3866     0.1497
  271.5000     0.0566     2.4277     6.1406   133.9100     0.1468
