~VERSION INFORMATION
 VERS.                2.0:   CWLS LOG ASCII STANDARD - VERSION 2.0
 WRAP.                 NO:   ONE LINE PER DEPTH STEP
~WELL INFORMATION
#MNEM.UNIT      DATA TYPE    INFORMATION
#----------   ------------   ------------------------------
 STRT.F            0.0000:   START DEPTH
 STOP.F         2758.0000:   STOP DEPTH
 STEP.F            0.5000:   STEP LENGTH
 NULL.          -999.2500:   NO VALUE
 COMP. FENIX & SCISSON INC:   COMPANY
 WELL.       402A #402-20:   WELL
 FLD .             TEAPOT:   FIELD
 LOC .      S20 T39N R78W:   LOCATION
 CNTY.            NATRONA:   COUNTY
 STAT.            WYOMING:   STATE
 CTRY. UNITED STATES OF AMERICA:   COUNTRY
 SRVC.      NL McCullough:   SERVICE COMPANY
 DATE.        15-JUL-1965:   LOGDATE
 API .       490251021100:   API NUMBER
~CURVE INFORMATION
#MNEM.UNIT       API CODE    CURVE DESCRIPTION
#----------   ------------   ------------------------------
 DEPT.F                  :   
 GR  .GAPI   30 310 01 00:   GAMMA RAY
 CALI.IN     70 280 01 00:   CALIPER
~PARAMETER INFORMATION
#MNEM.UNIT          VALUE    DESCRIPTION
#----------   ------------   ------------------------------
 PD  .                 GL:   PERMANENT DATUM
 LMF .                 GL:   LOG MEASURED FROM
 DMF .                 GL:   DRILLING MEASURED FROM
 DATE.            7-15-65:   RUN DATE
 RUN .                  1:   RUN NUMBER
 DL  .F              2759:   DEPTH LOGGER
 BLI .F              2758:   BOTTOM LOG INTERVAL
 TLI .F              2100:   TOP LOG INTERVAL
 CS  .IN                7:   CASING SIZE
 ENGI. FITZSIMMONS/COWLTHORPE:   RECORDING ENGINEER
 WITN.             HUDSON:   WITNESSED BY
 CLNT.            A2DTECH:   CLIENT CODE
 ORIG.           5" PRINT:   ORIGIN OF DATA
 UWI .       490251021100:   UNIQUE WELL ID
 DICO. A2D Technologies, Inc.:   DIGITIZING COMPANY
~OTHER INFORMATION
~A    DEPT      GR         CALI 
# ...
  364.5000  -999.2500     5.9131
  365.0000  -999.2500     5.9129
  365.5000  -999.2500     5.9126
  366.0000  -999.2500     5.9124
  366.5000  -999.2500     5.9121
  367.0000  -999.2500     5.9119
  367.5000  -999.2500     5.9116
  368.0000  -999.2500     5.9113
  368.5000  -999.2500     5.9111
  369.0000  -999.2500     5.9108
  369.5000  -999.2500     5.9106
  370.0000  -999.2500     5.9103
  370.5000  -999.2500     5.9101
  371.0000  -999.2500     5.9098
  371.5000  -999.2500     5.9096
  372.0000  -999.2500     5.9093
  372.5000  -999.2500     5.9091
  373.0000  -999.2500     5.9088
  373.5000  -999.2500     5.9086
  374.0000  -999.2500     5.9083
  374.5000  -999.2500     5.9081
  375.0000  -999.2500     5.9078
  375.5000  -999.2500     5.9076
  376.0000  -999.2500     5.9073
  376.5000  -999.2500     5.9071
  377.0000  -999.2500     5.9068
  377.5000  -999.2500     5.9065
  378.0000  -999.2500     5.9063
  378.5000  -999.2500     5.9060
  379.0000  -999.2500     5.9058
  379.5000  -999.2500     5.9055
  380.0000  -999.2500     5.9053
  380.5000  -999.2500     5.9050
  381.0000  -999.2500     5.9048
  381.5000  -999.2500     5.9045
  382.0000  -999.2500     5.9043
  382.5000  -999.2500     5.9040
  383.0000  -999.2500     5.9038
  383.5000  -999.2500     5.9035
  384.0000  -999.2500     5.9033
  384.5000  -999.2500     5.9030
  385.0000  -999.2500     5.9028
  385.5000  -999.2500     5.9025
  386.0000  -999.2500     5.9022
  386.5000  -999.2500     5.9020
  387.0000  -999.2500     5.9017
  387.5000  -999.2500     5.9015
  388.0000  -999.2500     5.9012
  388.5000  -999.2500     5.9010
  389.0000  -999.2500     5.9007
  389.5000  -999.2500     5.9005
  390.0000  -999.2500     5.9002
  390.5000  -999.2500     5.9000
  391.0000  -999.2500     5.8997
  391.5000  -999.2500     5.8995
  392.0000  -999.2500     5.8992
  392.5000  -999.2500     5.8990
  393.0000  -999.2500     5.8987
  393.5000  -999.2500     5.8984
  394.0000  -999.2500     5.8982
  394.5000  -999.2500     5.8979
  395.0000  -999.2500     5.8977
  395.5000  -999.2500     5.8974
  396.0000  -999.2500     5.8972
  396.5000  -999.2500     5.8969
  397.0000  -999.2500     5.8967
  397.5000  -999.2500     5.8964
  398.0000  -999.2500     5.8962
  398.5000  -999.2500     5.8959
  399.0000  -999.2500     5.8957
  399.5000  -999.2500     5.8954
  400.0000  -999.2500     5.8952
  400.5000  -999.2500     5.8949
  401.0000  -999.2500     5.8947
  401.5000  -999.2500     5.8944
  402.0000  -999.2500     5.8941
  402.5000  -999.2500     5.8939
  403.0000  -999.2500     5.8936
  403.5000  -999.2500     5.8934
  404.0000  -999.2500     5.8931
  404.5000  -999.2500     5.8929
  405.0000  -999.2500     5.8926
  405.5000  -999.2500     5.8924
  406.0000  -999.2500     5.8921
  406.5000  -999.2500     5.8919
  407.0000  -999.2500     5.8916
  407.5000  -999.2500     5.8914
  408.0000  -999.2500     5.8911
  408.5000  -999.2500     5.8909
  409.0000  -999.2500     5.8906
  409.5000  -999.2500     5.8904
  410.0000  -999.2500     5.8901
  410.5000  -999.2500     5.8899
  411.0000  -999.2500     5.8896
  411.5000  -999.2500     5.8893
  412.0000  -999.2500     5.8891
  412.5000  -999.2500     5.8888
  413.0000  -999.2500     5.8886
  413.5000  -999.2500     5.8883
  414.0000  -999.2500     5.8881
  414.5000  -999.2500     5.8878
  415.0000  -999.2500     5.8876
  415.5000  -999.2500     5.8873
  416.0000  -999.2500     5.8871
  416.5000  -999.2500     5.8868
  417.0000  -999.2500     5.8866
  417.5000  -999.2500     5.8863
  418.0000  -999.2500     5.8861
  418.5000  -999.2500     5.8858
  419.0000  -999.2500     5.8856
  419.5000  -999.2500     5.8853
  420.0000  -999.2500     5.8850
  420.5000  -999.2500     5.8848
  421.0000  -999.2500     5.8845
  421.5000  -999.2500     5.8843
  422.0000  -999.2500     5.8840
  422.5000  -999.2500     5.8838
  423.0000  -999.2500     5.8835
  423.5000  -999.2500     5.8833
  424.0000  -999.2500     5.8830
  424.5000  -999.2500     5.8828
  425.0000  -999.2500     5.8825
  425.5000  -999.2500     5.8823
  426.0000  -999.2500     5.8820
  426.5000  -999.2500     5.8818
  427.0000  -999.2500     5.8815
  427.5000  -999.2500     5.8812
  428.0000  -999.2500     5.8810
  428.5000  -999.2500     5.8807
  429.0000  -999.2500     5.8805
  429.5000  -999.2500     5.8802
  430.0000  -999.2500     5.8800
  430.5000  -999.2500     5.8797
  431.0000  -999.2500     5.8795
  431.5000  -999.2500     5.8792
  432.0000  -999.2500     5.8790
  432.5000  -999.2500     5.8787
  433.0000  -999.2500     5.8785
  433.5000  -999.2500     5.8782
  434.0000  -999.2500     5.8780
  434.5000  -999.2500     5.8777
  435.0000  -999.2500     5.8774
  435.5000  -999.2500     5.8772
  436.0000  -999.2500     5.8769
  436.5000  -999.2500     5.8767
  437.0000  -999.2500     5.8764
  437.5000  -999.2500     5.8762
  438.0000  -999.2500     5.8759
  438.5000  -999.2500     5.8757
  439.0000  -999.2500     5.8754
  439.5000  -999.2500     5.8752
  440.0000  -999.2500     5.8749
  440.5000  -999.2500     5.8747
  441.0000  -999.2500     5.8744
  441.5000  -999.2500     5.8742
  442.0000  -999.2500     5.8739
  442.5000  -999.2500     5.8737
  443.0000  -999.2500     5.8734
  443.5000  -999.2500     5.8731
  444.0000  -999.2500     5.8729
  444.5000  -999.2500     5.8726
  445.0000  -999.2500     5.8725
  445.5000  -999.2500     5.8742
  446.0000  -999.2500     5.8758
  446.5000  -999.2500     5.8775
  447.0000  -999.2500     5.8791
  447.5000  -999.2500     5.8807
  448.0000  -999.2500     5.8823
  448.5000  -999.2500     5.8840
  449.0000  -999.2500     5.8856
  449.5000  -999.2500     5.8872
  450.0000  -999.2500     5.8889
  450.5000  -999.2500     5.8905
  451.0000  -999.2500     5.8922
  451.5000  -999.2500     5.8906
  452.0000  -999.2500     5.8876
  452.5000  -999.2500     5.8845
  453.0000  -999.2500     5.8814
  453.5000  -999.2500     5.8783
  454.0000  -999.2500     5.8751
  454.5000  -999.2500     5.8735
  455.0000  -999.2500     5.8979
  455.5000  -999.2500     5.9208
  456.0000  -999.2500     5.9533
  456.5000  -999.2500     5.9416
  457.0000  -999.2500     5.9308
  457.5000  -999.2500     5.9199
  458.0000  -999.2500     5.9149
  458.5000  -999.2500     5.9349
  459.0000  -999.2500     5.9549
  459.5000  -999.2500     5.9748
  460.0000  -999.2500     5.9925
  460.5000  -999.2500     5.9927
  461.0000  -999.2500     5.9926
  461.5000  -999.2500     5.9925
  462.0000  -999.2500     5.9988
  462.5000  -999.2500     6.0083
  463.0000  -999.2500     6.0180
  463.5000  -999.2500     6.0277
  464.0000  -999.2500     6.0373
  464.5000  -999.2500     6.0469
  465.0000  -999.2500     6.0566
  465.5000  -999.2500     6.0662
  466.0000  -999.2500     6.0759
  466.5000  -999.2500     6.0855
  467.0000  -999.2500     6.0921
  467.5000  -999.2500     6.0879
  468.0000  -999.2500     6.0839
  468.5000  -999.2500     6.0800
  469.0000  -999.2500     6.0760
  469.5000  -999.2500     6.0721
  470.0000  -999.2500     6.0682
  470.5000  -999.2500     6.0643
  471.0000  -999.2500     6.0603
  471.5000  -999.2500     6.0564
  472.0000  -999.2500     6.0524
  472.5000  -999.2500     6.0447
  473.0000  -999.2500     6.0370
  473.5000  -999.2500     6.0294
  474.0000  -999.2500     6.0218
  474.5000  -999.2500     6.0142
  475.0000  -999.2500     6.0065
  475.5000  -999.2500     5.9988
  476.0000  -999.2500     5.9946
  476.5000  -999.2500     6.0089
  477.0000  -999.2500     6.0228
  477.5000  -999.2500     6.0322
  478.0000  -999.2500     6.0291
  478.5000  -999.2500     6.0263
  479.0000  -999.2500     6.0235
  479.5000  -999.2500     6.0208
  480.0000  -999.2500     6.0180
  480.5000  -999.2500     6.0152
  481.0000  -999.2500     6.0124
  481.5000  -999.2500     6.0096
  482.0000  -999.2500     6.0069
  482.5000  -999.2500     6.0041
  483.0000  -999.2500     6.0013
  483.5000  -999.2500     5.9985
  484.0000  -999.2500     5.9957
  484.5000  -999.2500     5.9929
  485.0000  -999.2500     5.9934
  485.5000  -999.2500     5.9945
