~VERSION INFORMATION
 VERS.                2.0:   CWLS LOG ASCII STANDARD - VERSION 2.0
 WRAP.                 NO:   ONE LINE PER DEPTH STEP
~WELL INFORMATION
#MNEM.UNIT      DATA TYPE    INFORMATION
#----------   ------------   ------------------------------
 STRT.F           12.5000:   START DEPTH
 STOP.F          604.0000:   STOP DEPTH
 STEP.F            0.5000:   STEP LENGTH
 NULL.          -999.2500:   NO VALUE
 COMP. FENIX & SCISSON INC:   COMPANY
 WELL.   SX-3 NPR 3 #61-3:   WELL
 FLD .             TEAPOT:   FIELD
 LOC .       S3 T38N R78W:   LOCATION
 CNTY.            NATRONA:   COUNTY
 STAT.            WYOMING:   STATE
 CTRY. UNITED STATES OF AMERICA:   COUNTRY
 SRVC.           BIRDWELL:   SERVICE COMPANY
 DATE.        03-DEC-1978:   LOGDATE
 API .       490251074100:   API NUMBER
~CURVE INFORMATION
#MNEM.UNIT       API CODE    CURVE DESCRIPTION
#----------   ------------   ------------------------------
 DEPT.F                  :   
 SPR .MV     05 010 01 00:   SPONTANEOUS POTENTIAL FROM RES.
 SN  .OHMM   05 040 16 00:   SHORT NORMAL 16"
 IL  .OHMM   05 120 00 00:   INDUCTION LOG
 CALD.IN     45 280 60 00:   CALIPER
 GRD .GAPI   45 310 01 00:   GAMMA RAY FROM DENSITY LOG
 DEN .G/C3   45 350 01 00:   COMPENSATED BULK DENSTIY
 CORR.G/C3   45 356 01 00:   DENSITY CORRECTION
 DPHI.DEC    45 890 12 00:   DENSITY POROSITY SANDSTONE
~PARAMETER INFORMATION
#MNEM.UNIT          VALUE    DESCRIPTION
#----------   ------------   ------------------------------
 PD  .                 GL:   PERMANENT DATUM
 EPD .F              5099:   ELEVATION PERMANENT DATUM
 LMF .                 KB:   LOG MEASURED FROM
 DAPD.F                 4:   FEET ABOVE PERMANENT DATUM
 DMF .                 KB:   DRILLING MEASURED FROM
 EKB .F              5103:   KELLING BUSHING
 EGL .F              5099:   GROUND LEVEL
 DATE.            12-3-78:   RUN DATE
 RUN .                  1:   RUN NUMBER
 DD  .F               615:   DEPTH DRILLER
 DL  .F               604:   DEPTH LOGGER
 BLI .F               598:   BOTTOM LOG INTERVAL
 TLI .F                40:   TOP LOG INTERVAL
 CS  .IN            8.625:   CASING SIZE
 CBL .F                35:   CASING BOTTOM LOGGER
 BS  .IN            7.875:   BIT SIZE
 BSD .F               615:   BIT SIZE AT DEPTH
 DFT .                KCL:   DRILLING FLUID TYPE
 DFD .                8.8:   DRILLING FLUID DENSITY
 DFV .                 42:   DRILLING FLUID VISCOSITY
 DFPH.               12.2:   DRILLING FLUID PH
 DFL .                 10:   DRILLING FLUID LOSS
 MSS .           FLOWLINE:   MUD SAMPLE SOURCE
 RMS .OHMM            .24:   RESISTIVITY MUD SAMPLE
 MST .F                58:   MUD SAMPLE TEMPERATURE
 RMF .OHMM             .3:   RESISTIVITY MUD FILTRATE SAMPLE
 MFST.F                54:   MUD FILTRATE SAMPLE TEMPERATURE
 RMC .OHMM            .34:   RESISTIVITY MUD CAKE
 MCST.F                56:   MUD CAKE SAMPLE TEMPERATURE
 MFSS.           MEASURED:   MUD FILTRATE SAMPLE SOURCE
 MCSS.           MEASURED:   MUD CAKE SAMPLE SOURCE
 RMB .OHMM            .27:   RESISTIVITY MUD AT BHT
 BHT .F                56:   BOTTOM HOLE TEMPERATURE
 TCS .HRS               3:   TIME CURCULATED STOPPED
 MRT .F                52:   MAXIMUM RECORDED TEMPERATURE
 LUN .               2958:   LOGGING UNIT NUMBER
 LUL .                CPR:   LOGGING UNIT LOCATION
 ENGI.            ROLLINS:   RECORDING ENGINEER
 WITN.              AMEND:   WITNESSED BY
 CLNT.            A2DTECH:   CLIENT CODE
 ORIG.       2", 5" PRINT:   ORIGIN OF DATA
 UWI .       490251074100:   UNIQUE WELL ID
 DICO. A2D Technologies, Inc.:   DIGITIZING COMPANY
~OTHER INFORMATION
~A   DEPT      SPR         SN         IL       CALD         GRD       DEN       CORR       DPHI   
# ...
  215.0000   -52.5105     9.9944     9.1018     8.0437   105.6269     2.4866     0.0026     0.1275
  215.5000   -52.5101    10.0024     9.0679     8.0340   105.8118     2.4818     0.0035     0.1292
  216.0000   -52.5100     9.9934     9.0342     8.0243   107.7193     2.4813     0.0045     0.1279
  216.5000   -52.5099     9.9769     9.0005     8.0145   109.8032     2.4824     0.0055     0.1257
  217.0000   -52.5098     9.9602     8.9670     8.0048   111.2991     2.4846     0.0055     0.1235
  217.5000   -52.5065     9.9436     8.9336     7.9951   110.5870     2.4870     0.0055     0.1225
  218.0000   -52.6605     9.9271     8.9003     7.9851   108.5657     2.4890     0.0055     0.1244
  218.5000   -52.8590     9.9106     8.8672     7.9815   106.5547     2.4879     0.0055     0.1256
  219.0000   -53.0584     9.8941     8.8342     7.9964   104.9165     2.4866     0.0055     0.1256
  219.5000   -53.2572     9.8776     8.8011     8.0087   105.0493     2.4854     0.0055     0.1269
  220.0000   -53.4654     9.8611     8.7581     8.0155   109.7568     2.4830     0.0055     0.1290
  220.5000   -53.4754     9.8447     8.7088     8.0226   114.2998     2.4794     0.0055     0.1311
  221.0000   -53.4218     9.8283     8.6601     8.0299   114.6202     2.4741     0.0059     0.1345
  221.5000   -53.3667     9.8120     8.6115     8.0373   114.8610     2.4689     0.0065     0.1388
  222.0000   -53.3122     9.7956     8.5633     8.0366   116.4610     2.4636     0.0070     0.1391
  222.5000   -53.2577     9.7793     8.5153     7.9889   117.8683     2.4622     0.0074     0.1331
  223.0000   -53.2032     9.7630     8.4705     7.9413   116.5162     2.4701     0.0053     0.1233
  223.5000   -53.1494     9.7469     8.4704     7.8937   114.3905     2.4926     0.0033     0.1135
  224.0000   -53.1119     9.7295     8.4704     7.8462   113.6971     2.5151     0.0013     0.1040
  224.5000   -53.1125     9.7536     8.4706     7.8034   112.4952     2.5315    -0.0008     0.1036
  225.0000   -53.1124     9.7861     8.5064     7.7817   109.4076     2.5223    -0.0027     0.1102
  225.5000   -53.1124     9.8188     8.5694     7.7890   107.6413     2.5110    -0.0044     0.1199
  226.0000   -53.1124     9.8516     8.6327     7.8476   106.9471     2.4998    -0.0064     0.1197
  226.5000   -53.1124     9.8844     8.6963     7.9060   106.2571     2.4933    -0.0020     0.1192
  227.0000   -53.1124     9.9174     8.7605     7.9616   107.3043     2.4942     0.0093     0.1206
  227.5000   -53.1124     9.9505     8.8228     7.8681   108.8822     2.4949     0.0195     0.1239
  228.0000   -53.1124     9.9837     8.8829     7.7812   109.3675     2.4893     0.0210     0.1267
  228.5000   -53.1124    10.0029     8.9437     7.8453   112.2842     2.4833     0.0224     0.1253
  229.0000   -53.1124    10.0029     9.0050     7.9764   113.2078     2.4855     0.0236     0.1215
  229.5000   -53.1124    10.0030     9.0666     8.0990   110.8252     2.4895     0.0241     0.1180
  230.0000   -53.1124    10.0029     9.1202     8.1120   107.9099     2.4951     0.0247     0.1172
  230.5000   -53.1124    10.0029     9.2049     8.1213   108.2923     2.4993     0.0252     0.1164
  231.0000   -53.1124    10.0029     9.2049     8.0162   111.3008     2.5002     0.0250     0.1156
  231.5000   -53.1124    10.0029     9.2049     7.9129   113.6760     2.5010     0.0243     0.1152
  232.0000   -53.1124    10.0029     9.2049     7.9759   113.9812     2.5003     0.0235     0.1202
  232.5000   -53.1124    10.0029     9.2049     8.0221   112.4129     2.4953     0.0227     0.1256
  233.0000   -53.1124    10.0029     9.2049     8.0293   110.2133     2.4852     0.0219     0.1285
  233.5000   -53.1124    10.0029     9.2049     8.0360   108.7464     2.4813     0.0211     0.1312
  234.0000   -53.1124    10.0029     9.2049     8.0282   108.7674     2.4777     0.0204     0.1348
  234.5000   -53.1124    10.0029     9.2049     7.8868   108.7819     2.4708     0.0196     0.1385
  235.0000   -53.1125    10.0029     9.2049     7.7602   107.9407     2.4639     0.0195     0.1422
  235.5000   -53.1127    10.0029     9.2049     7.8332   107.0683     2.4566     0.0195     0.1475
  236.0000   -53.1114    10.0029     9.2048     8.0563   108.1311     2.4467     0.0214     0.1544
  236.5000   -53.0846    10.0028     9.2049     7.9532   110.9132     2.4366     0.0273     0.1571
  237.0000   -53.0579    10.0035     9.2103     7.9550   111.5585     2.4330     0.0338     0.1523
  237.5000   -53.0313    10.0293     9.2382     8.0702   110.7610     2.4380     0.0403     0.1488
  238.0000   -53.0048    10.0551     9.2658     8.0780   109.2083     2.4438     0.0425     0.1473
  238.5000   -52.9785    10.0811     9.2935     8.0681   107.9368     2.4496     0.0408     0.1444
  239.0000   -52.9521    10.1072     9.3213     8.0592   108.0115     2.4542     0.0389     0.1401
  239.5000   -52.9235    10.1335     9.3492     8.0467   108.0577     2.4570     0.0371     0.1358
  240.0000   -52.8131    10.1595     9.3765     7.9364   108.1012     2.4617     0.0353     0.1334
  240.5000   -52.6101    10.1858     9.5942     7.6010   108.1476     2.4727     0.0336     0.1354
  241.0000   -52.4079    10.3580     9.8127     7.7437   108.1017     2.4730     0.0378     0.1375
  241.5000   -52.2049    10.5578    10.0362     7.9785   108.0269     2.4672     0.0426     0.1377
  242.0000   -52.0021    10.7614    10.2647     8.0231   105.9133     2.4629     0.0472     0.1340
  242.5000   -51.7994    10.9690    10.4984     8.0245   102.7350     2.4678     0.0514     0.1276
  243.0000   -51.5966    11.1807    10.7375     8.0316    99.1486     2.4749     0.0501     0.1271
  243.5000   -51.3939    11.3960    10.9820     8.0394   101.3129     2.4818     0.0489     0.1262
  244.0000   -51.1911    11.5974    11.2321     7.9627   106.2183     2.4822     0.0477     0.1245
  244.5000   -50.9889    11.7039    11.4878     7.8059   109.0227     2.4853     0.0464     0.1236
  245.0000   -50.7141    11.8038    11.7494     7.8633   109.6538     2.4885     0.0452     0.1236
  245.5000   -50.3894    11.9045    12.0170     7.9174   108.5452     2.4900     0.0440     0.1236
  246.0000   -50.0643    12.0060    12.2906     7.9430   105.8982     2.4899     0.0470     0.1232
  246.5000   -49.7392    12.1084    12.5705     7.9378   102.5272     2.4911     0.0532     0.1198
  247.0000   -49.4137    12.2116    12.7510     7.9173    99.1706     2.5127     0.0528     0.1156
  247.5000   -49.0914    12.3157    12.8189     7.8983    95.8077     2.5379     0.0422     0.1113
  248.0000   -48.7730    12.4205    12.8871     7.8962    94.4128     2.5499     0.0287     0.1052
  248.5000   -48.4961    12.5535    12.9557     7.9238    96.0180     2.5252     0.0149     0.1087
  249.0000   -48.3413    12.7313    13.0258     7.9866    98.5540     2.5081     0.0097     0.1149
  249.5000   -48.3126    12.9112    13.0781     8.0363   100.1390     2.4987     0.0098     0.1211
  250.0000   -48.4317    13.0635    12.8672     8.0391   100.1118     2.4891     0.0100     0.1273
  250.5000   -48.5426    12.9348    12.6718     8.0353    98.9546     2.4793     0.0103     0.1331
  251.0000   -48.6529    12.8074    12.4802     8.0318    97.8197     2.4712     0.0105     0.1355
  251.5000   -48.7632    12.6812    12.2917     8.0284    97.7014     2.4672     0.0107     0.1379
  252.0000   -48.8735    12.5563    12.1060     8.0250    99.1444     2.4633     0.0109     0.1404
  252.5000   -48.9838    12.4326    11.9231     8.0215   100.8773     2.4608     0.0111     0.1398
  253.0000   -49.0941    12.3101    11.7430     8.0181   102.3685     2.4603     0.0113     0.1370
  253.5000   -49.2043    12.1888    11.5656     8.0147   101.8920     2.4612     0.0113     0.1343
  254.0000   -49.3146    12.0688    11.4647     8.0113   100.6730     2.4647     0.0106     0.1324
  254.5000   -49.4249    11.9498    11.4235     8.0079    99.4475     2.4736     0.0099     0.1349
  255.0000   -49.5352    11.8320    11.3816     8.0045    99.2744     2.4726     0.0092     0.1390
