~VERSION INFORMATION
 VERS.                2.0:   CWLS LOG ASCII STANDARD - VERSION 2.0
 WRAP.                 NO:   ONE LINE PER DEPTH STEP
~WELL INFORMATION
#MNEM.UNIT      DATA TYPE    INFORMATION
#----------   ------------   ------------------------------
 STRT.F            0.0000:   START DEPTH
 STOP.F         2758.0000:   STOP DEPTH
 STEP.F            0.5000:   STEP LENGTH
 NULL.          -999.2500:   NO VALUE
 COMP. FENIX & SCISSON INC:   COMPANY
 WELL.       402A #402-20:   WELL
 FLD .             TEAPOT:   FIELD
 LOC .      S20 T39N R78W:   LOCATION
 CNTY.            NATRONA:   COUNTY
 STAT.            WYOMING:   STATE
 CTRY. UNITED STATES OF AMERICA:   COUNTRY
 SRVC.      NL McCullough:   SERVICE COMPANY
 DATE.        15-JUL-1965:   LOGDATE
 API .       490251021100:   API NUMBER
~CURVE INFORMATION
#MNEM.UNIT       API CODE    CURVE DESCRIPTION
#----------   ------------   ------------------------------
 DEPT.F                  :   
 GR  .GAPI   30 310 01 00:   GAMMA RAY
 CALI.IN     70 280 01 00:   CALIPER
~PARAMETER INFORMATION
#MNEM.UNIT          VALUE    DESCRIPTION
#----------   ------------   ------------------------------
 PD  .                 GL:   PERMANENT DATUM
 LMF .                 GL:   LOG MEASURED FROM
 DMF .                 GL:   DRILLING MEASURED FROM
 DATE.            7-15-65:   RUN DATE
 RUN .                  1:   RUN NUMBER
 DL  .F              2759:   DEPTH LOGGER
 BLI .F              2758:   BOTTOM LOG INTERVAL
 TLI .F              2100:   TOP LOG INTERVAL
 CS  .IN                7:   CASING SIZE
 ENGI. FITZSIMMONS/COWLTHORPE:   RECORDING ENGINEER
 WITN.             HUDSON:   WITNESSED BY
 CLNT.            A2DTECH:   CLIENT CODE
 ORIG.           5" PRINT:   ORIGIN OF DATA
 UWI .       490251021100:   UNIQUE WELL ID
 DICO. A2D Technologies, Inc.:   DIGITIZING COMPANY
~OTHER INFORMATION
~A    DEPT      GR         CALI 
# ...
  486.0000  -999.2500     5.9957
  486.5000  -999.2500     5.9968
  487.0000  -999.2500     5.9980
  487.5000  -999.2500     5.9991
  488.0000  -999.2500     6.0002
  488.5000  -999.2500     6.0014
  489.0000  -999.2500     6.0025
  489.5000  -999.2500     6.0037
  490.0000  -999.2500     6.0048
  490.5000  -999.2500     6.0060
  491.0000  -999.2500     6.0071
  491.5000  -999.2500     6.0083
  492.0000  -999.2500     6.0094
  492.5000  -999.2500     6.0105
  493.0000  -999.2500     6.0114
  493.5000  -999.2500     6.0150
  494.0000  -999.2500     6.0449
  494.5000  -999.2500     6.0338
  495.0000  -999.2500     6.0343
  495.5000  -999.2500     6.0344
  496.0000  -999.2500     6.0352
  496.5000  -999.2500     6.0359
  497.0000  -999.2500     6.0366
  497.5000  -999.2500     6.0373
  498.0000  -999.2500     6.0379
  498.5000  -999.2500     6.0386
  499.0000  -999.2500     6.0393
  499.5000  -999.2500     6.0400
  500.0000  -999.2500     6.0407
  500.5000  -999.2500     6.0414
  501.0000  -999.2500     6.0421
  501.5000  -999.2500     6.0428
  502.0000  -999.2500     6.0435
  502.5000  -999.2500     6.0442
  503.0000  -999.2500     6.0449
  503.5000  -999.2500     6.0455
  504.0000  -999.2500     6.0462
  504.5000  -999.2500     6.0469
  505.0000  -999.2500     6.0476
  505.5000  -999.2500     6.0483
  506.0000  -999.2500     6.0490
  506.5000  -999.2500     6.0497
  507.0000  -999.2500     6.0504
  507.5000  -999.2500     6.0511
  508.0000  -999.2500     6.0518
  508.5000  -999.2500     6.0525
  509.0000  -999.2500     6.0527
  509.5000  -999.2500     6.0527
  510.0000  -999.2500     6.0527
  510.5000  -999.2500     6.0527
  511.0000  -999.2500     6.0544
  511.5000  -999.2500     6.0581
  512.0000  -999.2500     6.0618
  512.5000  -999.2500     6.0656
  513.0000  -999.2500     6.0694
  513.5000  -999.2500     6.0724
  514.0000  -999.2500     6.0661
  514.5000  -999.2500     6.0599
  515.0000  -999.2500     6.0538
  515.5000  -999.2500     6.0476
  516.0000  -999.2500     6.0415
  516.5000  -999.2500     6.0353
  517.0000  -999.2500     6.0320
  517.5000  -999.2500     6.0301
  518.0000  -999.2500     6.0283
  518.5000  -999.2500     6.0265
  519.0000  -999.2500     6.0246
  519.5000  -999.2500     6.0228
  520.0000  -999.2500     6.0210
  520.5000  -999.2500     6.0191
  521.0000  -999.2500     6.0173
  521.5000  -999.2500     6.0155
  522.0000  -999.2500     6.0135
  522.5000  -999.2500     6.0082
  523.0000  -999.2500     5.9989
  523.5000  -999.2500     5.9958
  524.0000  -999.2500     6.0054
  524.5000  -999.2500     6.0148
  525.0000  -999.2500     6.0250
  525.5000  -999.2500     6.0481
  526.0000  -999.2500     6.0532
  526.5000  -999.2500     6.0528
  527.0000  -999.2500     6.0527
  527.5000  -999.2500     6.0527
  528.0000  -999.2500     6.0527
  528.5000  -999.2500     6.0527
  529.0000  -999.2500     6.0527
  529.5000  -999.2500     6.0527
  530.0000  -999.2500     6.0527
  530.5000  -999.2500     6.0527
  531.0000  -999.2500     6.0527
  531.5000  -999.2500     6.0527
  532.0000  -999.2500     6.0527
  532.5000  -999.2500     6.0522
  533.0000  -999.2500     6.0514
  533.5000  -999.2500     6.0505
  534.0000  -999.2500     6.0497
  534.5000  -999.2500     6.0488
  535.0000  -999.2500     6.0480
  535.5000  -999.2500     6.0471
  536.0000  -999.2500     6.0463
  536.5000  -999.2500     6.0454
  537.0000  -999.2500     6.0446
  537.5000  -999.2500     6.0437
  538.0000  -999.2500     6.0429
  538.5000  -999.2500     6.0420
  539.0000  -999.2500     6.0412
  539.5000  -999.2500     6.0403
  540.0000  -999.2500     6.0395
  540.5000  -999.2500     6.0386
  541.0000  -999.2500     6.0378
  541.5000  -999.2500     6.0369
  542.0000  -999.2500     6.0361
  542.5000  -999.2500     6.0352
  543.0000  -999.2500     6.0344
  543.5000  -999.2500     6.0336
  544.0000  -999.2500     6.0325
  544.5000  -999.2500     6.0225
  545.0000  -999.2500     6.0129
  545.5000  -999.2500     6.0157
  546.0000  -999.2500     6.0188
  546.5000  -999.2500     6.0218
  547.0000  -999.2500     6.0248
  547.5000  -999.2500     6.0278
  548.0000  -999.2500     6.0307
  548.5000  -999.2500     6.0327
  549.0000  -999.2500     6.0327
  549.5000  -999.2500     6.0327
  550.0000  -999.2500     6.0327
  550.5000  -999.2500     6.0327
  551.0000  -999.2500     6.0327
  551.5000  -999.2500     6.0327
  552.0000  -999.2500     6.0327
  552.5000  -999.2500     6.0313
  553.0000  -999.2500     6.0296
  553.5000  -999.2500     6.0279
  554.0000  -999.2500     6.0262
  554.5000  -999.2500     6.0245
  555.0000  -999.2500     6.0227
  555.5000  -999.2500     6.0210
  556.0000  -999.2500     6.0193
  556.5000  -999.2500     6.0176
  557.0000  -999.2500     6.0159
  557.5000  -999.2500     6.0142
  558.0000  -999.2500     6.0127
  558.5000  -999.2500     6.0126
  559.0000  -999.2500     6.0126
  559.5000  -999.2500     6.0126
  560.0000  -999.2500     6.0126
  560.5000  -999.2500     6.0126
  561.0000  -999.2500     6.0126
  561.5000  -999.2500     6.0126
  562.0000  -999.2500     6.0126
  562.5000  -999.2500     6.0126
  563.0000  -999.2500     6.0126
  563.5000  -999.2500     6.0126
  564.0000  -999.2500     6.0126
  564.5000  -999.2500     6.0126
  565.0000  -999.2500     6.0126
  565.5000  -999.2500     6.0126
  566.0000  -999.2500     6.0126
  566.5000  -999.2500     6.0126
  567.0000  -999.2500     6.0126
  567.5000  -999.2500     6.0126
  568.0000  -999.2500     6.0126
  568.5000  -999.2500     6.0126
  569.0000  -999.2500     6.0126
  569.5000  -999.2500     6.0126
  570.0000  -999.2500     6.0126
  570.5000  -999.2500     6.0126
  571.0000  -999.2500     6.0126
  571.5000  -999.2500     6.0126
  572.0000  -999.2500     6.0126
  572.5000  -999.2500     6.0126
  573.0000  -999.2500     6.0126
  573.5000  -999.2500     6.0127
  574.0000  -999.2500     6.0114
  574.5000  -999.2500     6.0095
  575.0000  -999.2500     6.0075
  575.5000  -999.2500     6.0056
  576.0000  -999.2500     6.0037
  576.5000  -999.2500     6.0017
  577.0000  -999.2500     5.9998
  577.5000  -999.2500     5.9979
  578.0000  -999.2500     5.9959
  578.5000  -999.2500     5.9940
  579.0000  -999.2500     5.9926
  579.5000  -999.2500     5.9926
  580.0000  -999.2500     5.9926
  580.5000  -999.2500     5.9926
  581.0000  -999.2500     5.9926
  581.5000  -999.2500     5.9926
  582.0000  -999.2500     5.9926
  582.5000  -999.2500     5.9926
  583.0000  -999.2500     5.9926
  583.5000  -999.2500     5.9926
  584.0000  -999.2500     5.9926
  584.5000  -999.2500     5.9903
  585.0000  -999.2500     5.9833
  585.5000  -999.2500     5.9769
  586.0000  -999.2500     5.9867
  586.5000  -999.2500     6.0116
  587.0000  -999.2500     6.0032
  587.5000  -999.2500     5.9956
  588.0000  -999.2500     5.9880
  588.5000  -999.2500     5.9802
  589.0000  -999.2500     5.9731
  589.5000  -999.2500     5.9835
  590.0000  -999.2500     5.9951
  590.5000  -999.2500     6.0068
  591.0000  -999.2500     6.0108
  591.5000  -999.2500     5.9690
  592.0000  -999.2500     5.9309
  592.5000  -999.2500     5.9270
  593.0000  -999.2500     5.9222
  593.5000  -999.2500     5.9173
  594.0000  -999.2500     5.9124
  594.5000  -999.2500     5.9070
  595.0000  -999.2500     5.9016
  595.5000  -999.2500     5.8962
  596.0000  -999.2500     5.8925
  596.5000  -999.2500     5.8938
  597.0000  -999.2500     5.8950
  597.5000  -999.2500     5.8962
  598.0000  -999.2500     5.8974
  598.5000  -999.2500     5.8987
  599.0000  -999.2500     5.8999
  599.5000  -999.2500     5.9011
  600.0000  -999.2500     5.9023
  600.5000  -999.2500     5.9035
  601.0000  -999.2500     5.9047
  601.5000  -999.2500     5.9059
  602.0000  -999.2500     5.9072
  602.5000  -999.2500     5.9084
  603.0000  -999.2500     5.9096
  603.5000  -999.2500     5.9108
  604.0000  -999.2500     5.9120
  604.5000  -999.2500     5.9125
  605.0000  -999.2500     5.9125
  605.5000  -999.2500     5.9125
  606.0000  -999.2500     5.9000
  606.5000  -999.2500     5.8766
  607.0000  -999.2500     5.8724
