~VERSION INFORMATION
 VERS.                2.0:   CWLS LOG ASCII STANDARD - VERSION 2.0
 WRAP.                 NO:   ONE LINE PER DEPTH STEP
~WELL INFORMATION
#MNEM.UNIT      DATA TYPE    INFORMATION
#----------   ------------   ------------------------------
 STRT.F           30.0000:   START DEPTH
 STOP.F          440.0000:   STOP DEPTH
 STEP.F            0.5000:   STEP LENGTH
 NULL.          -999.2500:   NO VALUE
 COMP. FENIX & SCISSON INC:   COMPANY
 WELL.    54 SX 10 #54-10:   WELL
 FLD .             TEAPOT:   FIELD
 LOC .      S10 T38N R78W:   LOCATION
 CNTY.            NATRONA:   COUNTY
 STAT.            WYOMING:   STATE
 CTRY. UNITED STATES OF AMERICA:   COUNTRY
 SRVC.            Unknown:   SERVICE COMPANY
 DATE.        10-NOV-1978:   LOGDATE
 API .       490251072800:   API NUMBER
~CURVE INFORMATION
#MNEM.UNIT       API CODE    CURVE DESCRIPTION
#----------   ------------   ------------------------------
 DEPT.F                  :   
 CALD.IN     45 280 60 00:   CALIPER
 GRD .GAPI   45 310 01 00:   GAMMA RAY FROM DENSITY LOG
 DPHI.DEC    45 890 12 00:   DENSITY POROSITY SANDSTONE
 RHOB.G/C3   45 350 01 00:   BULK DENSITY
 CORR.G/C3   45 356 01 00:   DENSITY CORRECTION
 SPR .MV     05 010 01 00:   SPONTANEOUS POTENTIAL FROM RES.
 ILD .OHMM   05 120 46 00:   INDUCTION LOG DEEP
 SN  .OHMM   05 040 16 00:   SHORT NORMAL 16"
~PARAMETER INFORMATION
#MNEM.UNIT          VALUE    DESCRIPTION
#----------   ------------   ------------------------------
 PD  .                 GL:   PERMANENT DATUM
 EPD .F              5196:   ELEVATION PERMANENT DATUM
 LMF .                 KB:   LOG MEASURED FROM
 DAPD.F                 4:   FEET ABOVE PERMANENT DATUM
 DMF .                 KB:   DRILLING MEASURED FROM
 EKB .F              5200:   KELLING BUSHING
 EGL .F              5196:   GROUND LEVEL
 DATE.           11-10-78:   RUN DATE
 RUN .                  1:   RUN NUMBER
 DD  .F               435:   DEPTH DRILLER
 DL  .F               442:   DEPTH LOGGER
 BLI .F               436:   BOTTOM LOG INTERVAL
 TLI .F                50:   TOP LOG INTERVAL
 CS  .IN            8.625:   CASING SIZE
 CBD .F                40:   CASING BOTTOM DRILLER
 CBL .F                50:   CASING BOTTOM LOGGER
 BS  .IN            7.875:   BIT SIZE
 BSD .F               435:   BIT SIZE AT DEPTH
 DFT .            SEA MUD:   DRILLING FLUID TYPE
 DFD .                8.7:   DRILLING FLUID DENSITY
 DFV .                 34:   DRILLING FLUID VISCOSITY
 DFPH.                 10:   DRILLING FLUID PH
 MSS .            MUD PIT:   MUD SAMPLE SOURCE
 RMS .OHMM             .4:   RESISTIVITY MUD SAMPLE
 MST .F                57:   MUD SAMPLE TEMPERATURE
 RMF .OHMM            .34:   RESISTIVITY MUD FILTRATE SAMPLE
 MFST.F                64:   MUD FILTRATE SAMPLE TEMPERATURE
 RMC .OHMM            .44:   RESISTIVITY MUD CAKE
 MCST.F                60:   MUD CAKE SAMPLE TEMPERATURE
 MFSS.            MUD PIT:   MUD FILTRATE SAMPLE SOURCE
 MCSS.            MUD PIT:   MUD CAKE SAMPLE SOURCE
 RMB .OHMM            .36:   RESISTIVITY MUD AT BHT
 BHT .F                72:   BOTTOM HOLE TEMPERATURE
 TCS .HRS               1:   TIME CURCULATED STOPPED
 MRT .F                70:   MAXIMUM RECORDED TEMPERATURE
 LUN .               3006:   LOGGING UNIT NUMBER
 LUL .               CASP:   LOGGING UNIT LOCATION
 ENGI.             MILLER:   RECORDING ENGINEER
 WITN.           DINSMORE:   WITNESSED BY
 CLNT.            A2DTECH:   CLIENT CODE
 ORIG.           5" PRINT:   ORIGIN OF DATA
 UWI .       490251072800:   UNIQUE WELL ID
 DICO. A2D Technologies, Inc.:   DIGITIZING COMPANY
~OTHER INFORMATION
~A   DEPT     CALD         GRD      DPHI       RHOB       CORR        SPR        ILD         SN   
# ...
  273.0000     8.1985    72.8422     0.1755     2.3990     0.0777   -35.6073    30.3260    22.1047
  273.5000     8.1924    71.5445     0.1871     2.3989     0.0768   -33.5833    30.4595    22.1759
  274.0000     8.1911    70.4039     0.2079     2.3747     0.0820   -32.6040    30.4629    22.2473
  274.5000     8.2051    70.1448     0.2024     2.3511     0.0870   -36.8107    30.7351    22.3190
  275.0000     8.2182    69.8939     0.1880     2.3352     0.0919   -37.9021    30.3641    22.3687
  275.5000     8.2259    69.3965     0.1707     2.3596     0.0955   -38.7287    29.8132    22.3453
  276.0000     8.2192    68.2961     0.1534     2.3903     0.0936   -38.6621    29.2761    22.3265
  276.5000     8.2127    67.5123     0.1349     2.4207     0.0728   -37.6450    28.7522    22.3077
  277.0000     8.2062    69.3378     0.1548     2.4525     0.0500   -35.5583    28.3263    22.2890
  277.5000     8.1997    71.1795     0.1768     2.4562     0.0275   -33.4422    29.7383    22.2702
  278.0000     8.1932    72.9008     0.1987     2.4126     0.0093   -33.2729    31.2510    22.2515
  278.5000     8.1867    71.2764     0.2266     2.3644     0.0223   -34.2573    32.4595    22.2327
  279.0000     8.1802    69.1987     0.2150     2.3180     0.0391   -34.8510    31.9430    22.2140
  279.5000     8.1737    68.3956     0.1990     2.3064     0.0534   -33.3605    31.4548    22.1952
  280.0000     8.1672    67.9569     0.1821     2.3433     0.0478   -31.9878    30.9689    22.1767
  280.5000     8.1608    68.8293     0.1881     2.3709     0.0424   -33.1547    30.4556    22.1390
  281.0000     8.1543    72.1629     0.1929     2.3828     0.0372   -34.3621    30.4632    22.0838
  281.5000     8.1478    76.2545     0.1981     2.3726     0.0319   -35.6142    30.3808    22.0287
  282.0000     8.1413    79.0930     0.2033     2.3614     0.0266   -34.6756    30.3287    21.9736
  282.5000     8.1348    80.9899     0.2057     2.3498     0.0213   -32.7144    30.2767    21.9186
  283.0000     8.1283    81.5041     0.2060     2.3450     0.0161   -30.7397    30.2248    21.8638
  283.5000     8.1218    81.9675     0.2042     2.3418     0.0139   -28.7619    30.0040    21.8092
  284.0000     8.1153    81.6180     0.2024     2.3419     0.0142   -26.7946    29.2459    21.7547
  284.5000     8.1088    81.0703     0.2006     2.3444     0.0148   -26.1186    28.5069    21.7003
  285.0000     8.1023    80.8268     0.1988     2.3468     0.0153   -25.9816    27.7866    21.6460
  285.5000     8.0958    80.5980     0.1954     2.3495     0.0159   -25.8185    27.0846    21.5919
  286.0000     8.0893    80.3577     0.1904     2.3550     0.0164   -25.7554    26.4002    21.5379
  286.5000     8.0829    80.0835     0.1824     2.3641     0.0169   -25.7810    25.7332    21.4841
  287.0000     8.0764    80.9505     0.1743     2.3792     0.0175   -25.8082    25.0830    21.4304
  287.5000     8.0701    82.0679     0.1709     2.3922     0.0180   -25.8356    24.6298    21.3779
  288.0000     8.0545    83.2045     0.1707     2.4003     0.0186   -25.8631    24.2338    21.4318
  288.5000     8.0369    83.4077     0.1705     2.4010     0.0191   -25.8931    23.8442    21.4868
  289.0000     8.0193    83.0715     0.1703     2.4019     0.0196   -25.9170    23.4608    21.5424
  289.5000     8.0016    83.4444     0.1702     2.4028     0.0202   -25.7186    23.3595    21.6574
  290.0000     7.9840    85.6864     0.1702     2.4029     0.0207   -24.7533    23.3027    21.8405
  290.5000     7.9664    87.6165     0.1702     2.4023     0.0213   -23.7838    23.2464    22.0252
  291.0000     7.9488    88.5316     0.1693     2.4018     0.0218   -23.6329    23.2058    22.2115
  291.5000     7.9312    89.4780     0.1682     2.4012     0.0224   -23.8235    23.4193    22.3697
  292.0000     7.9136    89.3073     0.1406     2.4036     0.0229   -26.9603    23.7430    22.4728
  292.5000     7.8960    88.5602     0.1138     2.4098     0.0234   -30.1786    24.3425    23.0658
  293.0000     7.8784    87.7906     0.0870     2.4563     0.0225   -30.2910    24.9449    23.6746
  293.5000     7.8608    86.7733     0.0628     2.5032     0.0156   -30.3153    26.4095    24.2994
  294.0000     7.8431    84.7308     0.0538     2.5503     0.0089   -31.2588    27.9294    24.9406
  294.5000     7.8255    82.9869     0.0536     2.5772     0.0023   -32.2172    29.5368    25.5989
  295.0000     7.8079    81.9726     0.0592     2.5902    -0.0044   -33.1675    31.2539    26.3002
  295.5000     7.7902    81.8825     0.0751     2.5847    -0.0080   -34.4082    32.4820    25.9774
  296.0000     7.7726    82.1970     0.0966     2.5643    -0.0079   -36.3815    32.4531    25.5795
  296.5000     7.7703    82.0427     0.1181     2.5325    -0.0052   -36.1168    31.7214    25.1905
  297.0000     7.7703    80.2237     0.1396     2.5009     0.0007   -35.2229    30.7570    24.5425
  297.5000     7.7704    78.4794     0.1582     2.4692     0.0066   -34.4381    29.5460    23.4945
  298.0000     7.7704    76.8433     0.1695     2.4376     0.0125   -33.9005    27.9767    22.4896
  298.5000     7.7704    79.6555     0.1808     2.4107     0.0179   -34.3872    26.4907    21.5280
  299.0000     7.7703    83.6166     0.1863     2.3942     0.0179   -34.8706    25.0836    20.6074
  299.5000     7.7701    87.5821     0.1860     2.3780     0.0179   -34.3255    23.7513    19.7244
  300.0000     7.7785    87.9540     0.1858     2.3767     0.0179   -33.3229    22.4897    18.8839
  300.5000     7.7877    87.8778     0.1856     2.3772     0.0179   -32.2948    21.9265    18.3396
  301.0000     7.7968    88.1234     0.1854     2.3756     0.0179   -32.2563    21.4454    18.0571
  301.5000     7.8059    89.1425     0.1851     2.3737     0.0179   -32.3117    20.9749    17.8102
  302.0000     7.8262    90.1387     0.1849     2.3741     0.0179   -32.3587    20.5147    17.7281
  302.5000     7.8559    90.7482     0.1864     2.3753     0.0179   -32.4099    20.2312    17.6441
  303.0000     7.8857    90.4328     0.1884     2.3757     0.0179   -32.6754    20.2330    17.5608
  303.5000     7.9154    89.4198     0.1885     2.3724     0.0190   -33.7257    20.2050    17.4778
  304.0000     7.9451    88.4138     0.1880     2.3692     0.0201   -34.7840    20.1863    17.3952
  304.5000     7.9748    87.6253     0.1875     2.3676     0.0211   -34.3854    20.1675    17.3130
  305.0000     8.0046    87.8179     0.1870     2.3695     0.0222   -33.1083    20.1487    17.2312
  305.5000     8.0344    88.0128     0.1864     2.3713     0.0233   -31.8890    20.1299    17.1498
  306.0000     8.0645    86.9888     0.1859     2.3728     0.0244   -31.7364    20.1112    17.0688
  306.5000     8.0619    85.8108     0.1854     2.3740     0.0256   -31.5700    20.0924    16.9883
  307.0000     8.0540    85.0123     0.1849     2.3751     0.0237   -31.3965    20.0744    16.9071
  307.5000     8.0460    84.6610     0.1846     2.3763     0.0206   -31.2212    20.0593    16.8024
  308.0000     8.0380    83.0596     0.1854     2.3774     0.0175   -31.0443    19.9074    16.6834
  308.5000     8.0301    81.5360     0.1868     2.3779     0.0144   -30.8727    19.7394    16.5661
  309.0000     8.0222    80.4363     0.1883     2.3753     0.0113   -30.9405    19.5715    16.4496
  309.5000     8.0143    80.4610     0.1898     2.3726     0.0106   -31.3517    19.4053    16.3339
  310.0000     8.0093    80.4468     0.1913     2.3700     0.0117   -32.9147    19.2404    16.2190
  310.5000     8.0108    81.6706     0.1928     2.3674     0.0128   -34.6551    19.0770    16.1050
  311.0000     8.0122    84.1171     0.1936     2.3652     0.0139   -36.2410    18.9150    15.9917
  311.5000     8.0137    86.7481     0.1923     2.3634     0.0150   -36.1984    18.7544    15.8792
  312.0000     8.0151    88.0525     0.1864     2.3641     0.0162   -36.7627    18.5951    15.7676
  312.5000     8.0165    87.0095     0.1805     2.3706     0.0173   -37.5690    18.4372    15.6567
  313.0000     8.0179    86.0453     0.1758     2.3804     0.0179   -37.4586    18.2806    15.5466
