~VERSION INFORMATION
 VERS.                2.0:   CWLS LOG ASCII STANDARD - VERSION 2.0
 WRAP.                 NO:   ONE LINE PER DEPTH STEP
~WELL INFORMATION
#MNEM.UNIT      DATA TYPE    INFORMATION
#----------   ------------   ------------------------------
 STRT.F           33.5000:   START DEPTH
 STOP.F          680.0000:   STOP DEPTH
 STEP.F            0.5000:   STEP LENGTH
 NULL.          -999.2500:   NO VALUE
 COMP. FENIX & SCISSON INC:   COMPANY
 WELL.       NPR 3 #66-34:   WELL
 FLD .             TEAPOT:   FIELD
 LOC .      S34 T39N R78W:   LOCATION
 CNTY.            NATRONA:   COUNTY
 STAT.            WYOMING:   STATE
 CTRY. UNITED STATES OF AMERICA:   COUNTRY
 SRVC.           BIRDWELL:   SERVICE COMPANY
 DATE.        12-AUG-1978:   LOGDATE
 API .       490251068400:   API NUMBER
~CURVE INFORMATION
#MNEM.UNIT       API CODE    CURVE DESCRIPTION
#----------   ------------   ------------------------------
 DEPT.F                  :   
 SPR .MV     05 010 01 00:   SPONTANEOUS POTENTIAL FROM RES.
 SN  .OHMM   05 040 16 00:   SHORT NORMAL 16"
 IL  .OHMM   05 120 00 00:   INDUCTION LOG
 CORR.G/C3   45 356 01 00:   DENSITY CORRECTION
 GRD .GAPI   45 310 01 00:   GAMMA RAY FROM DENSITY LOG
 RHOB.G/C3   45 350 01 00:   BULK DENSITY
 DPHI.DEC    45 890 12 00:   DENSITY POROSITY SANDSTONE
 CALD.IN     45 280 60 00:   CALIPER
~PARAMETER INFORMATION
#MNEM.UNIT          VALUE    DESCRIPTION
#----------   ------------   ------------------------------
 PD  .                 GL:   PERMANENT DATUM
 EPD .F              5078:   ELEVATION PERMANENT DATUM
 LMF .                 KB:   LOG MEASURED FROM
 DAPD.F                 4:   FEET ABOVE PERMANENT DATUM
 DMF .                 KB:   DRILLING MEASURED FROM
 EKB .F              5082:   KELLING BUSHING
 EGL .F              5078:   GROUND LEVEL
 DATE.            8-12-78:   RUN DATE
 RUN .                  1:   RUN NUMBER
 DD  .F               675:   DEPTH DRILLER
 DL  .F               686:   DEPTH LOGGER
 BLI .F               680:   BOTTOM LOG INTERVAL
 TLI .F                50:   TOP LOG INTERVAL
 CS  .IN            8.625:   CASING SIZE
 CBD .F                40:   CASING BOTTOM DRILLER
 BS  .IN            7.875:   BIT SIZE
 BSD .F               675:   BIT SIZE AT DEPTH
 DFT .                KCL:   DRILLING FLUID TYPE
 DFL .               10.4:   DRILLING FLUID LOSS
 MSS .          FLOW LINE:   MUD SAMPLE SOURCE
 RMS .OHMM            .18:   RESISTIVITY MUD SAMPLE
 MST .F                90:   MUD SAMPLE TEMPERATURE
 RMF .OHMM            .16:   RESISTIVITY MUD FILTRATE SAMPLE
 MFST.F                90:   MUD FILTRATE SAMPLE TEMPERATURE
 RMC .OHMM            .32:   RESISTIVITY MUD CAKE
 MCST.F                90:   MUD CAKE SAMPLE TEMPERATURE
 MFSS.               MEAS:   MUD FILTRATE SAMPLE SOURCE
 TCS .HRS               3:   TIME CURCULATED STOPPED
 LUN .               3006:   LOGGING UNIT NUMBER
 LUL .               CASP:   LOGGING UNIT LOCATION
 ENGI.             MILLER:   RECORDING ENGINEER
 WITN.           MCGINLEY:   WITNESSED BY
 CLNT.            A2DTECH:   CLIENT CODE
 ORIG.           5" PRINT:   ORIGIN OF DATA
 UWI .       490251068400:   UNIQUE WELL ID
 DICO. A2D Technologies, Inc.:   DIGITIZING COMPANY
~OTHER INFORMATION
~A   DEPT      SPR         SN         IL       CORR         GRD      RHOB       DPHI       CALD   
# ...
  155.0000   -57.1590     6.0539     5.6825     0.0335    81.4232     2.4713     0.1230     7.9721
  155.5000   -57.1331     6.1449     5.7726     0.0330    84.0918     2.4760     0.1219     7.9434
  156.0000   -57.1058     6.2378     5.8641     0.0271    86.8030     2.4681     0.1287     7.9589
  156.5000   -57.1212     6.2882     5.9571     0.0220    87.0736     2.4621     0.1296     7.9738
  157.0000   -57.1506     6.2379     6.0616     0.0202    84.6467     2.4636     0.1291     7.9887
  157.5000   -57.1803     6.2033     6.0419     0.0182    82.3109     2.4635     0.1299     8.0019
  158.0000   -57.2098     6.1739     6.0200     0.0166    80.6721     2.4605     0.1342     7.9943
  158.5000   -57.2394     6.2133     6.0062     0.0188    81.4858     2.4613     0.1348     7.9855
  159.0000   -57.2693     6.2478     6.0360     0.0210    82.8666     2.4655     0.1289     7.9890
  159.5000   -57.2994     6.2881     6.0616     0.0231    83.9128     2.4674     0.1263     8.0005
  160.0000   -57.3065     6.2368     5.9936     0.0244    83.0561     2.4655     0.1323     8.0120
  160.5000   -57.0528     6.1758     5.9133     0.0241    80.3276     2.4642     0.1289     8.0205
  161.0000   -56.7381     6.1154     5.8342     0.0223    77.7933     2.4659     0.1251     8.0073
  161.5000   -56.4219     6.0556     5.7370     0.0205    78.4334     2.4661     0.1270     7.9943
  162.0000   -56.1114     6.0062     5.7659     0.0167    80.3492     2.4628     0.1300     7.9820
  162.5000   -55.9346     6.0685     5.8048     0.0128    82.2131     2.4596     0.1329     7.9747
  163.0000   -56.0542     6.1225     5.8440     0.0104    83.6841     2.4571     0.1320     7.9678
  163.5000   -56.1683     6.1739     5.8969     0.0105    84.2053     2.4584     0.1294     7.9637
  164.0000   -56.2841     6.1285     5.8839     0.0115    83.9957     2.4608     0.1356     7.9749
  164.5000   -56.3994     6.0616     5.8636     0.0133    83.7551     2.4666     0.1312     7.9858
  165.0000   -56.4937     6.1029     5.8431     0.0195    84.0634     2.4725     0.1231     7.9968
  165.5000   -56.4095     6.1608     5.8888     0.0257    83.6600     2.4850     0.1150     7.9883
  166.0000   -56.3273     6.2192     5.9384     0.0301    78.9750     2.4973     0.1092     7.9625
  166.5000   -56.2456     6.2881     6.0059     0.0281    74.0031     2.4992     0.1103     7.9425
  167.0000   -56.1640     6.2514     5.9775     0.0266    70.2491     2.4972     0.1090     7.9634
  167.5000   -56.0823     6.2075     5.9325     0.0284    70.4609     2.5018     0.1054     7.9811
  168.0000   -56.0006     6.1634     5.8879     0.0303    75.6947     2.5070     0.1031     7.9633
  168.5000   -55.9161     6.1177     5.8436     0.0206    77.8511     2.5059     0.1111     7.9449
  169.0000   -55.9246     6.1461     5.7993     0.0083    79.2917     2.4793     0.1239     7.9649
  169.5000   -55.9567     6.1767     5.7635     0.0074    82.8384     2.4795     0.1201     7.9937
  170.0000   -55.9893     6.2074     5.7368     0.0191    88.6175     2.4824     0.1187     8.0220
  170.5000   -56.0218     6.2309     5.7733     0.0287    94.3731     2.4803     0.1224     8.0298
  171.0000   -56.0540     6.1945     5.8036     0.0271    99.1711     2.4794     0.1196     7.9888
  171.5000   -56.0867     6.1653     5.8430     0.0247    96.7416     2.4821     0.1178     8.0042
  172.0000   -56.0725     6.1363     5.8328     0.0269    95.3336     2.4852     0.1203     8.0330
  172.5000   -56.0260     6.1175     5.8131     0.0269    96.4657     2.4881     0.1175     8.0266
  173.0000   -55.9790     6.1427     5.7895     0.0240    98.2854     2.4847     0.1203     8.0046
  173.5000   -55.9319     6.1614     5.8102     0.0209    98.8192     2.4782     0.1227     7.9830
  174.0000   -55.8849     6.1802     5.8364     0.0219    96.4759     2.4809     0.1197     7.9920
  174.5000   -55.8379     6.1991     5.8627     0.0239    94.5572     2.4826     0.1187     8.0026
  175.0000   -55.7910     6.2183     5.8974     0.0225    94.1541     2.4820     0.1179     8.0130
  175.5000   -55.7450     6.2309     5.8967     0.0196    95.2300     2.4843     0.1161     8.0208
  176.0000   -55.6934     6.1609     5.8583     0.0167    96.2851     2.4777     0.1215     8.0096
  176.5000   -55.5234     6.1082     5.7868     0.0145    96.4634     2.4753     0.1218     7.9986
  177.0000   -55.3555     6.0559     5.7164     0.0179    95.4322     2.4764     0.1210     7.9879
  177.5000   -55.1887     6.0062     5.6468     0.0199    95.0329     2.4759     0.1234     7.9912
  178.0000   -55.0216     5.9386     5.5781     0.0170    90.5148     2.4705     0.1270     8.0099
  178.5000   -54.8538     5.8747     5.5297     0.0171    93.6869     2.4699     0.1254     8.0190
  179.0000   -54.7047     5.8269     5.4891     0.0181    97.4531     2.4730     0.1239     7.9997
  179.5000   -54.7700     5.7896     5.4522     0.0149    98.8900     2.4689     0.1277     7.9825
  180.0000   -54.8379     5.8274     5.4156     0.0091    99.5681     2.4620     0.1346     7.9898
  180.5000   -54.9048     5.8776     5.3795     0.0116    99.6752     2.4572     0.1355     8.0063
  181.0000   -54.9717     5.9283     5.4051     0.0154    98.9767     2.4622     0.1319     8.0227
  181.5000   -55.0392     5.9794     5.4307     0.0182    98.2671     2.4656     0.1319     8.0395
  182.0000   -55.0956     6.0062     5.4564     0.0158    98.4766     2.4640     0.1315     8.0308
  182.5000   -55.0110     5.9540     5.4792     0.0159   100.2318     2.4632     0.1308     8.0172
  183.0000   -54.9263     5.9190     5.4593     0.0194   101.7466     2.4648     0.1303     8.0036
  183.5000   -54.8423     5.8969     5.4416     0.0204   100.2997     2.4664     0.1274     7.9902
  184.0000   -54.7585     5.9155     5.4239     0.0165    97.8385     2.4678     0.1293     7.9797
  184.5000   -54.6745     5.9315     5.4063     0.0122    97.0200     2.4527     0.1382     7.9740
  185.0000   -54.5896     5.9475     5.3887     0.0113   101.5584     2.4523     0.1352     7.9681
  185.5000   -54.5047     5.9636     5.3795     0.0123    97.5769     2.4535     0.1347     7.9626
  186.0000   -54.5877     5.9797     5.4291     0.0096    95.0905     2.4530     0.1370     7.9760
  186.5000   -54.6855     5.9959     5.4937     0.0068    95.7265     2.4506     0.1392     7.9909
  187.0000   -54.7827     6.0150     5.5648     0.0046    95.5711     2.4482     0.1414     8.0057
  187.5000   -54.8797     6.0398     5.6369     0.0057    94.3531     2.4471     0.1395     8.0205
  188.0000   -54.9767     6.0647     5.7100     0.0075    94.4563     2.4520     0.1355     8.0353
  188.5000   -55.0778     6.0896     5.7468     0.0124    95.7153     2.4599     0.1314     8.0417
  189.0000   -55.0779     6.1147     5.7628     0.0172    96.7104     2.4678     0.1274     8.0419
  189.5000   -55.0479     6.1175     5.7788     0.0202    96.2443     2.4757     0.1233     8.0444
  190.0000   -55.0171     6.0926     5.7895     0.0194    96.2455     2.4740     0.1222     8.0561
  190.5000   -54.9866     6.0582     5.7366     0.0185    96.4707     2.4725     0.1270     8.0499
  191.0000   -54.9560     6.0240     5.7591     0.0215    95.5540     2.4752     0.1243     8.0127
  191.5000   -54.9255     5.9900     5.7278     0.0254    94.3357     2.4764     0.1219     7.9753
  192.0000   -54.9090     5.9513     5.6967     0.0249    95.9221     2.4762     0.1211     7.9718
  192.5000   -54.9790     5.9713     5.6658     0.0226   100.0933     2.4757     0.1225     7.9863
  193.0000   -55.0482     5.9949     5.6322     0.0206   102.2959     2.4718     0.1262     8.0011
  193.5000   -55.1173     6.0185     5.6150     0.0226   102.0067     2.4681     0.1299     8.0161
  194.0000   -55.1865     6.0422     5.5961     0.0249    97.4391     2.4702     0.1263     8.0094
  194.5000   -55.2542     6.0615     5.5772     0.0263    95.3944     2.4729     0.1240     7.9887
  195.0000   -55.2730     6.0277     5.5585     0.0245    95.5456     2.4720     0.1259     7.9822
