~VERSION INFORMATION
 VERS.                2.0:   CWLS LOG ASCII STANDARD - VERSION 2.0
 WRAP.                 NO:   ONE LINE PER DEPTH STEP
~WELL INFORMATION
#MNEM.UNIT      DATA TYPE    INFORMATION
#----------   ------------   ------------------------------
 STRT.F            3.0000:   START DEPTH
 STOP.F         3449.0000:   STOP DEPTH
 STEP.F            0.5000:   STEP LENGTH
 NULL.          -999.2500:   NO VALUE
 COMP. LAWRENCE/ALLISON INC:   COMPANY
 WELL.       NPR 3 #24-10:   WELL
 FLD .             TEAPOT:   FIELD
 LOC .      S10 T38N R78W:   LOCATION
 CNTY.            NATRONA:   COUNTY
 STAT.            WYOMING:   STATE
 CTRY. UNITED STATES OF AMERICA:   COUNTRY
 SRVC.      Dresser Atlas:   SERVICE COMPANY
 DATE.        28-JUL-1985:   LOGDATE
 API .       490251104400:   API NUMBER
~CURVE INFORMATION
#MNEM.UNIT       API CODE    CURVE DESCRIPTION
#----------   ------------   ------------------------------
 DEPT.F                  :   
 PORD.DEC    45 890 12 00:   POROSITY DENSITY SANDSTONE
 CNC .DEC    42 890 03 00:   NEUTRON POROSITY SANDSTONE
 CORR.G/C3   45 356 01 00:   DENSITY CORRECTION
 DEN .G/C3   45 350 01 00:   COMPENSATED BULK DENSTIY
 AC  .US/F   60 520 00 00:   ACCOUSTIC
 CALR.IN     07 280 01 00:   CALIPER FROM RESISTIVITY
 GRR .GAPI   07 310 01 00:   GAMMA RAY
 RFOC.OHMM   07 220 04 00:   RESISTIVITY FOCUSED LOG
 RILD.OHMM   07 120 46 00:   INDUCTION LOG DEEP RESISTIVITY
 RILM.OHMM   07 120 44 00:   INDUCTION LOG MEDIUM RESISTIVITY
 SPR .MV     07 010 01 00:   SPONTANEOUS POTENTIAL
~PARAMETER INFORMATION
#MNEM.UNIT          VALUE    DESCRIPTION
#----------   ------------   ------------------------------
 PD  .                 GL:   PERMANENT DATUM
 EPD .F              5242:   ELEVATION PERMANENT DATUM
 LMF .                 KB:   LOG MEASURED FROM
 DAPD.F                13:   FEET ABOVE PERMANENT DATUM
 DMF .                 KB:   DRILLING MEASURED FROM
 EKB .F              5255:   KELLING BUSHING
 EGL .F              5242:   GROUND LEVEL
 DATE.        28-JUL-1985:   RUN DATE
 RUN .                  1:   RUN NUMBER
 DD  .F              3451:   DEPTH DRILLER
 DL  .F              3451:   DEPTH LOGGER
 BLI .F              3449:   BOTTOM LOG INTERVAL
 CS  .IN            8.625:   CASING SIZE
 CBD .F               688:   CASING BOTTOM DRILLER
 CBL .F               686:   CASING BOTTOM LOGGER
 BS  .IN            7.875:   BIT SIZE
 BSD .F              3451:   BIT SIZE AT DEPTH
 DFT .            KCL GEL:   DRILLING FLUID TYPE
 DFD .                8.9:   DRILLING FLUID DENSITY
 DFV .                 40:   DRILLING FLUID VISCOSITY
 DFPH.                8.0:   DRILLING FLUID PH
 DFL .                 10:   DRILLING FLUID LOSS
 MSS .           FLOWLINE:   MUD SAMPLE SOURCE
 RMS .OHMM           0.87:   RESISTIVITY MUD SAMPLE
 MST .F                92:   MUD SAMPLE TEMPERATURE
 RMF .OHMM             65:   RESISTIVITY MUD FILTRATE SAMPLE
 MFST.F                92:   MUD FILTRATE SAMPLE TEMPERATURE
 RMC .OHMM           1.09:   RESISTIVITY MUD CAKE
 MCST.F                92:   MUD CAKE SAMPLE TEMPERATURE
 MFSS.               CALC:   MUD FILTRATE SAMPLE SOURCE
 MCSS.               CALC:   MUD CAKE SAMPLE SOURCE
 RMB .OHMM            .66:   RESISTIVITY MUD AT BHT
 BHT .F               121:   BOTTOM HOLE TEMPERATURE
 TCS .HRS               4:   TIME CURCULATED STOPPED
 MRT .F               121:   MAXIMUM RECORDED TEMPERATURE
 LUN .               6264:   LOGGING UNIT NUMBER
 LUL .               GLTE:   LOGGING UNIT LOCATION
 ENGI.           FAHLSING:   RECORDING ENGINEER
 WITN.             STRONG:   WITNESSED BY
 CLNT.            A2DTECH:   CLIENT CODE
 ORIG.        2" 5" PRINT:   ORIGIN OF DATA
 UWI .       490251104400:   UNIQUE WELL ID
 DICO. A2D Technologies, Inc.:   DIGITIZING COMPANY
 R1  . POROSITY WITH SANDSTONE:   REMARKS 1
~OTHER INFORMATION
~A    DEPT    PORD        CNC       CORR        DEN         AC       CALR         GRR      RFOC       RILD       RILM        SPR   
# ...
 3053.0000     0.0525     0.2315     0.0666     2.5642    80.2466     8.2021   122.6518     6.4495     5.2167     5.6673   -37.3494
 3053.5000     0.0519     0.2327     0.0577     2.5592    79.9441     8.1870   123.5612     6.4481     5.5137     6.0734   -37.6506
 3054.0000     0.0486     0.2243     0.0547     2.5615    79.4911     8.1870   124.0182     6.4917     5.7077     6.4189   -37.9518
 3054.5000     0.0462     0.2189     0.0654     2.5691    78.6619     8.1719   122.6652     6.5355     5.9495     6.6442   -38.2530
 3055.0000     0.0442     0.2180     0.0792     2.5736    78.1337     8.1569   118.8236     6.5864     6.1162     6.7360   -38.5542
 3055.5000     0.0436     0.2204     0.0912     2.5766    77.6808     8.1418   114.7557     6.6786     6.3313     6.8759   -38.7048
 3056.0000     0.0436     0.2207     0.0909     2.5774    77.4535     8.1418   112.2715     6.8090     6.4636     6.9707   -38.5542
 3056.5000     0.0445     0.2193     0.0848     2.5758    77.1510     8.1418   113.6593     6.9987     6.5533     7.0178   -38.5542
 3057.0000     0.0460     0.2111     0.0777     2.5721    76.6981     8.1569   114.3166     7.1444     6.5980     7.0651   -38.4036
 3057.5000     0.0467     0.2103     0.0732     2.5683    76.0946     8.1569   110.8488     7.2931     6.5969     7.0148   -38.2530
 3058.0000     0.0452     0.2214     0.0763     2.5706    75.9426     8.1569   109.0892     7.4967     6.5959     7.0134   -38.2530
 3058.5000     0.0425     0.2296     0.0824     2.5766    76.0916     8.1569   110.4168     7.6002     6.5494     7.0119   -38.2530
 3059.0000     0.0395     0.2314     0.0930     2.5826    76.5416     8.1418   113.8832     7.7048     6.5032     7.0105   -38.1024
 3059.5000     0.0392     0.2278     0.1036     2.5857    77.2173     8.1418   115.0190     7.4921     6.5023     7.0090   -38.1024
 3060.0000     0.0455     0.2230     0.1112     2.5781    77.9682     8.1267   115.4759     7.1356     6.4564     7.0075   -38.1024
 3060.5000     0.0555     0.2191     0.1007     2.5623    78.3429     8.1267   117.2904     6.7960     6.5005     7.0550   -37.9518
 3061.0000     0.0573     0.2134     0.0842     2.5562    78.1910     8.1267   118.6523     6.5630     6.6826     7.2517   -37.8012
 3061.5000     0.0561     0.2086     0.0616     2.5555    77.5875     8.1267   119.5618     6.6073     6.8697     7.6112   -37.6506
 3062.0000     0.0543     0.2077     0.0557     2.5562    76.3068     8.1418   116.3989     7.0804     6.9650     7.8783   -37.6426
 3062.5000     0.0565     0.2158     0.0602     2.5570    75.2519     8.1418   110.0685     7.4828     7.0612     7.9319   -37.5000
 3063.0000     0.0559     0.2170     0.0678     2.5562    73.8960     8.1569   107.1318     7.7991     7.1096     7.8751   -37.5000
 3063.5000     0.0538     0.2170     0.0769     2.5577    71.3362     8.1569   105.5526     8.0169     7.0592     7.5523   -37.6506
 3064.0000     0.0526     0.2185     0.0845     2.5608    67.2715     8.1569   105.1035     8.1276     7.0094     7.2932   -37.9518
 3064.5000     0.0572     0.2260     0.0620     2.5577    63.2820     8.1569   106.2403     8.1825     6.9118     6.9943   -38.1024
 3065.0000     0.0614     0.2263     0.0395     2.5502    63.4310     8.1569   110.0910     7.9015     6.8156     6.7543   -38.1024
 3065.5000     0.0650     0.2263     0.0394     2.5434    64.4829     8.1569   114.6204     7.2188     6.5367     6.5226   -38.1024
 3066.0000     0.0626     0.2263     0.0622     2.5442    65.6101     8.1569   118.2448     6.5495     6.1400     6.1690   -37.8012
 3066.5000     0.0584     0.2275     0.0848     2.5502    66.3610     8.1569   119.8330     6.1519     5.6879     5.5579   -37.6506
 3067.0000     0.0548     0.2302     0.0969     2.5562    67.1872     8.1418   119.6101     5.9410     5.2326     4.9727   -37.1988
 3067.5000     0.0567     0.2435     0.1002     2.5600    70.6470     8.1267   119.3883     6.0227     4.6496     4.4801   -36.5964
 3068.0000     0.0768     0.2823     0.1172     2.5326    81.7817     8.1116   128.6700     6.5441     3.7490     3.8449   -35.8434
 3068.5000     0.1076     0.3019     0.1432     2.4611    92.3897     8.1116   146.0953     6.7268     3.2853     3.1432   -35.0904
 3069.0000     0.1498     0.3014     0.1589     2.4148    99.4611     8.0965   162.3894     5.6063     2.8591     2.7164   -33.8855
 3069.5000     0.1597     0.2964     0.1153     2.3897   103.5229     8.0965   184.5658     4.2252     2.6856     2.5513   -32.6807
 3070.0000     0.1311     0.2492     0.0868     2.3826   108.4122     8.0965   197.2400     2.3314     2.6667     2.5686   -31.4759
 3070.5000     0.1013     0.2250     0.0913     2.4498   108.3355     8.1116   187.2897     2.1254     2.6663     2.7911   -31.0241
 3071.0000     0.0562     0.2098     0.0824     2.5192   104.7975     8.1116   159.0137     2.3067     2.7032     3.1413   -31.1747
 3071.5000     0.0360     0.2029     0.0749     2.5592    96.2934     8.1116   125.5344     2.8824     2.7789     3.6642   -31.7771
 3072.0000     0.0336     0.2014     0.0885     2.5872    86.1056     8.1267   102.6882     4.5082     2.9990     4.1539   -32.3795
 3072.5000     0.0370     0.2005     0.0931     2.5977    77.0795     8.1267    98.1678     6.7154     3.6166     4.7816   -33.1325
 3073.0000     0.0409     0.2065     0.0931     2.5826    73.3394     8.1267    96.8148     6.8082     4.3614     5.3735   -33.8855
 3073.5000     0.0433     0.2146     0.0947     2.5781    74.0563     8.1267    96.5919     6.4839     5.0802     5.8175   -34.4880
 3074.0000     0.0448     0.2212     0.1053     2.5796    75.6599     8.1267    97.5025     6.2183     5.7955     5.9800   -35.0904
 3074.5000     0.0521     0.2188     0.1234     2.5758    76.9422     8.1418    99.7694     6.0469     5.9168     6.0207   -35.6928
 3075.0000     0.0590     0.2161     0.1175     2.5592    78.3370     8.1418   100.4527     5.8803     5.9158     6.0192   -36.1446
 3075.5000     0.0603     0.2155     0.0995     2.5525    78.5990     8.1418   101.5884     5.7580     5.7132     5.8532   -36.2952
 3076.0000     0.0558     0.2218     0.0875     2.5494    78.7621     8.1267   104.0816     5.6383     5.4415     5.5359   -36.2952
 3076.5000     0.0567     0.2389     0.1011     2.5592    79.1374     8.1267   106.3485     5.5210     5.2552     5.2358   -36.2952
 3077.0000     0.0613     0.2405     0.0936     2.5562    79.5723     8.1267   107.4948     5.4439     5.1106     5.0914   -36.2952
 3077.5000     0.0680     0.2411     0.0907     2.5464    79.8722     8.1116   106.1312     5.3678     5.0046     4.9510   -36.2952
 3078.0000     0.0719     0.2411     0.0922     2.5366    80.3218     8.1116   105.4570     5.2927     4.8332     4.8479   -36.1446
 3078.5000     0.0736     0.2417     0.0983     2.5298    80.7717     8.1116   107.7631     5.2187     4.6034     4.6171   -36.1381
 3079.0000     0.0745     0.2460     0.1014     2.5283    81.3722     8.1127   112.1590     5.1101     4.4150     4.2472   -35.9940
 3079.5000     0.0752     0.2570     0.1014     2.5283    82.1231     8.1267   119.9324     4.9694     3.9779     3.7737   -35.8434
 3080.0000     0.0767     0.2812     0.0999     2.5283    82.8741     8.1438   129.1114     4.8976     3.6850     3.3299   -35.6928
 3080.5000     0.0882     0.3006     0.0922     2.5245    84.2270     8.1594   138.3915     4.7947     3.3433     2.9793   -35.3670
 3081.0000     0.1077     0.3392     0.0881     2.5102    86.1066     8.1870   148.8543     4.6252     2.8894     2.6471   -34.9398
 3081.5000     0.1279     0.3659     0.0945     2.4702    90.7702     8.2021   161.8237     4.4080     2.3788     2.4015   -34.3373
 3082.0000     0.1506     0.3577     0.1123     2.4226    97.1645     8.2021   180.6064     3.8923     2.2656     2.2245   -33.5843
 3082.5000     0.1626     0.3114     0.1997     2.3962   101.1510     8.2021   194.8643     2.4805     2.2497     2.2087   -32.8313
 3083.0000     0.1662     0.2996     0.2465     2.3766   103.3316     8.2021   203.0136     2.1588     2.2494     2.2862   -32.2289
