~VERSION INFORMATION
 VERS.                2.0:   CWLS LOG ASCII STANDARD - VERSION 2.0
 WRAP.                 NO:   ONE LINE PER DEPTH STEP
~WELL INFORMATION
#MNEM.UNIT      DATA TYPE    INFORMATION
#----------   ------------   ------------------------------
 STRT.F           29.0000:   START DEPTH
 STOP.F          503.0000:   STOP DEPTH
 STEP.F            0.5000:   STEP LENGTH
 NULL.          -999.2500:   NO VALUE
 COMP. FENIX & SCISSON INC:   COMPANY
 WELL.      78 SX 3 #78-3:   WELL
 FLD .             TEAPOT:   FIELD
 LOC .       S3 T38N R78W:   LOCATION
 CNTY.            NATRONA:   COUNTY
 STAT.            WYOMING:   STATE
 CTRY. UNITED STATES OF AMERICA:   COUNTRY
 SRVC.            Unknown:   SERVICE COMPANY
 DATE.        17-OCT-1978:   LOGDATE
 API .       490251072400:   API NUMBER
~CURVE INFORMATION
#MNEM.UNIT       API CODE    CURVE DESCRIPTION
#----------   ------------   ------------------------------
 DEPT.F                  :   
 CALD.IN     45 280 60 00:   CALIPER
 GRD .GAPI   45 310 01 00:   GAMMA RAY FROM DENSITY LOG
 CORR.G/C3   45 356 01 00:   DENSITY CORRECTION
 RHOB.G/C3   45 350 01 00:   BULK DENSITY
 DPHI.DEC    45 890 12 00:   DENSITY POROSITY SANDSTONE
 SPR .MV     05 010 01 00:   SPONTANEOUS POTENTIAL FROM RES.
 IL  .OHMM   05 120 00 00:   INDUCTION LOG
 SN  .OHMM   05 040 16 00:   SHORT NORMAL 16"
~PARAMETER INFORMATION
#MNEM.UNIT          VALUE    DESCRIPTION
#----------   ------------   ------------------------------
 PD  .                 GL:   PERMANENT DATUM
 EPD .F              5154:   ELEVATION PERMANENT DATUM
 LMF .                 KB:   LOG MEASURED FROM
 DAPD.F                 4:   FEET ABOVE PERMANENT DATUM
 DMF .                 KB:   DRILLING MEASURED FROM
 EKB .F              5158:   KELLING BUSHING
 EGL .F              5154:   GROUND LEVEL
 DATE.           10-17-78:   RUN DATE
 RUN .                  1:   RUN NUMBER
 DD  .F               498:   DEPTH DRILLER
 DL  .F               503:   DEPTH LOGGER
 BLI .F               497:   BOTTOM LOG INTERVAL
 TLI .F                46:   TOP LOG INTERVAL
 CS  .IN            8.625:   CASING SIZE
 CBD .F                40:   CASING BOTTOM DRILLER
 BS  .IN            7.875:   BIT SIZE
 BSD .F               498:   BIT SIZE AT DEPTH
 DFT .                KCL:   DRILLING FLUID TYPE
 DFD .                8.7:   DRILLING FLUID DENSITY
 DFV .                 38:   DRILLING FLUID VISCOSITY
 DFPH.                  9:   DRILLING FLUID PH
 DFL .                9.6:   DRILLING FLUID LOSS
 MSS .          FLOW LINE:   MUD SAMPLE SOURCE
 RMS .OHMM             .2:   RESISTIVITY MUD SAMPLE
 MST .F                52:   MUD SAMPLE TEMPERATURE
 RMF .OHMM            .18:   RESISTIVITY MUD FILTRATE SAMPLE
 MFST.F                58:   MUD FILTRATE SAMPLE TEMPERATURE
 RMC .OHMM            .16:   RESISTIVITY MUD CAKE
 MCST.F                64:   MUD CAKE SAMPLE TEMPERATURE
 MFSS.               MEAS:   MUD FILTRATE SAMPLE SOURCE
 MCSS.               MEAS:   MUD CAKE SAMPLE SOURCE
 TCS .HRS               1:   TIME CURCULATED STOPPED
 MRT .F                72:   MAXIMUM RECORDED TEMPERATURE
 LUN .               2958:   LOGGING UNIT NUMBER
 LUL .               CASP:   LOGGING UNIT LOCATION
 ENGI.             MILLER:   RECORDING ENGINEER
 WITN.           DINSMORE:   WITNESSED BY
 CLNT.            A2DTECH:   CLIENT CODE
 ORIG.           5" PRINT:   ORIGIN OF DATA
 UWI .       490251072400:   UNIQUE WELL ID
 DICO. A2D Technologies, Inc.:   DIGITIZING COMPANY
~OTHER INFORMATION
~A   DEPT     CALD         GRD      CORR       RHOB       DPHI        SPR         IL         SN   
# ...
  353.0000     7.8345    85.2870     0.0778     2.4214     0.1539    -1.1128    15.8702    12.1078
  353.5000     7.8323    82.9362     0.0782     2.3983     0.1776    -0.3930    17.3540    12.6475
  354.0000     7.8298    80.5920     0.0768     2.3625     0.2018     0.3304    19.4220    13.2083
  354.5000     7.8273    78.2495     0.0748     2.3255     0.2183     1.0621    21.7358    13.8426
  355.0000     7.8248    75.9044     0.0728     2.3053     0.2197     1.3225    24.3280    14.7459
  355.5000     7.8223    73.5453     0.0705     2.3036     0.2203     1.5611    27.2330    15.7200
  356.0000     7.8198    71.1988     0.0853     2.3115     0.2144     1.8026    30.4833    16.2102
  356.5000     7.8173    71.0818     0.1060     2.3198     0.2081     2.0449    32.0106    16.6925
  357.0000     7.8148    71.2294     0.1272     2.3281     0.2058     2.2874    33.6210    17.0762
  357.5000     7.8123    71.4716     0.1348     2.3273     0.2077     2.5291    35.9719    17.1612
  358.0000     7.8098    71.7107     0.1533     2.3253     0.2068     2.7735    32.8109    17.2452
  358.5000     7.8073    71.9472     0.1819     2.3514     0.1860     2.8185    34.3120    17.3295
  359.0000     7.8048    72.0735     0.2107     2.3819     0.1653     2.7222    36.8330    17.3937
  359.5000     7.8023    71.9910     0.2237     2.4142     0.1392     2.5071    39.5392    17.2763
  360.0000     7.7998    71.9122     0.1874     2.4258     0.1461     2.2070    41.6751    17.1822
  360.5000     7.7973    71.8328     0.1553     2.4143     0.1579     2.0600    34.6725    17.0899
  361.0000     7.7948    71.7536     0.1235     2.3994     0.1744     2.0147    34.8269    16.9650
  361.5000     7.7923    71.6744     0.1022     2.3684     0.1908     1.9720    34.9929    16.8385
  362.0000     7.7899    71.5956     0.1048     2.3360     0.2008     1.9312    33.1051    16.7124
  362.5000     7.7874    71.5202     0.1069     2.3402     0.1947     1.8662    31.6969    16.5872
  363.0000     7.7849    71.2625     0.1093     2.3514     0.1836     1.3043    30.0042    16.4629
  363.5000     7.7824    70.9677     0.0974     2.3720     0.1667     1.0956    27.5667    16.3396
  364.0000     7.7799    70.6822     0.0745     2.3956     0.1725     0.9053    26.0708    16.2173
  364.5000     7.7774    70.9854     0.0516     2.3862     0.1829     0.7142    26.0708    16.1245
  365.0000     7.7747    72.1904     0.0319     2.3716     0.1895     0.5222    26.3965    16.0579
  365.5000     7.7845    73.3772     0.0324     2.3569     0.1891     0.3285    27.5834    15.9916
  366.0000     7.8011    74.3387     0.0338     2.3549     0.1882     0.2974    29.9838    15.9256
  366.5000     7.8179    74.4007     0.0352     2.3558     0.1874     0.2972    31.6257    15.8598
  367.0000     7.8347    74.4559     0.0366     2.3567     0.1866     0.2976    30.9570    15.7943
  367.5000     7.8514    75.6766     0.0380     2.3575     0.1858     0.2976    30.4632    15.7290
  368.0000     7.8682    77.0760     0.0417     2.3585     0.1850     0.2976    29.9805    15.6641
  368.5000     7.8850    77.8442     0.0460     2.3614     0.1842     0.2976    29.5078    15.5994
  369.0000     7.9018    78.4817     0.0501     2.3645     0.1835     0.2976    29.0425    15.5350
  369.5000     7.9185    79.1752     0.0480     2.3671     0.1854     0.2976    28.5846    15.4716
  370.0000     7.9354    81.0236     0.0454     2.3629     0.1895     0.2976    28.3208    15.3591
  370.5000     7.9521    82.1648     0.0444     2.3581     0.1895     0.2976    29.1131    15.1821
  371.0000     7.9547    80.0987     0.0444     2.3533     0.1888     0.2976    26.0708    15.0072
  371.5000     7.9550    77.6125     0.0444     2.3558     0.1869     0.2976    25.6825    14.8343
  372.0000     7.9553    77.2921     0.0428     2.3599     0.1851     0.2976    25.3132    14.6634
  372.5000     7.9557    77.3030     0.0400     2.3627     0.1840     0.2976    24.8989    14.6048
  373.0000     7.9560    76.7759     0.0373     2.3631     0.1831     0.2976    25.4573    14.6048
  373.5000     7.9564    76.1023     0.0346     2.3680     0.1772     0.2976    26.0708    14.4611
  374.0000     7.9567    76.0068     0.0319     2.3757     0.1734     0.2976    25.6198    14.2493
  374.5000     7.9571    75.9555     0.0291     2.3832     0.1713     0.2976    25.2075    14.0407
  375.0000     7.9574    74.1789     0.0264     2.3863     0.1691     0.2976    24.8018    13.8351
  375.5000     7.9578    73.2734     0.0237     2.3892     0.1670     0.2976    24.4026    13.6683
  376.0000     7.9581    74.0996     0.0210     2.3921     0.1648     0.2984    24.0099    13.5841
  376.5000     7.9585    75.5136     0.0182     2.3950     0.1626     0.3005    23.6235    13.5003
  377.0000     7.9588    77.5046     0.0155     2.3981     0.1605     0.2903    23.2433    13.4445
  377.5000     7.9591    78.8475     0.0147     2.4018     0.1583    -0.3140    22.8692    13.4445
  378.0000     7.9595    78.5646     0.0157     2.4055     0.1561    -1.5450    22.5012    13.4445
  378.5000     7.9598    78.3170     0.0167     2.4092     0.1540    -1.7012    22.1390    13.4445
  379.0000     7.9602    78.0797     0.0177     2.4129     0.1518    -1.7382    21.7827    13.4445
  379.5000     7.9605    78.7765     0.0187     2.4167     0.1496    -1.7828    21.4269    13.4445
  380.0000     7.9609    79.6847     0.0197     2.4203     0.1480    -1.8279    21.0518    13.4445
  380.5000     7.9612    80.3406     0.0207     2.4229     0.1484    -1.8721    20.6833    13.4440
  381.0000     7.9616    80.4218     0.0217     2.4208     0.1487    -2.0189    20.3213    13.4445
  381.5000     7.9619    80.4654     0.0224     2.4188     0.1491    -2.2006    19.9669    13.6045
  382.0000     7.9623    80.2020     0.0197     2.4176     0.1324    -2.1950    20.6657    13.8078
  382.5000     7.9626    79.9302     0.0170     2.4412     0.1122    -2.4355    21.3850    14.0145
  383.0000     7.9630    79.0351     0.0144     2.4818     0.0834    -3.4366    22.1324    14.2236
  383.5000     7.9633    74.6159     0.0117     2.5326     0.0528    -3.6001    22.9134    14.4696
  384.0000     7.9637    72.4877     0.0090     2.5833     0.0233    -3.9718    23.5621    14.2016
  384.5000     7.9640    70.5271     0.0070     2.6211     0.0270    -4.8867    23.2812    13.8862
  385.0000     7.9644    67.9856     0.0142     2.6167     0.0307    -6.4093    22.8534    13.5779
  385.5000     7.9647    66.7073     0.0225     2.6117     0.0343    -9.0699    22.4336    13.2764
  386.0000     7.9651    66.6159     0.0302     2.6054     0.0539    -5.5214    22.0214    12.9816
  386.5000     7.9654    66.5151     0.0285     2.5704     0.0765    -5.4370    21.2127    12.6934
  387.0000     7.9658    68.0380     0.0265     2.5352     0.0990    -5.4630    20.0597    12.4115
  387.5000     7.9661    70.5909     0.0246     2.5002     0.1198    -5.4561    18.7809    12.1360
  388.0000     7.9664    73.1670     0.0226     2.4655     0.1344    -5.4563    17.5835    11.8665
  388.5000     7.9668    75.6402     0.0251     2.4448     0.1338    -5.4563    16.4625    11.6030
  389.0000     7.9671    74.8151     0.0282     2.4457     0.1330    -5.4563    16.0068    11.3451
  389.5000     7.9675    73.3608     0.0314     2.4480     0.1324    -5.4563    15.7962    11.0944
  390.0000     7.9678    72.4910     0.0317     2.4508     0.1276    -5.4563    15.5740    10.8626
  390.5000     7.9682    72.5598     0.0308     2.4653     0.1225    -5.4563    15.5771    10.7470
  391.0000     7.9685    72.6257     0.0298     2.4731     0.1184    -5.4563    15.5763    10.6302
  391.5000     7.9689    72.6631     0.0289     2.4720     0.1216    -5.4563    15.5771    10.5142
  392.0000     7.9692    73.8177     0.0279     2.4634     0.1253    -5.4563    15.4730    10.4225
  392.5000     7.9696    76.1961     0.0269     2.4552     0.1291    -5.4561    15.2908    10.3376
  393.0000     7.9699    80.9328     0.0270     2.4528     0.1300    -5.4518    15.1113    10.2533
