~VERSION INFORMATION
 VERS.                2.0:   CWLS LOG ASCII STANDARD - VERSION 2.0
 WRAP.                 NO:   ONE LINE PER DEPTH STEP
~WELL INFORMATION
#MNEM.UNIT      DATA TYPE    INFORMATION
#----------   ------------   ------------------------------
 STRT.F           34.0000:   START DEPTH
 STOP.F          555.0000:   STOP DEPTH
 STEP.F            0.5000:   STEP LENGTH
 NULL.          -999.2500:   NO VALUE
 COMP. FENIX & SCISSON-U.S. NAVY:   COMPANY
 WELL.    NPR #3 #17-S-11:   WELL
 FLD .             TEAPOT:   FIELD
 LOC .      S11 T38N R78W:   LOCATION
 CNTY.            NATRONA:   COUNTY
 STAT.            WYOMING:   STATE
 CTRY. UNITED STATES OF AMERICA:   COUNTRY
 SRVC.       Schlumberger:   SERVICE COMPANY
 DATE.        20-FEB-1977:   LOGDATE
 API .       490251028100:   API NUMBER
~CURVE INFORMATION
#MNEM.UNIT       API CODE    CURVE DESCRIPTION
#----------   ------------   ------------------------------
 DEPT.F                  :   
 SPR .MV     07 010 01 00:   SPONTANEOUS POTENTIAL
 ILD .OHMM   07 120 46 00:   INDUCTION LOG DEEP
 ILM .OHMM   07 120 44 00:   INDUCTION LOG MEDIUM
 LL8 .OHMM   07 220 08 00:   LATEROLOG-8 RES.
 CALD.IN     45 280 60 00:   CALIPER FROM DENSITY LOG
 GRD .GAPI   45 310 01 00:   GAMMA RAY FROM DENSITY LOG
 CORR.G/C3   45 356 01 00:   DENSITY CORRECTION
 RHOB.G/C3   45 350 01 00:   BULK DENSITY
 DPHI.DEC    45 890 12 00:   DENSITY POROSITY SANDSTONE
~PARAMETER INFORMATION
#MNEM.UNIT          VALUE    DESCRIPTION
#----------   ------------   ------------------------------
 PD  .                 GL:   PERMANENT DATUM
 EPD .F              5204:   ELEVATION PERMANENT DATUM
 LMF .                 GL:   LOG MEASURED FROM
 DMF .                 GL:   DRILLING MEASURED FROM
 EKB .F              5209:   KELLING BUSHING
 EGL .F              5204:   GROUND LEVEL
 DATE.        20-FEB-1977:   RUN DATE
 RUN .                  1:   RUN NUMBER
 DD  .F               556:   DEPTH DRILLER
 DL  .F               556:   DEPTH LOGGER
 BLI .F               555:   BOTTOM LOG INTERVAL
 TLI .F                42:   TOP LOG INTERVAL
 CS  .IN            8.625:   CASING SIZE
 CBD .F                42:   CASING BOTTOM DRILLER
 CBL .F                42:   CASING BOTTOM LOGGER
 BS  .IN            7.875:   BIT SIZE
 BSD .F               556:   BIT SIZE AT DEPTH
 DFT .            KCL MUD:   DRILLING FLUID TYPE
 DFD .                8.8:   DRILLING FLUID DENSITY
 DFV .                 33:   DRILLING FLUID VISCOSITY
 DFPH.                8.0:   DRILLING FLUID PH
 DFL .                7.6:   DRILLING FLUID LOSS
 MSS .           FLOWLINE:   MUD SAMPLE SOURCE
 RMS .OHMM            .44:   RESISTIVITY MUD SAMPLE
 MST .F                66:   MUD SAMPLE TEMPERATURE
 RMF .OHMM            .41:   RESISTIVITY MUD FILTRATE SAMPLE
 MFST.F                66:   MUD FILTRATE SAMPLE TEMPERATURE
 MFSS.               MEAS:   MUD FILTRATE SAMPLE SOURCE
 TCS .HRS               3:   TIME CURCULATED STOPPED
 LUN .               7680:   LOGGING UNIT NUMBER
 LUL .               CSPR:   LOGGING UNIT LOCATION
 ENGI.             TAYLOR:   RECORDING ENGINEER
 WITN.               JAPP:   WITNESSED BY
 CLNT.            A2DTECH:   CLIENT CODE
 ORIG.           5" PRINT:   ORIGIN OF DATA
 UWI .       490251028100:   UNIQUE WELL ID
 DICO. A2D Technologies, Inc.:   DIGITIZING COMPANY
~OTHER INFORMATION
~A   DEPT      SPR        ILD        ILM        LL8       CALD        GRD       CORR       RHOB       DPHI   
# ...
  289.5000   -55.2538     8.3818     7.9418     9.2595     8.2627    94.6546     0.0475     2.4613     0.1128
  290.0000   -55.4103     8.3807     7.9401     9.3218     8.2616    93.3037     0.0530     2.4712     0.1055
  290.5000   -55.5750     8.3796     7.9381     9.3195     8.2606    92.8562     0.0484     2.4795     0.1025
  291.0000   -55.5854     8.3784     7.8818     9.3827     8.2595    95.1269     0.0432     2.4841     0.1113
  291.5000   -55.5957     8.3773     7.8258     9.4454     8.2576    94.2286     0.0416     2.4894     0.1088
  292.0000   -55.7581     8.3762     7.7166     9.4435     8.2557    92.3801     0.0498     2.4942     0.0986
  292.5000   -55.9205     8.2503     7.6089     9.3766     8.2538    90.1320     0.0520     2.4978     0.0977
  293.0000   -56.0829     7.8677     7.3485     9.2459     8.2519    90.6302     0.0280     2.4979     0.1115
  293.5000   -56.0933     7.4944     6.9031     8.9299     8.2500    90.8630     0.0399     2.4971     0.0968
  294.0000   -56.2556     7.0895     6.5751     8.5637     8.2481    90.6418     0.0520     2.4942     0.0916
  294.5000   -56.2660     6.7065     6.2589     8.1520     8.2462    88.8401     0.0458     2.4889     0.1055
  295.0000   -56.2766     6.5677     6.0901     7.7179     8.2443    88.1663     0.0256     2.4807     0.1142
  295.5000   -56.2629     6.5215     6.0051     7.3011     8.2424    88.1746     0.0225     2.4777     0.1067
  296.0000   -55.9933     6.5660     6.0039     7.0030     8.2405    89.9912     0.0532     2.4883     0.1003
  296.5000   -55.5503     6.6566     6.0027     7.4511     8.2386    91.5815     0.0457     2.4869     0.1012
  297.0000   -55.4087     6.8934     6.0434     8.8554     8.2367    93.6396     0.0366     2.4784     0.1100
  297.5000   -54.9606     7.0420     6.1265     9.5533     8.2348    94.7624     0.0313     2.4613     0.1220
  298.0000   -54.5151     7.2303     6.2970     8.3178     8.2329    94.3163     0.0260     2.4304     0.1310
  298.5000   -54.5281     7.3811     6.5175     7.9230     8.2310    92.5146     0.0162     2.4290     0.1386
  299.0000   -54.5385     7.4830     6.8449     7.8127     8.2291    90.9375     0.0140     2.4373     0.1309
  299.5000   -54.5489     7.5863     7.0791     8.1981     8.2271    89.8129     0.0207     2.4494     0.1164
  300.0000   -54.5593     7.7126     7.1785     8.9679     8.2252    88.6863     0.0191     2.4617     0.1158
  300.5000   -54.7120     7.8496     7.2008     9.5403     8.2233    88.2250     0.0311     2.4779     0.1128
  301.0000   -54.8648     7.8469     7.2234     9.6033     8.2214    87.3112     0.0415     2.4901     0.0990
  301.5000   -55.0176     7.8443     7.2219     9.0827     8.2195    87.9810     0.0385     2.4743     0.1089
  302.0000   -55.5155     7.7876     7.2201     8.7711     8.2176    90.2346     0.0527     2.4569     0.1139
  302.5000   -55.8297     7.7849     7.2187     8.5889     8.2157    91.1308     0.0242     2.4478     0.1168
  303.0000   -55.8399     7.7285     7.2172     9.0736     8.2138    92.0269     0.0219     2.4569     0.1111
  303.5000   -55.8502     7.7254     7.1660     9.4548     8.2119    93.1493     0.0301     2.4692     0.1027
  304.0000   -55.8604     7.7228     7.1151     9.4395     8.2100    95.4571     0.0474     2.4801     0.0973
  304.5000   -55.8708     7.7202     7.0646     8.8777     8.2081    97.4691     0.0286     2.4649     0.1072
  305.0000   -55.8834     7.6644     6.9660     8.6925     8.2062    97.6477     0.0241     2.4559     0.1138
  305.5000   -55.8937     7.6090     6.8214     8.5703     8.2043    96.2791     0.0210     2.4498     0.1190
  306.0000   -55.9039     7.3986     6.6795     8.3915     8.2024    94.4603     0.0135     2.4460     0.1178
  306.5000   -55.9141     7.1389     6.4957     8.2165     8.2005    92.6415     0.0247     2.4625     0.1108
  307.0000   -56.2283     6.8508     6.1444     8.0451     8.1986    91.2752     0.0420     2.4723     0.1042
  307.5000   -56.2386     6.6614     5.7719     7.9870     8.1967    91.0401     0.0524     2.4799     0.1070
  308.0000   -56.4033     6.4325     5.4598     7.8740     8.1948    93.0675     0.0494     2.4887     0.0962
  308.5000   -56.2590     6.0838     5.1645     7.7098     8.1959    94.6424     0.0703     2.4955     0.0863
  309.0000   -56.2718     5.3320     4.8177     6.9961     8.2003    94.6305     0.0463     2.4811     0.1116
  309.5000   -56.1275     5.0081     4.6530     5.6055     8.2047    93.2428     0.0208     2.4690     0.1197
  310.0000   -55.9858     4.9719     4.6845     5.4136     8.2091    93.4846     0.0170     2.4660     0.1131
  310.5000   -55.6946     5.1807     4.8148     6.8931     8.2135    92.7948     0.0500     2.4885     0.0914
  311.0000   -55.3840     5.3614     4.9149     7.3844     8.2179    89.3923     0.0477     2.5020     0.0982
  311.5000   -55.1072     5.5484     5.0519     7.5961     8.2223    86.2160     0.0372     2.4582     0.1140
  312.0000   -54.8161     5.7819     5.2652     7.7451     8.2267    83.2660     0.0491     2.4381     0.1270
  312.5000   -54.8263     6.0670     5.6808     7.8503     8.2314    76.9223     0.0304     2.4100     0.1363
  313.0000   -54.6820     6.3662     6.0071     8.0671     8.2457    78.2710     0.0138     2.4273     0.1258
  313.5000   -54.5428     6.6352     6.3001     8.1774     8.2599    82.7870     0.0198     2.4476     0.1138
  314.0000   -54.5531     6.9767     6.5658     8.4032     8.2893    87.9818     0.0393     2.4761     0.1051
  314.5000   -54.2593     7.2536     6.7026     8.5174     8.2884    91.6018     0.0505     2.4889     0.1132
  315.0000   -54.1176     7.2512     6.8891     8.6990     8.2873    93.0015     0.0167     2.4489     0.1247
  315.5000   -54.1304     7.4009     6.9841     8.8723     8.2864    95.8716     0.0281     2.4443     0.1217
  316.0000   -54.1406     7.5537     7.1290     8.9921     8.2856    96.3175     0.0379     2.4628     0.1077
  316.5000   -53.9985     7.6566     7.2269     9.1150     8.2847    95.1752     0.0286     2.4819     0.1100
  317.0000   -54.0091     7.8147     7.2800     9.2381     8.2838    94.2614     0.0181     2.4668     0.1160
  317.5000   -54.0198     7.9760     7.4266     9.3644     8.2829    95.1575     0.0278     2.4555     0.1196
  318.0000   -53.8776     8.1400     7.4770     9.4908     8.2820    94.9224     0.0180     2.4607     0.1124
  318.5000   -53.7359     8.2508     7.5275     9.6198     8.2809    90.8412     0.0068     2.4690     0.1143
  319.0000   -53.7487     8.2480     7.6305     9.6833     8.2800    94.2260     0.0165     2.4629     0.1191
  319.5000   -53.6044     8.3033     7.6290     9.7472     8.2791    96.2533     0.0104     2.4516     0.1207
  320.0000   -53.6172     8.3582     7.6275     9.8796     8.2783    97.1495     0.0074     2.4628     0.1107
  320.5000   -53.4755     8.4712     7.6789     9.9449     8.2774    96.6154     0.0179     2.4796     0.1062
  321.0000   -53.4883     8.5272     7.7307     9.9407     8.2765    94.6409     0.0044     2.4717     0.1126
  321.5000   -53.4985     8.6432     7.7829     9.9374     8.2756    93.5030    -0.0017     2.4664     0.1011
  322.0000   -53.3568     8.6396     7.8354     9.9340     8.2747    94.1729     0.0178     2.5183     0.0810
  322.5000   -53.3670     8.5771     7.8883     9.9996     8.2738    93.7094     0.0365     2.5499     0.0951
  323.0000   -53.2249     8.5151     7.8863    10.0657     8.2729    92.1168     0.0245     2.5009     0.1051
  323.5000   -53.2356     8.3952     7.8847    10.1321     8.2718    90.5243     0.0462     2.4828     0.1027
  324.0000   -53.2483     8.3344     7.8287    10.1990     8.2558    90.7439     0.0574     2.4971     0.0909
  324.5000   -53.2585     8.2153     7.7711    10.1947     8.2549    91.8641     0.0446     2.5076     0.0876
  325.0000   -53.2688     8.1012     7.6558    10.3333     8.2540    93.4389     0.0394     2.5050     0.0994
  325.5000   -53.1245     7.9314     7.5573    10.4737     8.2532    96.6184     0.0626     2.5218     0.0750
