~VERSION INFORMATION
 VERS.                2.0:   CWLS LOG ASCII STANDARD - VERSION 2.0
 WRAP.                 NO:   ONE LINE PER DEPTH STEP
~WELL INFORMATION
#MNEM.UNIT      DATA TYPE    INFORMATION
#----------   ------------   ------------------------------
 STRT.F         1460.0000:   START DEPTH
 STOP.F         2374.5000:   STOP DEPTH
 STEP.F            0.5000:   STEP LENGTH
 NULL.          -999.2500:   NO VALUE
 COMP. BROWN JOHN E&C INC:   COMPANY
 WELL. 15-1 STX-14 #15-14:   WELL
 FLD .             TEAPOT:   FIELD
 LOC .      S14 T38N R78W:   LOCATION
 CNTY.            NATRONA:   COUNTY
 STAT.            WYOMING:   STATE
 CTRY. UNITED STATES OF AMERICA:   COUNTRY
 SRVC.            Unknown:   SERVICE COMPANY
 DATE.        20-OCT-1991:   LOGDATE
 API .       490251098600:   API NUMBER
~CURVE INFORMATION
#MNEM.UNIT       API CODE    CURVE DESCRIPTION
#----------   ------------   ------------------------------
 DEPT.F                  :   
 ROP .MIN/FT 91 810 01 00:   RATE OF DRILLING PENETRATION
 TGAS.UNITS  91 830 01 00:   TOTAL GAS FROM HOTWIRE
~PARAMETER INFORMATION
#MNEM.UNIT          VALUE    DESCRIPTION
#----------   ------------   ------------------------------
 EKB .F              5247:   KELLING BUSHING
 EGL .F              5237:   GROUND LEVEL
 DATE.           10-20-91:   RUN DATE
 DD  .F              2379:   DEPTH DRILLER
 BLI .F              2392:   BOTTOM LOG INTERVAL
 TLI .F              1460:   TOP LOG INTERVAL
 CS  .IN            8.625:   CASING SIZE
 CBD .F               815:   CASING BOTTOM DRILLER
 ENGI.               HUSK:   RECORDING ENGINEER
 WITN.              TOWER:   WITNESSED BY
 CLNT.            A2DTECH:   CLIENT CODE
 ORIG.         2.5" PRINT:   ORIGIN OF DATA
 UWI .       490251098600:   UNIQUE WELL ID
 DICO. A2D Technologies, Inc.:   DIGITIZING COMPANY
~OTHER INFORMATION
~A  DEPT       ROP       TGAS   
# ...
 2189.0000     0.4910   511.1515
 2189.5000     0.4142   510.5651
 2190.0000     0.3953   509.9787
 2190.5000     0.3765   509.3923
 2191.0000     0.4547   508.8059
 2191.5000     0.5328   508.2195
 2192.0000     0.5915   507.6331
 2192.5000     0.6115   507.0467
 2193.0000     0.6508   506.4602
 2193.5000     0.6514   505.8738
 2194.0000     0.6521   505.2874
 2194.5000     0.6330   504.7010
 2195.0000     0.6338   504.1146
 2195.5000     0.6344   503.5282
 2196.0000     0.6154   502.9418
 2196.5000     0.6161   502.3554
 2197.0000     0.6168   501.7690
 2197.5000     0.6173   501.1826
 2198.0000     0.6179   500.5962
 2198.5000     0.6185   500.0098
 2199.0000     0.5963   499.4234
 2199.5000     0.5966   498.8370
 2200.0000     0.5970   498.2505
 2200.5000     0.6080   497.6642
 2201.0000     0.6283   497.0778
 2201.5000     0.6618   496.4913
 2202.0000     0.6731   495.9049
 2202.5000     0.8228   495.3185
 2203.0000     0.9164   494.7321
 2203.5000     1.0474   494.1457
 2204.0000     1.1410   493.5593
 2204.5000     1.0390   492.9729
 2205.0000     0.9560   493.0434
 2205.5000     0.8712   493.4347
 2206.0000     0.8625   493.8260
 2206.5000     0.8780   494.2173
 2207.0000     0.8360   494.6086
 2207.5000     0.7864   494.9999
 2208.0000     0.7409   495.3913
 2208.5000     0.6961   495.7826
 2209.0000     0.6645   496.1739
 2209.5000     0.6042   535.0594
 2210.0000     0.6045   742.9141
 2210.5000     0.6049   950.7689
 2211.0000     0.6056  1158.6237
 2211.5000     0.6259  1366.4784
 2212.0000     0.6493  1613.8134
 2212.5000     0.6852  1554.5259
 2213.0000     0.7111  1481.3368
 2213.5000     0.7377  1408.1476
 2214.0000     0.7381  1334.9585
 2214.5000     0.7384  1261.7694
 2215.0000     0.7495  1188.5802
 2215.5000     0.7578  1115.3911
 2216.0000     0.7582  1042.2020
 2216.5000     0.7732   969.0129
 2217.0000     0.8336   895.8237
 2217.5000     1.0019   822.6346
 2218.0000     0.9090   757.5220
 2218.5000     0.8303   758.6722
 2219.0000     0.7509   759.7080
 2219.5000     0.6751   760.7439
 2220.0000     0.6256   761.7797
 2220.5000     0.5935   762.8156
 2221.0000     0.5492   763.8514
 2221.5000     0.5119   764.8872
 2222.0000     0.4828   765.9231
 2222.5000     0.4832   766.9589
 2223.0000     0.5090   767.9948
 2223.5000     0.5353   769.0306
 2224.0000     0.5777   770.0665
 2224.5000     0.6153   771.1023
 2225.0000     0.6157   772.1381
 2225.5000     0.5974   773.1740
 2226.0000     0.5942   774.2098
 2226.5000     0.5608   775.2457
 2227.0000     0.5612   776.2815
 2227.5000     0.5559   777.3173
 2228.0000     0.5363   778.3532
 2228.5000     0.5085   779.3890
 2229.0000     0.5262   780.4249
 2229.5000     0.6389   781.4607
 2230.0000     0.7668   782.4966
 2230.5000     0.8868   783.5324
 2231.0000     0.9934   784.5682
 2231.5000     1.0310   785.6041
 2232.0000     1.0873   786.6400
 2232.5000     1.1437   787.6758
 2233.0000     1.1838   788.7116
 2233.5000     1.2190   783.5992
 2234.0000     1.2194   776.4904
 2234.5000     1.2198   769.3815
 2235.0000     1.2138   762.2726
 2235.5000     1.1942   755.1638
 2236.0000     1.2015   732.4969
 2236.5000     1.2418   718.9104
 2237.0000     1.2820   703.8338
 2237.5000     1.3479   690.1401
 2238.0000     1.4846   678.7462
 2238.5000     1.6519   667.3523
 2239.0000     1.3351   655.6981
 2239.5000     1.0743   639.5863
 2240.0000     0.8464   623.4745
 2240.5000     0.7110   610.8757
 2241.0000     0.6244   574.1426
 2241.5000     0.6093   552.0980
 2242.0000     0.6039   538.7385
 2242.5000     0.6056   525.3792
 2243.0000     0.6626   519.1954
 2243.5000     0.7427   515.0037
 2244.0000     0.8557   510.8119
 2244.5000     0.9835   506.6202
 2245.0000     1.1171   502.8697
 2245.5000     1.3027   497.8797
 2246.0000     1.4336   492.8896
 2246.5000     1.5086   487.8996
 2247.0000     1.2848   487.7939
 2247.5000     1.0883   492.3105
 2248.0000     0.9396   496.8272
 2248.5000     0.8718   501.3439
 2249.0000     0.8367   505.8605
 2249.5000     0.7573   508.3554
 2250.0000     0.6468   508.6957
 2250.5000     0.5238   509.0870
 2251.0000     0.4548   509.4782
 2251.5000     0.4186   509.8695
 2252.0000     0.4119   515.5366
 2252.5000     0.4265   534.4930
 2253.0000     0.4127   553.4494
 2253.5000     0.4131   571.7270
 2254.0000     0.4321   585.1448
 2254.5000     0.4511   598.5627
 2255.0000     0.4308   611.2986
 2255.5000     0.4145   618.9700
 2256.0000     0.4011   626.6414
 2256.5000     0.3534   631.1910
 2257.0000     0.3410   651.1892
 2257.5000     0.3414   654.8148
 2258.0000     0.3418   659.9655
 2258.5000     0.3422   665.1162
 2259.0000     0.3425   670.2669
 2259.5000     0.3429   672.6723
 2260.0000     0.3434   673.0435
 2260.5000     0.4183   673.4348
 2261.0000     0.5120   673.8261
 2261.5000     0.6244   674.2808
 2262.0000     0.6476   674.6087
 2262.5000     0.7051   675.0000
 2263.0000     0.7494   675.3913
 2263.5000     0.7937   675.7826
 2264.0000     0.8006   676.1739
 2264.5000     0.8367   676.5652
 2265.0000     0.9153   676.9565
 2265.5000     0.9421   677.3478
 2266.0000     0.8908   677.7391
 2266.5000     0.8575   678.1304
 2267.0000     0.8666   678.5217
 2267.5000     0.9646   678.9130
 2268.0000     1.0209   679.3043
 2268.5000     0.9467   679.6956
 2269.0000     0.8122   680.0963
 2269.5000     0.7086   841.5468
 2270.0000     0.5932  1006.9547
 2270.5000     0.5984  1172.3625
 2271.0000     0.6247  1184.7324
 2271.5000     0.6577  1116.9396
 2272.0000     0.6694  1049.1467
 2272.5000     0.6500   981.3538
 2273.0000     0.6105   913.5609
 2273.5000     0.5834   845.7680
 2274.0000     0.5914   777.9751
 2274.5000     0.6527   703.9921
 2275.0000     0.6717   707.7554
 2275.5000     0.7280   711.8968
 2276.0000     0.7286   716.0381
 2276.5000     0.7520   720.1796
 2277.0000     0.8037   724.3209
 2277.5000     0.8082   725.9083
 2278.0000     0.8394   726.2609
 2278.5000     0.8862   726.6522
 2279.0000     0.8985   727.0435
 2279.5000     0.8618   727.4348
 2280.0000     0.7823   727.8260
 2280.5000     0.7385   720.4834
 2281.0000     0.6718   713.1407
 2281.5000     0.5690   689.8092
 2282.0000     0.4800   656.0184
 2282.5000     0.4347   622.0329
 2283.0000     0.4109   593.1586
 2283.5000     0.3847   555.2410
 2284.0000     0.3799   516.9626
 2284.5000     0.3803   496.5652
 2285.0000     0.3806   496.9565
 2285.5000     0.3810   497.3478
 2286.0000     0.4559   497.7391
 2286.5000     0.3768   498.1304
 2287.0000     0.3335   498.5217
 2287.5000     0.2892   498.9131
 2288.0000     0.2959   499.3044
 2288.5000     0.3315   499.6956
 2289.0000     0.4095   500.0870
 2289.5000     0.5097   500.4783
 2290.0000     0.5983   500.8696
 2290.5000     0.6656   501.2609
 2291.0000     0.6977   501.6522
 2291.5000     0.6654   502.0435
 2292.0000     0.6097   502.4348
 2292.5000     0.5914   502.8802
 2293.0000     0.5358   503.2514
 2293.5000     0.6202   503.6844
 2294.0000     0.7203   504.0556
 2294.5000     0.8071   504.4268
 2295.0000     0.8358   506.0333
 2295.5000     0.8221   509.3025
 2296.0000     0.7742   512.5718
 2296.5000     0.7244   515.8410
 2297.0000     0.6849   519.1102
 2297.5000     0.6534   522.3795
 2298.0000     0.6232   525.6487
 2298.5000     0.6034   528.9180
 2299.0000     0.5963   532.1872
 2299.5000     0.5826   535.4565
 2300.0000     0.5411   538.7257
 2300.5000     0.5414   541.9949
 2301.0000     0.5417   545.2642
 2301.5000     0.5819   549.0634
 2302.0000     0.6252   549.4346
 2302.5000     0.6734   549.8058
 2303.0000     0.6625   547.8683
 2303.5000     0.6297   545.8092
 2304.0000     0.6356   543.7501
 2304.5000     0.6661   541.6909
 2305.0000     0.7095   539.6318
 2305.5000     0.7444   537.5726
 2306.0000     0.7936   535.5135
 2306.5000     0.8255   533.4543
 2307.0000     0.8258   531.3952
 2307.5000     0.8073   529.3361
 2308.0000     0.7705   527.2769
 2308.5000     0.7679   525.2178
 2309.0000     0.7570   523.1586
 2309.5000     0.7775   521.0995
 2310.0000     0.7980   519.0403
