~VERSION INFORMATION
 VERS.                2.0:   CWLS LOG ASCII STANDARD - VERSION 2.0
 WRAP.                 NO:   ONE LINE PER DEPTH STEP
~WELL INFORMATION
#MNEM.UNIT      DATA TYPE    INFORMATION
#----------   ------------   ------------------------------
 STRT.F           14.0000:   START DEPTH
 STOP.F          449.0000:   STOP DEPTH
 STEP.F            0.5000:   STEP LENGTH
 NULL.          -999.2500:   NO VALUE
 COMP.   LAWRENCE-ALLISON:   COMPANY
 WELL. NPR 3 #51-65SX10OB2:   WELL
 FLD .             TEAPOT:   FIELD
 LOC .      S10 T38N R78W:   LOCATION
 CNTY.            NATRONA:   COUNTY
 STAT.            WYOMING:   STATE
 CTRY. UNITED STATES OF AMERICA:   COUNTRY
 SRVC.      Dresser Atlas:   SERVICE COMPANY
 DATE.        18-DEC-1984:   LOGDATE
 API .       490251100900:   API NUMBER
~CURVE INFORMATION
#MNEM.UNIT       API CODE    CURVE DESCRIPTION
#----------   ------------   ------------------------------
 DEPT.F                  :   
 PORD.DEC    45 890 12 00:   POROSITY DENSITY SANDSTONE
 CNC .DEC    42 890 03 00:   NEUTRON POROSITY SANDSTONE
 CALD.IN     45 280 60 00:   CALIPER FROM DENSITY
 CORR.G/C3   45 356 01 00:   DENSITY CORRECTION
 DEN .G/C3   45 350 01 00:   COMPENSATED BULK DENSTIY
 GRD .GAPI   45 310 01 00:   GAMMA RAY FROM DENSITY LOG
 AC  .US/F   60 520 00 00:   ACCOUSTIC
~PARAMETER INFORMATION
#MNEM.UNIT          VALUE    DESCRIPTION
#----------   ------------   ------------------------------
 PD  .                 GL:   PERMANENT DATUM
 EPD .F              5156:   ELEVATION PERMANENT DATUM
 LMF .                 GL:   LOG MEASURED FROM
 DMF .                 GL:   DRILLING MEASURED FROM
 EGL .F              5156:   GROUND LEVEL
 DATE.        18-DEC-1984:   RUN DATE
 RUN .                  1:   RUN NUMBER
 DD  .F               448:   DEPTH DRILLER
 DL  .F               451:   DEPTH LOGGER
 BLI .F               449:   BOTTOM LOG INTERVAL
 TLI .F                20:   TOP LOG INTERVAL
 CS  .IN            8.625:   CASING SIZE
 CBD .F                20:   CASING BOTTOM DRILLER
 CBL .F                20:   CASING BOTTOM LOGGER
 BS  .IN             6.25:   BIT SIZE
 BSD .F               448:   BIT SIZE AT DEPTH
 DFT .          KCL WATER:   DRILLING FLUID TYPE
 MSS .             MUDPIT:   MUD SAMPLE SOURCE
 RMS .OHMM          0.132:   RESISTIVITY MUD SAMPLE
 MST .F                95:   MUD SAMPLE TEMPERATURE
 RMF .OHMM          0.099:   RESISTIVITY MUD FILTRATE SAMPLE
 MFST.F                95:   MUD FILTRATE SAMPLE TEMPERATURE
 RMC .OHMM          0.165:   RESISTIVITY MUD CAKE
 MCST.F                95:   MUD CAKE SAMPLE TEMPERATURE
 MFSS.               CALC:   MUD FILTRATE SAMPLE SOURCE
 MCSS.               CALC:   MUD CAKE SAMPLE SOURCE
 TCS .HRS               5:   TIME CURCULATED STOPPED
 MRT .F               100:   MAXIMUM RECORDED TEMPERATURE
 LUN .               6270:   LOGGING UNIT NUMBER
 ENGI.        TOM GAUGHAN:   RECORDING ENGINEER
 WITN.             GROOMS:   WITNESSED BY
 CLNT.            A2DTECH:   CLIENT CODE
 ORIG.           5" PRINT:   ORIGIN OF DATA
 UWI .       490251100900:   UNIQUE WELL ID
 DICO. A2D Technologies, Inc.:   DIGITIZING COMPANY
~OTHER INFORMATION
~A   DEPT     PORD        CNC       CALD       CORR        DEN        GRD         AC   
# ...
  332.5000     0.2124     0.2947     6.5559     0.0163     2.3235    74.9467    99.9892
  333.0000     0.2064     0.2820     6.5572     0.0224     2.3401    78.3721    99.2405
  333.5000     0.1958     0.2681     6.5585     0.0151     2.3574    80.1629    98.4165
  334.0000     0.1895     0.2605     6.5447     0.0062     2.3620    80.9151    98.0440
  334.5000     0.1900     0.2596     6.5464    -0.0027     2.3598    81.8156    98.1230
  335.0000     0.1921     0.2532     6.5325    -0.0086     2.3553    82.5678    99.0297
  335.5000     0.1942     0.2478     6.5342    -0.0099     2.3516    82.8749   103.8490
  336.0000     0.1959     0.2462     6.5203     0.0007     2.3509    82.8852   105.2062
  336.5000     0.1940     0.2513     6.5220     0.0309     2.3555    87.1983   102.3516
  337.0000     0.1915     0.2591     6.5233     0.0520     2.3601    87.5053    99.7970
  337.5000     0.1897     0.2677     6.5247     0.0567     2.3617    87.0706    98.7473
  338.0000     0.1912     0.2782     6.5260     0.0508     2.3595    86.0424    98.9768
  338.5000     0.1993     0.2783     6.5273     0.0044     2.3497    81.1566   100.0340
  339.0000     0.2038     0.2718     6.5287     0.0014     2.3393    78.1996   100.7901
  339.5000     0.2046     0.2612     6.5300     0.0167     2.3363    77.6139   101.3958
  340.0000     0.2001     0.2600     6.5313     0.0243     2.3394    78.9621   101.2491
  340.5000     0.1991     0.2675     6.5327     0.0230     2.3477    80.0110    99.6676
  341.0000     0.2006     0.2768     6.5340     0.0185     2.3470    78.9828    98.9942
  341.5000     0.2021     0.2840     6.5353     0.0141     2.3426    78.1004    98.6945
  342.0000     0.2029     0.2863     6.5367     0.0144     2.3396    79.1519    98.4799
  342.5000     0.1996     0.2770     6.5380     0.0161     2.3427    82.8714    98.4713
  343.0000     0.1941     0.2697     6.5393     0.0178     2.3518    85.7008    98.1121
  343.5000     0.1908     0.2707     6.5407     0.0208     2.3586    87.1948    97.8149
  344.0000     0.1901     0.2765     6.5420     0.0209     2.3617    87.5019    98.1196
  344.5000     0.1910     0.2740     6.5433     0.0038     2.3587    86.7704    97.7471
  345.0000     0.1891     0.2604     6.5447     0.0001     2.3611    83.9618    97.2241
  345.5000     0.1870     0.2547     6.5460     0.0003     2.3641    81.3015    96.1744
  346.0000     0.1870     0.2598     6.5473    -0.0011     2.3657    81.7570    94.6732
  346.5000     0.1851     0.2696     6.5488    -0.0025     2.3672    84.1412    93.6988
  347.0000     0.1787     0.2768     6.5500     0.0067     2.3756    87.7124    93.5511
  347.5000     0.1697     0.2756     6.5513     0.0234     2.3892    91.5803    93.9320
  348.0000     0.1705     0.2707     6.5526     0.0340     2.3953    93.0743    95.2149
  348.5000     0.1747     0.2719     6.5540     0.0417     2.3870    91.1559    96.5589
  349.0000     0.1822     0.2760     6.5553     0.0463     2.3773    89.3858    97.2402
  349.5000     0.1879     0.2757     6.5566     0.0389     2.3669    88.3576    97.3957
  350.0000     0.1869     0.2639     6.5385     0.0298     2.3654    88.5163    96.9501
  350.5000     0.1821     0.2488     6.5129     0.0212     2.3723    89.6627    96.5045
  351.0000     0.1829     0.2463     6.4863     0.0258     2.3746    93.5853    96.0589
  351.5000     0.1838     0.2424     6.4877     0.0260     2.3723    97.6030    95.6133
  352.0000     0.1844     0.2406     6.4891     0.0231     2.3709   100.2853    95.3929
  352.5000     0.1831     0.2451     6.4754     0.0083     2.3733   100.5938    95.0227
  353.0000     0.1810     0.2393     6.4771    -0.0246     2.3779   100.6056    94.6522
  353.5000     0.1740     0.2285     6.4784    -0.0275     2.3915   100.1722    94.4320
  354.0000     0.1698     0.2266     6.4646    -0.0153     2.3968    97.6261    94.4373
  354.5000     0.1703     0.2302     6.4662    -0.0001     2.3953    89.0431    94.5177
  355.0000     0.1715     0.2344     6.4675     0.0165     2.3939    83.6200    94.3724
  355.5000     0.1706     0.2394     6.4537     0.0347     2.4000    81.9699    94.0033
  356.0000     0.1690     0.2418     6.4553     0.0318     2.4016    84.2631    93.4825
  356.5000     0.1684     0.2361     6.4567     0.0170     2.3979    84.9637    92.8867
  357.0000     0.1687     0.2366     6.4431     0.0186     2.4002    84.6787    92.4411
  357.5000     0.1650     0.2384     6.4296     0.0158     2.4070    84.0970    91.9955
  358.0000     0.1611     0.2369     6.4309     0.0099     2.4109    85.1473    91.4748
  358.5000     0.1601     0.2320     6.4171     0.0009     2.4102    87.5329    91.1794
  359.0000     0.1610     0.2344     6.4187     0.0162     2.4110    87.3933    90.9579
  359.5000     0.1601     0.2404     6.4201     0.0102     2.4126    86.8146    90.7390
  360.0000     0.1579     0.2415     6.4214    -0.0060     2.4164    86.2328    90.5188
  360.5000     0.1536     0.2415     6.4227    -0.0044     2.4217    85.2060    90.3738
  361.0000     0.1512     0.2463     6.4240    -0.0012     2.4278    84.6243    90.2287
  361.5000     0.1521     0.2444     6.4253     0.0070     2.4241    84.3363    90.1586
  362.0000     0.1546     0.2393     6.4267     0.0201     2.4187    87.4667    90.0886
  362.5000     0.1571     0.2450     6.4429     0.0053     2.4145    89.2589    89.9437
  363.0000     0.1571     0.2476     6.4445    -0.0006     2.4161    89.8641    89.9490
  363.5000     0.1583     0.2425     6.4606     0.0116     2.4169    89.1340    89.9541
  364.0000     0.1594     0.2400     6.4768     0.0072     2.4139    86.7719    89.8042
  364.5000     0.1564     0.2451     6.4781    -0.0002     2.4148    86.7836    89.6554
  365.0000     0.1506     0.2430     6.4794     0.0090     2.4238    88.1307    89.4438
  365.5000     0.1491     0.2399     6.4807     0.0122     2.4329    90.3782    89.3000
  366.0000     0.1515     0.2402     6.4821     0.0063     2.4300    94.7141    89.1550
  366.5000     0.1493     0.2450     6.4682     0.0004     2.4293    97.1113    89.0837
  367.0000     0.1469     0.2488     6.4550     0.0216     2.4331    98.4362    88.9387
  367.5000     0.1463     0.2461     6.4564     0.0113     2.4362    98.5751    88.7936
  368.0000     0.1471     0.2349     6.4425     0.0009     2.4363    93.5453    88.6498
  368.5000     0.1447     0.2328     6.4293     0.0026     2.4356    94.5956    88.6550
  369.0000     0.1401     0.2421     6.4306     0.0073     2.4439    96.8329    88.5851
  369.5000     0.1353     0.2544     6.4320     0.0137     2.4538    99.5152    88.5903
  370.0000     0.1331     0.2595     6.4184     0.0195     2.4576    95.2243    88.5955
  370.5000     0.1337     0.2513     6.4198     0.0071     2.4547    94.4913    88.5242
  371.0000     0.1340     0.2485     6.4211    -0.0027     2.4532    94.2063    88.5307
  371.5000     0.1330     0.2479     6.4224     0.0020     2.4563    93.4791    88.4606
  372.0000     0.1318     0.2482     6.4245     0.0322     2.4609    91.7104    88.4660
  372.5000     0.1297     0.2492     6.4399     0.0383     2.4656    91.1287    88.5463
  373.0000     0.1260     0.2563     6.4264     0.0445     2.4718    89.8052    88.8520
  373.5000     0.1224     0.2548     6.4280     0.0401     2.4791    89.3689    89.0075
  374.0000     0.1205     0.2411     6.4293     0.0177     2.4762    92.0542    88.9376
  374.5000     0.1226     0.2402     6.4307     0.0074     2.4672    95.9235    88.8676
  375.0000     0.1268     0.2417     6.4320     0.0015     2.4613    96.8254    88.7854
  375.5000     0.1303     0.2442     6.4333     0.0032     2.4598    96.2437    88.5775
  376.0000     0.1309     0.2503     6.4346     0.0303     2.4629    94.4750    88.5075
  376.5000     0.1296     0.2479     6.4359     0.0335     2.4675    93.8933    88.4376
  377.0000     0.1257     0.2367     6.4373     0.0291     2.4751    93.7567    88.4441
  377.5000     0.1199     0.2258     6.4386     0.0323     2.4812    94.3695    88.4493
