~VERSION INFORMATION
 VERS.                2.0:   CWLS LOG ASCII STANDARD - VERSION 2.0
 WRAP.                 NO:   ONE LINE PER DEPTH STEP
~WELL INFORMATION
#MNEM.UNIT      DATA TYPE    INFORMATION
#----------   ------------   ------------------------------
 STRT.F            3.0000:   START DEPTH
 STOP.F          423.0000:   STOP DEPTH
 STEP.F            0.5000:   STEP LENGTH
 NULL.          -999.2500:   NO VALUE
 COMP. LAWRENCE/ALLISON INC:   COMPANY
 WELL.    53-62 STX #3-10:   WELL
 FLD .             TEAPOT:   FIELD
 LOC .      S10 T38N R78W:   LOCATION
 CNTY.            NATRONA:   COUNTY
 STAT.            WYOMING:   STATE
 CTRY. UNITED STATES OF AMERICA:   COUNTRY
 SRVC.           Gearhart:   SERVICE COMPANY
 DATE.        31-MAY-1988:   LOGDATE
 API .       490251122700:   API NUMBER
~CURVE INFORMATION
#MNEM.UNIT       API CODE    CURVE DESCRIPTION
#----------   ------------   ------------------------------
 DEPT.F                  :   
 GRR .GAPI   07 310 01 00:   GAMMA RAY
 RILD.OHMM   07 120 46 00:   INDUCTION LOG DEEP RESISTIVITY
 RILM.OHMM   07 120 44 00:   INDUCTION LOG MEDIUM RESISTIVITY
~PARAMETER INFORMATION
#MNEM.UNIT          VALUE    DESCRIPTION
#----------   ------------   ------------------------------
 PD  .                 GL:   PERMANENT DATUM
 EPD .F              5164:   ELEVATION PERMANENT DATUM
 LMF .                 KB:   LOG MEASURED FROM
 DAPD.F                10:   FEET ABOVE PERMANENT DATUM
 DMF .                 KB:   DRILLING MEASURED FROM
 EKB .F              5174:   KELLING BUSHING
 EGL .F              5164:   GROUND LEVEL
 DATE.        31-MAY-1988:   RUN DATE
 RUN .                  1:   RUN NUMBER
 DD  .F               435:   DEPTH DRILLER
 DL  .F             431.5:   DEPTH LOGGER
 BLI .F               423:   BOTTOM LOG INTERVAL
 CS  .IN            8.625:   CASING SIZE
 CBD .F                49:   CASING BOTTOM DRILLER
 CBL .F                49:   CASING BOTTOM LOGGER
 BS  .IN            7.875:   BIT SIZE
 BSD .F               435:   BIT SIZE AT DEPTH
 DFT .                AIR:   DRILLING FLUID TYPE
 TLAB.HRS            0330:   TIME LOGGER AT BOTTOM
 MRT .F                70:   MAXIMUM RECORDED TEMPERATURE
 LUN .               7597:   LOGGING UNIT NUMBER
 LUL .           GILLETTE:   LOGGING UNIT LOCATION
 ENGI.          HUCKFELDT:   RECORDING ENGINEER
 WITN.             STRONG:   WITNESSED BY
 CLNT.            A2DTECH:   CLIENT CODE
 ORIG.           5" PRINT:   ORIGIN OF DATA
 UWI .       490251122700:   UNIQUE WELL ID
 DICO. A2D Technologies, Inc.:   DIGITIZING COMPANY
~OTHER INFORMATION
~A    DEPT      GRR      RILD       RILM   
# ...
  185.0000   128.2800     8.4328     8.3501
  185.5000   128.5906     8.4304     8.4660
  186.0000   129.5111     8.4874     8.4631
  186.5000   130.7348     8.5446     8.4607
  187.0000   130.1320     8.6023     8.4584
  187.5000   126.7896     8.6603     8.4560
  188.0000   124.9691     8.6578     8.4536
  188.5000   128.0193     8.7162     8.4513
  189.0000   131.0696     8.7138     8.4489
  189.5000   132.5977     8.7726     8.4466
  190.0000   131.0817     8.7702     8.4442
  190.5000   129.2613     8.7677     8.5012
  191.0000   130.7894     8.7653     8.4988
  191.5000   133.2308     8.7628     8.4964
  192.0000   132.9324     8.7604     8.4941
  192.5000   131.4149     8.6967     8.4917
  193.0000   132.9445     8.5674     8.4861
  193.5000   134.7771     8.4449     8.3647
  194.0000   135.3920     8.3318     8.2450
  194.5000   133.2671     8.2627     8.1904
  195.0000   131.1423     8.0877     8.0669
  195.5000   129.0175     7.9265     7.8326
  196.0000   128.4132     7.7591     7.5680
  196.5000   129.3340     7.5957     7.4077
  197.0000   132.6886     7.3837     7.2612
  197.5000   134.2168     7.1777     7.1083
  198.0000   134.5257     7.0265     7.0076
  198.5000   132.7068     6.8785     6.9082
  199.0000   132.4085     6.7336     6.7156
  199.5000   132.4145     6.5918     6.6205
  200.0000   133.0305     6.4307     6.2674
  200.5000   135.1669     6.2274     5.8734
  201.0000   136.3905     6.1373     5.3226
  201.5000   136.0921     6.0064     5.0657
  202.0000   133.3584     6.0454     4.9234
  202.5000   127.8850     6.0844     4.9556
  203.0000   128.8043     6.1237     5.2752
  203.5000   130.9412     6.1634     5.6155
  204.0000   132.7737     6.3350     6.0619
  204.5000   133.6929     6.6988     6.3188
  205.0000   131.5681     7.1348     6.6375
  205.5000   129.1388     7.5402     6.9173
  206.0000   126.7095     7.7445     7.1068
  206.5000   128.2376     7.6760     7.0045
  207.0000   126.7215     7.5740     6.9435
  207.5000   123.9878     7.3607     6.7092
  208.0000   123.3850     6.8590     6.4302
  208.5000   124.0214     6.5730     6.2061
  209.0000   124.9539     6.4328     5.9480
  209.5000   127.4562     6.2516     5.4662
  210.0000   131.0210     6.0755     5.0234
  210.5000   132.8535     5.9459     4.9860
  211.0000   133.1624     5.9011     5.1973
  211.5000   131.0391     5.9393     5.4556
  212.0000   129.8274     6.3222     5.7669
  212.5000   130.7467     6.8728     6.1389
  213.0000   132.2748     7.5766     6.6270
  213.5000   132.2808     8.0088     7.0052
  214.0000   131.0692     8.2318     7.4050
  214.5000   128.0311     8.4610     7.7730
  215.0000   124.0797     8.7577     8.1594
  215.5000   121.9548     9.0648     8.5052
  216.0000   119.8299     9.2522     8.7424
  216.5000   119.5301     9.3120     8.9862
  217.0000   121.3641     9.4399     9.1086
  217.5000   123.1966     9.5660     9.2324
  218.0000   125.0291     9.6350     9.2279
  218.5000   124.4263     9.7682     9.3534
  219.0000   121.9970     9.8905     9.3488
  219.5000   122.0102     9.9544     9.2791
  220.0000   122.6384     9.8092     9.2013
  220.5000   123.8417     9.5999     9.0140
  221.0000   124.8078     9.3951     8.7601
  221.5000   126.2904     9.3898     8.5739
  222.0000   127.2097     9.5170     8.5100
  222.5000   126.9113     9.7820     8.5058
  223.0000   123.5687     9.9159     8.8663
  223.5000   120.8350     9.9800     9.2421
  224.0000   119.3190     9.9731     9.4347
  224.5000   117.4985     9.8980     9.5631
  225.0000   116.5898     9.8925     9.4906
  225.5000   115.6826     9.7495     9.2242
  226.0000   115.3842     9.5415     8.7789
  226.5000   115.0858     9.1437     8.0678
  227.0000   115.0933     8.4020     7.6248
  227.5000   114.7934     7.9955     6.9098
  228.0000   116.0186     7.6088     6.3501
  228.5000   128.5056     7.2407     5.7546
  229.0000   133.6867     6.9876     5.5153
  229.5000   130.9530     7.0836     5.9956
  230.0000   120.0001     7.3374     6.7498
  230.5000   111.1781     8.3425     7.5989
  231.0000   109.0532     9.3956     8.2607
  231.5000   111.0010    10.2833     8.9174
  232.0000   115.5231    11.3698     9.4961
  232.5000   115.0225    11.6879    10.1793
  233.0000   112.7308    11.8462    10.6070
  233.5000   111.2146    12.0050    10.7513
  234.0000   111.2045    12.1693    10.5226
  234.5000   113.6621    12.7720    10.5916
  235.0000   115.2004    13.4063    10.6595
  235.5000   115.8052    14.2707    10.9568
  236.0000   114.8251    15.5134    11.5822
  236.5000   108.9214    16.9828    12.5908
  237.0000    94.2112    18.3328    14.8864
  237.5000    83.8672    20.2103    17.1147
  238.0000    73.8276    22.2801    19.9539
  238.5000    68.0497    24.2202    22.7808
  239.0000    65.0116    26.3293    24.9386
  239.5000    64.4073    28.6220    27.3007
  240.0000    65.3280    29.6257    28.8589
  240.5000    70.8135    30.6645    30.2932
  241.0000    74.7769    31.0801    31.3568
  241.5000    77.2183    31.5009    31.5655
  242.0000    78.7464    31.7046    31.5464
  242.5000    76.0127    31.9098    31.7564
  243.0000    73.2789    31.8916    31.7371
  243.5000    71.4585    32.0984    31.7217
  244.0000    69.9424    32.3061    31.7063
  244.5000    69.0352    32.7391    32.1377
  245.0000    67.8236    33.1826    31.8980
  245.5000    71.1782    33.6320    31.8825
  246.0000    73.9239    34.0875    32.0909
  246.5000    74.8432    34.3128    32.0753
  247.0000    73.6093    34.7776    33.7227
  247.5000    72.0802    35.4914    35.1328
  248.0000    69.8934    36.2250    35.8237
  248.5000    66.6496    36.9737    36.3110
  249.0000    63.3071    37.4796    36.5483
  249.5000    61.1822    38.5178    36.5261
  250.0000    60.2735    39.0449    36.7693
  250.5000    66.6970    39.5801    34.7373
  251.0000    70.0598    39.2929    34.2681
  251.5000    72.1887    39.0078    34.2610
  252.0000    73.0836    39.5498    36.8266
  252.5000    69.6599    40.0966    39.1156
  253.0000    66.5568    41.2215    40.5002
  253.5000    64.5215    42.3809    40.7783
  254.0000    63.6709    42.3691    39.6422
  254.5000    69.7668    42.3573    39.0831
  255.0000    73.1214    42.3455    38.5318
  255.5000    76.7804    41.7449    37.7234
  256.0000    78.3070    40.5803    37.4525
  256.5000    76.4881    39.1693    36.9243
  257.0000    74.3632    38.0692    36.1496
  257.5000    72.8472    36.7419    35.1443
  258.0000    73.1576    35.4609    34.1670
  258.5000    74.9902    34.2247    32.9852
  259.0000    76.5183    32.7676    31.8443
  259.5000    76.8272    30.9618    30.9587
  260.0000    76.2245    29.3355    29.8879
  260.5000    79.8850    28.1204    28.8541
  261.0000    83.5440    27.5281    27.6618
  261.5000    86.2898    26.5733    26.8925
  262.0000    88.1223    26.0135    26.3209
  262.5000    87.8224    25.1113    25.7608
  263.0000    87.5241    24.9291    24.6671
  263.5000    86.9228    24.7482    23.6615
  264.0000    86.3200    24.5686    22.7096
  264.5000    85.4128    24.3904    22.0781
  265.0000    84.5056    24.3836    21.9196
  265.5000    83.9025    24.5498    21.7622
  266.0000    84.2133    24.8875    22.0643
  266.5000    85.4370    25.0555    22.5278
  267.0000    86.6607    25.2245    22.8406
  267.5000    87.5800    25.7530    23.1578
  268.0000    87.9027    26.2925    23.4806
  268.5000    86.6789    26.8452    23.8066
  269.0000    85.4634    27.0264    24.1359
  269.5000    85.1689    27.5907    24.4710
  270.0000    87.3059    27.7788    24.8108
  270.5000    86.9792    27.7692    25.3333
  271.0000    86.4047    27.3753    25.5048
  271.5000    86.1063    27.1766    25.6786
  272.0000    85.5035    27.1691    25.3162
  272.5000    87.9464    26.7837    24.6122
  273.0000    89.4745    26.5893    23.7609
  273.5000    91.3071    26.2122    23.2624
  274.0000    92.2264    25.6600    22.7615
  274.5000    91.9280    25.1195    22.6107
  275.0000    92.2384    24.4187    22.7648
  275.5000    92.2445    24.2415    22.9200
