~VERSION INFORMATION
 VERS.                2.0:   CWLS LOG ASCII STANDARD - VERSION 2.0
 WRAP.                 NO:   ONE LINE PER DEPTH STEP
~WELL INFORMATION
#MNEM.UNIT      DATA TYPE    INFORMATION
#----------   ------------   ------------------------------
 STRT.F           28.0000:   START DEPTH
 STOP.F          546.5000:   STOP DEPTH
 STEP.F            0.5000:   STEP LENGTH
 NULL.          -999.2500:   NO VALUE
 COMP. LAWRENCE/ALLISON INC:   COMPANY
 WELL.    55-66 SX #10-10:   WELL
 FLD .            WILDCAT:   FIELD
 LOC .      S10 T38N R78W:   LOCATION
 CNTY.            NATRONA:   COUNTY
 STAT.            WYOMING:   STATE
 CTRY. UNITED STATES OF AMERICA:   COUNTRY
 SRVC.            Unknown:   SERVICE COMPANY
 DATE.        20-AUG-1984:   LOGDATE
 API .       490251098000:   API NUMBER
~CURVE INFORMATION
#MNEM.UNIT       API CODE    CURVE DESCRIPTION
#----------   ------------   ------------------------------
 DEPT.F                  :   
 CNC .DEC    42 890 03 00:   NEUTRON POROSITY SANDSTONE
 CALD.IN     45 280 60 00:   CALIPER FROM DENSITY LOG
 DEN .G/C3   45 350 01 00:   COMPENSATED BULK DENSTIY
 PORD.DEC    45 890 12 00:   POROSITY DENSITY STONESTONE
 CORR.G/C3   45 356 01 00:   DENSITY CORRECTION
 SPR .MV     07 010 01 00:   SPONTANEOUS POTENTIAL
 RFOC.OHMM   07 220 04 00:   RESISTIVITY FOCUSED LOG
 RILD.OHMM   07 120 46 00:   INDUCTION LOG DEEP RESISTIVITY
 RILM.OHMM   07 120 44 00:   INDUCTION LOG MEDIUM RESISTIVITY
 AC  .US/F   60 520 00 00:   ACCOUSTIC
 GRD .GAPI   45 310 01 00:   GAMMA RAY FROM DENSITY LOG
~PARAMETER INFORMATION
#MNEM.UNIT          VALUE    DESCRIPTION
#----------   ------------   ------------------------------
 PD  .                 GL:   PERMANENT DATUM
 EPD .F              5200:   ELEVATION PERMANENT DATUM
 LMF .                 GL:   LOG MEASURED FROM
 DMF .                 GL:   DRILLING MEASURED FROM
 EGL .F              5200:   GROUND LEVEL
 DATE.        20-AUG-1984:   RUN DATE
 RUN .                  1:   RUN NUMBER
 DD  .F               554:   DEPTH DRILLER
 DL  .F               548:   DEPTH LOGGER
 BLI .F               546:   BOTTOM LOG INTERVAL
 TLI .F                30:   TOP LOG INTERVAL
 CS  .IN            9.625:   CASING SIZE
 CBD .F                46:   CASING BOTTOM DRILLER
 CBL .F                41:   CASING BOTTOM LOGGER
 BS  .IN            7.875:   BIT SIZE
 BSD .F               554:   BIT SIZE AT DEPTH
 DFT .          KCL WATER:   DRILLING FLUID TYPE
 MSS .           FLOWLINE:   MUD SAMPLE SOURCE
 RMS .OHMM           .691:   RESISTIVITY MUD SAMPLE
 MST .F                82:   MUD SAMPLE TEMPERATURE
 MRT .F               100:   MAXIMUM RECORDED TEMPERATURE
 LUN .               6307:   LOGGING UNIT NUMBER
 LUL .               GLTE:   LOGGING UNIT LOCATION
 ENGI.           FAHLSING:   RECORDING ENGINEER
 WITN.           JENNINGS:   WITNESSED BY
 CLNT.            A2DTECH:   CLIENT CODE
 ORIG.       2", 5" PRINT:   ORIGIN OF DATA
 UWI .       490251098000:   UNIQUE WELL ID
 DICO. A2D Technologies, Inc.:   DIGITIZING COMPANY
~OTHER INFORMATION
~A   DEPT      CNC       CALD        DEN       PORD       CORR        SPR       RFOC       RILD       RILM         AC        GRD   
# ...
  516.0000     0.2935     7.6830     2.5210     0.0990     0.0380   -38.6140    13.4380    11.8840    12.7080    91.9910   113.7790
  516.5000     0.2919     7.6830     2.5120     0.1070     0.0090   -38.4400    13.3150    11.9370    12.7950    91.7970   112.2370
  517.0000     0.2817     7.6830     2.5020     0.1050    -0.0050   -38.2650    13.2860    12.0430    12.8810    91.4320   112.1450
  517.5000     0.2776     7.6830     2.5020     0.1010     0.0010   -38.0900    13.4800    12.1500    12.9680    91.0480   112.1450
  518.0000     0.2970     7.6830     2.5140     0.0980     0.0190   -37.9150    13.6460    12.2560    13.0550    91.0640   112.1400
  518.5000     0.2969     7.6830     2.5220     0.0970     0.0360   -37.7400    13.7830    12.3620    13.1410    91.1100   111.9260
  519.0000     0.2942     7.6830     2.5170     0.0990     0.0350   -37.5660    13.7830    12.4680    13.2280    91.1550   111.0660
  519.5000     0.2872     7.6830     2.5130     0.1010     0.0320   -37.4180    13.7830    12.5750    13.3150    91.2010   110.2280
  520.0000     0.2949     7.6830     2.5090     0.1030     0.0290   -37.6820    13.8570    12.6810    13.4010    91.2480   109.3810
  520.5000     0.2964     7.6830     2.5060     0.1040     0.0260   -37.9500    13.9860    12.7870    13.4880    91.0210   109.7620
  521.0000     0.2920     7.6830     2.5030     0.1050     0.0230   -38.2170    14.0390    12.8940    13.5740    90.7910   110.2210
  521.5000     0.2805     7.6830     2.5010     0.1060     0.0200   -38.4850    14.0390    13.0440    13.6610    90.5620   109.5120
  522.0000     0.2733     7.6830     2.5000     0.1050     0.0170   -38.7520    14.0390    13.0030    13.7830    90.3320   109.1920
  522.5000     0.2757     7.6830     2.5050     0.1010     0.0190   -39.0200    14.0640    12.9330    13.7160    90.1020   111.5740
  523.0000     0.2803     7.6830     2.5110     0.1000     0.0250   -39.2860    14.1940    12.8630    13.6010    89.8720   113.7020
  523.5000     0.2877     7.6830     2.5150     0.1000     0.0310   -39.5080    14.4320    12.8060    13.4860    89.6510   113.5400
  524.0000     0.2927     7.6830     2.5130     0.1050     0.0250   -39.3300    14.2740    12.8060    13.3710    89.8910   113.9830
  524.5000     0.2953     7.6830     2.5060     0.1090     0.0090   -39.2320    14.0090    12.8060    13.2560    90.1230   116.4240
  525.0000     0.2958     7.6830     2.4990     0.1120    -0.0050   -39.1390    13.7440    12.8060    13.1640    90.2500   118.7570
  525.5000     0.2914     7.6830     2.4930     0.1100    -0.0130   -39.0470    13.5320    12.8060    13.3150    90.0510   119.1140
  526.0000     0.2842     7.6830     2.4990     0.1070     0.0090   -38.9560    13.8380    12.8850    13.4410    89.6740   113.5670
  526.5000     0.2826     7.6830     2.5050     0.1050     0.0310   -38.8650    14.0920    13.0170    13.5680    89.2970   109.2600
  527.0000     0.2847     7.6830     2.5050     0.1100     0.0440   -38.7730    14.3460    13.1480    13.6940    88.9200   107.7640
  527.5000     0.2868     7.6830     2.4940     0.1150     0.0200   -38.6820    14.6990    13.2790    13.8200    88.6530   106.2160
  528.0000     0.2933     7.6830     2.4830     0.1200    -0.0030   -38.5900    14.6760    13.4100    13.9460    89.4760   106.1980
  528.5000     0.2957     7.6830     2.4780     0.1200    -0.0150   -38.4990    14.6390    13.5420    14.0720    90.1500  -999.2500
  529.0000     0.2952     7.6830     2.4840     0.1140    -0.0100   -38.4070    14.6020    13.6730    14.1980    89.6930  -999.2500
  529.5000     0.2931     7.6830     2.4930     0.1050    -0.0040   -38.3160    14.5650    13.8040    14.3240    88.7050  -999.2500
  530.0000     0.2909     7.6830     2.5100     0.0970     0.0020   -38.2240    15.1470    13.9350    14.4500    87.2650  -999.2500
  530.5000     0.2790     7.6830     2.5270     0.0880     0.0040   -38.1330    15.8210    14.0670    14.5760    85.8240  -999.2500
  531.0000     0.2598     7.6830     2.5440     0.0800     0.0040   -38.0410    15.7390    14.1690    14.6990    85.1600  -999.2500
  531.5000     0.2604     7.6830     2.5550     0.0760     0.0110   -37.9500    15.6080    14.1270    14.7380    85.8220  -999.2500
  532.0000     0.2634     7.6830     2.5500     0.0840     0.0240   -37.8580    15.5330    14.0930    14.7850    86.7110  -999.2500
  532.5000     0.2711     7.6830     2.5390     0.0910     0.0370   -37.7670    15.7010    14.0580    14.8320    87.3550  -999.2500
  533.0000     0.2732     7.6830     2.5300     0.0890     0.0430   -37.6770    15.9050    14.0390    14.8800    86.7230  -999.2500
  533.5000     0.2706     7.6830     2.5360     0.0860     0.0460   -37.5980    16.1080    14.1690    14.9270    85.8970  -999.2500
  534.0000     0.2602     7.6830     2.5440     0.0820     0.0340   -37.6350    16.4140    14.3000    14.9720    85.0600  -999.2500
  534.5000     0.2018     7.6830     2.5510     0.0790     0.0320   -37.6720    16.0810    14.1920    14.7410    85.1600  -999.2500
  535.0000    -0.0058     7.6830     2.5520     0.0780     0.0360   -37.7080    15.5590    13.9450    14.5190    86.3890  -999.2500
  535.5000     0.0402     7.6830     2.5520     0.0780     0.0390   -37.7450    15.0360    13.6980    14.2960    87.6280  -999.2500
  536.0000     0.1428     7.6830     2.5580     0.0780     0.0300   -37.7810    14.5140    13.4510    14.0740    88.8660  -999.2500
  536.5000     0.3568     7.6830     2.5470     0.0810     0.0220   -37.6970    13.9920    13.2050    13.8510    90.1050  -999.2500
  537.0000     0.6934     7.6830     2.5350     0.0920     0.0140   -37.4330    13.2860    12.9580    13.6280    91.3430  -999.2500
  537.5000     0.2933     7.6830     2.5230     0.1030     0.0060   -37.1710    13.4390    12.7110    13.4060    92.0460  -999.2500
  538.0000     0.2880     7.6830     2.5110     0.1090     0.0120   -36.9090    13.6750    12.4640    13.1830    91.2050  -999.2500
  538.5000     0.2883     7.6830     2.5000     0.1080     0.0210   -36.6470    13.9110    12.2310    12.9610    90.3930  -999.2500
  539.0000     0.2888     7.6830     2.5020     0.1060     0.0280   -36.3850    14.0390    12.2310    12.7380    89.9500  -999.2500
  539.5000     0.2888     7.6830     2.5070     0.1050     0.0160   -36.1200    13.9550    12.2780    12.5730    90.3360  -999.2500
  540.0000     0.2887     7.6830     2.5090     0.1040     0.0010   -35.8500    13.8270    12.3160    12.6390    90.7020  -999.2500
  540.5000     0.2890     7.6830     2.5080     0.1020    -0.0010   -35.6610  -999.2500    12.3540    12.7020    90.7490  -999.2500
  541.0000     0.2889     7.6830     2.5040     0.1050     0.0030   -35.6160  -999.2500    12.3920    12.7650    90.7490  -999.2500
  541.5000     0.2888     7.6830     2.5000     0.1080     0.0130   -35.6140  -999.2500    12.4300    12.8280    90.7490  -999.2500
  542.0000     0.2888     7.6830     2.4960     0.1110     0.0220   -35.6150  -999.2500    12.4580    12.9240    90.7490  -999.2500
  542.5000     0.2890     7.6830  -999.2500  -999.2500     0.0270  -999.2500  -999.2500    12.3920    12.8160  -999.2500  -999.2500
  543.0000     0.2890     7.6830  -999.2500  -999.2500     0.0200  -999.2500  -999.2500    12.1480    12.5870  -999.2500  -999.2500
  543.5000     0.2889     7.6830  -999.2500  -999.2500     0.0190  -999.2500  -999.2500    11.9040    12.3570  -999.2500  -999.2500
  544.0000     0.2888     7.6830  -999.2500  -999.2500     0.0160  -999.2500  -999.2500    11.6600    12.1270  -999.2500  -999.2500
  544.5000     0.2888     7.6830  -999.2500  -999.2500     0.0140  -999.2500  -999.2500    11.4170    11.8970  -999.2500  -999.2500
  545.0000     0.2884     7.6830  -999.2500  -999.2500     0.0150  -999.2500  -999.2500    11.1730    11.6670  -999.2500  -999.2500
  545.5000     0.2887     7.6830  -999.2500  -999.2500     0.0150  -999.2500  -999.2500    10.9290    11.4370  -999.2500  -999.2500
  546.0000     0.2886     7.6830  -999.2500  -999.2500     0.0150  -999.2500  -999.2500    10.7540    11.3640  -999.2500  -999.2500
