~VERSION INFORMATION
 VERS.                2.0:   CWLS LOG ASCII STANDARD - VERSION 2.0
 WRAP.                 NO:   ONE LINE PER DEPTH STEP
~WELL INFORMATION
#MNEM.UNIT      DATA TYPE    INFORMATION
#----------   ------------   ------------------------------
 STRT.F            4.0000:   START DEPTH
 STOP.F          528.0000:   STOP DEPTH
 STEP.F            0.1000:   STEP LENGTH
 NULL.          -999.2500:   NO VALUE
 COMP. BROWN JOHN E&C INC:   COMPANY
 WELL.    84-1 SHX- #84-3:   WELL
 FLD .        TEAPOT DOME:   FIELD
 LOC .       S3 T38N R78W:   LOCATION
 CNTY.            NATRONA:   COUNTY
 STAT.            WYOMING:   STATE
 CTRY. UNITED STATES OF AMERICA:   COUNTRY
 SRVC.     Atlas Wireline:   SERVICE COMPANY
 DATE.        18-JAN-1992:   LOGDATE
 API .       490252249900:   API NUMBER
~CURVE INFORMATION
#MNEM.UNIT       API CODE    CURVE DESCRIPTION
#----------   ------------   ------------------------------
 DEPT.F                  :   
 GRR .GAPI   07 310 01 00:   GAMMA RAY
 RILD.OHMM   07 120 46 00:   INDUCTION LOG DEEP RESISTIVITY
 RILM.OHMM   07 120 44 00:   INDUCTION LOG MEDIUM RESISTIVITY
~PARAMETER INFORMATION
#MNEM.UNIT          VALUE    DESCRIPTION
#----------   ------------   ------------------------------
 PD  .                 GL:   PERMANENT DATUM
 EPD .F              5147:   ELEVATION PERMANENT DATUM
 LMF .                 KB:   LOG MEASURED FROM
 DAPD.F                10:   FEET ABOVE PERMANENT DATUM
 DMF .                 KB:   DRILLING MEASURED FROM
 EKB .F              5157:   KELLING BUSHING
 EDF .F              5156:   DRILLING FLOOR
 EGL .F              5147:   GROUND LEVEL
 DATE.        18-JAN-1992:   RUN DATE
 RUN .                  1:   RUN NUMBER
 DD  .F               842:   DEPTH DRILLER
 DL  .F               837:   DEPTH LOGGER
 BLI .F               835:   BOTTOM LOG INTERVAL
 TLI .F                 4:   TOP LOG INTERVAL
 CS  .IN            8.625:   CASING SIZE
 CBD .F                39:   CASING BOTTOM DRILLER
 CBL .F                56:   CASING BOTTOM LOGGER
 BS  .IN             8.75:   BIT SIZE
 BSD .F               842:   BIT SIZE AT DEPTH
 DFT .                AIR:   DRILLING FLUID TYPE
 LUN .           HL- 6272:   LOGGING UNIT NUMBER
 LUL .             CASPER:   LOGGING UNIT LOCATION
 ENGI.       P. RASMUSSEN:   RECORDING ENGINEER
 WITN.          G. STRONG:   WITNESSED BY
 CLNT.            A2DTECH:   CLIENT CODE
 ORIG.           5" PRINT:   ORIGIN OF DATA
 UWI .       490252249900:   UNIQUE WELL ID
 DICO. A2D Technologies, Inc.:   DIGITIZING COMPANY
~OTHER INFORMATION
~A    DEPT      GRR      RILD       RILM   
# ...
  459.0000    96.4992    21.0505    22.7093
  459.1000    96.4992    21.0879    22.7097
  459.2000    96.4992    21.1977    22.7100
  459.3000    96.2901    21.1973    22.7103
  459.4000    95.7441    21.1970    22.7106
  459.5000    94.9163    21.1968    22.7110
  459.6000    93.9666    21.1965    22.7113
  459.7000    93.1507    21.1962    22.7116
  459.8000    92.7123    21.1958    22.7119
  459.9000    91.7403    21.3033    22.7123
  460.0000    90.6140    21.3440    22.7125
  460.1000    89.6313    21.3437    22.7128
  460.2000    88.5845    21.3434    22.7131
  460.3000    87.8966    21.3431    22.7134
  460.4000    87.5008    21.3428    22.7138
  460.5000    87.3668    21.4289    22.7141
  460.6000    87.5252    21.4920    22.7144
  460.7000    88.2801    21.4917    22.7147
  460.8000    88.7592    21.4914    22.7150
  460.9000    89.0696    21.4911    22.7154
  461.0000    89.4368    21.4908    22.7157
  461.1000    89.9908    21.4905    22.7160
  461.2000    90.7279    21.4902    22.7716
  461.3000    91.4644    21.4899    22.8760
  461.4000    91.8194    21.4895    22.8763
  461.5000    92.0648    21.3899    22.8766
  461.6000    92.2374    21.3392    22.8769
  461.7000    92.2374    21.3389    22.8773
  461.8000    92.2374    21.3387    22.9075
  461.9000    92.4384    21.3383    23.0383
  462.0000    92.5419    21.2329    23.0386
  462.1000    92.6251    21.1890    23.0389
  462.2000    92.8463    21.1888    23.0393
  462.3000    92.8463    21.1689    23.0396
  462.4000    92.6352    21.0405    23.0399
  462.5000    92.0853    20.9303    23.0402
  462.6000    91.3486    20.8933    23.0406
  462.7000    90.6116    20.8395    23.0409
  462.8000    89.8021    20.7471    23.0412
  462.9000    89.3597    20.7468    23.0318
  463.0000    89.0310    20.7465    22.8814
  463.1000    88.7855    20.7462    22.8817
  463.2000    88.5845    20.7459    22.8820
  463.3000    88.5845    20.7456    22.8367
  463.4000    88.5845    20.7454    22.6938
  463.5000    88.5845    20.7451    22.4083
  463.6000    88.5845    20.6515    22.1889
  463.7000    88.5845    20.5999    21.9405
  463.8000    88.5845    20.5996    21.7429
  463.9000    88.8261    20.5994    21.6020
  464.0000    89.0716    20.5990    21.3400
  464.1000    89.5645    20.4999    21.2303
  464.2000    90.2362    20.3840    21.0312
  464.3000    90.7277    20.3121    20.8467
  464.4000    91.2186    20.3118    20.7298
  464.5000    91.7099    20.3115    20.6087
  464.6000    92.6031    20.3112    20.4980
  464.7000    93.6804    20.3109    20.4657
  464.8000    94.4007    20.2612    20.4660
  464.9000    94.9772    20.1467    20.4663
  465.0000    95.3831    20.0280    20.4666
  465.1000    95.7301    19.9195    20.4668
  465.2000    95.8904    19.8069    20.5552
  465.3000    95.8904    19.6949    20.6110
  465.4000    95.8904    19.5835    20.6113
  465.5000    95.8904    19.4712    20.6115
  465.6000    95.7362    19.2523    20.6119
  465.7000    95.2046    19.1192    20.6121
  465.8000    94.2219    19.0690    20.6779
  465.9000    93.1507    19.0363    20.7572
  466.0000    92.0350    18.9356    20.7575
  466.1000    90.9713    18.9353    20.7579
  466.2000    89.8833    18.8466    20.7581
  466.3000    88.6091    18.8029    20.7584
  466.4000    87.0624    18.8026    20.7587
  466.5000    86.5956    18.8024    20.7589
  466.6000    86.2791    18.8020    20.7593
  466.7000    85.9179    18.8960    20.6564
  466.8000    85.3699    18.9335    20.6153
  466.9000    84.6271    18.9332    20.6156
  467.0000    84.1401    18.9330    20.6159
  467.1000    83.8336    18.9327    20.6162
  467.2000    83.8398    18.9324    20.6164
  467.3000    84.2863    18.9321    20.6167
  467.4000    85.2602    18.9319    20.6170
  467.5000    85.9968    18.9316    20.6173
  467.6000    86.9286    18.9314    20.6176
  467.7000    87.9109    18.9311    20.6179
  467.8000    88.8932    18.9308    20.5339
  467.9000    89.8205    18.9306    20.4749
  468.0000    90.1065    18.9303    20.4752
  468.1000    90.3115    18.9300    20.4754
  468.2000    90.5571    18.9297    20.4757
  468.3000    90.7154    18.9295    20.4760
  468.4000    90.7154    18.8684    20.4155
  468.5000    90.7154    18.7970    20.3010
  468.6000    90.5004    18.7968    20.1814
  468.7000    90.4110    18.7965    19.9128
  468.8000    90.4110    18.7051    19.7324
  468.9000    90.4110    18.5994    19.5114
  469.0000    90.4110    18.5347    19.3286
  469.1000    90.4110    18.5187    19.2202
  469.2000    90.7439    18.4050    19.0964
  469.3000    91.2349    18.4048    18.9146
  469.4000    91.6773    18.3342    18.6390
  469.5000    91.9330    18.2760    18.4029
  469.6000    92.4039    18.2547    18.2997
  469.7000    92.7184    18.1481    18.1860
  469.8000    93.0816    18.1479    18.0045
  469.9000    93.4551    18.0728    17.9341
  470.0000    93.4551    18.0209    17.8927
  470.1000    93.7006    18.0206    17.8097
  470.2000    93.7595    18.0182    17.8100
  470.3000    93.8874    17.9164    17.7168
  470.4000    93.9948    17.8943    17.6175
  470.5000    93.7492    17.8387    17.5635
  470.6000    93.4551    17.7690    17.5638
  470.7000    93.0614    17.7613    17.5640
  470.8000    92.4324    17.6447    17.5642
  470.9000    91.7748    17.5611    17.5645
  471.0000    91.2834    17.5213    17.6140
  471.1000    90.7154    17.4850    17.6882
  471.2000    90.5084    17.3860    17.6884
  471.3000    90.4110    17.2772    17.6886
  471.4000    90.3216    17.2770    17.7667
  471.5000    90.0761    17.2129    17.8673
  471.6000    89.8021    17.1561    17.9384
  471.7000    89.5851    17.1382    17.9386
  471.8000    89.4977    17.0360    17.9389
  471.9000    89.9949    17.0358    18.0221
  472.0000    91.1415    17.0355    18.0651
  472.1000    91.9330    17.0353    18.0654
  472.2000    92.6150    17.0350    18.0757
  472.3000    93.0147    17.0348    18.1926
  472.4000    93.2603    17.0346    18.1929
  472.5000    93.5059    17.0344    18.1931
  472.6000    93.7595    17.0342    18.1934
  472.7000    94.4717    17.0339    18.1936
  472.8000    95.2087    17.0337    18.1939
  472.9000    95.7058    17.0334    18.1941
  473.0000    95.8904    17.0332    18.1944
  473.1000    95.8885    16.9773    18.1946
  473.2000    95.6428    16.9140    18.1949
  473.3000    95.5860    16.9138    18.1952
  473.4000    95.5860    16.9135    18.1954
  473.5000    95.4440    16.9133    18.1957
  473.6000    94.9527    16.9130    18.1959
  473.7000    94.3683    16.8751    18.1962
  473.8000    93.9706    16.7948    18.1964
  473.9000    93.3393    16.7945    18.0961
  474.0000    92.5212    16.6201    17.9947
  474.1000    91.6063    16.4966    17.8938
  474.2000    91.3242    16.3620    17.7672
  474.3000    91.1151    16.1776    17.5703
  474.4000    91.0198    15.9910    17.4720
  474.5000    91.0198    15.9028    17.2976
  474.6000    91.0846    15.7471    17.1562
  474.7000    91.6286    15.6584    17.0600
  474.8000    92.2862    15.6581    16.9581
  474.9000    93.0228    15.6552    16.7354
  475.0000    93.6580    15.5667    16.5807
  475.1000    94.2347    15.5484    16.4491
  475.2000    95.2816    15.4993    16.3251
  475.3000    95.9695    15.4116    16.1421
  475.4000    96.7064    15.3245    15.9375
  475.5000    97.4432    15.2247    15.8600
  475.6000    98.2853    15.1518    15.7157
  475.7000    99.5434    15.0661    15.5734
  475.8000   100.2621    14.9810    15.4732
  475.9000   101.1794    14.8962    15.2842
  476.0000   102.0395    14.8036    15.2064
  476.1000   102.7133    14.8035    15.1210
  476.2000   103.2047    14.7478    15.0362
  476.3000   103.6957    14.6645    14.9519
  476.4000   104.1867    14.5815    14.8639
  476.5000   104.6777    14.4953    14.7847
  476.6000   105.1687    14.4951    14.7018
  476.7000   105.6601    14.4363    14.6582
  476.8000   106.2405    14.3546    14.6393
  476.9000   106.6424    14.2932    14.5565
  477.0000   106.9914    14.2924    14.5567
  477.1000   107.2369    14.2115    14.4954
