~VERSION INFORMATION
 VERS.                2.0:   CWLS LOG ASCII STANDARD - VERSION 2.0
 WRAP.                 NO:   ONE LINE PER DEPTH STEP
~WELL INFORMATION
#MNEM.UNIT      DATA TYPE    INFORMATION
#----------   ------------   ------------------------------
 STRT.F            0.0000:   START DEPTH
 STOP.F          890.0000:   STOP DEPTH
 STEP.F            0.1000:   STEP LENGTH
 NULL.          -999.2500:   NO VALUE
 COMP.   FLUOR DANIEL INC:   COMPANY
 WELL.   35-1 X 14 #35-14:   WELL
 FLD .             TEAPOT:   FIELD
 LOC .      S14 T38N R78W:   LOCATION
 CNTY.            NATRONA:   COUNTY
 STAT.            WYOMING:   STATE
 CTRY. UNITED STATES OF AMERICA:   COUNTRY
 SRVC.      Western Atlas:   SERVICE COMPANY
 DATE.        23-JUL-1995:   LOGDATE
 API .       490252273300:   API NUMBER
~CURVE INFORMATION
#MNEM.UNIT       API CODE    CURVE DESCRIPTION
#----------   ------------   ------------------------------
 DEPT.F                  :   
 RILM.OHMM   07 120 44 00:   RESITIVITY LONG MEDIUM
 RILD.OHMM   07 120 46 00:   INDUCTION LOG DEEP RESISTIVITY
 GRR .GAPI   07 310 01 00:   GAMMA RAY
~PARAMETER INFORMATION
#MNEM.UNIT          VALUE    DESCRIPTION
#----------   ------------   ------------------------------
 PD  .                 GL:   PERMANENT DATUM
 EPD .F              5238:   ELEVATION PERMANENT DATUM
 LMF .                 KB:   LOG MEASURED FROM
 DAPD.F                10:   FEET ABOVE PERMANENT DATUM
 DMF .                 KB:   DRILLING MEASURED FROM
 EKB .F              5248:   KELLING BUSHING
 EDF .F              5247:   DRILLING FLOOR
 EGL .F              5238:   GROUND LEVEL
 DATE.        23-JUL-1995:   RUN DATE
 RUN .                  1:   RUN NUMBER
 DD  .F               898:   DEPTH DRILLER
 DL  .F               898:   DEPTH LOGGER
 BLI .F               890:   BOTTOM LOG INTERVAL
 CS  .IN            9.625:   CASING SIZE
 CBD .F                78:   CASING BOTTOM DRILLER
 CBL .F                80:   CASING BOTTOM LOGGER
 BS  .IN             8.75:   BIT SIZE
 BSD .F               898:   BIT SIZE AT DEPTH
 DFT .                AIR:   DRILLING FLUID TYPE
 MRT .F                94:   MAXIMUM RECORDED TEMPERATURE
 LUN .            HL 6530:   LOGGING UNIT NUMBER
 LUL .             CASPER:   LOGGING UNIT LOCATION
 ENGI.       VERRN RAUTIO:   RECORDING ENGINEER
 WITN.        GARY STRONG:   WITNESSED BY
 CLNT.            A2DTECH:   CLIENT CODE
 ORIG.           5" PRINT:   ORIGIN OF DATA
 UWI .       490252273300:   UNIQUE WELL ID
 DICO. A2D Technologies, Inc.:   DIGITIZING COMPANY
~OTHER INFORMATION
~A    DEPT    RILM       RILD         GRR  
# ...
  491.4000     7.5298     7.5272   124.2638
  491.5000     7.5304     7.5276   124.0473
  491.6000     7.5310     7.5280   123.9662
  491.7000     7.5317     7.5379   123.9686
  491.8000     7.5348     7.5813   123.9710
  491.9000     7.5855     7.5818   123.9734
  492.0000     7.5861     7.5822   123.9758
  492.1000     7.5867     7.5826   123.9785
  492.2000     7.5874     7.5830   123.7434
  492.3000     7.5880     7.5834   123.6810
  492.4000     7.5886     7.5838   123.6834
  492.5000     7.5893     7.5843   123.6858
  492.6000     7.5900     7.5847   123.6882
  492.7000     7.6436     7.5852   123.6558
  492.8000     7.6441     7.5855   123.3910
  492.9000     7.6448     7.5860   123.3938
  493.0000     7.6454     7.5864   123.3958
  493.1000     7.6460     7.5868   123.2232
  493.2000     7.6467     7.5872   122.8293
  493.3000     7.6473     7.5876   122.3085
  493.4000     7.6480     7.5881   121.7877
  493.5000     7.6487     7.5885   121.2669
  493.6000     7.6492     7.6298   120.6915
  493.7000     7.6499     7.6422   120.4594
  493.8000     7.6505     7.6152   120.2002
  493.9000     7.6511     7.5902   120.0943
  494.0000     7.6518     7.5906   120.0967
  494.1000     7.6524     7.5910   120.0268
  494.2000     7.6531     7.5914   119.7991
  494.3000     7.6537     7.5919   119.8019
  494.4000     7.6543     7.5923   119.8047
  494.5000     7.6550     7.5927   119.8066
  494.6000     7.6556     7.5931   119.8091
  494.7000     7.6562     7.5935   119.9429
  494.8000     7.6501     7.5940   120.1160
  494.9000     7.6045     7.5944   120.2701
  495.0000     7.6052     7.5948   121.0475
  495.1000     7.6057     7.5953   121.6341
  495.2000     7.6064     7.5957   122.0988
  495.3000     7.6070     7.5961   122.4337
  495.4000     7.6076     7.5965   122.8480
  495.5000     7.6196     7.5969   123.3736
  495.6000     7.6620     7.5973   123.8300
  495.7000     7.6627     7.5978   124.0940
  495.8000     7.6633     7.5982   124.3699
  495.9000     7.6639     7.5987   124.6748
  496.0000     7.6645     7.5990   124.6767
  496.1000     7.6652     7.5995   124.6792
  496.2000     7.6658     7.5999   124.6816
  496.3000     7.6665     7.6003   124.6840
  496.4000     7.6671     7.6007   124.6389
  496.5000     7.6678     7.6011   124.3727
  496.6000     7.6272     7.6016   123.7852
  496.7000     7.6159     7.6021   123.3309
  496.8000     7.6165     7.5645   122.6223
  496.9000     7.6172     7.5502   121.6926
  497.0000     7.6178     7.5506   120.6485
  497.1000     7.6184     7.5511   119.6707
  497.2000     7.6191     7.5515   118.9140
  497.3000     7.6198     7.5519   118.3639
  497.4000     7.6203     7.5523   117.6253
  497.5000     7.5893     7.5528   117.0493
  497.6000     7.5688     7.5531   116.6945
  497.7000     7.5695     7.5536   116.5607
  497.8000     7.5701     7.5540   116.5631
  497.9000     7.5707     7.5544   116.5656
  498.0000     7.5714     7.5548   116.5680
  498.1000     7.5720     7.5552   116.5707
  498.2000     7.5726     7.5557   117.0230
  498.3000     7.5441     7.5132   117.3641
  498.4000     7.5214     7.5042   117.6282
  498.5000     7.5220     7.4752   117.9961
  498.6000     7.5142     7.4531   118.5851
  498.7000     7.4712     7.4373   119.3495
  498.8000     7.4719     7.4023   119.9107
  498.9000     7.4724     7.3997   120.1569
  499.0000     7.4731     7.3519   120.6244
  499.1000     7.4473     7.3523   120.8242
  499.2000     7.4225     7.3527   120.8266
  499.3000     7.4231     7.3531   120.8290
  499.4000     7.4238     7.3535   120.8314
  499.5000     7.4244     7.3539   120.8338
  499.6000     7.4251     7.3544   120.8366
  499.7000     7.3883     7.3524   120.8387
  499.8000     7.3748     7.3043   120.8411
  499.9000     7.3754     7.2645   120.8435
  500.0000     7.3590     7.2210   120.8459
  500.1000     7.3255     7.2047   120.8483
  500.2000     7.3262     7.2051   120.8508
  500.3000     7.3268     7.2055   120.8534
  500.4000     7.3274     7.2059   121.0965
  500.5000     7.3280     7.2063   121.1601
  500.6000     7.3286     7.2067   121.3224
  500.7000     7.3292     7.2071   121.4671
  500.8000     7.3298     7.2075   121.4695
  500.9000     7.3224     7.1816   121.4719
  501.0000     7.2789     7.1584   121.4743
  501.1000     7.2305     7.1453   121.4771
  501.2000     7.1927     7.1024   121.2600
  501.3000     7.1500     7.0608   121.0008
  501.4000     7.1324     7.0613   120.6035
  501.5000     7.1145     7.0241   120.2779
  501.6000     7.0842     7.0131   120.2804
  501.7000     7.0848     7.0135   120.2661
  501.8000     7.0854     7.0139   119.9833
  501.9000     7.0860     7.0143   119.9855
  502.0000     7.0512     7.0147   119.9879
  502.1000     7.0380     7.0151   119.9903
  502.2000     7.0386     6.9669   119.9928
  502.3000     7.0392     6.9673   119.9952
  502.4000     7.0302     6.9677   119.9976
  502.5000     6.9916     6.9439   120.0000
  502.6000     6.9922     6.9202   120.0028
  502.7000     6.9538     6.9088   120.0048
  502.8000     6.9449     6.8674   120.0072
  502.9000     6.9193     6.8259   120.0097
  503.0000     6.8980     6.7791   120.0121
  503.1000     6.8850     6.7446   120.0145
  503.2000     6.8441     6.7042   120.0169
  503.3000     6.8034     6.6641   120.1761
  503.4000     6.7579     6.6241   120.3239
  503.5000     6.7228     6.5844   120.3887
  503.6000     6.6829     6.5450   120.6461
  503.7000     6.6432     6.5048   120.9357
  503.8000     6.6037     6.5052   121.3841
  503.9000     6.5537     6.4728   121.5444
  504.0000     6.4803     6.4340   121.5468
  504.1000     6.4407     6.3746   121.5492
  504.2000     6.3967     6.3131   121.5517
  504.3000     6.3340     6.2753   121.5542
  504.4000     6.2838     6.2297   121.5565
  504.5000     6.2465     6.1134   121.5589
  504.6000     6.1955     6.0714   121.5613
  504.7000     6.1297     5.9824   121.5637
  504.8000     6.0908     5.9227   121.5662
  504.9000     6.0194     5.8685   121.5617
  505.0000     5.9480     5.8114   121.2693
  505.1000     5.8831     5.7802   121.2713
  505.2000     5.8488     5.7607   121.2737
  505.3000     5.7686     5.7413   121.2761
  505.4000     5.7416     5.7219   121.2785
  505.5000     5.7085     5.7025   121.3071
  505.6000     5.6755     5.6830   121.5857
  505.7000     5.6427     5.6636   121.5879
  505.8000     5.6126     5.6442   121.5903
  505.9000     5.6132     5.6248   121.8723
  506.0000     5.6136     5.6053   122.2920
  506.1000     5.6141     5.5859   122.5494
  506.2000     5.6145     5.5665   122.8085
  506.3000     5.6150     5.5471   123.4156
  506.4000     5.6155     5.5339   123.6238
  506.5000     5.6159     5.5345   123.8812
  506.6000     5.6165     5.5352   124.1386
  506.7000     5.6436     5.5358   124.3960
  506.8000     5.6565     5.5609   124.6357
  506.9000     5.6570     5.5756   124.6383
  507.0000     5.6662     5.5886   124.8661
  507.1000     5.6974     5.6157   124.9450
  507.2000     5.6979     5.6163   124.9474
  507.3000     5.7285     5.6171   124.9498
  507.4000     5.7386     5.6446   124.9523
  507.5000     5.7571     5.6574   124.9548
  507.6000     5.7796     5.6728   124.7122
  507.7000     5.7858     5.7067   124.2619
  507.8000     5.8209     5.7384   123.7543
  507.9000     5.8214     5.7391   123.1433
  508.0000     5.8218     5.7696   122.3808
  508.1000     5.8437     5.7803   121.6089
  508.2000     5.8634     5.7810   120.4402
  508.3000     5.8639     5.7927   119.7908
  508.4000     5.8670     5.8226   119.0283
  508.5000     5.9059     5.8232   118.5116
  508.6000     5.9063     5.8564   118.4105
  508.7000     5.9566     5.8915   118.6965
  508.8000     6.0087     5.9470   119.2461
  508.9000     6.0446     6.0037   119.7213
  509.0000     6.0868     6.0396   120.2337
  509.1000     6.1604     6.0758   120.7461
  509.2000     6.2473     6.1182   121.2584
  509.3000     6.2772     6.1788   121.7228
  509.4000     6.3148     6.2523   121.9810
  509.5000     6.3690     6.3095   122.5865
