~VERSION INFORMATION
 VERS.                2.0:   CWLS LOG ASCII STANDARD - VERSION 2.0
 WRAP.                 NO:   ONE LINE PER DEPTH STEP
~WELL INFORMATION
#MNEM.UNIT      DATA TYPE    INFORMATION
#----------   ------------   ------------------------------
 STRT.F           18.0000:   START DEPTH
 STOP.F          647.0000:   STOP DEPTH
 STEP.F            0.5000:   STEP LENGTH
 NULL.          -999.2500:   NO VALUE
 COMP. FENIX & SCISSON INC:   COMPANY
 WELL. NAVAL PETROLEUM RESERVE 3 SX-1 #82-15:   WELL
 FLD .        TEAPOT DOME:   FIELD
 LOC .      S15 T38N R78W:   LOCATION
 CNTY.            NATRONA:   COUNTY
 STAT.            WYOMING:   STATE
 CTRY. UNITED STATES OF AMERICA:   COUNTRY
 SRVC.            Unknown:   SERVICE COMPANY
 DATE.        15-MAR-1979:   LOGDATE
 API .       490251076500:   API NUMBER
~CURVE INFORMATION
#MNEM.UNIT       API CODE    CURVE DESCRIPTION
#----------   ------------   ------------------------------
 DEPT.F                  :   
 SPR .MV     05 010 01 00:   SPONTANEOUS POTENTIAL FROM RES.
 SN  .OHMM   05 040 16 00:   SHORT NORMAL 16"
 IL  .OHMM   05 120 00 00:   INDUCTION LOG
 CALD.IN     45 280 60 00:   CALIPER
 GRD .GAPI   45 310 01 00:   GAMMA RAY FROM DENSITY LOG
 RHOB.G/C3   45 350 01 00:   BULK DENSITY
 DPHI.DEC    45 890 12 00:   DENSITY POROSITY SANDSTONE
 CORR.G/C3   45 356 01 00:   DENSITY CORRECTION
~PARAMETER INFORMATION
#MNEM.UNIT          VALUE    DESCRIPTION
#----------   ------------   ------------------------------
 PD  .                 GL:   PERMANENT DATUM
 EPD .F              5249:   ELEVATION PERMANENT DATUM
 LMF .                 KB:   LOG MEASURED FROM
 DAPD.F                 4:   FEET ABOVE PERMANENT DATUM
 DMF .                 KB:   DRILLING MEASURED FROM
 EKB .F              5253:   KELLING BUSHING
 EGL .F              5249:   GROUND LEVEL
 DATE.            1-15-79:   RUN DATE
 RUN .                  1:   RUN NUMBER
 DD  .F               670:   DEPTH DRILLER
 DL  .F               647:   DEPTH LOGGER
 BLI .F               640:   BOTTOM LOG INTERVAL
 TLI .F                30:   TOP LOG INTERVAL
 CS  .IN            8.625:   CASING SIZE
 CBD .F                40:   CASING BOTTOM DRILLER
 CBL .F                34:   CASING BOTTOM LOGGER
 BS  .IN            7.875:   BIT SIZE
 BSD .F               670:   BIT SIZE AT DEPTH
 DFT .                KCL:   DRILLING FLUID TYPE
 DFD .                8.9:   DRILLING FLUID DENSITY
 DFV .                 44:   DRILLING FLUID VISCOSITY
 DFPH.                8.5:   DRILLING FLUID PH
 DFL .               14.8:   DRILLING FLUID LOSS
 MSS .           FLOWLINE:   MUD SAMPLE SOURCE
 RMS .OHMM            .26:   RESISTIVITY MUD SAMPLE
 MST .F                61:   MUD SAMPLE TEMPERATURE
 RMF .OHMM            .25:   RESISTIVITY MUD FILTRATE SAMPLE
 MFST.F                60:   MUD FILTRATE SAMPLE TEMPERATURE
 RMC .OHMM             .2:   RESISTIVITY MUD CAKE
 MCST.F                60:   MUD CAKE SAMPLE TEMPERATURE
 MFSS.           MEASURED:   MUD FILTRATE SAMPLE SOURCE
 MCSS.           MEASURED:   MUD CAKE SAMPLE SOURCE
 RMB .OHMM            .27:   RESISTIVITY MUD AT BHT
 BHT .F                58:   BOTTOM HOLE TEMPERATURE
 TCS .HRS               5:   TIME CURCULATED STOPPED
 MRT .F                58:   MAXIMUM RECORDED TEMPERATURE
 LUN .               3006:   LOGGING UNIT NUMBER
 LUL .             CASPER:   LOGGING UNIT LOCATION
 ENGI.            ROLLINS:   RECORDING ENGINEER
 WITN.              AMEND:   WITNESSED BY
 CLNT.            A2DTECH:   CLIENT CODE
 ORIG.         2.5" PRINT:   ORIGIN OF DATA
 UWI .       490251076500:   UNIQUE WELL ID
 DICO. A2D Technologies, Inc.:   DIGITIZING COMPANY
~OTHER INFORMATION
~A   DEPT      SPR         SN         IL       CALD         GRD      RHOB       DPHI       CORR   
# ...
   99.0000   -68.0210     6.3310     6.5840     8.5000   106.2560     2.4310     0.1570     0.0360
   99.5000   -68.0660     6.3390     6.6020     8.4650   107.6730     2.4340     0.1560     0.0410
  100.0000   -68.1120     6.3470     6.6210     8.4290   109.5150     2.4360     0.1550     0.0450
  100.5000   -68.1590     6.3540     6.6390     8.3940   111.3490     2.4390     0.1540     0.0500
  101.0000   -68.2050     6.3620     6.6580     8.3590   110.4910     2.4400     0.1550     0.0550
  101.5000   -68.2520     6.3700     6.6760     8.3230   108.6700     2.4400     0.1560     0.0590
  102.0000   -68.2980     6.4160     6.6950     8.2880   106.9880     2.4410     0.1550     0.0640
  102.5000   -68.3450     6.4570     6.7140     8.2530   106.4820     2.4420     0.1530     0.0680
  103.0000   -68.3910     6.4980     6.7320     8.2160   110.5010     2.4430     0.1520     0.0780
  103.5000   -68.4380     6.5410     6.7850     8.1960   114.7070     2.4440     0.1510     0.0910
  104.0000   -68.4850     6.5830     6.8380     8.1920   117.2070     2.4490     0.1410     0.0930
  104.5000   -68.5310     6.6250     6.8900     8.1850   116.6400     2.4600     0.1360     0.0920
  105.0000   -68.5780     6.6670     6.9430     8.1790   113.6040     2.4710     0.1350     0.0910
  105.5000   -68.6240     6.7090     6.9950     8.1730   110.9540     2.4750     0.1330     0.0900
  106.0000   -68.6700     6.7510     7.0480     8.1680   108.4120     2.4750     0.1320     0.0920
  106.5000   -68.7200     6.7930     7.1010     8.1620   109.4950     2.4750     0.1340     0.0930
  107.0000   -68.7640     6.8340     7.1530     8.2070   110.5470     2.4690     0.1380     0.0950
  107.5000   -68.7990     6.8760     7.2060     8.2610   105.1250     2.4620     0.1420     0.0970
  108.0000   -68.8390     6.9180     7.2590     8.3180    98.2090     2.4550     0.1460     0.0980
  108.5000   -68.8770     6.9600     7.3110     8.3700    99.3180     2.4530     0.1430     0.1000
  109.0000   -68.9160     6.9840     7.3820     8.4240   101.2980     2.4580     0.1390     0.1010
  109.5000   -68.9550     6.8900     7.2720     8.3560   102.7010     2.4630     0.1340     0.1030
  110.0000   -68.9930     6.7990     7.1050     8.2380   103.7940     2.4680     0.1310     0.1040
  110.5000   -69.0320     6.7090     6.9380     8.1270   104.9550     2.4730     0.1330     0.1060
  111.0000   -69.0710     6.6190     6.7700     8.0120   105.6190     2.4740     0.1330     0.1000
  111.5000   -69.1090     6.5280     6.6080     7.9730   104.8030     2.4720     0.1330     0.0940
  112.0000   -69.1510     6.4380     6.5440     7.9270   104.7750     2.4710     0.1350     0.0880
  112.5000   -69.1880     6.3480     6.4870     7.9200   105.2350     2.4660     0.1390     0.0820
  113.0000   -69.2290     6.2520     6.5020     7.9200   104.8480     2.4600     0.1440     0.0780
  113.5000   -69.2680     6.2520     6.5160     7.9210   102.8410     2.4540     0.1480     0.0780
  114.0000   -69.3080     6.2520     6.5290     7.9200   101.0080     2.4480     0.1520     0.0820
  114.5000   -69.3480     6.2520     6.5430     7.9200    99.4920     2.4420     0.1560     0.0920
  115.0000   -69.3890     6.2520     6.5560     7.9200   101.4220     2.4360     0.1600     0.1110
  115.5000   -69.4280     6.2520     6.5700     7.9210   104.0360     2.4300     0.1610     0.1330
  116.0000   -69.4700     6.2520     6.5840     7.9080   106.6000     2.4290     0.1580     0.1620
  116.5000   -69.5070     6.2520     6.5970     7.8810   109.3320     2.4310     0.1550     0.1990
  117.0000   -69.5490     6.2520     6.4750     7.8510   110.7570     2.4340     0.1420     0.2370
  117.5000   -69.4760     6.2520     6.4900     7.8260   109.9290     2.4500     0.1280     0.2730
  118.0000   -69.3790     6.2520     6.4830     7.8120   107.7590     2.4670     0.1140     0.3120
  118.5000   -69.2800     6.2520     6.4880     7.9310   105.6420     2.4870     0.1000     0.3180
  119.0000   -69.1840     6.2520     6.4860     8.0530   103.8940     2.5150     0.0880     0.2980
  119.5000   -69.0870     6.2520     6.4870     8.1270   105.6850     2.5440     0.0730     0.2450
  120.0000   -68.9900     6.2520     6.4870     8.1170   108.1860     2.5680     0.0830     0.1810
  120.5000   -68.8930     6.2520     6.4870     8.1210   110.7600     2.5690     0.0980     0.1200
  121.0000   -68.7960     6.2520     6.4870     8.1200   112.3790     2.5450     0.1140     0.0840
  121.5000   -68.6990     6.2520     6.4870     8.1200   111.6200     2.5210     0.1300     0.0560
  122.0000   -68.6020     6.2520     6.4870     8.1200   110.8990     2.4950     0.1480     0.0490
  122.5000   -68.5040     6.2520     6.4870     8.1200   110.2420     2.4720     0.1460     0.0460
  123.0000   -68.4080     6.2520     6.4870     8.1190   110.1180     2.4530     0.1440     0.0430
  123.5000   -68.3100     6.2520     6.4870     8.1280   111.0400     2.4490     0.1460     0.0430
  124.0000   -68.2130     6.2520     6.4870     8.1450   112.8590     2.4480     0.1530     0.0450
  124.5000   -68.1160     6.2520     6.4870     8.1610   114.6320     2.4420     0.1600     0.0460
  125.0000   -68.0180     6.2520     6.4870     8.1770   114.3540     2.4310     0.1650     0.0530
  125.5000   -67.9450     6.2520     6.4870     8.1930   112.5150     2.4210     0.1670     0.0660
  126.0000   -67.9450     6.2520     6.4870     8.2090   110.7670     2.4130     0.1690     0.0800
  126.5000   -67.9430     6.2520     6.4870     8.2250   109.0010     2.4140     0.1670     0.0930
  127.0000   -67.9440     6.2520     6.4870     8.2390   107.2580     2.4160     0.1520     0.1050
  127.5000   -67.9440     6.2520     6.4870     8.2400   105.4070     2.4290     0.1350     0.1060
  128.0000   -67.9440     6.2520     6.4870     8.2400   104.5560     2.4460     0.1370     0.1060
  128.5000   -67.9440     6.2520     6.4870     8.2400   104.5860     2.4620     0.1400     0.1060
  129.0000   -67.9440     6.2520     6.4870     8.2400   105.3570     2.4650     0.1430     0.1060
  129.5000   -67.9440     6.2520     6.4870     8.2400   106.9320     2.4610     0.1430     0.1030
  130.0000   -67.9440     6.2520     6.4870     8.2400   107.3770     2.4590     0.1380     0.1010
  130.5000   -67.9440     6.2520     6.4870     8.2400   107.5560     2.4640     0.1340     0.0990
  131.0000   -67.9440     6.2520     6.4870     8.2400   109.0420     2.4690     0.1390     0.0960
  131.5000   -67.9440     6.2520     6.4870     8.2400   111.4530     2.4660     0.1450     0.0940
  132.0000   -67.9440     6.2520     6.4870     8.2400   112.9140     2.4570     0.1490     0.0960
  132.5000   -67.9440     6.2520     6.4870     8.2400   111.4900     2.4500     0.1510     0.0970
  133.0000   -67.9440     6.2520     6.4870     8.2400   109.9190     2.4410     0.1540     0.0990
  133.5000   -67.9440     6.2520     6.4870     8.2400   108.2010     2.4400     0.1480     0.1000
  134.0000   -67.9440     6.2520     6.4870     8.2400   107.6930     2.4420     0.1420     0.1020
  134.5000   -67.9440     6.2530     6.4870     8.2400   107.5240     2.4540     0.1360     0.0980
  135.0000   -67.9440     6.2690     6.4870     8.2400   107.3000     2.4660     0.1350     0.0880
  135.5000   -67.9440     6.2830     6.4870     8.2400   105.3480     2.4680     0.1350     0.0740
  136.0000   -67.9440     6.2980     6.4870     8.2400   103.3050     2.4680     0.1420     0.0610
  136.5000   -67.9440     6.3140     6.4870     8.2400   101.9580     2.4580     0.1480     0.0480
  137.0000   -67.9440     6.3280     6.4870     8.2400   104.2270     2.4470     0.1550     0.0460
  137.5000   -67.9440     6.3440     6.4870     8.2400   107.1030     2.4360     0.1630     0.0490
  138.0000   -67.9440     6.3600     6.4870     8.2400   106.3710     2.4280     0.1590     0.0510
  138.5000   -67.9440     6.3650     6.4870     8.2400   105.2610     2.4340     0.1530     0.0680
  139.0000   -67.9440     6.3530     6.4870     8.2400   104.0450     2.4410     0.1470     0.0740
