~VERSION INFORMATION
 VERS.                2.0:   CWLS LOG ASCII STANDARD - VERSION 2.0
 WRAP.                 NO:   ONE LINE PER DEPTH STEP
~WELL INFORMATION
#MNEM.UNIT      DATA TYPE    INFORMATION
#----------   ------------   ------------------------------
 STRT.F           29.0000:   START DEPTH
 STOP.F          507.0000:   STOP DEPTH
 STEP.F            0.5000:   STEP LENGTH
 NULL.          -999.2500:   NO VALUE
 COMP.    FENIX & SCISSON:   COMPANY
 WELL.       NPR #64-SX-3:   WELL
 FLD .            WILDCAT:   FIELD
 LOC .       S3 T38N R78W:   LOCATION
 CNTY.            NATRONA:   COUNTY
 STAT.            WYOMING:   STATE
 CTRY. UNITED STATES OF AMERICA:   COUNTRY
 SRVC.           BIRDWELL:   SERVICE COMPANY
 DATE.        28-MAR-1977:   LOGDATE
 API .       490251032200:   API NUMBER
~CURVE INFORMATION
#MNEM.UNIT       API CODE    CURVE DESCRIPTION
#----------   ------------   ------------------------------
 DEPT.F                  :   
 SPR .MV     05 010 01 00:   SPONTANEOUS POTENTIAL FROM RES.
 ILD .OHMM   05 120 46 00:   INDUCTION LOG DEEP
 SN  .OHMM   05 040 16 00:   SHORT NORMAL 16"
 GRD .GAPI   45 310 01 00:   GAMMA RAY FROM DENSITY LOG
 CALD.IN     45 280 60 00:   CALIPER FROM DENSITY LOG
 CORR.G/C3   45 356 01 00:   DENSITY CORRECTION
 RHOB.G/C3   45 350 01 00:   BULK DENSITY
 DPHI.DEC    45 890 12 00:   DENSITY POROSITY SANDSTONE
~PARAMETER INFORMATION
#MNEM.UNIT          VALUE    DESCRIPTION
#----------   ------------   ------------------------------
 PD  .                 GL:   PERMANENT DATUM
 EPD .F              5145:   ELEVATION PERMANENT DATUM
 LMF .                 GL:   LOG MEASURED FROM
 DMF .                 GL:   DRILLING MEASURED FROM
 EKB .F              5150:   KELLING BUSHING
 EDF .F              5149:   DRILLING FLOOR
 EGL .F              5145:   GROUND LEVEL
 DATE.        28-MAR-1977:   RUN DATE
 RUN .                  1:   RUN NUMBER
 DD  .F               507:   DEPTH DRILLER
 DL  .F               507:   DEPTH LOGGER
 BLI .F               501:   BOTTOM LOG INTERVAL
 TLI .F                40:   TOP LOG INTERVAL
 CS  .IN            8.625:   CASING SIZE
 CBD .F                40:   CASING BOTTOM DRILLER
 CBL .F                43:   CASING BOTTOM LOGGER
 BS  .IN            7.875:   BIT SIZE
 BSD .F               507:   BIT SIZE AT DEPTH
 DFT .                KCL:   DRILLING FLUID TYPE
 DFD .                8.5:   DRILLING FLUID DENSITY
 DFV .                 31:   DRILLING FLUID VISCOSITY
 DFPH.                 10:   DRILLING FLUID PH
 DFL .                 78:   DRILLING FLUID LOSS
 MSS .                PIT:   MUD SAMPLE SOURCE
 RMS .OHMM            .54:   RESISTIVITY MUD SAMPLE
 MST .F                60:   MUD SAMPLE TEMPERATURE
 RMF .OHMM            .46:   RESISTIVITY MUD FILTRATE SAMPLE
 MFST.F                64:   MUD FILTRATE SAMPLE TEMPERATURE
 RMC .OHMM            .52:   RESISTIVITY MUD CAKE
 MCST.F                64:   MUD CAKE SAMPLE TEMPERATURE
 MFSS.               MEAS:   MUD FILTRATE SAMPLE SOURCE
 MCSS.               MEAS:   MUD CAKE SAMPLE SOURCE
 RMB .OHMM            .51:   RESISTIVITY MUD AT BHT
 BHT .F                63:   BOTTOM HOLE TEMPERATURE
 TCS .HRS            0300:   TIME CURCULATED STOPPED
 MRT .F                63:   MAXIMUM RECORDED TEMPERATURE
 LUN .               3026:   LOGGING UNIT NUMBER
 LUL .             CASPER:   LOGGING UNIT LOCATION
 ENGI.             RAWSON:   RECORDING ENGINEER
 WITN.         STUERINCER:   WITNESSED BY
 CLNT.            A2DTECH:   CLIENT CODE
 ORIG.           5" PRINT:   ORIGIN OF DATA
 UWI .       490251032200:   UNIQUE WELL ID
 DICO. A2D Technologies, Inc.:   DIGITIZING COMPANY
~OTHER INFORMATION
~A   DEPT      SPR        ILD         SN        GRD       CALD       CORR       RHOB       DPHI   
# ...
  353.0000   -35.4370    22.3192    22.7217    59.2332     7.5092    -0.0584     2.4722     0.0808
  353.5000   -35.7555    22.4701    22.7179    58.7897     7.5108    -0.0436     2.5018     0.0804
  354.0000   -36.9591    22.1551    22.5578    58.1205     7.5125    -0.0257     2.5177     0.0864
  354.5000   -37.4181    21.9976    22.0696    57.6011     7.5141    -0.0063     2.5042     0.1063
  355.0000   -37.5759    20.9510    21.1855    57.3810     7.5158    -0.0004     2.4930     0.1237
  355.5000   -37.5831    19.8163    19.4899    57.3095     7.5174    -0.0052     2.4667     0.1264
  356.0000   -37.5904    18.5758    18.3073    57.9140     7.5191     0.0082     2.4426     0.1460
  356.5000   -37.5992    17.3620    17.5582    58.3664     7.5207     0.0141     2.4359     0.1592
  357.0000   -37.6064    16.7670    16.9414    57.9978     7.5224    -0.0058     2.3990     0.1649
  357.5000   -37.6135    16.3050    16.4901    58.3017     7.5240    -0.0195     2.3757     0.1673
  358.0000   -37.6207    16.0772    16.4879    59.0757     7.4957    -0.0197     2.3690     0.1688
  358.5000   -37.7786    15.9621    16.3717    60.1816     7.4973    -0.0138     2.3676     0.1690
  359.0000   -37.7875    15.9590    16.3695    60.2609     7.4990    -0.0186     2.3669     0.1681
  359.5000   -37.7946    15.8455    16.1268    60.3403     7.4856    -0.0263     2.3670     0.1647
  360.0000   -37.9524    15.8424    15.9166    60.4945     7.4873    -0.0250     2.3731     0.1635
  360.5000   -37.9596    15.8393    15.6951    61.0229     7.4890    -0.0192     2.3755     0.1634
  361.0000   -37.9669    15.7259    15.4767    60.6560     7.4906    -0.0043     2.3748     0.1658
  361.5000   -37.9757    15.5062    15.1557    60.4810     7.4923     0.0045     2.3734     0.1715
  362.0000   -38.1335    15.3960    15.0488    59.3141     7.4939     0.0073     2.3705     0.1702
  362.5000   -38.1407    15.1809    14.8390    60.2545     7.4956    -0.0034     2.3706     0.1648
  363.0000   -38.1478    14.9646    14.7344    60.1468     7.4972    -0.0111     2.3729     0.1569
  363.5000   -37.5427    14.6570    14.6306    59.4773     7.4989    -0.0264     2.3776     0.1547
  364.0000   -37.2586    14.5528    14.5275    59.6326     7.4855    -0.0401     2.3905     0.1535
  364.5000   -37.1151    14.4493    14.5255    60.2359     7.4422    -0.0328     2.4064     0.1522
  365.0000   -36.9717    14.4465    14.6248    59.4163     7.3839    -0.0209     2.4095     0.1519
  365.5000   -37.4325    14.3437    14.6224    60.5598     7.3406    -0.0106     2.4051     0.1546
  366.0000   -38.0422    14.2411    14.5193    59.7243     7.3268    -0.0048     2.3954     0.1687
  366.5000   -38.3522    14.1399    14.3172    60.9275     7.3289     0.0116     2.3902     0.1648
  367.0000   -38.3594    14.0394    14.2163    60.7075     7.3905     0.0069     2.3782     0.1581
  367.5000   -38.3666    13.9396    14.1157    61.4605     7.4521    -0.0008     2.3881     0.1543
  368.0000   -38.3737    13.9471    14.2121    61.9141     7.3338     0.0005     2.4003     0.1523
  368.5000   -38.3810    14.0311    14.2102    62.6542     7.2305     0.0093     2.3996     0.1577
  369.0000   -38.3899    14.1259    14.2084    62.8950     7.1722     0.0076     2.3966     0.1476
  369.5000   -38.3970    14.2214    14.2064    61.5533     7.1439     0.0029     2.3998     0.1458
  370.0000   -38.4042    14.3169    14.3035    61.1677     7.1455     0.0042     2.4021     0.1501
  370.5000   -38.4114    14.4136    14.4012    61.2767     7.1772     0.0070     2.3992     0.1552
  371.0000   -38.4287    14.4101    14.6006    61.3413     7.4337     0.0114     2.3895     0.1611
  371.5000   -38.5781    14.4072    14.6999    61.0462     7.4803     0.0172     2.3843     0.1599
  372.0000   -38.2841    14.4044    14.6979    63.2217     7.4820     0.0110     2.3791     0.1610
  372.5000   -37.8395    14.4015    14.5939    62.4777     7.4836     0.0123     2.3799     0.1670
  373.0000   -37.6958    14.3980    14.5919    62.3138     7.5003     0.0181     2.3793     0.1652
  373.5000   -37.7033    14.3951    14.5900    62.8960     7.5169     0.0179     2.3741     0.1684
  374.0000   -37.7122    14.0959    14.4872    61.3681     7.5036     0.0147     2.3696     0.1660
  374.5000   -37.7193    13.8990    14.4718    62.2710     7.4902     0.0055     2.3728     0.1629
  375.0000   -37.7265    13.7048    14.2832    62.4501     7.4919     0.0008     2.3728     0.1587
  375.5000   -37.7337    13.5127    14.1825    62.9780     7.5085     0.0021     2.3737     0.1541
  376.0000   -37.5902    13.3239    13.9852    63.8293     7.4948     0.0049     2.3881     0.1501
  376.5000   -37.7498    13.2292    13.7906    64.2349     7.4814     0.0047     2.3958     0.1486
  377.0000   -37.9076    13.1352    13.6807    63.4796     7.4835     0.0029     2.3974     0.1531
  377.5000   -38.2160    13.1326    13.5024    63.1959     7.4852    -0.0079     2.3967     0.1479
  378.0000   -38.2231    13.1293    13.4072    63.0507     7.4868    -0.0201     2.3998     0.1437
  378.5000   -38.3810    13.1267    13.4992    63.3121     7.4885    -0.0324     2.4044     0.1406
  379.0000   -38.6911    13.1241    13.4970    63.1886     7.4901    -0.0446     2.4075     0.1387
  379.5000   -38.9995    13.1215    13.6018    62.9145     7.4918    -0.0570     2.4106     0.1384
  380.0000   -39.1572    13.2102    13.7774    62.7395     7.4934    -0.0690     2.4130     0.1402
  380.5000   -39.3150    13.2996    14.0654    61.5733     7.5101    -0.0629     2.4169     0.1435
  381.0000   -39.3223    13.5758    14.3589    60.0088     7.5117    -0.0556     2.4177     0.1498
  381.5000   -39.1805    14.4474    14.7612    60.8738     7.5134    -0.0366     2.4132     0.1560
  382.0000   -39.0371    15.3748    15.4155    61.8139     7.5150    -0.0049     2.4096     0.1605
  382.5000   -39.0443    15.9364    16.4901    60.3962     7.5167     0.0008     2.3870     0.1641
  383.0000   -38.9006    18.2776    17.6729    59.8779     7.5029     0.0021     2.3803     0.1698
  383.5000   -38.9081    20.9930    19.0725    58.9842     7.4896     0.0035     2.3751     0.1821
  384.0000   -38.7646    23.9451    20.4406    60.1863     7.4916     0.0001     2.3624     0.2053
  384.5000   -38.3217    27.3124    21.9476    59.8165     7.5083    -0.0045     2.3293     0.2164
  385.0000   -37.4253    31.0831    23.9714    59.2970     7.5099    -0.0032     2.3067     0.2288
  385.5000   -36.2276    37.0422    25.8699    58.3285     7.5116    -0.0049     2.2887     0.2465
  386.0000   -35.7731    36.7789    27.7255    56.5366     7.5132    -0.0180     2.2775     0.2480
  386.5000   -35.3384    35.2728    29.1020    56.0920     7.5149    -0.0436     2.2489     0.2410
  387.0000   -35.0443    34.0639    29.9173    55.7222     7.5165    -0.0536     2.2361     0.2346
  387.5000   -34.7521    32.8947    29.9124    55.3525     7.5182    -0.0456     2.2423     0.2310
  388.0000   -34.0063    32.2110    29.7016    54.9827     7.5198    -0.0267     2.2552     0.2307
  388.5000   -33.2604    31.5415    29.4922    55.0620     7.5215    -0.0427     2.2628     0.2315
  389.0000   -32.8158    31.1009    29.2844    55.5156     7.5077    -0.0499     2.2629     0.2275
  389.5000   -32.8248    30.6664    28.8501    55.9692     7.4944    -0.0501     2.2645     0.2191
  390.0000   -32.9825    30.4469    28.2771    56.3480     7.4661    -0.0413     2.2737     0.2138
  390.5000   -32.9897    30.4409    27.8836    56.4273     7.4527    -0.0325     2.2866     0.2121
  391.0000   -32.9970    30.4348    27.4956    57.0306     7.4548    -0.0266     2.2912     0.2150
  391.5000   -33.1564    30.0097    27.3018    57.4525     7.4714    -0.0238     2.2898     0.2134
  392.0000   -33.9166    29.7963    26.9217    57.9374     7.5181    -0.0361     2.2899     0.2065
  392.5000   -34.2250    29.7890    26.7312    57.9419     7.5497    -0.0408     2.2968     0.2056
  393.0000   -34.2322    29.7831    26.5428    57.9464     7.5664    -0.0410     2.2984     0.2091
