~VERSION INFORMATION
 VERS.                2.0:   CWLS LOG ASCII STANDARD - VERSION 2.0
 WRAP.                 NO:   ONE LINE PER DEPTH STEP
~WELL INFORMATION
#MNEM.UNIT      DATA TYPE    INFORMATION
#----------   ------------   ------------------------------
 STRT.F           19.5000:   START DEPTH
 STOP.F          690.5000:   STOP DEPTH
 STEP.F            0.5000:   STEP LENGTH
 NULL.          -999.2500:   NO VALUE
 COMP. FENIX & SCISSON INC:   COMPANY
 WELL. 37-22 SX 11 WI #3-11:   WELL
 FLD .             TEAPOT:   FIELD
 LOC .      S11 T38N R78W:   LOCATION
 CNTY.            NATRONA:   COUNTY
 STAT.            WYOMING:   STATE
 CTRY. UNITED STATES OF AMERICA:   COUNTRY
 SRVC.      Dresser Atlas:   SERVICE COMPANY
 DATE.        11-AUG-1980:   LOGDATE
 API .       490251084400:   API NUMBER
~CURVE INFORMATION
#MNEM.UNIT       API CODE    CURVE DESCRIPTION
#----------   ------------   ------------------------------
 DEPT.F                  :   
 SPR .MV     07 010 01 00:   SPONTANEOUS POTENTIAL
 SFL .OHMM   07 220 01 00:   SHALLOW FOCUSED LOG RESISTIVITY
 ILD .OHMM   07 120 46 00:   INDUCTION LOG DEEP
 ILM .OHMM   07 120 44 00:   INDUCTION LOG MEDIUM
 GRD .GAPI   45 310 01 00:   GAMMA RAY FROM DENSITY LOG
 CALD.IN     45 280 60 00:   CALIPER
 CORR.G/C3   45 356 01 00:   DENSITY CORRECTION
 RHOB.G/C3   45 350 01 00:   BULK DENSITY
 NPHI.DEC    42 890 12 00:   NEUTRON POROSITY SANDSTONE
 DPHI.DEC    45 890 12 00:   DENSITY POROSITY SANDSTONE
~PARAMETER INFORMATION
#MNEM.UNIT          VALUE    DESCRIPTION
#----------   ------------   ------------------------------
 PD  .                 GL:   PERMANENT DATUM
 EPD .F              5191:   ELEVATION PERMANENT DATUM
 LMF .                 KB:   LOG MEASURED FROM
 DAPD.F                 5:   FEET ABOVE PERMANENT DATUM
 DMF .                 KB:   DRILLING MEASURED FROM
 EKB .F              5196:   KELLING BUSHING
 EGL .F              5191:   GROUND LEVEL
 DATE.            8-11-80:   RUN DATE
 RUN .                  1:   RUN NUMBER
 DD  .F               680:   DEPTH DRILLER
 DL  .F               689:   DEPTH LOGGER
 BLI .F               687:   BOTTOM LOG INTERVAL
 TLI .F                20:   TOP LOG INTERVAL
 CS  .IN            8.625:   CASING SIZE
 BS  .IN            7.875:   BIT SIZE
 BSD .F               680:   BIT SIZE AT DEPTH
 DFT .           CHEM GEL:   DRILLING FLUID TYPE
 DFD .                9.9:   DRILLING FLUID DENSITY
 DFV .                 52:   DRILLING FLUID VISCOSITY
 DFPH.               11.5:   DRILLING FLUID PH
 DFL .                104:   DRILLING FLUID LOSS
 MSS .           FLOWLINE:   MUD SAMPLE SOURCE
 RMS .OHMM             .2:   RESISTIVITY MUD SAMPLE
 MST .F                74:   MUD SAMPLE TEMPERATURE
 RMF .OHMM            .15:   RESISTIVITY MUD FILTRATE SAMPLE
 MFST.F                74:   MUD FILTRATE SAMPLE TEMPERATURE
 RMC .OHMM            .25:   RESISTIVITY MUD CAKE
 MCST.F                74:   MUD CAKE SAMPLE TEMPERATURE
 MFSS.               CALC:   MUD FILTRATE SAMPLE SOURCE
 MCSS.               CALC:   MUD CAKE SAMPLE SOURCE
 TCS .HRS               3:   TIME CURCULATED STOPPED
 LUN .             HL6150:   LOGGING UNIT NUMBER
 LUL .                 FM:   LOGGING UNIT LOCATION
 ENGI.            BRANNEY:   RECORDING ENGINEER
 WITN.           MCINTYRE:   WITNESSED BY
 CLNT.            A2DTECH:   CLIENT CODE
 ORIG.           5" PRINT:   ORIGIN OF DATA
 UWI .       490251084400:   UNIQUE WELL ID
 DICO. A2D Technologies, Inc.:   DIGITIZING COMPANY
~OTHER INFORMATION
~A   DEPT      SPR        SFL        ILD        ILM        GRD       CALD       CORR       RHOB       NPHI       DPHI   
# ...
  522.0000   -46.3660    10.3090    11.3670     9.4160   114.3160     8.0920     0.0360     2.5170     0.2410     0.1030
  522.5000   -45.9040    10.9120    12.2300     9.8380   114.3500     8.0850     0.0190     2.5060     0.2350     0.1100
  523.0000   -45.4430    11.5140    13.0930    10.2600   112.0990     8.0770     0.0130     2.4910     0.2300     0.1190
  523.5000   -44.9810    12.1170    13.9560    10.6820   108.4640     8.0800     0.0120     2.4720     0.2250     0.1280
  524.0000   -44.4060    12.7200    14.8180    11.1040   104.4530     8.0870     0.0160     2.4530     0.2200     0.1370
  524.5000   -43.7050    13.3220    15.6810    11.5260    99.3800     8.0960     0.0210     2.4470     0.2130     0.1420
  525.0000   -43.0050    13.9250    16.5440    11.9480    94.3040     8.0610     0.0250     2.4400     0.2190     0.1450
  525.5000   -42.3050    14.5280    17.4070    12.3690    88.7820     8.0390     0.0290     2.4340     0.2260     0.1480
  526.0000   -41.6030    15.1300    18.0650    12.7170    83.3260     8.0160     0.0330     2.4460     0.2370     0.1390
  526.5000   -40.9140    15.5330    18.6510    12.9950    77.8630     7.9930     0.0200     2.4580     0.2340     0.1480
  527.0000   -40.0980    15.7040    19.2360    13.2740    75.9450     7.9700    -0.0180     2.3950     0.2290     0.1760
  527.5000   -39.9610    15.8880    19.8210    13.5520    75.3390     7.9470    -0.0400     2.3310     0.2230     0.2080
  528.0000   -39.8070    16.0710    20.6540    13.8310    76.5610     7.9230     0.0080     2.3410     0.2170     0.2010
  528.5000   -39.6470    16.2540    20.5810    14.1090    77.4560     7.9000     0.0340     2.3540     0.2130     0.1980
  529.0000   -39.4870    16.4370    20.4560    14.2140    80.3230     7.8770     0.0240     2.3420     0.2150     0.2060
  529.5000   -39.3840    16.6200    20.3300    14.2720    79.6110     7.8540     0.0230     2.3260     0.2180     0.2190
  530.0000   -39.3860    16.8720    20.2040    14.3300    79.8150     7.8310     0.0350     2.3340     0.2170     0.2170
  530.5000   -39.3880    16.7460    20.0780    14.3880    82.3840     7.8080     0.0340     2.3210     0.2140     0.2130
  531.0000   -39.3860    16.4500    19.9530    14.4320    80.6980     7.7850     0.0360     2.3280     0.2140     0.2100
  531.5000   -39.5900    16.1540    19.7260    13.9860    79.8870     7.7620     0.0460     2.3430     0.2200     0.2000
  532.0000   -39.9210    15.8580    18.7240    13.6270    79.6670     7.7390     0.0570     2.3570     0.2270     0.1910
  532.5000   -40.2520    15.5630    17.7740    13.2670    77.2150     7.7160     0.0400     2.3660     0.2330     0.1900
  533.0000   -40.5850    15.2670    16.8240    12.9080    80.5280     7.6920     0.0420     2.3610     0.2290     0.1920
  533.5000   -40.9180    14.9710    15.8750    12.5490    84.2030     7.6690     0.0390     2.3690     0.2240     0.1840
  534.0000   -41.2510    14.6750    14.9250    12.2640    85.1600     7.6390     0.0510     2.3880     0.2220     0.1730
  534.5000   -41.5840    14.3000    13.5320    12.5490    84.2930     7.6880     0.0690     2.4070     0.2310     0.1620
  535.0000   -41.9170    14.5640    13.7380    12.8350    83.8970     7.7580     0.0580     2.4230     0.2280     0.1550
  535.5000   -42.2510    15.0580    14.1230    13.1210    83.0390     7.8280     0.0380     2.4120     0.2240     0.1630
  536.0000   -42.5510    15.5530    14.5080    13.4060    83.5000     7.8990     0.0170     2.4010     0.2270     0.1720
  536.5000   -42.2980    16.0480    14.8930    13.6920    82.8690     7.9130     0.0180     2.3900     0.2250     0.1770
  537.0000   -42.0010    16.5430    15.2780    13.9780    83.2390     7.9070     0.0260     2.3810     0.2190     0.1800
  537.5000   -41.7040    17.0380    15.6630    14.2630    83.3030     7.9010     0.0330     2.3860     0.2140     0.1750
  538.0000   -41.4070    17.5330    16.0480    14.5490    84.1810     7.8940     0.0400     2.4100     0.2180     0.1660
  538.5000   -41.1100    18.0280    16.4340    14.8350    80.4790     7.8880     0.0460     2.4330     0.2190     0.1530
  539.0000   -40.8140    18.5230    16.8190    15.1100    77.8390     7.8810     0.0390     2.4450     0.2150     0.1430
  539.5000   -40.5150    19.1900    17.1850    15.1100    77.8430     7.8740     0.0210     2.4130     0.2100     0.1570
  540.0000   -40.3620    18.6560    16.4730    14.4590    78.1100     7.8680     0.0060     2.3730     0.2180     0.1690
  540.5000   -40.2480    17.8370    15.6340    13.9360    75.8220     7.8610     0.0280     2.3960     0.2270     0.1770
  541.0000   -40.1320    17.0180    14.7950    13.4140    75.1670     7.8680     0.0420     2.3800     0.2220     0.1780
  541.5000   -40.0170    16.1150    14.6990    13.0440    77.3810     7.8820     0.0420     2.3850     0.2170     0.1770
  542.0000   -39.9020    16.3290    15.0660    13.5390    79.6430     7.8960     0.0450     2.3920     0.2130     0.1740
  542.5000   -39.7870    16.5690    15.3500    13.9920    81.8780     7.9110     0.0470     2.4000     0.2150     0.1700
  543.0000   -39.6730    16.8080    15.6340    14.4450    82.6170     7.9250     0.0370     2.4110     0.2130     0.1630
  543.5000   -39.5580    17.0470    16.1150    14.5650    82.9410     7.9390     0.0260     2.4030     0.2130     0.1670
  544.0000   -39.4430    17.3440    15.6250    14.2430    81.8950     7.9540     0.0150     2.3860     0.2160     0.1760
  544.5000   -39.3290    17.0010    14.9700    14.0020    85.8750     7.9360     0.0050     2.3680     0.2250     0.1850
  545.0000   -39.2130    16.3900    14.3140    13.7620    87.5300     7.9080     0.0090     2.3550     0.2220     0.1940
  545.5000   -39.0980    15.7780    13.7820    13.5210    87.0730     7.8800     0.0210     2.3680     0.2190     0.1900
  546.0000   -39.0040    15.1670    13.7750    13.2800    85.7290     7.8520     0.0240     2.3760     0.2230     0.1840
  546.5000   -39.2920    14.5650    13.7690    13.0400    86.1750     7.8240     0.0190     2.3610     0.2290     0.1920
  547.0000   -39.5870    14.6080    13.7620    12.8060    86.9930     7.7970     0.0370     2.3800     0.2360     0.1820
  547.5000   -39.8810    14.6500    13.7550    12.7850    87.9690     7.7960     0.0550     2.4020     0.2300     0.1720
  548.0000   -40.1750    14.6920    13.7480    12.7650    90.5780     7.8750     0.0550     2.4200     0.2230     0.1610
  548.5000   -40.4680    14.7340    13.7420    12.7440    93.9200     7.9520     0.0330     2.3970     0.2160     0.1690
  549.0000   -40.7600    14.7760    13.7350    12.7240    95.4490     8.0300     0.0310     2.4060     0.2060     0.1620
  549.5000   -40.9750    14.8180    13.7280    12.7030    92.9830     8.1070     0.0320     2.4050     0.2080     0.1690
  550.0000   -40.9450    14.8600    13.7220    12.6830    91.1140     8.1840     0.0140     2.3910     0.2110     0.1740
  550.5000   -40.8410    14.9020    13.7150    12.6620    89.0020     8.2390     0.0050     2.3800     0.2150     0.1780
  551.0000   -40.7420    14.9440    13.7080    12.6420    90.0540     8.1360     0.0130     2.3850     0.2190     0.1730
  551.5000   -40.6420    14.9890    13.7020    12.6210    92.9070     8.0300     0.0220     2.3910     0.2220     0.1780
  552.0000   -40.5420    15.0390    13.6950    12.6010    94.0320     7.9250     0.0300     2.3970     0.2250     0.1740
  552.5000   -40.4410    15.0890    13.6880    12.5800    92.4000     7.8220     0.0380     2.4030     0.2180     0.1670
  553.0000   -40.3410    15.1400    13.6810    12.5600    91.5580     7.7590     0.0360     2.3950     0.2130     0.1730
  553.5000   -40.2410    15.1900    13.6750    12.5390    94.3140     7.7550     0.0330     2.3860     0.2100     0.1750
  554.0000   -40.1410    15.2400    13.6680    12.5190    94.6420     7.7490     0.0260     2.3830     0.2090     0.1760
  554.5000   -40.0410    15.2910    13.6610    12.4990    93.0010     7.7440     0.0190     2.3920     0.2070     0.1780
  555.0000   -39.9410    15.3410    13.6450    12.4780    89.1760     7.7380     0.0180     2.3760     0.2050     0.1830
