~VERSION INFORMATION
 VERS.                2.0:   CWLS LOG ASCII STANDARD - VERSION 2.0
 WRAP.                 NO:   ONE LINE PER DEPTH STEP
~WELL INFORMATION
#MNEM.UNIT      DATA TYPE    INFORMATION
#----------   ------------   ------------------------------
 STRT.F            0.0000:   START DEPTH
 STOP.F          524.0000:   STOP DEPTH
 STEP.F            0.5000:   STEP LENGTH
 NULL.          -999.2500:   NO VALUE
 COMP.       F D SERV INC:   COMPANY
 WELL. NAVAL PETROLEUM RESERVE 3 SX-1 #83-2-10:   WELL
 FLD .             TEAPOT:   FIELD
 LOC .      S10 T38N R78W:   LOCATION
 CNTY.            NATRONA:   COUNTY
 STAT.            WYOMING:   STATE
 CTRY. UNITED STATES OF AMERICA:   COUNTRY
 SRVC.     Atlas Wireline:   SERVICE COMPANY
 DATE.        10-FEB-1993:   LOGDATE
 API .       490252258100:   API NUMBER
~CURVE INFORMATION
#MNEM.UNIT       API CODE    CURVE DESCRIPTION
#----------   ------------   ------------------------------
 DEPT.F                  :   
 RILM.OHMM   07 120 44 00:   RESITIVITY LONG MEDIUM
 RILD.OHMM   07 120 46 00:   INDUCTION LOG DEEP RESISTIVITY
 GRR .GAPI   07 310 01 00:   GAMMA RAY
 PORZ.DEC    45 890 12 00:   DENSITY POROSITY
 ZCOR.G/C3   45 356 01 00:   DENSITY CORRECTION
 ZDEN.G/C3   45 350 01 00:   BULK DENSITY
 NPHI.DEC    42 890 03 00:   NEUTRON POROSITY SANDSTONE
 C13 .IN     45 280 13 00:   CALIPER X
~PARAMETER INFORMATION
#MNEM.UNIT          VALUE    DESCRIPTION
#----------   ------------   ------------------------------
 PD  .                 GL:   PERMANENT DATUM
 EPD .F              5156:   ELEVATION PERMANENT DATUM
 LMF .                 KB:   LOG MEASURED FROM
 DAPD.F                10:   FEET ABOVE PERMANENT DATUM
 DMF .                 KB:   DRILLING MEASURED FROM
 EKB .F              5166:   KELLING BUSHING
 EDF .F              5165:   DRILLING FLOOR
 EGL .F              5156:   GROUND LEVEL
 DATE.        10-FEB-1993:   RUN DATE
 RUN .                  1:   RUN NUMBER
 DD  .F               525:   DEPTH DRILLER
 DL  .F               526:   DEPTH LOGGER
 BLI .F               518:   BOTTOM LOG INTERVAL
 CS  .IN            8.625:   CASING SIZE
 CBD .F                80:   CASING BOTTOM DRILLER
 CBL .F                81:   CASING BOTTOM LOGGER
 BS  .IN            7.875:   BIT SIZE
 BSD .F               525:   BIT SIZE AT DEPTH
 DFT .                AIR:   DRILLING FLUID TYPE
 MRT .F                70:   MAXIMUM RECORDED TEMPERATURE
 LUN .            HL 6274:   LOGGING UNIT NUMBER
 LUL .             CASPER:   LOGGING UNIT LOCATION
 ENGI.          V. RAUTIO:   RECORDING ENGINEER
 WITN.          G. STRONG:   WITNESSED BY
 CLNT.            A2DTECH:   CLIENT CODE
 ORIG.           5" PRINT:   ORIGIN OF DATA
 UWI .       490252258100:   UNIQUE WELL ID
 DICO. A2D Technologies, Inc.:   DIGITIZING COMPANY
~OTHER INFORMATION
~A    DEPT    RILM       RILD         GRR      PORZ       ZCOR       ZDEN       NPHI        C13   
# ...
  243.0000     6.3204     6.3858   152.1616     0.0887     0.0109     2.5028     0.3376     8.1147
  243.5000     6.3193     6.3852   152.4568     0.0914     0.0169     2.4997     0.3382     8.1293
  244.0000     6.3185     6.3407   150.9379     0.0929     0.0214     2.4975     0.3367     8.1741
  244.5000     6.3177     6.2100   150.6277     0.0929     0.0229     2.4968     0.3337     8.1887
  245.0000     6.2733     6.0777   152.7286     0.0956     0.0153     2.4953     0.3298     8.1732
  245.5000     6.1432     5.8744   154.2283     0.0992     0.0003     2.4928     0.3286     8.1577
  246.0000     5.9744     5.7533   154.8252     0.1028    -0.0118     2.4870     0.3322     8.1421
  246.5000     5.7702     5.6346   153.8894     0.1243     0.0002     2.4471     0.3397     8.1567
  247.0000     5.6081     5.5567   146.0557     0.1444     0.0137     2.4154     0.3382     8.1714
  247.5000     5.2351     5.3301   132.1709     0.1501     0.0347     2.4033     0.3262     8.2311
  248.0000     5.0213     5.1129   119.7949     0.1438     0.0527     2.4079     0.3105     8.2307
  248.5000     4.9859     5.0074   120.0860     0.1387     0.0571     2.4177     0.2958     8.2454
  249.0000     5.0200     5.0071   130.6355     0.1355     0.0526     2.4244     0.3003     8.2449
  249.5000     5.0542     5.0454   137.5651     0.1287     0.0436     2.4329     0.3143     8.2444
  250.0000     5.3046     5.4401   145.0980     0.1138     0.0375     2.4718     0.3226     8.2439
  250.5000     5.4909     5.4774   151.3205     0.0977     0.0346     2.4898     0.3184     8.2284
  251.0000     5.6054     5.5529   161.3367     0.0923     0.0329     2.5011     0.3196     8.2279
  251.5000     5.8022     5.7992   165.2356     0.0920     0.0329     2.5002     0.3229     8.2427
  252.0000     6.0899     6.1589   162.3368     0.0902     0.0328     2.5018     0.3205     8.2422
  252.5000     6.3491     6.4194   148.8951     0.0839     0.0298     2.5100     0.3162     8.2417
  253.0000     6.6621     6.7842   144.9509     0.0815     0.0238     2.5153     0.3133     8.2261
  253.5000     6.9440     7.2193   150.0564     0.0821     0.0162     2.5138     0.3109     8.2409
  254.0000     7.2379     7.4726   153.0504     0.0839     0.0146     2.5137     0.3097     8.2403
  254.5000     7.4971     7.6285   153.3294     0.0839     0.0146     2.5130     0.3109     8.2399
  255.0000     7.7015     7.7876   152.9994     0.0854     0.0146     2.5077     0.3118     8.2395
  255.5000     7.8082     7.8952   152.0718     0.0897     0.0145     2.5009     0.3130     8.2389
  256.0000     7.8069     7.8940   150.2336     0.0954     0.0145     2.4941     0.3145     8.2385
  256.5000     7.6982     7.7306   150.5182     0.0963     0.0129     2.4933     0.3172     8.2381
  257.0000     7.5389     7.5067   150.4899     0.0960     0.0114     2.4933     0.3217     8.2376
  257.5000     7.3318     7.2113   150.4673     0.0969     0.0068     2.4887     0.3256     8.2372
  258.0000     7.1304     7.1112   151.3440     0.0999    -0.0022     2.4835     0.3280     8.2367
  258.5000     6.9826     6.9641   153.7346     0.1044    -0.0128     2.4774     0.3305     8.2362
  259.0000     6.8855     6.8198   155.2202     0.1053    -0.0158     2.4759     0.3341     8.2358
  259.5000     6.7430     6.6787   154.5943     0.1047    -0.0099     2.4796     0.3377     8.2354
  260.0000     6.6003     6.5860   155.1693     0.1011    -0.0039     2.4849     0.3407     8.2349
  260.5000     6.3334     6.4051   157.2583     0.0978     0.0006     2.4909     0.3413     8.2344
  261.0000     6.1169     6.1435   160.2522     0.0972     0.0035     2.4916     0.3434     8.2492
  261.5000     5.9078     5.8521   161.1513     0.0990     0.0005     2.4916     0.3452     8.2486
  262.0000     5.4733     5.5360   161.7152     0.1050    -0.0026     2.4878     0.3462     8.2482
  262.5000     5.2497     5.2673   161.3853     0.1147    -0.0026     2.4772     0.3488     8.2326
  263.0000     5.1410     5.0930   159.8543     0.1324     0.0003     2.4629     0.3540     8.2473
  263.5000     5.1403     5.1501   157.6863     0.1478     0.0018     2.4223     0.3624     8.2468
  264.0000     5.2112     5.2711   156.1835     0.1541     0.0077     2.4012     0.3640     8.2313
  264.5000     5.4318     5.4559   155.8592     0.1303     0.0137     2.3974     0.3455     8.2295
  265.0000     5.6617     5.6867   154.6299     0.1088     0.0152     2.4352     0.3338     8.1852
  265.5000     5.9028     5.8862   151.2833     0.0981     0.0106     2.4658     0.3266     8.1847
  266.0000     6.2801     6.0928   149.4507     0.0960     0.0061     2.4831     0.3224     8.1995
  266.5000     6.5459     6.5287   150.0314     0.0969     0.0013     2.4914     0.3212     8.2140
  267.0000     6.7758     6.8048   152.4221     0.0975    -0.0045     2.4898     0.3215     8.2250
  267.5000     6.9710     7.0925   156.0137     0.0966    -0.0031     2.4906     0.3218     8.2433
  268.0000     7.2098     7.2935   164.4375     0.0954    -0.0001     2.4920     0.3206     8.2427
  268.5000     7.2592     7.4944   166.8281     0.0960     0.0058     2.4928     0.3185     8.2575
  269.0000     7.3593     7.4934   167.4088     0.0973     0.0073     2.4919     0.3169     8.2419
  269.5000     7.4611     7.5445   161.9506     0.0982     0.0072     2.4897     0.3152     8.2263
  270.0000     7.5642     7.5505   156.7998     0.0988     0.0072     2.4889     0.3134     8.2410
  270.5000     7.6158     7.7009   161.6037     0.0970     0.0057     2.4889     0.3131     8.2405
  271.0000     7.6679     7.7531   163.0893     0.0949     0.0056     2.4905     0.3134     8.2400
  271.5000     7.8274     7.7521   161.8544     0.0934     0.0056     2.4941     0.3182     8.2396
  272.0000     7.8264     7.9136   160.9268     0.0915     0.0055     2.4964     0.3200     8.2240
  272.5000     7.8800     7.8579   160.6025     0.0885     0.0085     2.4979     0.3221     8.2236
  273.0000     7.8740     7.8027   162.1559     0.0879     0.0174     2.5002     0.3221     8.2382
  273.5000     7.7690     7.8017   164.4731     0.0907     0.0234     2.5038     0.3218     8.2378
  274.0000     7.6611     7.8004   165.0594     0.0928     0.0264     2.5031     0.3206     8.2373
  274.5000     7.6601     7.7456   163.2212     0.0912     0.0173     2.4993     0.3209     8.2368
  275.0000     7.6588     7.6911   160.4779     0.0840     0.0083     2.5023     0.3233     8.2364
  275.5000     7.6579     7.6370   159.2487     0.0807     0.0037     2.5098     0.3263     8.2360
  276.0000     7.6569     7.6358   159.2260     0.0838     0.0037     2.5158     0.3291     8.2355
  276.5000     7.6559     7.6881   162.2200     0.0883     0.0036     2.5090     0.3348     8.2351
  277.0000     7.6546     7.6869   167.6215     0.0898     0.0051     2.5029     0.3375     8.2346
  277.5000     7.7071     7.7928   168.8112     0.0844     0.0080     2.5021     0.3375     8.2341
  278.0000     7.7059     7.7918   167.5762     0.0762     0.0110     2.5104     0.3375     8.2337
  278.5000     7.7584     7.6306   162.1237     0.0738     0.0109     2.5232     0.3381     8.2333
  279.0000     7.5976     7.4728   162.6988     0.0761     0.0049     2.5284     0.3381     8.2327
  279.5000     7.3889     7.1675   163.2851     0.0871    -0.0014     2.5163     0.3381     8.2323
  280.0000     7.0381     6.9226   162.6535     0.0937    -0.0072     2.5080     0.3384     8.2319
  280.5000     6.8383     6.6862   163.8753     0.0952    -0.0103     2.4998     0.3457     8.2315
  281.0000     6.7028     6.5933   166.8257     0.1012    -0.0148     2.4922     0.3550     8.2310
  281.5000     6.6097     6.5923   169.2164     0.1114    -0.0131     2.4786     0.3637     8.2305
  282.0000     6.5632     6.5459   172.8137     0.1169     0.0001     2.4643     0.3664     8.2452
  282.5000     6.3827     6.4999   173.6960     0.1118     0.0151     2.4575     0.3592     8.2599
  283.0000     6.2074     6.2344   170.3494     0.1013     0.0120     2.4748     0.3476     8.2572
