~VERSION INFORMATION
 VERS.                2.0:   CWLS LOG ASCII STANDARD - VERSION 2.0
 WRAP.                 NO:   ONE LINE PER DEPTH STEP
~WELL INFORMATION
#MNEM.UNIT      DATA TYPE    INFORMATION
#----------   ------------   ------------------------------
 STRT.F            0.0000:   START DEPTH
 STOP.F          546.0000:   STOP DEPTH
 STEP.F            0.5000:   STEP LENGTH
 NULL.          -999.2500:   NO VALUE
 COMP. LAWRENCE/ALLISON INC:   COMPANY
 WELL.   NPR 3 #76-21SX10:   WELL
 FLD .             TEAPOT:   FIELD
 LOC .      S10 T38N R78W:   LOCATION
 CNTY.            NATRONA:   COUNTY
 STAT.            WYOMING:   STATE
 CTRY. UNITED STATES OF AMERICA:   COUNTRY
 SRVC.      Dresser Atlas:   SERVICE COMPANY
 DATE.        22-JUL-1984:   LOGDATE
 API .       490251097000:   API NUMBER
~CURVE INFORMATION
#MNEM.UNIT       API CODE    CURVE DESCRIPTION
#----------   ------------   ------------------------------
 DEPT.F                  :   
 CALD.IN     45 280 60 00:   CALIPER FROM DENSITY LOG
 DEN .G/C3   45 350 01 00:   COMPENSATED BULK DENSTIY
 CORR.G/C3   45 356 01 00:   DENSITY CORRECTION
 DPHI.DEC    45 890 12 00:   POROSITY DENSITY SANDSTONE
 CNC .DEC    42 890 03 00:   NEUTRON POROSITY SANDSTONE
 GRR .GAPI   07 310 01 00:   GAMMA RAY
 SPR .MV     07 010 01 00:   SPONTANEOUS POTENTIAL
 RILD.OHMM   07 120 46 00:   INDUCTION LOG DEEP RESISTIVITY
 RILM.OHMM   07 120 44 00:   INDUCTION LOG MEDIUM RESISTIVITY
 RFOC.OHMM   07 220 04 00:   RESISTIVITY FOCUSED LOG
 AC  .US/F   60 520 00 00:   ACCOUSTIC
~PARAMETER INFORMATION
#MNEM.UNIT          VALUE    DESCRIPTION
#----------   ------------   ------------------------------
 PD  .                 GL:   PERMANENT DATUM
 EPD .F              5167:   ELEVATION PERMANENT DATUM
 LMF .                 GL:   LOG MEASURED FROM
 DMF .                 GL:   DRILLING MEASURED FROM
 EGL .F              5167:   GROUND LEVEL
 DATE.        22-JUL-1984:   RUN DATE
 RUN .                  1:   RUN NUMBER
 DD  .F               551:   DEPTH DRILLER
 DL  .F               547:   DEPTH LOGGER
 BLI .F               544:   BOTTOM LOG INTERVAL
 CS  .IN            9.625:   CASING SIZE
 CBD .F                40:   CASING BOTTOM DRILLER
 CBL .F                42:   CASING BOTTOM LOGGER
 BS  .IN            7.875:   BIT SIZE
 BSD .F               551:   BIT SIZE AT DEPTH
 DFT .        KCL POLYMER:   DRILLING FLUID TYPE
 MSS .           FLOWLINE:   MUD SAMPLE SOURCE
 RMS .OHMM           .193:   RESISTIVITY MUD SAMPLE
 MST .F                75:   MUD SAMPLE TEMPERATURE
 RMF .OHMM           .144:   RESISTIVITY MUD FILTRATE SAMPLE
 MFST.F                75:   MUD FILTRATE SAMPLE TEMPERATURE
 RMC .OHMM            .24:   RESISTIVITY MUD CAKE
 MCST.F                74:   MUD CAKE SAMPLE TEMPERATURE
 MFSS.               CALC:   MUD FILTRATE SAMPLE SOURCE
 MCSS.               CALC:   MUD CAKE SAMPLE SOURCE
 TCS .HRS               5:   TIME CURCULATED STOPPED
 MRT .F                90:   MAXIMUM RECORDED TEMPERATURE
 LUN .               6274:   LOGGING UNIT NUMBER
 LUL .               GLTE:   LOGGING UNIT LOCATION
 ENGI.             RAUTIO:   RECORDING ENGINEER
 WITN.              FIVAS:   WITNESSED BY
 CLNT.            A2DTECH:   CLIENT CODE
 ORIG.       2", 5" PRINT:   ORIGIN OF DATA
 UWI .       490251097000:   UNIQUE WELL ID
 DICO. A2D Technologies, Inc.:   DIGITIZING COMPANY
~OTHER INFORMATION
~A    DEPT    CALD        DEN       CORR       DPHI        CNC         GRR       SPR       RILD       RILM       RFOC         AC   
# ...
  396.5000     7.9310     2.4910     0.0610     0.0970     0.2410    94.8770   -10.8710    12.0300     9.7230    13.3060    89.9680
  397.0000     7.9310     2.4970     0.0680     0.0930     0.2380    97.5580   -10.9890    12.0050     9.6230    13.0590    90.1740
  397.5000     7.9310     2.5010     0.0750     0.0900     0.2340    97.1130   -11.1020    11.9800     9.5030    12.8120    90.2280
  398.0000     7.9310     2.5060     0.0820     0.0880     0.2330    95.1170   -11.6110    11.8340     9.3790    12.5380    90.2610
  398.5000     7.9310     2.5110     0.0890     0.0850     0.2383    93.4400   -12.3120    11.6260     9.2560    12.5750    90.2990
  399.0000     7.9310     2.5170     0.0950     0.0820     0.2361    92.6990   -13.3550    11.4350     9.1320    12.6480    90.4960
  399.5000     7.9310     2.5160     0.0730     0.0800     0.2357    92.1210   -14.5750    11.1370     8.9940    12.5410    90.6970
  400.0000     7.9310     2.5080     0.0470     0.0860     0.2487    92.1230   -15.7950    10.8610     8.8500    12.3210    91.2850
  400.5000     7.9290     2.4960     0.0280     0.0910     0.2539    93.9280   -17.0190    10.5930     8.7050    12.0820    91.8210
  401.0000     7.9260     2.4970     0.0380     0.0930     0.2582    96.3630   -18.1480    10.3340     8.5550    11.8190    92.2350
  401.5000     7.9230     2.4990     0.0480     0.0920     0.2597    99.0380   -19.1650    10.0580     8.3930    11.5300    92.5250
  402.0000     7.9210     2.5010     0.0570     0.0900     0.2581   100.1050   -20.0890     9.7770     8.2220    11.2280    92.7860
  402.5000     7.9180     2.5030     0.0660     0.0880     0.2568    97.9070   -20.9630     9.2250     7.9200    11.1360    93.2550
  403.0000     7.9150     2.5010     0.0680     0.0890     0.2553    95.7260   -21.8210     8.5850     7.4430    11.0400    94.0800
  403.5000     7.9120     2.4950     0.0550     0.0920     0.2684    96.3180   -22.6050     7.5850     6.8450    10.9440    94.9750
  404.0000     7.9090     2.4900     0.0290     0.0960     0.2991    97.8020   -23.3370     6.8960     6.1930    10.5300    97.4880
  404.5000     7.9060     2.4840     0.0240     0.0990     0.3204   100.4170   -24.0710     6.2070     5.5050     9.9940   100.9200
  405.0000     7.9030     2.4740     0.0350     0.1050     0.3191   104.3940   -24.8130     5.9520     4.9210     8.8110   103.5700
  405.5000     7.9000     2.4490     0.0450     0.1180     0.3016   110.6500   -24.9680     5.8040     4.9410     6.9060   104.2290
  406.0000     7.8970     2.4100     0.0480     0.1350     0.2856   115.7620   -24.1620     5.7730     5.0760     5.8390   101.4520
  406.5000     7.8940     2.4210     0.0490     0.1450     0.2661   117.3250   -23.2190     5.7510     5.5300     5.5440    97.6270
  407.0000     7.8920     2.4490     0.0440     0.1300     0.2608   113.9860   -22.2670     6.0180     5.9830     7.1710    93.8030
  407.5000     7.8970     2.4760     0.0320     0.1100     0.2574   106.2500   -21.3140     6.2210     6.3000     9.7960    90.8960
  408.0000     7.9030     2.4950     0.0260     0.0970     0.2592    99.8510   -20.4150     6.8780     6.6640    11.6470    90.4980
  408.5000     7.9090     2.5030     0.0270     0.0910     0.2632    97.3770   -19.9520     7.5960     7.3050    11.5740    90.7960
  409.0000     7.9150     2.5160     0.0380     0.0860     0.2706    94.8310   -19.5150     8.3740     7.9990    11.4270    91.1280
  409.5000     7.9220     2.5220     0.0510     0.0760     0.2724    93.6060   -19.0570     9.1550     8.1360    11.2800    91.4180
  410.0000     7.9280     2.5210     0.0610     0.0780     0.2733    92.8830   -18.8800    10.0580     8.2860    11.1250    91.6920
  410.5000     7.9270     2.5150     0.0520     0.0820     0.2732    92.9100   -18.8390    10.1280     8.4360    11.2070    91.7660
  411.0000     7.9200     2.5130     0.0430     0.0830     0.2667    94.1550   -18.8400    10.2030     8.5850    11.2940    91.7330
  411.5000     7.9120     2.5100     0.0330     0.0840     0.2574    98.6300   -18.8950    10.2780     8.7350    11.3810    91.5670
  412.0000     7.9130     2.5080     0.0240     0.0850     0.2546   102.6370   -19.1020    10.3880     8.8850    11.5140    91.2940
  412.5000     7.9150     2.5110     0.0260     0.0850     0.2546   104.2950   -19.3050    10.6520     9.0350    11.7180    91.0140
  413.0000     7.9170     2.5150     0.0310     0.0820     0.2558   104.7730   -19.5460    10.9170     9.1120    11.9220    90.7030
  413.5000     7.9190     2.5170     0.0370     0.0800     0.2604   103.7080   -19.7810    11.1820     9.1420    12.1450    90.3920
  414.0000     7.9210     2.5170     0.0470     0.0800     0.2634   103.3990   -20.0070    11.3670     9.1730    12.4320    90.1050
  414.5000     7.9230     2.5180     0.0570     0.0800     0.2563   103.8050   -19.9330    11.5350     9.3770    12.6840    89.8290
  415.0000     7.9250     2.5200     0.0620     0.0790     0.2550   103.5590   -19.8530    11.7040     9.6160    12.8320    89.5520
  415.5000     7.9270     2.5190     0.0680     0.0790     0.2537   102.4600   -19.3600    11.8720     9.8140    13.0160    89.2760
  416.0000     7.9290     2.5130     0.0730     0.0820     0.2530   100.6660   -18.7970    12.0400     9.9910    13.2180    88.9990
  416.5000     7.9320     2.5070     0.0790     0.0860     0.2510    99.7790   -18.2190    12.1930    10.1510    13.6100    88.8060
  417.0000     7.9340     2.5060     0.0710     0.0870     0.2450   101.4210   -17.2190    12.3910    10.2200    13.6100    88.8060
  417.5000     7.9360     2.5040     0.0540     0.0880     0.2490   104.3730   -16.1970    12.5720    10.2840    13.6100    88.7190
  418.0000     7.9380     2.5000     0.0360     0.0900     0.2600   104.8500   -15.0730    12.7650    10.3470    13.6760    88.6070
  418.5000     7.9400     2.4960     0.0190     0.0930     0.2660   102.0480   -13.9090    12.8980    10.4100    13.8780    88.2590
  419.0000     7.9420     2.4910     0.0130     0.0960     0.2560    98.7550   -13.4570    13.0400    10.4740    14.0800    87.9100
  419.5000     7.9440     2.4880     0.0100     0.0990     0.2450    94.6970   -13.0400    13.1830    10.5370    14.2480    87.9100
  420.0000     7.9460     2.4900     0.0110     0.0980     0.2340    92.4960   -12.6240    13.3260    10.6010    14.0690    88.1720
  420.5000     7.9480     2.4930     0.0290     0.0950     0.2300    91.9510   -12.3590    13.4680    10.6270    13.7360    88.5070
  421.0000     7.9500     2.4960     0.0470     0.0940     0.2410    93.0300   -12.5030    13.6100    10.6270    13.7920    88.6130
  421.5000     7.9500     2.4960     0.0570     0.0950     0.2530    94.8390   -12.6430    13.5410    10.6270    13.8620    88.7100
  422.0000     7.9500     2.4900     0.0480     0.0990     0.2580    96.2320   -12.8990    13.4720    10.6270    14.2330    88.8060
  422.5000     7.9500     2.4810     0.0270     0.1040     0.2600    94.2890   -13.5040    13.4020    10.5940    14.5320    88.9020
  423.0000     7.9510     2.4740     0.0190     0.1070     0.2580    91.0460   -14.0920    13.3330    10.5190    14.6460    88.9990
  423.5000     7.9510     2.4770     0.0430     0.1050     0.2510    87.4970   -14.6990    13.2640    10.4440    14.4450    89.1040
  424.0000     7.9500     2.4890     0.0610     0.0990     0.2440    87.0230   -15.6620    13.2410    10.4160    14.1400    89.2640
  424.5000     7.9380     2.4990     0.0760     0.0930     0.2460    89.6940   -16.6520    13.2410    10.3950    13.8620    89.4420
  425.0000     7.9260     2.4970     0.0540     0.0910     0.2600    92.8340   -17.3550    13.2410    10.3740    13.4860    89.6020
  425.5000     7.9140     2.4890     0.0330     0.0970     0.2630    94.6580   -17.9780    13.1350    10.3530    13.4860    89.4200
  426.0000     7.9140     2.4830     0.0320     0.1010     0.2600    95.5960   -18.6040    12.9830    10.3380    13.5600    89.2540
  426.5000     7.9170     2.4870     0.0370     0.1000     0.2540    95.3040   -19.0670    12.8820    10.3390    13.7920    89.1040
