~VERSION INFORMATION
 VERS.                2.0:   CWLS LOG ASCII STANDARD - VERSION 2.0
 WRAP.                 NO:   ONE LINE PER DEPTH STEP
~WELL INFORMATION
#MNEM.UNIT      DATA TYPE    INFORMATION
#----------   ------------   ------------------------------
 STRT.F            0.0000:   START DEPTH
 STOP.F          551.0000:   STOP DEPTH
 STEP.F            0.1000:   STEP LENGTH
 NULL.          -999.2500:   NO VALUE
 COMP.       F D SERV INC:   COMPANY
 WELL.    62-2 SX-3 #62-3:   WELL
 FLD .          N.P.R. #3:   FIELD
 LOC .       S3 T38N R78W:   LOCATION
 CNTY.            NATRONA:   COUNTY
 STAT.            WYOMING:   STATE
 CTRY. UNITED STATES OF AMERICA:   COUNTRY
 SRVC.     Atlas Wireline:   SERVICE COMPANY
 DATE.        17-APR-1992:   LOGDATE
 API .       490252250700:   API NUMBER
~CURVE INFORMATION
#MNEM.UNIT       API CODE    CURVE DESCRIPTION
#----------   ------------   ------------------------------
 DEPT.F                  :   
 GRR .GAPI   07 310 01 00:   GAMMA RAY
 RILD.OHMM   07 120 46 00:   INDUCTION LOG DEEP RESISTIVITY
 RILM.OHMM   07 120 44 00:   INDUCTION LOG MEDIUM RESISTIVITY
~PARAMETER INFORMATION
#MNEM.UNIT          VALUE    DESCRIPTION
#----------   ------------   ------------------------------
 PD  .                 GL:   PERMANENT DATUM
 EPD .F              5130:   ELEVATION PERMANENT DATUM
 LMF .                 KB:   LOG MEASURED FROM
 DAPD.F                 5:   FEET ABOVE PERMANENT DATUM
 DMF .                 KB:   DRILLING MEASURED FROM
 EKB .F              5135:   KELLING BUSHING
 EDF .F              5134:   DRILLING FLOOR
 EGL .F              5130:   GROUND LEVEL
 DATE.        17-APR-1992:   RUN DATE
 RUN .                  1:   RUN NUMBER
 DD  .F               560:   DEPTH DRILLER
 DL  .F               560:   DEPTH LOGGER
 BLI .F               558:   BOTTOM LOG INTERVAL
 CS  .IN            8.625:   CASING SIZE
 CBD .F                47:   CASING BOTTOM DRILLER
 CBL .F                50:   CASING BOTTOM LOGGER
 BS  .IN            7.875:   BIT SIZE
 BSD .F               560:   BIT SIZE AT DEPTH
 DFT .                AIR:   DRILLING FLUID TYPE
 TCS .HRS               2:   TIME CURCULATED STOPPED
 MRT .F                83:   MAXIMUM RECORDED TEMPERATURE
 LUN .           HL- 6274:   LOGGING UNIT NUMBER
 LUL .             CASPER:   LOGGING UNIT LOCATION
 ENGI.            LEBSOCK:   RECORDING ENGINEER
 WITN.        GARY STRONG:   WITNESSED BY
 CLNT.            A2DTECH:   CLIENT CODE
 ORIG.           5" PRINT:   ORIGIN OF DATA
 UWI .       490252250700:   UNIQUE WELL ID
 DICO. A2D Technologies, Inc.:   DIGITIZING COMPANY
~OTHER INFORMATION
~A    DEPT      GRR      RILD       RILM   
# ...
  291.2000   146.6772     7.8361     7.6286
  291.3000   146.6819     7.8366     7.6201
  291.4000   146.9036     7.8585     7.6117
  291.5000   146.9925     7.8928     7.6033
  291.6000   147.1015     7.8933     7.5949
  291.7000   147.3519     7.8939     7.5865
  291.8000   147.6104     7.8944     7.5780
  291.9000   147.8526     7.8950     7.5696
  292.0000   148.1029     7.8956     7.5612
  292.1000   148.4783     7.9183     7.5548
  292.2000   148.9748     8.0568     7.5550
  292.3000   149.4590     8.0491     7.5552
  292.4000   149.7545     8.0011     7.5554
  292.5000   150.3632     8.0013     7.5556
  292.6000   150.8152     8.0015     7.5558
  292.7000   151.1543     8.0017     7.5530
  292.8000   151.6505     8.0020     7.5036
  292.9000   152.1959     8.0022     7.5038
  293.0000   152.4215     8.0024     7.5040
  293.1000   152.5065     8.0026     7.5043
  293.2000   152.5108     8.0029     7.4983
  293.3000   152.4625     8.0031     7.4524
  293.4000   152.2167     8.0033     7.4526
  293.5000   152.2209     8.0035     7.4528
  293.6000   152.0394     8.0037     7.4530
  293.7000   151.7976     8.0040     7.4440
  293.8000   151.5558     8.0042     7.4015
  293.9000   151.3139     7.9891     7.4017
  294.0000   151.0325     7.9435     7.3703
  294.1000   150.8302     7.8935     7.3506
  294.2000   150.4391     7.8937     7.3386
  294.3000   149.9513     7.8330     7.2998
  294.4000   149.5352     7.7640     7.3001
  294.5000   149.5405     7.7091     7.2661
  294.6000   149.0927     7.6211     7.2251
  294.7000   148.9434     7.5171     7.1844
  294.8000   148.9476     7.4484     7.1386
  294.9000   148.9519     7.3390     7.0504
  295.0000   148.9561     7.1988     6.9788
  295.1000   149.4524     7.0351     6.9003
  295.2000   149.5698     6.8639     6.7890
  295.3000   149.8401     6.7553     6.6366
  295.4000   150.3365     6.6400     6.4841
  295.5000   150.8130     6.5267     6.3426
  295.6000   151.1002     6.4252     6.1490
  295.7000   151.5235     6.3538     5.9774
  295.8000   152.0197     6.3116     5.8525
  295.9000   152.4193     6.2816     5.7537
  296.0000   152.7100     6.2679     5.6394
  296.1000   153.2390     6.2538     5.5874
  296.2000   153.2430     6.2117     5.5246
  296.3000   153.4208     6.1381     5.4844
  296.4000   153.5540     6.1044     5.4884
  296.5000   153.4977     6.0696     5.5231
  296.6000   153.2559     6.0532     5.5232
  296.7000   153.0140     6.0534     5.5234
  296.8000   152.3851     6.0535     5.5371
  296.9000   151.7881     6.0537     5.5624
  297.0000   151.3000     6.0538     5.5626
  297.1000   150.8364     6.0540     5.5934
  297.2000   150.5627     6.0542     5.6019
  297.3000   150.3526     6.0544     5.6182
  297.4000   150.2681     6.0546     5.6415
  297.5000   150.2723     6.0548     5.6430
  297.6000   150.2766     6.0549     5.6814
  297.7000   150.2810     6.0551     5.6815
  297.8000   150.5190     6.0553     5.7004
  297.9000   150.7694     6.0554     5.7218
  298.0000   151.0197     6.0556     5.7219
  298.1000   151.2054     6.0557     5.7221
  298.2000   151.2096     6.0559     5.7510
  298.3000   151.2148     6.0561     5.7625
  298.4000   151.0205     6.0477     5.7765
  298.5000   150.7786     6.0141     5.8032
  298.6000   150.3675     6.0144     5.8034
  298.7000   149.6614     6.0145     5.8352
  298.8000   149.1176     5.9943     5.8444
  298.9000   148.6855     5.9729     5.8446
  299.0000   148.0362     5.9730     5.8447
  299.1000   147.4072     5.9732     5.8439
  299.2000   146.9191     5.9413     5.8110
  299.3000   146.4153     5.9318     5.7783
  299.4000   145.9433     5.9150     5.7457
  299.5000   145.4554     5.8907     5.7025
  299.6000   145.0925     5.8888     5.6383
  299.7000   144.8505     5.8500     5.5668
  299.8000   144.5968     5.8219     5.5395
  299.9000   144.0207     5.7887     5.4884
  300.0000   144.1640     5.7423     5.4354
  300.1000   144.3388     5.6829     5.3957
  300.2000   144.5135     5.6494     5.3560
  300.3000   144.6883     5.6182     5.3163
  300.4000   144.8631     5.5862     5.2766
  300.5000   145.3406     5.5543     5.2369
  300.6000   146.0879     5.5226     5.1933
  300.7000   146.9023     5.4911     5.1668
  300.8000   148.5874     5.4559     5.1176
  300.9000   149.6689     5.4560     5.0595
  301.0000   150.7513     5.4356     5.0091
  301.1000   151.6400     5.4183     4.9814
  301.2000   152.3347     5.4184     4.9817
  301.3000   152.8381     5.4186     4.9820
  301.4000   152.8411     5.3877     4.9822
  301.5000   152.8441     5.3811     4.9825
  301.6000   152.5729     5.3812     4.9828
  301.7000   151.9144     5.3814     4.9831
  301.8000   150.9248     5.3855     5.0099
  301.9000   149.8309     5.4195     5.0186
  302.0000   148.7241     5.4196     5.0329
  302.1000   147.3194     5.4198     5.0700
  302.2000   145.9467     5.4348     5.1257
  302.3000   144.7674     5.4662     5.1261
  302.4000   143.7705     5.4979     5.1754
  302.5000   142.2841     5.5356     5.2170
  302.6000   141.1942     5.5618     5.2473
  302.7000   140.2053     5.6134     5.2777
  302.8000   139.3046     5.6660     5.3098
  302.9000   138.5286     5.7041     5.3684
  303.0000   137.4586     5.7739     5.4078
  303.1000   137.0055     5.8055     5.4553
  303.2000   136.5123     5.8636     5.5185
  303.3000   135.9001     5.9142     5.5799
  303.4000   135.2234     5.9485     5.6170
  303.5000   134.7301     5.9853     5.6727
  303.6000   134.1488     6.0651     5.7175
  303.7000   133.5400     6.0950     5.7644
  303.8000   132.7987     6.1527     5.8246
  303.9000   132.1524     6.2240     5.8592
  304.0000   131.7393     6.2890     5.8923
  304.1000   131.7430     6.3263     5.9524
  304.2000   131.9799     6.3979     6.0213
  304.3000   132.7696     6.4439     6.0910
  304.4000   134.0153     6.4813     6.1615
  304.5000   135.6487     6.5309     6.2416
  304.6000   137.5873     6.6026     6.2734
  304.7000   139.0231     6.6453     6.3338
  304.8000   139.8646     6.7135     6.3910
  304.9000   140.8600     6.7653     6.4362
  305.0000   141.6539     6.8221     6.5107
  305.1000   142.1069     6.8920     6.5485
  305.2000   142.3662     6.9319     6.5865
  305.3000   142.3691     6.9720     6.6247
  305.4000   142.3722     7.0124     6.6762
  305.5000   142.3752     7.0531     6.7488
  305.6000   142.3782     7.0939     6.7918
  305.7000   142.3590     7.1350     6.7921
  305.8000   142.0821     7.1798     6.8191
  305.9000   142.0847     7.2180     6.8587
  306.0000   142.2491     7.2306     6.8985
  306.1000   142.5002     7.2508     6.9385
  306.2000   142.7513     7.2818     6.9867
  306.3000   143.0046     7.2820     6.9870
  306.4000   143.7457     7.2823     6.9873
  306.5000   144.6848     7.2824     6.9878
  306.6000   145.2687     7.2573     6.9940
  306.7000   145.6852     7.2320     7.0376
  306.8000   146.4610     7.2252     7.0380
  306.9000   147.5616     7.1820     7.0099
  307.0000   148.2300     7.1822     6.9897
  307.1000   148.9772     7.1823     6.9901
  307.2000   149.6116     7.1614     6.9905
  307.3000   150.0524     7.1206     6.9910
  307.4000   150.2995     7.0799     6.9582
  307.5000   149.7981     7.0338     6.9188
  307.6000   149.1074     6.9651     6.8797
  307.7000   148.2234     6.8857     6.8407
  307.8000   147.4113     6.8072     6.8001
  307.9000   146.9179     6.7372     6.7635
  308.0000   146.3845     6.6982     6.6972
  308.1000   145.7035     6.6231     6.6406
  308.2000   145.3091     6.5477     6.5921
  308.3000   144.9450     6.4730     6.5173
  308.4000   144.4519     6.3992     6.4326
  308.5000   143.9787     6.3262     6.3394
  308.6000   143.9824     6.2462     6.2318
  308.7000   143.7811     6.0892     6.1116
  308.8000   143.6853     5.9623     5.9667
  308.9000   143.6884     5.8757     5.7940
  309.0000   143.6914     5.8165     5.6351
  309.1000   143.6946     5.7827     5.4531
  309.2000   143.6975     5.7168     5.3011
  309.3000   143.7005     5.6517     5.1905
