~VERSION INFORMATION
 VERS.                2.0:   CWLS LOG ASCII STANDARD - VERSION 2.0
 WRAP.                 NO:   ONE LINE PER DEPTH STEP
~WELL INFORMATION
#MNEM.UNIT      DATA TYPE    INFORMATION
#----------   ------------   ------------------------------
 STRT.F           21.0000:   START DEPTH
 STOP.F          543.0000:   STOP DEPTH
 STEP.F            0.5000:   STEP LENGTH
 NULL.          -999.2500:   NO VALUE
 COMP. FENIX & SCISSON INC:   COMPANY
 WELL.      NPR #3 #46-10:   WELL
 FLD .             TEAPOT:   FIELD
 LOC .      S10 T38N R78W:   LOCATION
 CNTY.            NATRONA:   COUNTY
 STAT.            WYOMING:   STATE
 CTRY. UNITED STATES OF AMERICA:   COUNTRY
 SRVC.              Welex:   SERVICE COMPANY
 DATE.        08-MAY-1980:   LOGDATE
 API .       490251081100:   API NUMBER
~CURVE INFORMATION
#MNEM.UNIT       API CODE    CURVE DESCRIPTION
#----------   ------------   ------------------------------
 DEPT.F                  :   
 SGRD.OHMM   07 220 05 00:   SHALLOW GUARD RESISTIVITY
 ILD .OHMM   07 120 46 00:   INDUCTION LOG DEEP RESISTIVITY
 ILM .OHMM   07 120 44 00:   INDUCTION LOG MEDIUM
 SPR .MV     07 010 01 00:   SPONTANEOUS POTENTIAL
 CALD.IN     45 280 60 00:   CALIPER
 GRD .GAPI   45 310 01 00:   GAMMA RAY FROM DENSITY LOG
 CORR.G/C3   45 356 01 00:   DENSITY CORRECTION
 RHOB.G/C3   45 350 01 00:   BULK DENSITY
 DPHI.DEC    45 890 12 00:   DENSITY POROSITY SANDSTONE
~PARAMETER INFORMATION
#MNEM.UNIT          VALUE    DESCRIPTION
#----------   ------------   ------------------------------
 PD  .                 GL:   PERMANENT DATUM
 EPD .F              5206:   ELEVATION PERMANENT DATUM
 LMF .                 KB:   LOG MEASURED FROM
 DAPD.F                 5:   FEET ABOVE PERMANENT DATUM
 DMF .                 KB:   DRILLING MEASURED FROM
 EKB .F              5211:   KELLING BUSHING
 EGL .F              5206:   GROUND LEVEL
 DATE.             5-8-80:   RUN DATE
 RUN .                  1:   RUN NUMBER
 DD  .F               530:   DEPTH DRILLER
 DL  .F               543:   DEPTH LOGGER
 BLI .F               541:   BOTTOM LOG INTERVAL
 TLI .F                30:   TOP LOG INTERVAL
 BS  .IN            7.875:   BIT SIZE
 BSD .F               530:   BIT SIZE AT DEPTH
 DFT .            KCL MUD:   DRILLING FLUID TYPE
 DFD .                9.1:   DRILLING FLUID DENSITY
 DFV .                 43:   DRILLING FLUID VISCOSITY
 MSS .                PIT:   MUD SAMPLE SOURCE
 RMS .OHMM            .89:   RESISTIVITY MUD SAMPLE
 MST .F                75:   MUD SAMPLE TEMPERATURE
 RMF .OHMM            .71:   RESISTIVITY MUD FILTRATE SAMPLE
 MFST.F                75:   MUD FILTRATE SAMPLE TEMPERATURE
 RMC .OHMM           1.08:   RESISTIVITY MUD CAKE
 MCST.F                75:   MUD CAKE SAMPLE TEMPERATURE
 MFSS.           MEASURED:   MUD FILTRATE SAMPLE SOURCE
 MCSS.           MEASURED:   MUD CAKE SAMPLE SOURCE
 BHT .F               100:   BOTTOM HOLE TEMPERATURE
 TCS .HRS               2:   TIME CURCULATED STOPPED
 MRT .F               100:   MAXIMUM RECORDED TEMPERATURE
 LUN .               9685:   LOGGING UNIT NUMBER
 LUL .             CASPER:   LOGGING UNIT LOCATION
 ENGI.            TOTHILL:   RECORDING ENGINEER
 WITN.              AMEND:   WITNESSED BY
 CLNT.            A2DTECH:   CLIENT CODE
 ORIG.           5" PRINT:   ORIGIN OF DATA
 UWI .       490251081100:   UNIQUE WELL ID
 DICO. A2D Technologies, Inc.:   DIGITIZING COMPANY
~OTHER INFORMATION
~A   DEPT     SGRD        ILD        ILM        SPR        CALD        GRD        CORR       RHOB     DPHI   
# ...
  349.5000    20.6690    14.4841    18.3357   -29.8534     7.8390    81.0620     0.0176     2.3029     0.2249
  350.0000    20.6905    14.4848    18.3605   -29.5997     7.8401    81.2888     0.0159     2.3070     0.2197
  350.5000    20.7122    14.4864    18.3973   -29.3454     7.8446    81.7376     0.0156     2.3012     0.2220
  351.0000    20.7335    14.3484    18.4075   -29.0918     7.8489    82.2408     0.0192     2.3098     0.2212
  351.5000    20.7505    14.2045    18.2385   -28.8925     7.8533    82.4237     0.0226     2.3212     0.2139
  352.0000    20.3739    14.0605    17.8984   -28.9342     7.8581    81.9287     0.0276     2.3312     0.2087
  352.5000    20.0650    13.9596    17.4895   -28.9705     7.8445    81.4267     0.0317     2.3384     0.1997
  353.0000    19.7607    13.8315    17.0900   -29.0067     7.8246    80.9764     0.0295     2.3354     0.2031
  353.5000    19.4610    13.8315    16.6996   -29.0427     7.8035    80.9874     0.0271     2.3294     0.2062
  354.0000    19.1437    13.8316    16.3197   -29.0788     7.8139    80.9174     0.0248     2.3171     0.2124
  354.5000    18.7953    13.8314    15.9368   -29.1149     7.8343    80.3671     0.0252     2.3211     0.2152
  355.0000    18.4532    13.8345    15.6889   -29.1509     7.8389    79.8147     0.0282     2.3248     0.2095
  355.5000    18.1173    13.8315    15.4576   -29.1870     7.8390    79.7773     0.0236     2.3162     0.2149
  356.0000    17.7876    13.6272    15.2786   -29.2230     7.8390    80.1642     0.0199     2.3107     0.2197
  356.5000    17.4639    13.4779    15.1876   -29.2591     7.8390    80.2553     0.0224     2.3208     0.2120
  357.0000    17.1460    13.3307    15.1674   -29.2952     7.8390    80.0910     0.0224     2.3260     0.2094
  357.5000    16.7878    13.2084    15.1672   -29.3312     7.8390    80.2772     0.0219     2.3244     0.2097
  358.0000    17.0869    13.0872    15.1674   -29.3673     7.8406    80.6099     0.0219     2.3287     0.2090
  358.5000    17.4462    13.0872    15.1674   -29.4036     7.8451    81.1057     0.0225     2.3312     0.2069
  359.0000    17.9053    12.9671    15.1674   -29.4417     7.8497    81.6569     0.0231     2.3347     0.2057
  359.5000    17.7214    12.9801    15.0656   -29.4642     7.8542    81.7664     0.0239     2.3366     0.2040
  360.0000    17.4812    12.9973    14.8868   -29.1677     7.8588    81.5713     0.0260     2.3392     0.2030
  360.5000    17.2445    13.0146    14.7101   -28.8627     7.8633    81.3681     0.0274     2.3490     0.1977
  361.0000    17.0106    13.0318    14.6182   -28.5595     7.8678    81.2884     0.0266     2.3491     0.1959
  361.5000    16.7798    13.0492    14.7106   -28.2560     7.8723    81.4064     0.0258     2.3482     0.1956
  362.0000    16.5527    13.0664    15.0062   -27.9536     7.8771    82.1035     0.0288     2.3510     0.1947
  362.5000    16.3283    13.0838    15.3078   -27.7102     7.8656    82.7666     0.0333     2.3663     0.1849
  363.0000    16.4092    13.0896    15.1960   -27.6753     7.8441    82.7735     0.0357     2.3772     0.1792
  363.5000    16.4905    12.9862    15.0280   -27.6366     7.8224    83.3057     0.0337     2.3807     0.1766
  364.0000    16.5721    12.8321    15.0272   -27.5981     7.8005    83.6992     0.0299     2.3745     0.1815
  364.5000    16.6542    12.7302    15.1481   -27.5592     7.7801    83.3438     0.0299     2.3767     0.1779
  365.0000    16.7367    12.7302    15.3078   -27.5039     7.7855    82.9249     0.0283     2.3722     0.1814
  365.5000    16.7863    12.7302    15.3078   -27.3800     7.7920    82.5090     0.0291     2.3709     0.1823
  366.0000    16.3116    12.6133    15.2022   -27.2587     7.7993    82.2690     0.0320     2.3799     0.1797
  366.5000    15.8964    12.6184    15.0957   -27.1373     7.7607    82.7427     0.0347     2.3880     0.1731
  367.0000    15.9783    12.6123    15.0219   -27.0176     7.7140    83.1998     0.0357     2.3936     0.1722
  367.5000    16.1159    12.6154    14.8867   -26.9768     7.6670    83.6554     0.0359     2.3915     0.1678
  368.0000    16.2546    12.6133    15.0587   -27.0555     7.6600    84.1111     0.0298     2.3807     0.1720
  368.5000    16.3946    12.4976    15.1388   -27.1329     7.6599    84.5660     0.0266     2.3740     0.1798
  369.0000    16.5357    12.3829    15.2193   -27.2108     7.6600    85.0289     0.0266     2.3758     0.1800
  369.5000    16.6780    12.3829    15.3078   -27.2874     7.6600    85.0351     0.0266     2.3712     0.1818
  370.0000    16.8216    12.4757    15.4081   -27.3375     7.6600    84.8235     0.0276     2.3716     0.1820
  370.5000    17.0986    12.5789    15.7178   -27.4132     7.6600    84.6020     0.0364     2.3834     0.1785
  371.0000    16.9764    12.6829    16.0316   -27.4915     7.6600    84.8398     0.0359     2.3869     0.1741
  371.5000    16.8521    12.7878    15.9303   -27.5690     7.6601    85.1432     0.0353     2.3870     0.1727
  372.0000    16.7287    12.8935    15.8075   -27.6451     7.6600    85.4549     0.0347     2.3807     0.1767
  372.5000    16.6063    12.9671    15.6857   -27.7312     7.6572    85.0420     0.0366     2.3906     0.1713
  373.0000    16.4847    12.9671    15.5654   -28.0464     7.6450    84.5409     0.0383     2.3948     0.1686
  373.5000    16.3640    12.9671    15.4459   -28.3693     7.6330    84.0378     0.0361     2.3922     0.1698
  374.0000    16.2446    12.8073    15.3274   -28.6908     7.6203    83.5304     0.0338     2.3896     0.1714
  374.5000    16.1778    12.6110    15.1562   -29.0202     7.6646    83.3851     0.0377     2.3954     0.1708
  375.0000    16.0236    12.4169    14.9763   -29.1136     7.7146    83.3871     0.0423     2.4103     0.1631
  375.5000    15.8781    12.2260    14.7985   -29.1495     7.7650    83.1478     0.0443     2.4121     0.1565
  376.0000    15.7341    12.0381    14.6227   -29.1844     7.8165    82.8156     0.0396     2.3976     0.1619
  376.5000    15.5927    11.8531    14.4477   -29.2200     7.8195    82.4817     0.0351     2.3969     0.1672
  377.0000    15.4496    11.6709    14.3517   -29.2556     7.8192    82.1484     0.0342     2.3959     0.1667
  377.5000    15.2979    11.3969    14.5235   -29.2913     7.8191    81.8121     0.0339     2.3906     0.1707
  378.0000    15.4336    11.2923    14.6472   -29.3269     7.8191    81.1827     0.0347     2.3937     0.1699
  378.5000    15.7192    11.2923    14.8617   -29.3625     7.8191    79.8839     0.0387     2.4021     0.1665
  379.0000    16.4257    11.6090    15.6391   -29.3982     7.8191    78.5949     0.0396     2.3883     0.1646
  379.5000    17.8575    12.2331    16.4623   -29.4338     7.8191    77.3062     0.0297     2.3649     0.1829
  380.0000    19.4141    13.1416    17.4658   -29.4694     7.8191    76.0175     0.0263     2.3433     0.1979
  380.5000    21.4105    14.1175    19.0669   -29.5051     7.8191    74.7256     0.0273     2.3340     0.2089
  381.0000    23.6689    14.6182    20.7965   -29.5407     7.8191    73.4440     0.0262     2.3163     0.2199
  381.5000    25.1774    15.4740    22.6876   -29.5764     7.8191    72.2718     0.0227     2.2931     0.2309
  382.0000    27.5429    17.2430    24.7488   -29.6121     7.8192    72.2998     0.0175     2.2695     0.2419
  382.5000    28.9195    19.2144    26.9980   -29.6474     7.8186    72.3126     0.0114     2.2529     0.2529
  383.0000    29.1873    21.4111    28.5547   -29.6695     7.7970    72.6643     0.0120     2.2524     0.2532
  383.5000    31.8649    23.8589    30.0311   -29.6692     7.7742    73.0414     0.0152     2.2624     0.2500
  384.0000    39.5044    26.5866    31.5838   -29.6693     7.7635    73.4177     0.0202     2.2729     0.2423
  384.5000    43.3877    28.6541    32.6018   -29.6693     7.7756    73.7935     0.0201     2.2736     0.2398
  385.0000    27.3631    29.0474    32.9565   -29.6693     7.7876    74.1685     0.0152     2.2568     0.2471
  385.5000    28.3911    29.2750    33.2060   -29.6693     7.7976    74.5173     0.0116     2.2450     0.2568
