~VERSION INFORMATION
 VERS.                2.0:   CWLS LOG ASCII STANDARD - VERSION 2.0
 WRAP.                 NO:   ONE LINE PER DEPTH STEP
~WELL INFORMATION
#MNEM.UNIT      DATA TYPE    INFORMATION
#----------   ------------   ------------------------------
 STRT.F          371.0000:   START DEPTH
 STOP.F         1998.0000:   STOP DEPTH
 STEP.F            0.5000:   STEP LENGTH
 NULL.          -999.2500:   NO VALUE
 COMP.       ANADARKO PET:   COMPANY
 WELL. StX-21 NPR #3 #17-21:   WELL
 FLD .             TEAPOT:   FIELD
 LOC .      S21 T39N R78W:   LOCATION
 CNTY.            NATRONA:   COUNTY
 STAT.            WYOMING:   STATE
 CTRY. UNITED STATES OF AMERICA:   COUNTRY
 SRVC.            Unknown:   SERVICE COMPANY
 DATE.        11-OCT-1994:   LOGDATE
 API .       490252266400:   API NUMBER
~CURVE INFORMATION
#MNEM.UNIT       API CODE    CURVE DESCRIPTION
#----------   ------------   ------------------------------
 DEPT.F                  :   
 ROP .MIN/FT 91 810 01 00:   RATE OF DRILLING PENETRATION
 TGAS.UNITS  91 830 01 00:   TOTAL GAS FROM HOTWIRE
~PARAMETER INFORMATION
#MNEM.UNIT          VALUE    DESCRIPTION
#----------   ------------   ------------------------------
 DATE.         10-11-1994:   RUN DATE
 RUN .                  1:   RUN NUMBER
 DD  .F              1997:   DEPTH DRILLER
 BLI .F              2000:   BOTTOM LOG INTERVAL
 TLI .F               360:   TOP LOG INTERVAL
 CS  .IN                7:   CASING SIZE
 CBD .F               344:   CASING BOTTOM DRILLER
 ENGI.   C. TOWER R. HUSK:   RECORDING ENGINEER
 CLNT.            A2DTECH:   CLIENT CODE
 ORIG.         2.5" PRINT:   ORIGIN OF DATA
 UWI .       490252266400:   UNIQUE WELL ID
 DICO. A2D Technologies, Inc.:   DIGITIZING COMPANY
~OTHER INFORMATION
~A   DEPT        ROP       TGAS 
# ...
 1707.5000     0.3615    10.0131
 1708.0000     0.3423    10.0116
 1708.5000     0.3346    10.0097
 1709.0000     0.3160    10.0079
 1709.5000     0.3160    10.0058
 1710.0000     0.3160    10.0041
 1710.5000     0.3160    10.0021
 1711.0000     0.3160    10.0004
 1711.5000     0.3160     9.9986
 1712.0000     0.3160     9.9967
 1712.5000     0.3160     9.9948
 1713.0000     0.3160     9.9927
 1713.5000     0.3903     9.9911
 1714.0000     0.4647     9.9893
 1714.5000     0.4647     9.9872
 1715.0000     0.4647     9.9855
 1715.5000     0.4647     9.9837
 1716.0000     0.4647     9.9815
 1716.5000     0.4647     9.9799
 1717.0000     0.4647     9.9781
 1717.5000     0.4647     9.9762
 1718.0000     0.4647     9.9744
 1718.5000     0.4713     9.9724
 1719.0000     0.4833     9.9707
 1719.5000     0.4833     9.9688
 1720.0000     0.5019     9.9669
 1720.5000     0.5019     9.9648
 1721.0000     0.5204     9.9632
 1721.5000     0.5204     9.9614
 1722.0000     0.5204     9.9595
 1722.5000     0.5390     9.9576
 1723.0000     0.5390     9.9558
 1723.5000     0.5390     9.9538
 1724.0000     0.5390     9.9521
 1724.5000     0.5390     9.9502
 1725.0000     0.5390     9.9483
 1725.5000     0.5390     9.9465
 1726.0000     0.5576     9.9444
 1726.5000     0.5576     9.9428
 1727.0000     0.5576     9.9408
 1727.5000     0.5576     9.9390
 1728.0000     0.5576     9.9372
 1728.5000     0.5576     9.9353
 1729.0000     0.5576     9.9335
 1729.5000     0.5576     9.9316
 1730.0000     0.5576     9.9298
 1730.5000     0.5576     9.9279
 1731.0000     0.5576     9.9260
 1731.5000     0.5576     9.9242
 1732.0000     0.5576     9.9223
 1732.5000     0.5576     9.9201
 1733.0000     0.5576     9.9183
 1733.5000     0.5576     9.9164
 1734.0000     0.5576     9.9146
 1734.5000     0.5576     9.9128
 1735.0000     0.5762     9.9110
 1735.5000     0.5576     9.9092
 1736.0000     0.5576     9.9073
 1736.5000     0.5762     9.9055
 1737.0000     0.5948     9.9034
 1737.5000     0.5948     9.9019
 1738.0000     0.5948     9.9000
 1738.5000     0.5948     9.8981
 1739.0000     0.5948     9.8963
 1739.5000     0.5948     9.8943
 1740.0000     0.5948     9.8924
 1740.5000     0.5948     9.8907
 1741.0000     0.5948     9.8888
 1741.5000     0.5948     9.8867
 1742.0000     0.5948     9.8848
 1742.5000     0.5948     9.8830
 1743.0000     0.5948     9.8812
 1743.5000     0.5948     9.8795
 1744.0000     0.5948     9.8777
 1744.5000     0.5948     9.8758
 1745.0000     0.5948     9.8736
 1745.5000     0.5948     9.8721
 1746.0000     0.6134     9.8700
 1746.5000     0.6134     9.8684
 1747.0000     0.6134     9.8665
 1747.5000     0.6134     9.8647
 1748.0000     0.6134     9.8628
 1748.5000     0.6415     9.8610
 1749.0000     0.6414     9.8591
 1749.5000     0.6413     9.8572
 1750.0000     0.5855     9.8554
 1750.5000     0.4181     9.8535
 1751.0000     0.4180     9.8517
 1751.5000     0.4179     9.8498
 1752.0000     0.4178     9.8479
 1752.5000     0.4178     9.8461
 1753.0000     0.4363     9.8441
 1753.5000     0.4362     9.8424
 1754.0000     0.4361     9.8402
 1754.5000     0.4432     9.8386
 1755.0000     0.4545     9.8368
 1755.5000     0.4730     9.8349
 1756.0000     0.4729     9.8331
 1756.5000     0.4914     9.8312
 1757.0000     0.5098     9.8292
 1757.5000     0.5283     9.8275
 1758.0000     0.5282     9.8256
 1758.5000     0.5282     9.8238
 1759.0000     0.5281     9.8219
 1759.5000     0.5280     9.8200
 1760.0000     0.5279     9.8182
 1760.5000     0.5278     9.8162
 1761.0000     0.5277     9.8145
 1761.5000     0.5276     9.8126
 1762.0000     0.5275     9.8107
 1762.5000     0.5274     9.8089
 1763.0000     0.5273     9.8070
 1763.5000     0.5272     9.8049
 1764.0000     0.5271     9.8033
 1764.5000     0.5084     9.8014
 1765.0000     0.5084     9.7996
 1765.5000     0.5083     9.7977
 1766.0000     0.5082     9.7959
 1766.5000     0.5081     9.7940
 1767.0000     0.5080     9.7921
 1767.5000     0.5079     9.7903
 1768.0000     0.5078     9.7884
 1768.5000     0.4891     9.7866
 1769.0000     0.4890     9.7847
 1769.5000     0.4889     9.7829
 1770.0000     0.4888     9.7810
 1770.5000     0.4888     9.7791
 1771.0000     0.4887     9.7770
 1771.5000     0.4886     9.7754
 1772.0000     0.4885     9.7736
 1772.5000     0.4884     9.7715
 1773.0000     0.4883     9.7698
 1773.5000     0.4882     9.7679
 1774.0000     0.4881     9.7661
 1774.5000     0.4880     9.7642
 1775.0000     0.4879     9.7621
 1775.5000     0.5064     9.7605
 1776.0000     0.5249     9.7584
 1776.5000     0.5248     9.7568
 1777.0000     0.5247     9.7548
 1777.5000     0.5246     9.7531
 1778.0000     0.5245     9.7512
 1778.5000     0.5244     9.7494
 1779.0000     0.5243     9.7475
 1779.5000     0.5057     9.7454
 1780.0000     0.5056     9.7438
 1780.5000     0.4869     9.7417
 1781.0000     0.4868     9.7401
 1781.5000     0.4867     9.7382
 1782.0000     0.5981     9.7364
 1782.5000     0.6166     9.7341
 1783.0000     0.5980     9.7323
 1783.5000     0.5979     9.7308
 1784.0000     0.5606     9.7289
 1784.5000     0.5419     9.7271
 1785.0000     0.5418     9.7252
 1785.5000     0.5417     9.7233
 1786.0000     0.5230     9.7215
 1786.5000     0.5230     9.7196
 1787.0000     0.5229     9.7174
 1787.5000     0.5292     9.7159
 1788.0000     0.5413     9.7141
 1788.5000     0.5412     9.7122
 1789.0000     0.5597     9.7103
 1789.5000     0.5781     9.7085
 1790.0000     0.5966     9.7066
 1790.5000     0.5966     9.7048
 1791.0000     0.5965     9.7029
 1791.5000     0.5964     9.7010
 1792.0000     0.5963     9.6992
 1792.5000     0.6148     9.6973
 1793.0000     0.6147     9.6955
 1793.5000     0.6146     9.6936
 1794.0000     0.6145     9.6917
 1794.5000     0.6144     9.8982
 1795.0000     0.6143    10.0599
 1795.5000     0.6142    10.0577
 1796.0000     0.6141    10.0559
 1796.5000     0.6140    10.0541
 1797.0000     0.6139    10.0523
 1797.5000     0.6138    10.0504
 1798.0000     0.5952    10.0486
 1798.5000     0.5579    10.0468
 1799.0000     0.5578    10.0450
 1799.5000     0.5577     9.6712
 1800.0000     0.5576     9.6694
 1800.5000     0.5575     9.2938
 1801.0000     0.5574     9.6621
 1801.5000     0.5573     9.6583
 1802.0000     0.5758     9.6545
 1802.5000     0.5757     9.6508
 1803.0000     0.5757     9.6471
 1803.5000     0.5756     9.6434
 1804.0000     0.5755    10.0116
 1804.5000     0.5754    10.0078
 1805.0000     0.5753    10.0041
 1805.5000     0.5752    10.0004
 1806.0000     0.5751     9.9967
 1806.5000     0.5750     9.9926
 1807.0000     0.5749     9.9893
 1807.5000     0.5748     9.9855
 1808.0000     0.5747     9.9818
 1808.5000     0.5746     9.9774
 1809.0000     0.5745     9.9743
 1809.5000     0.5744     9.9707
 1810.0000     0.5743     9.9669
 1810.5000     0.5743     9.9632
 1811.0000     0.5742     9.9595
 1811.5000     0.5741     9.9558
 1812.0000     0.5740     9.9518
 1812.5000     0.5739     9.9483
 1813.0000     0.5738     9.9446
 1813.5000     0.5737     9.9409
 1814.0000     0.5736     9.9365
 1814.5000     0.5735     9.9335
 1815.0000     0.5734     9.9298
 1815.5000     0.5733     9.9260
 1816.0000     0.5732     9.9223
 1816.5000     0.5731     9.9186
 1817.0000     0.5730     9.9149
 1817.5000     0.5730     9.9112
 1818.0000     0.5729     9.9073
 1818.5000     0.5728     9.9037
 1819.0000     0.5727     9.9000
 1819.5000     0.5726     9.8963
 1820.0000     0.5725     9.8926
 1820.5000     0.5724     9.8888
 1821.0000     0.5723     9.8851
 1821.5000     0.5722     9.8814
 1822.0000     0.5721     9.8775
 1822.5000     0.5720     9.8738
 1823.0000     0.5719     9.8701
 1823.5000     0.5718     9.8665
 1824.0000     0.5717     9.8622
 1824.5000     0.5717     9.8591
 1825.0000     0.5716     9.8554
 1825.5000     0.5715     9.8513
 1826.0000     0.5714     9.8476
 1826.5000     0.5713     9.8440
 1827.0000     0.5712     9.8403
 1827.5000     0.5711     9.8366
 1828.0000     0.5710     9.8330
 1828.5000     0.5709     9.8293
