~VERSION INFORMATION
 VERS.                2.0:   CWLS LOG ASCII STANDARD - VERSION 2.0
 WRAP.                 NO:   ONE LINE PER DEPTH STEP
~WELL INFORMATION
#MNEM.UNIT      DATA TYPE    INFORMATION
#----------   ------------   ------------------------------
 STRT.F           67.0000:   START DEPTH
 STOP.F          510.0000:   STOP DEPTH
 STEP.F            0.5000:   STEP LENGTH
 NULL.          -999.2500:   NO VALUE
 COMP.       F D SERV INC:   COMPANY
 WELL.    77-5 SX 3 #77-3:   WELL
 FLD .             TEAPOT:   FIELD
 LOC .       S3 T38N R78W:   LOCATION
 CNTY.            NATRONA:   COUNTY
 STAT.            WYOMING:   STATE
 CTRY. UNITED STATES OF AMERICA:   COUNTRY
 SRVC.     Atlas Wireline:   SERVICE COMPANY
 DATE.        24-NOV-1992:   LOGDATE
 API .       490252254400:   API NUMBER
~CURVE INFORMATION
#MNEM.UNIT       API CODE    CURVE DESCRIPTION
#----------   ------------   ------------------------------
 DEPT.F                  :   
 PORZ.DEC    45 890 12 00:   DENSITY POROSITY
 NPOR.DEC    42 890 03 00:   NEUTRON POROSITY SANDSTONE
 C13 .IN     45 280 13 00:   CALIPER 1 - 3
 GRD .GAPI   45 310 01 00:   GAMMA RAY FROM DENSITY LOG
 ZCOR.G/C3   45 356 01 00:   DENSITY CORRECTION
 ZDEN.G/C3   45 350 01 00:   BULK DENSITY
~PARAMETER INFORMATION
#MNEM.UNIT          VALUE    DESCRIPTION
#----------   ------------   ------------------------------
 PD  .                 GL:   PERMANENT DATUM
 EPD .F              5137:   ELEVATION PERMANENT DATUM
 LMF .                 KB:   LOG MEASURED FROM
 DAPD.F                10:   FEET ABOVE PERMANENT DATUM
 DMF .                 KB:   DRILLING MEASURED FROM
 EKB .F              5147:   KELLING BUSHING
 EDF .F              5146:   DRILLING FLOOR
 EGL .F              5137:   GROUND LEVEL
 DATE.        24-NOV-1992:   RUN DATE
 RUN .                  1:   RUN NUMBER
 DD  .F               510:   DEPTH DRILLER
 DL  .F               512:   DEPTH LOGGER
 BLI .F               510:   BOTTOM LOG INTERVAL
 TLI .F                99:   TOP LOG INTERVAL
 CS  .IN            8.625:   CASING SIZE
 CBD .F                97:   CASING BOTTOM DRILLER
 CBL .F                99:   CASING BOTTOM LOGGER
 BS  .IN            7.875:   BIT SIZE
 BSD .F               510:   BIT SIZE AT DEPTH
 DFT .           AIR FOAM:   DRILLING FLUID TYPE
 MRT .F                70:   MAXIMUM RECORDED TEMPERATURE
 LUN .            HL-6274:   LOGGING UNIT NUMBER
 LUL .             CASPER:   LOGGING UNIT LOCATION
 WITN.           G.STRONG:   WITNESSED BY
 CLNT.            A2DTECH:   CLIENT CODE
 ORIG.           5" PRINT:   ORIGIN OF DATA
 UWI .       490252254400:   UNIQUE WELL ID
 DICO. A2D Technologies, Inc.:   DIGITIZING COMPANY
~OTHER INFORMATION
~A   DEPT     PORZ       NPOR        C13        GRD       ZCOR       ZDEN   
# ...
  275.0000     0.0906     0.3370     7.9908   163.5358     0.0173     2.4965
  275.5000     0.0860     0.3333     7.9902   161.3607     0.0112     2.5014
  276.0000     0.0848     0.3288     7.9896   160.1406     0.0082     2.5095
  276.5000     0.0848     0.3258     7.9890   159.2689     0.0081     2.5102
  277.0000     0.0855     0.3234     7.9884   163.2068     0.0081     2.5102
  277.5000     0.0852     0.3201     7.9878   165.0233     0.0125     2.5109
  278.0000     0.0840     0.3167     7.9872   163.1949     0.0170     2.5109
  278.5000     0.0834     0.3146     7.9866   161.3680     0.0184     2.5109
  279.0000     0.0849     0.3149     7.9860   160.7551     0.0169     2.5094
  279.5000     0.0868     0.3149     8.0006   160.7491     0.0123     2.5041
  280.0000     0.0891     0.3113     7.9999   158.9222     0.0122     2.4995
  280.5000     0.0910     0.3119     7.9993   156.7918     0.0121     2.4980
  281.0000     0.0931     0.3079     7.9987   157.6965     0.0136     2.4973
  281.5000     0.0934     0.3065     7.9981   159.5113     0.0166     2.4957
  282.0000     0.0877     0.3077     7.9975   161.3263     0.0180     2.5019
  282.5000     0.0813     0.3098     7.9969   158.8315     0.0179     2.5111
  283.0000     0.0807     0.3119     7.9963   156.7091     0.0179     2.5180
  283.5000     0.0834     0.3138     8.0109   157.6650     0.0178     2.5131
  284.0000     0.0874     0.3147     8.0103   160.3905     0.0163     2.5018
  284.5000     0.0886     0.3174     8.0097   161.5985     0.0177     2.5002
  285.0000     0.0868     0.3211     8.0091   162.2010     0.0176     2.5055
  285.5000     0.0846     0.3220     8.0102   162.1935     0.0191     2.5093
  286.0000     0.0853     0.3192     8.0231   161.2771     0.0190     2.5093
  286.5000     0.0850     0.3142     8.0224   159.4502     0.0175     2.5093
  287.0000     0.0819     0.3080     8.0218   157.6233     0.0204     2.5138
  287.5000     0.0750     0.3050     8.0212   155.7964     0.0234     2.5229
  288.0000     0.0728     0.3017     8.0206   153.9695     0.0248     2.5290
  288.5000     0.0753     0.3002     8.0200   152.4461     0.0202     2.5297
  289.0000     0.0777     0.3029     8.0194   152.4883     0.0066     2.5243
  289.5000     0.0856     0.3168     8.0188   155.9641    -0.0025     2.5164
  290.0000     0.1214     0.3459     8.0182   165.7803    -0.0086     2.4789
  290.5000     0.1599     0.3764     8.0176   174.5690    -0.0117     2.3977
  291.0000     0.1940     0.3729     8.0170   183.1655     0.0184     2.3320
  291.5000     0.1762     0.3478     8.0164   176.0816     0.0548     2.3614
  292.0000     0.1327     0.2996     8.0158   163.6325     0.0771     2.4261
  292.5000     0.0902     0.2941     8.0304   157.5567     0.0531     2.5047
  293.0000     0.0702     0.2905     8.0297   154.2124     0.0167     2.5327
  293.5000     0.0693     0.2893     8.0291   154.2064     0.0061     2.5357
  294.0000     0.0744     0.2893     8.0285   154.2003     0.0105     2.5296
  294.5000     0.0769     0.2914     8.0127   154.4965     0.0165     2.5251
  295.0000     0.0781     0.2943     8.0121   155.0990     0.0119     2.5198
  295.5000     0.0766     0.2977     8.0115   155.0916     0.0088     2.5220
  296.0000     0.0699     0.3001     8.0109   152.9612     0.0103     2.5326
  296.5000     0.0651     0.3018     7.9951   152.0448     0.0117     2.5410
  297.0000     0.0623     0.3015     7.9945   153.2528     0.0056     2.5470
  297.5000     0.0617     0.3000     7.9939   155.0677     0.0011     2.5485
  298.0000     0.0629     0.2997     7.9933   154.1513     0.0010     2.5440
  298.5000     0.0729     0.2900     7.9927   148.9860     0.0058     2.5318
  299.0000     0.0906     0.2745     7.9921   141.0893     0.0183     2.5008
  299.5000     0.1147     0.2557     8.0067   131.8261     0.0370     2.4586
  300.0000     0.1385     0.2392     8.0105   121.8942     0.0520     2.4303
  300.5000     0.1552     0.2345     8.0648   111.3289     0.0595     2.3962
  301.0000     0.1682     0.2393     8.0963   109.1985     0.0414     2.3765
  301.5000     0.1812     0.2439     8.1263   112.2274     0.0307     2.3492
  302.0000     0.1941     0.2475     8.1562   114.6719     0.0352     2.3310
  302.5000     0.2026     0.2487     8.1558   116.7679     0.0244     2.3151
  303.0000     0.2030     0.2481     8.1705   114.5402     0.0153     2.3135
  303.5000     0.2024     0.2491     8.1700   111.1835     0.0154     2.3143
  304.0000     0.2094     0.2503     8.1695   108.8578     0.0199     2.3067
  304.5000     0.2272     0.2491     8.1691   107.0309     0.0123     2.2658
  305.0000     0.2451     0.2378     8.1686   106.4179     0.0288     2.2359
  305.5000     0.2580     0.2366     8.1530   107.9294     0.0499     2.2226
  306.0000     0.2498     0.2489     8.1525   108.5319     0.0558     2.2362
  306.5000     0.2489     0.2476     8.1217   105.1861     0.0467     2.2377
  307.0000     0.2420     0.2221     8.1060   102.4487     0.0602     2.2528
  307.5000     0.2051     0.2162     8.0752   102.7462     0.0798     2.2914
  308.0000     0.1602     0.2095     8.0444   106.9891     0.0829     2.3524
  308.5000     0.1139     0.2126     8.0287   114.2669     0.0599     2.4394
  309.0000     0.1412     0.2267     8.0131   120.3308     0.0303     2.4522
  309.5000     0.1697     0.2475     8.0126   122.1458     0.0026     2.4000
  310.0000     0.2057     0.2581     8.0274   121.4516    -0.0020     2.3436
  310.5000     0.2311     0.2560     8.1028   120.0094     0.0221     2.2762
  311.0000     0.2253     0.2536     8.1631   122.7334     0.0401     2.2678
  311.5000     0.2220     0.2475     8.2083   122.4239     0.0205     2.2830
  312.0000     0.2472     0.2385     8.2078   118.7761     0.0008     2.2758
  312.5000     0.2764     0.2260     8.2226   114.8248    -0.0038     2.2289
  313.0000     0.3006     0.2236     8.2221   113.3013     0.0203     2.1820
  313.5000     0.2999     0.2282     8.2370   112.9919     0.0383     2.1511
  314.0000     0.2777     0.2358     8.2365   112.9859     0.0503     2.1658
  314.5000     0.2533     0.2434     8.2512   114.4974     0.0548     2.2024
  315.0000     0.2349     0.2516     8.2508   119.0438     0.0392     2.2389
  315.5000     0.2257     0.2537     8.2655   122.6797     0.0140     2.2760
  316.0000     0.2336     0.2471     8.2651   124.4947     0.0139     2.2768
  316.5000     0.2392     0.2434     8.2645   124.7922     0.0244     2.2637
  317.0000     0.2452     0.2425     8.2489   124.4826     0.0259     2.2536
  317.5000     0.2455     0.2423     8.2028   121.1369     0.0198     2.2442
  318.0000     0.2319     0.2435     8.1720   119.3115     0.0197     2.2502
  318.5000     0.2112     0.2468     8.1563   122.0355     0.0257     2.2878
  319.0000     0.1923     0.2505     8.1559   125.0644     0.0271     2.3263
  319.5000     0.1832     0.2536     8.1707   126.5759     0.0135     2.3494
  320.0000     0.1884     0.2545     8.2006   125.3560     0.0104     2.3395
  320.5000     0.2037     0.2536     8.1849   122.3151     0.0134     2.3145
  321.0000     0.2191     0.2471     8.1693   120.1848     0.0240     2.2842
  321.5000     0.2283     0.2430     8.1536   120.7858     0.0362     2.2736
  322.0000     0.2163     0.2442     8.1380   123.8147     0.0479     2.2736
  322.5000     0.1984     0.2510     8.1376   125.0228     0.0403     2.2992
  323.0000     0.1819     0.2524     8.1370   124.0941     0.0266     2.3273
  323.5000     0.1728     0.2537     8.1365   124.4380     0.0175     2.3523
  324.0000     0.1707     0.2561     8.1513   126.8243     0.0144     2.3614
  324.5000     0.1695     0.2577     8.1508   127.4268     0.0174     2.3667
  325.0000     0.1671     0.2586     8.1504   127.4193     0.0189     2.3697
  325.5000     0.1665     0.2568     8.1348   127.4134     0.0233     2.3751
  326.0000     0.1677     0.2556     8.1191   127.4074     0.0248     2.3741
  326.5000     0.1671     0.2550     8.1035   128.0084     0.0172     2.3719
