~VERSION INFORMATION
 VERS.                2.0:   CWLS LOG ASCII STANDARD - VERSION 2.0
 WRAP.                 NO:   ONE LINE PER DEPTH STEP
~WELL INFORMATION
#MNEM.UNIT      DATA TYPE    INFORMATION
#----------   ------------   ------------------------------
 STRT.F           12.0000:   START DEPTH
 STOP.F          793.0000:   STOP DEPTH
 STEP.F            0.5000:   STEP LENGTH
 NULL.          -999.2500:   NO VALUE
 COMP.   FLUOR DANIEL INC:   COMPANY
 WELL.   35-1-X-10 #35-10:   WELL
 FLD .            WILDCAT:   FIELD
 LOC .      S10 T38N R78W:   LOCATION
 CNTY.            NATRONA:   COUNTY
 STAT.            WYOMING:   STATE
 CTRY. UNITED STATES OF AMERICA:   COUNTRY
 SRVC.      Western Atlas:   SERVICE COMPANY
 DATE.        20-AUG-1996:   LOGDATE
 API .       490252282200:   API NUMBER
~CURVE INFORMATION
#MNEM.UNIT       API CODE    CURVE DESCRIPTION
#----------   ------------   ------------------------------
 DEPT.F                  :   
 RFOC.OHMM   07 220 04 00:   RESISTIVITY FOCUSED LOG
 RILD.OHMM   07 120 46 00:   INDUCTION LOG DEEP RESISTIVITY
 RILM.OHMM   07 120 44 00:   INDUCTION LOG MEDIUM RESISTIVITY
 SPR .MV     07 010 01 00:   SPONTANEOUS POTENTIAL
 CALD.IN     45 280 60 00:   CALIPER FROM DENSITY LOG
 GRD .GAPI   45 310 01 00:   GAMMA RAY FROM DENSITY LOG
 ZCOR.G/C3   45 356 01 00:   DENSITY CORRECTION
 ZDEN.G/C3   45 350 01 00:   BULK DENSITY
 PORZ.DEC    45 890 12 00:   DENSITY POROSITY SANDSTONE
 CNC .DEC    42 890 03 00:   NEUTRON POROSITY SANDSTONE
~PARAMETER INFORMATION
#MNEM.UNIT          VALUE    DESCRIPTION
#----------   ------------   ------------------------------
 PD  .                 GL:   PERMANENT DATUM
 EPD .F              5228:   ELEVATION PERMANENT DATUM
 LMF .                 KB:   LOG MEASURED FROM
 DAPD.F                10:   FEET ABOVE PERMANENT DATUM
 DMF .                 KB:   DRILLING MEASURED FROM
 EKB .F              5238:   KELLING BUSHING
 EGL .F              5228:   GROUND LEVEL
 DATE.        20-AUG-1996:   RUN DATE
 RUN .                  1:   RUN NUMBER
 DD  .F               794:   DEPTH DRILLER
 DL  .F               794:   DEPTH LOGGER
 BLI .F               793:   BOTTOM LOG INTERVAL
 TLI .F                12:   TOP LOG INTERVAL
 CS  .IN           13.375:   CASING SIZE
 CBD .F                58:   CASING BOTTOM DRILLER
 CBL .F                59:   CASING BOTTOM LOGGER
 BS  .IN            12.25:   BIT SIZE
 BSD .F               794:   BIT SIZE AT DEPTH
 DFT .           SPUD MUD:   DRILLING FLUID TYPE
 DFD .                9.2:   DRILLING FLUID DENSITY
 DFV .                 50:   DRILLING FLUID VISCOSITY
 DFPH.                  9:   DRILLING FLUID PH
 DFL .               13.8:   DRILLING FLUID LOSS
 MSS .              CIRC.:   MUD SAMPLE SOURCE
 RMS .OHMM           1.14:   RESISTIVITY MUD SAMPLE
 MST .F                77:   MUD SAMPLE TEMPERATURE
 RMF .OHMM           0.90:   RESISTIVITY MUD FILTRATE SAMPLE
 MFST.F                77:   MUD FILTRATE SAMPLE TEMPERATURE
 RMC .OHMM            1.4:   RESISTIVITY MUD CAKE
 MCST.F                77:   MUD CAKE SAMPLE TEMPERATURE
 MFSS.               CALC:   MUD FILTRATE SAMPLE SOURCE
 MCSS.               CALC:   MUD CAKE SAMPLE SOURCE
 RMB .OHMM            .84:   RESISTIVITY MUD AT BHT
 BHT .F               104:   BOTTOM HOLE TEMPERATURE
 TCS .HRS               3:   TIME CURCULATED STOPPED
 MRT .F               104:   MAXIMUM RECORDED TEMPERATURE
 LUN .            HL-6530:   LOGGING UNIT NUMBER
 LUL .             CASPER:   LOGGING UNIT LOCATION
 ENGI.           BROWNLOW:   RECORDING ENGINEER
 WITN.      SCHULTE/HARDY:   WITNESSED BY
 CLNT.            A2DTECH:   CLIENT CODE
 ORIG.           5" PRINT:   ORIGIN OF DATA
 UWI .       490252282200:   UNIQUE WELL ID
 DICO. A2D Technologies, Inc.:   DIGITIZING COMPANY
~OTHER INFORMATION
~A   DEPT     RFOC       RILD       RILM        SPR       CALD        GRD       ZCOR       ZDEN       PORZ        CNC   
# ...
  414.0000     7.8152     7.6859     8.0622   -17.3553    12.5486    79.6257     0.1016     2.5108     0.0843     0.3105
  414.5000     7.8693     7.5816     8.0064   -17.3539    12.5485    79.6314     0.1000     2.5048     0.0840     0.3020
  415.0000     7.8687     6.9758     7.4183   -17.2011    12.5483    81.1492     0.1000     2.4912     0.0840     0.3032
  415.5000     7.8681     6.2422     6.6392   -17.3510    12.5482    82.9676     0.1060     2.4625     0.0909     0.3201
  416.0000     7.7052     5.8592     5.8901   -17.6518    12.5480    85.0882     0.1181     2.3927     0.1017     0.3373
  416.5000     6.7522     5.6655     4.9960   -17.9529    12.5479    87.2087     0.1211     2.3628     0.1331     0.3554
  417.0000     5.4817     5.5886     5.0658   -18.2541    12.5477    89.0353     0.1043     2.3832     0.1720     0.3842
  417.5000     4.4813     5.6295     5.5054   -18.5552    12.5476    86.6174     0.0785     2.4338     0.1744     0.4067
  418.0000     4.4192     5.7100     5.9008   -18.8563    12.5474    82.0914     0.0906     2.4821     0.1539     0.3919
  418.5000     5.8747     5.9607     6.2464   -19.0062    12.5473    79.6803     0.1012     2.5105     0.1204     0.3527
  419.0000     8.0298     6.3866     6.8734   -19.1557    12.5471    79.6860     0.1163     2.5207     0.0962     0.3231
  419.5000     8.3131     6.9934     7.4183   -19.1542    12.5469    80.6163     0.1223     2.5245     0.0838     0.3122
  420.0000     8.3125     7.4996     7.8962   -19.3041    12.5468    81.5116     0.1192     2.5282     0.0796     0.3119
  420.5000     8.3699     8.1552     8.4047   -19.3023    12.5467    80.3075     0.1100     2.5373     0.0763     0.3122
  421.0000     8.4864     8.7578     8.9556   -19.4525    12.5617    80.6168     0.1085     2.5348     0.0729     0.3131
  421.5000     8.4857     9.1215     9.1342   -19.6024    12.5615    80.9246     0.1100     2.5245     0.0696     0.3134
  422.0000     8.4851     9.0601     9.0710   -19.9032    12.5613    80.8740     0.1281     2.5147     0.0711     0.3143
  422.5000     8.4259     8.9996     8.9461   -20.2169    12.5461    80.0298     0.1462     2.5049     0.0771     0.3125
  423.0000     8.3670     8.9400     8.9461   -20.8076    12.5308    80.6412     0.1477     2.5011     0.0871     0.3143
  423.5000     8.3663     9.0092     9.0710   -21.1088    12.5307    80.9491     0.1310     2.4981     0.0907     0.3210
  424.0000     8.3657     9.4578     9.4565   -21.4102    12.5305    80.6527     0.1339     2.4936     0.0934     0.3264
  424.5000     8.3652     9.9328     9.8583   -21.8623    12.5303    75.9737     0.1460     2.4860     0.0958     0.3255
  425.0000     8.4231    10.5044    10.6398   -22.4657    12.5302    71.3000     0.1596     2.4762     0.0994     0.3104
  425.5000     8.9131    11.1090    11.6542   -22.9181    12.5301    65.2635     0.1702     2.4625     0.1075     0.2778
  426.0000    10.2297    12.0132    12.9203   -23.3705    12.5450    58.6227     0.1474     2.4400     0.1235     0.2639
  426.5000    11.5111    13.1370    13.7524   -23.8229    12.5600    57.4199     0.1276     2.4249     0.1359     0.2676
  427.0000    13.4107    14.1863    14.4366   -24.1291    12.5749    59.2399     0.0958     2.4075     0.1461     0.2742
  427.5000    13.7879    15.2131    15.0500   -24.5761    12.5748    59.2456     0.0730     2.3947     0.1570     0.2780
  428.0000    13.2228    15.9771    15.9293   -24.8773    12.5595    58.9478     0.0487     2.3785     0.1693     0.2911
  428.5000    13.1316    16.7873    16.5846   -25.1784    12.5594    58.6529     0.0486     2.3599     0.1756     0.3047
  429.0000    13.4072    17.1392    16.7000   -25.4795    12.5592    58.9607     0.0500     2.3464     0.1814     0.3131
  429.5000    13.5938    17.1438    16.7000   -25.6470    12.5590    58.3637     0.0545     2.3290     0.1943     0.3110
  430.0000    13.5927    17.1483    16.7000   -25.9305    12.5589    57.1610     0.0561     2.3177     0.2046     0.3016
  430.5000    13.7819    17.0337    16.5846   -26.2313    12.5588    56.8632     0.0667     2.3124     0.2045     0.2944
  431.0000    13.8771    16.8028    16.5846   -26.3812    12.5586    57.1725     0.0773     2.3132     0.2045     0.2932
  431.5000    13.5898    16.4610    16.3561   -26.3797    12.5584    57.1782     0.0788     2.3124     0.2069     0.2963
  432.0000    13.0342    16.1250    16.1308   -26.3779    12.5734    56.8819     0.0788     2.3011     0.2145     0.2986
  432.5000    13.1244    15.7959    15.7987   -26.3765    12.5732    56.8890     0.0803     2.2920     0.2175     0.2947
  433.0000    13.4930    15.4734    15.4733   -26.3751    12.5580    56.5912     0.0742     2.2898     0.2172     0.2901
  433.5000    13.8723    15.1508    15.2602   -26.2223    12.5427    56.2961     0.0606     2.2951     0.2147     0.2907
  434.0000    13.4910    14.8494    14.7401   -26.0696    12.5426    56.3021     0.0530     2.3064     0.2096     0.2938
  434.5000    12.9395    14.6470    14.0416   -25.9165    12.5424    56.6113     0.0531     2.3238     0.2011     0.2901
  435.0000    12.4105    14.4483    13.7524   -25.6125    12.5272    56.9192     0.0651     2.3383     0.1903     0.2820
  435.5000    12.0696    14.3527    13.8481   -25.3085    12.5270    56.6228     0.0681     2.3540     0.1809     0.2735
  436.0000    11.9853    14.2570    13.9445   -25.0045    12.5269    55.1180     0.0650     2.3676     0.1703     0.2642
  436.5000    12.9358    14.1619    13.9445   -24.7005    12.5267    53.3111     0.0560     2.3744     0.1670     0.2587
  437.0000    14.1573    14.1666    14.0416   -24.3961    12.5266    53.0147     0.0482     2.3601     0.1709     0.2518
  437.5000    14.5555    14.1703    14.1393   -24.2434    12.5264    54.5324     0.0423     2.3501     0.1790     0.2497
  438.0000    13.6723    14.1741    14.0416   -24.2420    12.5414    55.4445     0.0559     2.3450     0.1832     0.2618
  438.5000    12.3922    14.0795    13.6574   -24.2405    12.5412    55.7524     0.0559     2.3495     0.1826     0.2877
  439.0000    12.0636    14.0841    13.2794   -24.2388    12.5411    56.6646     0.0559     2.3541     0.1805     0.3004
  439.5000    12.0628    14.0879    13.1919   -24.3890    12.5560    57.8801     0.0589     2.3601     0.1763     0.3082
  440.0000    11.8133    14.0916    13.1919   -24.6897    12.5408    58.7922     0.0483     2.3654     0.1723     0.3127
  440.5000    11.7307    14.1938    13.4692   -24.9909    12.5554    56.9853     0.0392     2.3616     0.1720     0.3215
  441.0000    11.6487    14.4034    13.9445   -25.3071    12.5544    55.7825     0.0422     2.3481     0.1758     0.3326
  441.5000    11.8931    14.8081    14.6580   -25.5932    12.5535    55.8348     0.0837     2.3224     0.1946     0.3381
  442.0000    12.4848    15.0197    15.4733   -25.7430    12.5526    57.0039     0.1208     2.2997     0.2151     0.3326
  442.5000    13.1973    15.3408    15.9086   -25.7412    12.5516    58.2181     0.1344     2.2846     0.2211     0.3227
  443.0000    13.3810    15.6687    16.2431   -25.7398    12.5507    59.1302     0.1434     2.2922     0.2178     0.3091
  443.5000    13.1042    15.8926    16.5846   -25.5867    12.5498    58.2296     0.1495     2.3081     0.2052     0.3020
  444.0000    12.9224    16.1207    16.8162   -25.5853    12.5488    58.2368     0.1491     2.3322     0.1870     0.2943
  444.5000    12.8321    16.3511    16.8162   -25.5838    12.5479    58.8468     0.1328     2.3520     0.1758     0.2720
  445.0000    12.6542    16.3554    16.4700   -25.4311    12.5470    60.6652     0.1116     2.3768     0.1668     0.2653
  445.5000    12.4788    16.3598    15.9086   -25.4297    12.5460    62.1815     0.0632     2.3949     0.1538     0.2617
  446.0000    12.5731    16.3642    15.6895   -25.1253    12.5451    63.0937     0.0572     2.3987     0.1529     0.2557
  446.5000    12.9179    16.2549    15.7987   -24.9726    12.5442    61.8924     0.0738     2.3889     0.1613     0.2560
  447.0000    13.0979    16.1464    16.0193   -24.6686    12.5432    60.9918     0.1010     2.3820     0.1658     0.2617
