~VERSION INFORMATION
 VERS.                2.0:   CWLS LOG ASCII STANDARD - VERSION 2.0
 WRAP.                 NO:   ONE LINE PER DEPTH STEP
~WELL INFORMATION
#MNEM.UNIT      DATA TYPE    INFORMATION
#----------   ------------   ------------------------------
 STRT.F            0.0000:   START DEPTH
 STOP.F          666.0000:   STOP DEPTH
 STEP.F            0.1000:   STEP LENGTH
 NULL.          -999.2500:   NO VALUE
 COMP.   FLUOR DANIEL INC:   COMPANY
 WELL.   77-2 X 34 #77-34:   WELL
 FLD .             TEAPOT:   FIELD
 LOC .      S34 T39N R78W:   LOCATION
 CNTY.            NATRONA:   COUNTY
 STAT.            WYOMING:   STATE
 CTRY. UNITED STATES OF AMERICA:   COUNTRY
 SRVC.      Western Atlas:   SERVICE COMPANY
 DATE.        01-APR-1995:   LOGDATE
 API .       490252270000:   API NUMBER
~CURVE INFORMATION
#MNEM.UNIT       API CODE    CURVE DESCRIPTION
#----------   ------------   ------------------------------
 DEPT.F                  :   
 GRR .GAPI   07 310 01 00:   GAMMA RAY
 RILD.OHMM   07 120 46 00:   INDUCTION LOG DEEP RESISTIVITY
 RILM.OHMM   07 120 44 00:   INDUCTION LOG MEDIUM RESISTIVITY
~PARAMETER INFORMATION
#MNEM.UNIT          VALUE    DESCRIPTION
#----------   ------------   ------------------------------
 PD  .                 GL:   PERMANENT DATUM
 EPD .F              5106:   ELEVATION PERMANENT DATUM
 LMF .                 KB:   LOG MEASURED FROM
 DAPD.F                10:   FEET ABOVE PERMANENT DATUM
 DMF .                 KB:   DRILLING MEASURED FROM
 EKB .F              5116:   KELLING BUSHING
 EDF .F              5115:   DRILLING FLOOR
 EGL .F              5106:   GROUND LEVEL
 DATE.        01-APR-1995:   RUN DATE
 RUN .                  1:   RUN NUMBER
 DD  .F               674:   DEPTH DRILLER
 DL  .F               674:   DEPTH LOGGER
 BLI .F               666:   BOTTOM LOG INTERVAL
 TLI .F                52:   TOP LOG INTERVAL
 CS  .IN            9.625:   CASING SIZE
 CBD .F                52:   CASING BOTTOM DRILLER
 CBL .F                52:   CASING BOTTOM LOGGER
 BS  .IN             8.75:   BIT SIZE
 BSD .F               674:   BIT SIZE AT DEPTH
 DFT .                AIR:   DRILLING FLUID TYPE
 MRT .F                89:   MAXIMUM RECORDED TEMPERATURE
 LUN .            HL 6530:   LOGGING UNIT NUMBER
 LUL .             CASPER:   LOGGING UNIT LOCATION
 ENGI.      PAT RASMUSSEN:   RECORDING ENGINEER
 WITN.        GARY STRONG:   WITNESSED BY
 CLNT.            A2DTECH:   CLIENT CODE
 ORIG.           5" PRINT:   ORIGIN OF DATA
 UWI .       490252270000:   UNIQUE WELL ID
 DICO. A2D Technologies, Inc.:   DIGITIZING COMPANY
~OTHER INFORMATION
~A    DEPT      GRR      RILD       RILM   
# ...
  182.0000   120.0603     8.4754     8.2683
  182.1000   120.0603     8.4347     8.2290
  182.2000   120.0603     8.3856     8.1816
  182.3000   120.0603     8.3367     8.1344
  182.4000   120.0603     8.2881     8.0820
  182.5000   120.0704     8.2417     8.0124
  182.6000   120.3620     8.2416     7.9320
  182.7000   120.5748     8.2011     7.8934
  182.8000   120.8270     8.1533     7.8479
  182.9000   121.1930     8.1058     7.8027
  183.0000   121.5686     8.0586     7.7580
  183.1000   121.5835     8.0144     7.7132
  183.2000   121.8703     8.0143     7.6622
  183.3000   122.0879     7.9740     7.6241
  183.4000   122.3400     7.9584     7.5802
  183.5000   122.4736     7.9365     7.5365
  183.6000   122.5428     7.8903     7.4930
  183.7000   122.7753     7.8443     7.4531
  183.8000   122.7753     7.7932     7.4532
  183.9000   122.9977     7.7931     7.4153
  184.0000   123.0769     7.7619     7.3726
  184.1000   123.0769     7.7167     7.3508
  184.2000   123.0769     7.6718     7.3385
  184.3000   123.0769     7.6270     7.3002
  184.4000   123.0769     7.5782     7.3004
  184.5000   123.0769     7.5781     7.3004
  184.6000   123.4325     7.5470     7.2708
  184.7000   123.8085     7.5030     7.2502
  184.8000   124.0607     7.4593     7.2503
  184.9000   124.3129     7.4158     7.2504
  185.0000   124.5852     7.3692     7.2505
  185.1000   125.0494     7.3691     7.2506
  185.2000   125.3712     7.3690     7.2507
  185.3000   125.7564     7.3689     7.2508
  185.4000   126.2608     7.3688     7.2579
  185.5000   126.6968     7.3687     7.2791
  185.6000   126.6968     7.3686     7.3016
  185.7000   126.4599     7.3685     7.3017
  185.8000   126.3952     7.3684     7.3018
  185.9000   126.2572     7.3683     7.3019
  186.0000   125.9166     7.3833     7.3169
  186.1000   125.4902     7.4263     7.3529
  186.2000   125.4902     7.4714     7.3530
  186.3000   125.2485     7.5132     7.3736
  186.4000   125.1885     7.5570     7.3951
  186.5000   125.1885     7.5760     7.4045
  186.6000   125.2818     7.5923     7.4205
  186.7000   125.4902     7.6366     7.4587
  186.8000   125.4902     7.6821     7.4733
  186.9000   125.9833     7.6820     7.4878
  187.0000   126.4877     7.7170     7.5024
  187.1000   127.1397     7.7620     7.5341
  187.2000   127.8962     7.7895     7.5609
  187.3000   128.6041     7.7982     7.5695
  187.4000   129.1101     7.8438     7.6137
  187.5000   129.7134     7.8985     7.6138
  187.6000   129.9153     7.9354     7.6494
  187.7000   130.0151     7.9536     7.6805
  187.8000   129.8092     7.9725     7.7029
  187.9000   129.2514     8.0090     7.7206
  188.0000   128.4828     8.0097     7.7214
  188.1000   126.6968     8.0648     7.7746
  188.2000   125.6632     8.0647     7.7746
  188.3000   124.2449     8.0940     7.8030
  188.4000   122.8396     8.1209     7.8484
  188.5000   121.6371     8.1318     7.8836
  188.6000   120.6371     8.1775     7.8837
  188.7000   119.7587     8.1774     7.8838
  188.8000   119.3355     8.1773     7.9224
  188.9000   118.8312     8.2079     7.9389
  189.0000   118.5520     8.2343     7.9596
  189.1000   118.5520     8.2342     7.9943
  189.2000   118.5520     8.2340     7.9945
  189.3000   118.5520     8.2339     7.9946
  189.4000   118.7684     8.2751     8.0346
  189.5000   118.8537     8.2913     8.0504
  189.6000   118.9712     8.2912     8.0615
  189.7000   119.2234     8.3041     8.0850
  189.8000   119.4570     8.3490     8.1068
  189.9000   119.4570     8.3488     8.1069
  190.0000   119.6782     8.3487     8.1070
  190.1000   119.9304     8.3486     8.1071
  190.2000   120.1826     8.3485     8.1072
  190.3000   120.4348     8.3484     8.1142
  190.4000   120.7103     8.3483     8.1379
  190.5000   121.2670     8.3481     8.1640
  190.6000   121.4930     8.3480     8.1641
  190.7000   121.7452     8.3479     8.1642
  190.8000   121.9974     8.3478     8.1643
  190.9000   122.3272     8.3477     8.1645
  191.0000   122.8034     8.3476     8.1593
  191.1000   123.0769     8.3474     8.1083
  191.2000   123.5386     8.3473     8.1084
  191.3000   123.8616     8.3823     8.1085
  191.4000   124.1138     8.4055     8.1086
  191.5000   124.5310     8.4054     8.1087
  191.6000   125.2215     8.4053     8.1088
  191.7000   125.4902     8.4051     8.1089
  191.8000   125.9616     8.4510     8.1090
  191.9000   126.0935     8.4637     8.1092
  192.0000   126.0935     8.4636     8.1093
  192.1000   126.0062     8.4635     8.1094
  192.2000   125.7541     8.4634     8.1095
  192.3000   125.4902     8.4632     8.1096
  192.4000   125.4902     8.4631     8.1247
  192.5000   125.2992     8.4630     8.1406
  192.6000   125.1885     8.4629     8.1564
  192.7000   125.0964     8.4628     8.1665
  192.8000   124.8442     8.4627     8.1666
  192.9000   124.5852     8.4625     8.1667
  193.0000   124.5852     8.4624     8.1668
  193.1000   124.3894     8.4623     8.1670
  193.2000   124.2836     8.4622     8.1671
  193.3000   124.2836     8.4811     8.1672
  193.4000   124.2836     8.5212     8.1673
  193.5000   124.2836     8.5210     8.1674
  193.6000   124.2836     8.5209     8.1675
  193.7000   124.2836     8.5208     8.1676
  193.8000   124.2836     8.4910     8.1677
  193.9000   124.2836     8.4614     8.1679
  194.0000   124.2836     8.4612     8.1680
  194.1000   124.2836     8.4611     8.1681
  194.2000   124.2836     8.4610     8.1682
  194.3000   124.2836     8.4609     8.1683
  194.4000   124.5957     8.4608     8.1684
  194.5000   125.1000     8.4607     8.1685
  194.6000   125.5473     8.4605     8.1633
  194.7000   125.8071     8.4589     8.1398
  194.8000   126.3952     8.4015     8.1124
  194.9000   127.0262     8.4014     8.1125
  195.0000   127.6219     8.4013     8.1126
  195.1000   128.3490     8.3796     8.1128
  195.2000   129.2959     8.3427     8.1129
  195.3000   130.0649     8.3426     8.1118
  195.4000   131.2217     8.3424     8.0885
  195.5000   131.8673     8.3010     8.0652
  195.6000   132.4581     8.2526     8.0572
  195.7000   132.9625     8.2266     8.0359
  195.8000   133.4001     8.2265     8.0018
  195.9000   133.6350     8.2263     8.0019
  196.0000   133.6350     8.2262     8.0020
  196.1000   133.6350     8.2261     7.9819
  196.2000   133.6350     8.2260     7.9589
  196.3000   133.5139     8.2030     7.9470
  196.4000   133.2617     8.1686     7.9471
  196.5000   133.0096     8.1685     7.9472
  196.6000   132.7300     8.1684     7.9474
  196.7000   132.2803     8.1260     7.9475
  196.8000   131.7760     8.1114     7.9316
  196.9000   131.0198     8.1113     7.9088
  197.0000   130.1639     8.0969     7.8929
  197.1000   129.6057     8.0547     7.8930
  197.2000   128.5068     8.0546     7.8931
  197.3000   127.5882     8.0545     7.8932
  197.4000   126.9398     8.0210     7.8933
  197.5000   126.6968     7.9983     7.8816
  197.6000   126.7781     7.9982     7.8589
  197.7000   127.0302     7.9981     7.8391
  197.8000   127.3001     7.9980     7.8392
  197.9000   127.7691     7.9979     7.7972
  198.0000   128.2735     7.9978     7.7852
  198.1000   128.7779     7.9976     7.7853
  198.2000   129.4545     7.9975     7.7854
  198.3000   130.3900     7.9974     7.7855
  198.4000   130.9201     7.9973     7.7857
  198.5000   130.9201     7.9972     7.7431
  198.6000   130.9201     7.9621     7.7321
  198.7000   130.9201     7.9414     7.7322
  198.8000   130.8291     7.9413     7.7323
  198.9000   130.5770     7.9412     7.7324
  199.0000   130.3167     7.9411     7.7325
  199.1000   130.3167     7.9410     7.7326
  199.2000   130.1221     7.9409     7.7327
  199.3000   129.5795     7.9407     7.7328
  199.4000   128.9187     7.9406     7.7160
  199.5000   128.4143     7.9405     7.6796
  199.6000   127.9035     7.9404     7.6797
  199.7000   127.1566     7.9403     7.6798
  199.8000   126.5995     7.9402     7.6799
  199.9000   126.0951     7.9401     7.6800
  200.0000   125.5908     7.8309     7.6801
  200.1000   125.5701     7.7216     7.6802
