~VERSION INFORMATION
 VERS.                2.0:   CWLS LOG ASCII STANDARD - VERSION 2.0
 WRAP.                 NO:   ONE LINE PER DEPTH STEP
~WELL INFORMATION
#MNEM.UNIT      DATA TYPE    INFORMATION
#----------   ------------   ------------------------------
 STRT.F           30.0000:   START DEPTH
 STOP.F          509.0000:   STOP DEPTH
 STEP.F            0.5000:   STEP LENGTH
 NULL.          -999.2500:   NO VALUE
 COMP. FENIX & SCISSON INC:   COMPANY
 WELL.   NPR 3 #45 SX 3-3:   WELL
 FLD .             TEAPOT:   FIELD
 LOC .       S3 T38N R78W:   LOCATION
 CNTY.            NATRONA:   COUNTY
 STAT.            WYOMING:   STATE
 CTRY. UNITED STATES OF AMERICA:   COUNTRY
 SRVC.            Unknown:   SERVICE COMPANY
 DATE.        05-OCT-1978:   LOGDATE
 API .       490251071700:   API NUMBER
~CURVE INFORMATION
#MNEM.UNIT       API CODE    CURVE DESCRIPTION
#----------   ------------   ------------------------------
 DEPT.F                  :   
 SPR .MV     05 010 01 00:   SPONTANEOUS POTENTIAL FROM RES.
 SN  .OHMM   05 040 16 00:   SHORT NORMAL 16"
 ILD .OHMM   05 120 46 00:   INDUCTION LOG DEEP
 GRD .GAPI   45 310 01 00:   GAMMA RAY FROM DENSITY LOG
 CALD.IN     45 280 60 00:   CALIPER
 RHOB.G/C3   45 350 01 00:   BULK DENSITY
 DPHI.DEC    45 890 12 00:   DENSITY POROSITY SANDSTONE
 CORR.G/C3   45 356 01 00:   DENSITY CORRECTION
~PARAMETER INFORMATION
#MNEM.UNIT          VALUE    DESCRIPTION
#----------   ------------   ------------------------------
 PD  .                 GL:   PERMANENT DATUM
 EPD .F              5188:   ELEVATION PERMANENT DATUM
 LMF .                 KB:   LOG MEASURED FROM
 DAPD.F                 4:   FEET ABOVE PERMANENT DATUM
 DMF .                 KB:   DRILLING MEASURED FROM
 EKB .F              5192:   KELLING BUSHING
 EGL .F              5188:   GROUND LEVEL
 DATE.            10-5-78:   RUN DATE
 RUN .                  1:   RUN NUMBER
 DD  .F               510:   DEPTH DRILLER
 DL  .F               509:   DEPTH LOGGER
 BLI .F               503:   BOTTOM LOG INTERVAL
 TLI .F                48:   TOP LOG INTERVAL
 CS  .IN            8.625:   CASING SIZE
 CBL .F                46:   CASING BOTTOM LOGGER
 BS  .IN            7.875:   BIT SIZE
 BSD .F               510:   BIT SIZE AT DEPTH
 DFT .                KCL:   DRILLING FLUID TYPE
 DFD .                8.7:   DRILLING FLUID DENSITY
 DFV .                 37:   DRILLING FLUID VISCOSITY
 DFPH.                  9:   DRILLING FLUID PH
 DFL .               10.4:   DRILLING FLUID LOSS
 MSS .            MUD PIT:   MUD SAMPLE SOURCE
 RMS .OHMM            .28:   RESISTIVITY MUD SAMPLE
 MST .F                58:   MUD SAMPLE TEMPERATURE
 RMF .OHMM            .32:   RESISTIVITY MUD FILTRATE SAMPLE
 MFST.F                54:   MUD FILTRATE SAMPLE TEMPERATURE
 RMC .OHMM            .24:   RESISTIVITY MUD CAKE
 MCST.F                56:   MUD CAKE SAMPLE TEMPERATURE
 MFSS.               MEAS:   MUD FILTRATE SAMPLE SOURCE
 MCSS.               MEAS:   MUD CAKE SAMPLE SOURCE
 BHT .F                64:   BOTTOM HOLE TEMPERATURE
 TCS .HRS               2:   TIME CURCULATED STOPPED
 MRT .F                64:   MAXIMUM RECORDED TEMPERATURE
 LUN .               2958:   LOGGING UNIT NUMBER
 LUL .               CASP:   LOGGING UNIT LOCATION
 ENGI.             MILLER:   RECORDING ENGINEER
 WITN.           DINSMORE:   WITNESSED BY
 CLNT.            A2DTECH:   CLIENT CODE
 ORIG.       2", 5" PRINT:   ORIGIN OF DATA
 UWI .       490251071700:   UNIQUE WELL ID
 DICO. A2D Technologies, Inc.:   DIGITIZING COMPANY
~OTHER INFORMATION
~A   DEPT      SPR         SN        ILD         GRD      CALD       RHOB       DPHI       CORR   
# ...
  111.0000   -24.6361    10.2407    11.6839    92.6807     7.4713     2.4551     0.1387     0.0563
  111.5000   -24.1604    10.4017    11.6279    92.6882     7.4234     2.4436     0.1468     0.1235
  112.0000   -23.6857    10.5579    11.5593    92.6892     7.3176     2.4421     0.1472     0.1951
  112.5000   -23.2169    10.5375    11.4919    92.6892     7.2112     2.4661     0.1333     0.2663
  113.0000   -22.4437    10.5166    11.4250    92.6893     7.1047     2.5065     0.1048     0.3368
  113.5000   -21.6064    10.4960    11.3637    92.6894     6.9987     2.5504     0.0700     0.3731
  114.0000   -20.7713    10.4757    11.1519    92.6882     6.9455     2.6037     0.0485     0.3149
  114.5000   -20.1145    10.4553    10.9587    92.6643     6.9529     2.5559     0.0736     0.2244
  115.0000   -20.0807    10.4351    10.7540    92.6408     6.9596     2.5135     0.1039     0.1332
  115.5000   -20.0362    10.4148    10.7540    92.6175     7.0001     2.4685     0.1399     0.0483
  116.0000   -19.9906    10.3946    10.7540    92.5943     7.0812     2.4274     0.1531     0.0220
  116.5000   -19.9488    10.3746    10.7540    92.5710     7.1842     2.4299     0.1485     0.0080
  117.0000   -19.7421    10.3621    11.0133    92.5464     7.2867     2.4427     0.1417     0.0009
  117.5000   -19.5344    10.3559    11.4850    92.5239     7.4466     2.4554     0.1348    -0.0028
  118.0000   -19.5179    10.3496    11.7214    92.4994     7.5647     2.4648     0.1288    -0.0058
  118.5000   -19.4970    10.3434    11.7824    93.3239     7.2653     2.4617     0.1337    -0.0084
  119.0000   -19.4771    10.3371    11.8458    94.9551     7.6212     2.4516     0.1394    -0.0064
  119.5000   -19.4570    10.3309    11.9095    95.3326     7.7032     2.4418     0.1453    -0.0033
  120.0000   -19.4369    10.3246    11.9737    95.4049     7.3501     2.4326     0.1511     0.0073
  120.5000   -19.4168    10.3184    12.0081    95.4778     7.4336     2.4253     0.1564     0.0282
  121.0000   -19.3969    10.3121    11.9490    95.3507     7.3713     2.4179     0.1595     0.0502
  121.5000   -19.3768    10.3059    11.9028    93.7680     7.2209     2.4137     0.1626     0.0713
  122.0000   -19.3555    10.2997    11.8567    92.0347     7.4827     2.4150     0.1658     0.1088
  122.5000   -19.2729    10.2934    11.8110    90.2581     7.3415     2.4476     0.1614     0.1727
  123.0000   -19.1041    10.2873    11.6920    89.6771     7.1689     2.5008     0.1293     0.2391
  123.5000   -18.9507    10.2812    11.5114    89.6012     6.9879     2.5539     0.0812     0.2686
  124.0000   -18.9475    10.2748    11.2469    89.8718     6.9231     2.5834     0.0647     0.2605
  124.5000   -18.9482    10.2083    10.9610    90.1347     6.9218     2.5683     0.0560     0.2270
  125.0000   -18.9484    10.0455    10.6826    90.3984     6.9284     2.5301     0.0865     0.1382
  125.5000   -18.9486     9.8854    10.4112    90.6619     6.9358     2.4913     0.1252     0.0603
  126.0000   -18.9488     9.7278    10.1466    90.9248     6.9534     2.4526     0.1550     0.0261
  126.5000   -18.9474     9.5727     9.9001    91.1900     7.0305     2.4139     0.1686     0.0108
  127.0000   -18.8646     9.4201     9.8584    91.2960     7.1076     2.4060     0.1695     0.0120
  127.5000   -18.6095     9.3547     9.8186    91.2960     7.1814     2.4194     0.1635     0.0106
  128.0000   -18.3616     9.3333     9.7788    91.1027     7.2229     2.4465     0.1424     0.0052
  128.5000   -18.3206     9.3119     9.7393    90.2128     7.2628     2.4740     0.1255    -0.0002
  129.0000   -18.2900     9.2906     9.6999    89.3390     7.3027     2.4808     0.1207    -0.0046
  129.5000   -18.2584     9.2694     9.6607    89.1924     7.3427     2.4709     0.1296    -0.0045
  130.0000   -18.2266     9.2481     9.6216    89.1349     7.3826     2.4624     0.1359    -0.0045
  130.5000   -18.1947     9.2270     9.5826    90.4066     7.4226     2.4544     0.1381    -0.0045
  131.0000   -18.1628     9.2058     9.5429    91.7706     7.4625     2.4520     0.1391    -0.0045
  131.5000   -18.1310     9.1848     9.5149    93.5979     7.5007     2.4518     0.1390    -0.0045
  132.0000   -18.0991     9.1637     9.4864    95.0148     7.5302     2.4516     0.1388    -0.0032
  132.5000   -18.0672     9.1428     9.4579    95.2754     7.5586     2.4515     0.1387     0.0006
  133.0000   -18.0353     9.1218     9.4296    95.5438     7.5871     2.4513     0.1385     0.0044
  133.5000   -18.0035     9.1066     9.4012    95.8068     7.6090     2.4512     0.1384     0.0081
  134.0000   -17.9715     9.0946     9.3733    96.0884     7.6262     2.4509     0.1403     0.0168
  134.5000   -17.9642     9.0827     9.3330    96.7581     7.6427     2.4465     0.1420     0.0279
  135.0000   -17.9785     9.0708     9.2914    97.4531     7.6646     2.4421     0.1445     0.0453
  135.5000   -17.9930     9.0589     9.2498    97.5978     7.7734     2.4378     0.1503     0.0691
  136.0000   -18.0076     9.0470     9.2085    97.4625     7.4773     2.4360     0.1520     0.0927
  136.5000   -18.0221     9.0351     9.1673    95.7523     7.4169     2.4439     0.1470     0.1166
  137.0000   -18.0367     9.0232     9.1263    93.8677     7.3743     2.4715     0.1291     0.1383
  137.5000   -18.0512     9.0114     9.0855    92.4173     7.3441     2.4990     0.1101     0.1321
  138.0000   -18.0658     8.9996     9.0449    92.1787     7.3130     2.5120     0.1005     0.0847
  138.5000   -18.0803     8.9878     9.0045    92.1089     7.2816     2.5081     0.1004     0.0509
  139.0000   -18.0949     8.9760     8.9642    92.1341     7.2511     2.4838     0.1226     0.0170
  139.5000   -18.1094     8.9644     8.8615    92.1607     7.1855     2.4599     0.1376     0.0015
  140.0000   -18.1240     8.9522     8.7186    92.1871     7.1076     2.4582     0.1368     0.0006
  140.5000   -18.1388     8.8887     8.5780    92.2134     7.0400     2.4576     0.1360     0.0001
  141.0000   -18.1547     8.7930     8.4397    92.2355     7.0416     2.4534     0.1352    -0.0005
  141.5000   -18.1017     8.6989     8.3036    92.2630     7.0422     2.4363     0.1492     0.0034
  142.0000   -18.0414     8.6059     8.1697    92.3686     7.0643     2.4348     0.1509     0.0081
  142.5000   -17.9810     8.5138     8.0380    95.6779     7.1148     2.4341     0.1505     0.0087
  143.0000   -17.9207     8.4679     7.9084    96.1789     7.1487     2.4334     0.1510     0.0077
  143.5000   -17.8605     8.4808     7.7956    96.2788     7.1805     2.4327     0.1515     0.0066
  144.0000   -17.8002     8.4894     7.8599    96.1623     7.2202     2.4315     0.1520     0.0055
  144.5000   -17.7400     8.4980     7.9178    95.2888     7.2617     2.4284     0.1525     0.0055
  145.0000   -17.6797     8.5066     7.9767    94.2630     7.3032     2.4253     0.1554     0.0055
  145.5000   -17.6191     8.5152     8.0257    93.4560     7.3447     2.4241     0.1589     0.0055
  146.0000   -17.5616     8.5238     8.0594    93.4138     7.3863     2.4298     0.1591     0.0055
  146.5000   -17.5720     8.5325     8.0931    93.3577     7.4278     2.4458     0.1486     0.0055
  147.0000   -17.5852     8.5412     8.1269    93.2868     7.4709     2.4612     0.1369     0.0017
  147.5000   -17.5982     8.5506     8.1609    93.9309     7.4706     2.4732     0.1248    -0.0024
  148.0000   -17.6110     8.5610     8.1950    94.5752     7.4605     2.4728     0.1251    -0.0064
  148.5000   -17.6239     8.5715     8.2293    94.8132     7.4635     2.4690     0.1296    -0.0072
  149.0000   -17.6367     8.5821     8.2637    95.0568     7.4664     2.4645     0.1327    -0.0078
  149.5000   -17.6496     8.5926     8.2982    95.2756     7.4693     2.4573     0.1358    -0.0085
  150.0000   -17.6625     8.6031     8.3329    95.2599     7.4721     2.4502     0.1394    -0.0092
  150.5000   -17.6753     8.6137     8.3677    95.2399     7.4749     2.4431     0.1443    -0.0098
  151.0000   -17.6882     8.6248     8.4027    95.2207     7.4778     2.4387     0.1484    -0.0104
