~VERSION INFORMATION
 VERS.                2.0:   CWLS LOG ASCII STANDARD - VERSION 2.0
 WRAP.                 NO:   ONE LINE PER DEPTH STEP
~WELL INFORMATION
#MNEM.UNIT      DATA TYPE    INFORMATION
#----------   ------------   ------------------------------
 STRT.F           28.5000:   START DEPTH
 STOP.F          516.0000:   STOP DEPTH
 STEP.F            0.5000:   STEP LENGTH
 NULL.          -999.2500:   NO VALUE
 COMP. FENIX & SCISSON INC:   COMPANY
 WELL.         SX 3 #54-3:   WELL
 FLD .            WILDCAT:   FIELD
 LOC .       S3 T38N R78W:   LOCATION
 CNTY.            NATRONA:   COUNTY
 STAT.            WYOMING:   STATE
 CTRY. UNITED STATES OF AMERICA:   COUNTRY
 SRVC.            Unknown:   SERVICE COMPANY
 DATE.        22-SEP-1978:   LOGDATE
 API .       490251069000:   API NUMBER
~CURVE INFORMATION
#MNEM.UNIT       API CODE    CURVE DESCRIPTION
#----------   ------------   ------------------------------
 DEPT.F                  :   
 SPR .MV     05 010 01 00:   SPONTANEOUS POTENTIAL FROM RES.
 ILD .OHMM   05 120 46 00:   INDUCTION LOG DEEP
 SN  .OHMM   05 040 16 00:   SHORT NORMAL 16"
 CALD.IN     45 280 60 00:   CALIPER
 GRD .GAPI   45 310 01 00:   GAMMA RAY FROM DENSITY LOG
 CORR.G/C3   45 356 01 00:   DENSITY CORRECTION
 DEN .G/C3   45 350 01 00:   COMPENSATED BULK DENSTIY
 DPHI.DEC    45 890 12 00:   DENSITY POROSITY SANDSTONE
~PARAMETER INFORMATION
#MNEM.UNIT          VALUE    DESCRIPTION
#----------   ------------   ------------------------------
 PD  .                 GL:   PERMANENT DATUM
 EPD .F              5168:   ELEVATION PERMANENT DATUM
 LMF .                 KB:   LOG MEASURED FROM
 DAPD.F                 4:   FEET ABOVE PERMANENT DATUM
 DMF .                 KB:   DRILLING MEASURED FROM
 EKB .F              5172:   KELLING BUSHING
 EGL .F              5168:   GROUND LEVEL
 DATE.            9-22-78:   RUN DATE
 RUN .                  1:   RUN NUMBER
 DD  .F               510:   DEPTH DRILLER
 DL  .F               517:   DEPTH LOGGER
 BLI .F               510:   BOTTOM LOG INTERVAL
 TLI .F                40:   TOP LOG INTERVAL
 CS  .IN            8.625:   CASING SIZE
 CBD .F                40:   CASING BOTTOM DRILLER
 CBL .F                48:   CASING BOTTOM LOGGER
 BS  .IN            7.875:   BIT SIZE
 BSD .F               510:   BIT SIZE AT DEPTH
 DFT .            KCL MUD:   DRILLING FLUID TYPE
 DFD .                8.7:   DRILLING FLUID DENSITY
 DFV .                 39:   DRILLING FLUID VISCOSITY
 DFPH.                  9:   DRILLING FLUID PH
 DFL .                8.9:   DRILLING FLUID LOSS
 MSS .          FLOW LINE:   MUD SAMPLE SOURCE
 RMS .OHMM            .32:   RESISTIVITY MUD SAMPLE
 MST .F                68:   MUD SAMPLE TEMPERATURE
 RMF .OHMM            .26:   RESISTIVITY MUD FILTRATE SAMPLE
 MFST.F                72:   MUD FILTRATE SAMPLE TEMPERATURE
 RMC .OHMM            .28:   RESISTIVITY MUD CAKE
 MCST.F                75:   MUD CAKE SAMPLE TEMPERATURE
 MFSS.               MEAS:   MUD FILTRATE SAMPLE SOURCE
 MCSS.               MEAS:   MUD CAKE SAMPLE SOURCE
 RMB .OHMM            .32:   RESISTIVITY MUD AT BHT
 BHT .F                69:   BOTTOM HOLE TEMPERATURE
 TCS .HRS               3:   TIME CURCULATED STOPPED
 MRT .F                69:   MAXIMUM RECORDED TEMPERATURE
 LUN .               2958:   LOGGING UNIT NUMBER
 LUL .               CASP:   LOGGING UNIT LOCATION
 ENGI.           REYNOLDS:   RECORDING ENGINEER
 WITN.              AMEND:   WITNESSED BY
 CLNT.            A2DTECH:   CLIENT CODE
 ORIG.           5" PRINT:   ORIGIN OF DATA
 UWI .       490251069000:   UNIQUE WELL ID
 DICO. A2D Technologies, Inc.:   DIGITIZING COMPANY
~OTHER INFORMATION
~A   DEPT      SPR        ILD         SN       CALD         GRD      CORR        DEN       DPHI   
# ...
  393.0000   -31.0055    27.7765    22.4088     7.9648    79.7763     0.0301     2.5540     0.0562
  393.5000   -31.6970    27.8901    22.3750     7.9898    76.3282     0.0242     2.5768     0.0611
  394.0000   -32.3742    28.0041    22.3411     8.0148    75.8746     0.0173     2.5870     0.0916
  394.5000   -33.0520    28.1498    22.3073     8.0367    76.2264     0.0170     2.5536     0.1322
  395.0000   -33.3560    27.9499    22.2736     8.0389    85.0742     0.0184     2.4905     0.1680
  395.5000   -33.3462    27.3804    22.2399     8.0467    89.8703     0.0204     2.4269     0.1805
  396.0000   -33.3308    26.7619    22.2062     8.0544    93.6047     0.0188     2.3737     0.1932
  396.5000   -33.3146    26.0814    22.1736     8.0622    96.8335     0.0171     2.3538     0.1942
  397.0000   -33.2990    25.4164    22.1381     8.0700    96.7517     0.0188     2.3536     0.1932
  397.5000   -33.2835    24.7656    21.8818     8.0777    88.2124     0.0209     2.3556     0.1934
  398.0000   -33.2679    24.0586    21.4600     8.0857    86.9351     0.0230     2.3519     0.1967
  398.5000   -33.2523    23.2652    21.0485     8.0930    87.5581     0.0249     2.3472     0.1999
  399.0000   -33.2367    22.5521    20.6449     8.1157    90.0391     0.0243     2.3435     0.2018
  399.5000   -33.2211    22.5521    20.2491     8.1051    91.7443     0.0231     2.3463     0.1956
  400.0000   -33.2055    22.4348    19.8609     8.0960    92.5665     0.0220     2.3527     0.1919
  400.5000   -33.1901    22.3032    19.4801     8.0870    92.6756     0.0208     2.3593     0.1966
  401.0000   -33.1739    22.1724    19.1067     8.0779    91.7770     0.0197     2.3493     0.2014
  401.5000   -33.2466    22.0432    18.7404     8.0689    90.8734     0.0185     2.3395     0.2010
  402.0000   -33.3910    21.9380    18.3811     8.0599    90.5975     0.0174     2.3483     0.1903
  402.5000   -33.5359    21.7644    18.2352     8.0507    91.8454     0.0162     2.3602     0.1858
  403.0000   -33.6800    21.4713    18.0371     8.0410    93.4067     0.0150     2.3710     0.1847
  403.5000   -33.7658    21.1871    17.8400     8.0145    94.2682     0.0157     2.3731     0.1842
  404.0000   -33.7640    20.7913    17.6455     8.0157    90.3203     0.0169     2.3733     0.1866
  404.5000   -33.7646    20.3852    17.4532     8.0273    86.6183     0.0181     2.3677     0.1897
  405.0000   -33.7737    19.9871    17.2630     8.0441    86.0802     0.0193     2.3614     0.1918
  405.5000   -34.2165    19.5968    17.0749     8.0611    86.0158     0.0205     2.3585     0.1914
  406.0000   -35.1298    19.2141    16.8886     8.0781    85.7237     0.0217     2.3593     0.1902
  406.5000   -35.7862    18.8389    16.7054     8.0951    83.0772     0.0229     2.3620     0.1864
  407.0000   -35.9258    18.4709    16.5870     8.1121    80.4233     0.0241     2.3688     0.1825
  407.5000   -36.0793    18.1102    16.3673     8.1291    80.4093     0.0253     2.3755     0.1825
  408.0000   -36.2299    17.9013    16.1505     8.1460    87.0427     0.0265     2.3780     0.1842
  408.5000   -36.3809    17.8875    15.9366     8.1564    94.1857     0.0286     2.3749     0.1858
  409.0000   -36.5319    17.6713    15.7255     8.1563    96.5906     0.0311     2.3719     0.1874
  409.5000   -36.6829    17.4578    15.5172     8.1554    98.3597     0.0329     2.3686     0.1874
  410.0000   -36.8340    17.2468    15.3116     8.1545    98.1155     0.0323     2.3676     0.1870
  410.5000   -36.9856    17.0383    15.1088     8.1536    98.4904     0.0318     2.3699     0.1840
  411.0000   -37.1350    16.8325    14.9087     8.1528   100.3498     0.0313     2.3728     0.1758
  411.5000   -37.1666    16.6261    14.7112     8.1519   101.4137     0.0308     2.3824     0.1676
  412.0000   -37.1827    16.3318    14.5164     8.1510   101.1374     0.0303     2.3997     0.1630
  412.5000   -37.1988    15.8267    14.3923     8.1501    97.5426     0.0298     2.4114     0.1632
  413.0000   -37.2151    15.3731    14.2534     8.1493    95.3748     0.0293     2.4095     0.1634
  413.5000   -37.2315    15.0595    14.1158     8.1484    96.7526     0.0288     2.4097     0.1605
  414.0000   -37.2478    14.7523    13.9795     8.1475    97.8327     0.0283     2.4178     0.1556
  414.5000   -37.2642    14.4747    13.8446     8.1466    97.5258     0.0278     2.4261     0.1522
  415.0000   -37.2806    14.3681    13.7109     8.1457    97.2106     0.0273     2.4266     0.1525
  415.5000   -37.2969    14.2142    13.5786     8.1449    97.0146     0.0271     2.4260     0.1532
  416.0000   -37.3133    14.0619    13.4475     8.1440    97.6985     0.0300     2.4254     0.1539
  416.5000   -37.3298    13.9113    13.3177     8.1431   100.3263     0.0331     2.4248     0.1526
  417.0000   -37.3482    13.7623    13.1891     8.1422    99.3659     0.0361     2.4261     0.1466
  417.5000   -37.2738    13.6149    13.0618     8.1413    98.5774     0.0391     2.4307     0.1451
  418.0000   -37.1675    13.4691    12.9358     8.1405    98.6841     0.0398     2.4358     0.1390
  418.5000   -37.0597    13.3199    12.8109     8.1396   102.1165     0.0366     2.4505     0.1303
  419.0000   -36.9543    13.2268    12.6872     8.1387   103.9993     0.0335     2.4653     0.1215
  419.5000   -36.9518    13.1173    12.5647     8.1378   103.6752     0.0305     2.4755     0.1217
  420.0000   -37.0503    13.0087    12.4435     8.1369   101.2162     0.0269     2.4772     0.1281
  420.5000   -37.5469    12.9010    12.3233     8.1356    98.7451     0.0274     2.4697     0.1335
  421.0000   -37.7726    12.7942    12.2043     8.1609    96.2963     0.0282     2.4617     0.1351
  421.5000   -37.9855    12.6882    12.0862     8.1763    95.3812     0.0291     2.4546     0.1342
  422.0000   -38.1956    12.5832    11.9700     8.1747    93.2524     0.0300     2.4535     0.1334
  422.5000   -38.3494    12.4789    11.9214     8.1723    92.4281     0.0308     2.4557     0.1311
  423.0000   -38.3462    12.3759    11.9782     8.1699    94.2955     0.0317     2.4625     0.1263
  423.5000   -38.3467    12.2561    12.0185     8.1675    96.2728     0.0326     2.4692     0.1209
  424.0000   -38.3466    12.2555    12.0328     8.1652    98.3178     0.0334     2.4761     0.1198
  424.5000   -38.3466    11.9553    12.0682     8.1628    98.6287     0.0343     2.4764     0.1170
  425.0000   -38.3466    11.9222    12.1017     8.1604    98.3557     0.0351     2.4792     0.1150
  425.5000   -38.3466    11.8782    12.1353     8.1582    98.0567     0.0358     2.4855     0.1185
  426.0000   -38.3466    11.8380    12.1690     8.1553    97.9523     0.0364     2.4867     0.1228
  426.5000   -38.3466    11.8070    12.2027     8.1330   100.8613     0.0367     2.4703     0.1255
  427.0000   -38.3466    11.7689    12.2366     8.1110   103.0026     0.0338     2.4654     0.1225
  427.5000   -38.3466    11.7315    12.2574     8.0893   100.8757     0.0311     2.4710     0.1202
  428.0000   -38.3466    11.6940    12.1947     8.0676    98.2307     0.0327     2.4767     0.1223
  428.5000   -38.3466    11.6567    12.1425     8.0561    97.1556     0.0344     2.4761     0.1242
  429.0000   -38.3465    11.6196    12.0906     8.0561    97.9522     0.0360     2.4730     0.1234
  429.5000   -38.3468    11.5825    12.0389     8.0561    99.0862     0.0377     2.4706     0.1200
  430.0000   -38.3450    11.5456    11.9874     8.0561    99.8457     0.0389     2.4736     0.1164
  430.5000   -38.5070    11.5088    11.9362     8.0561   100.0960     0.0379     2.4814     0.1130
  431.0000   -38.7754    11.4721    11.8852     8.0585    95.8971     0.0370     2.4901     0.1136
  431.5000   -39.0495    11.4355    11.8344     8.0684    91.1145     0.0360     2.4909     0.1142
  432.0000   -39.0690    11.3993    11.7838     8.0779    89.7027     0.0351     2.4916     0.1120
  432.5000   -38.9565    11.3793    11.7335     8.0874    89.9306     0.0342     2.4960     0.1068
  433.0000   -39.0834    11.3714    11.7008     8.0969    95.1836     0.0333     2.5071     0.1015
