~VERSION INFORMATION
 VERS.                2.0:   CWLS LOG ASCII STANDARD - VERSION 2.0
 WRAP.                 NO:   ONE LINE PER DEPTH STEP
~WELL INFORMATION
#MNEM.UNIT      DATA TYPE    INFORMATION
#----------   ------------   ------------------------------
 STRT.F           27.0000:   START DEPTH
 STOP.F          538.0000:   STOP DEPTH
 STEP.F            0.5000:   STEP LENGTH
 NULL.          -999.2500:   NO VALUE
 COMP. FENIX & SCISSON INC:   COMPANY
 WELL.        NPR 3 #24-3:   WELL
 FLD .             TEAPOT:   FIELD
 LOC .       S3 T38N R78W:   LOCATION
 CNTY.            NATRONA:   COUNTY
 STAT.            WYOMING:   STATE
 CTRY. UNITED STATES OF AMERICA:   COUNTRY
 SRVC.            Unknown:   SERVICE COMPANY
 DATE.        26-SEP-1978:   LOGDATE
 API .       490251068800:   API NUMBER
~CURVE INFORMATION
#MNEM.UNIT       API CODE    CURVE DESCRIPTION
#----------   ------------   ------------------------------
 DEPT.F                  :   
 SPR .MV     05 010 01 00:   SPONTANEOUS POTENTIAL FROM RES.
 ILD .OHMM   05 120 46 00:   INDUCTION LOG DEEP
 SN  .OHMM   05 040 16 00:   SHORT NORMAL 16"
 CALD.IN     45 280 60 00:   CALIPER
 GRD .GAPI   45 310 01 00:   GAMMA RAY FROM DENSITY LOG
 DEN .G/C3   45 350 01 00:   COMPENSATED BULK DENSTIY
 DPHI.DEC    45 890 12 00:   DENSITY POROSITY SANDSTONE
 CORR.G/C3   45 356 01 00:   DENSITY CORRECTION
~PARAMETER INFORMATION
#MNEM.UNIT          VALUE    DESCRIPTION
#----------   ------------   ------------------------------
 PD  .                 GL:   PERMANENT DATUM
 EPD .F              5200:   ELEVATION PERMANENT DATUM
 LMF .                 KB:   LOG MEASURED FROM
 DAPD.F                 4:   FEET ABOVE PERMANENT DATUM
 DMF .                 KB:   DRILLING MEASURED FROM
 EKB .F              5204:   KELLING BUSHING
 EGL .F              5200:   GROUND LEVEL
 DATE.            9-26-78:   RUN DATE
 RUN .                  1:   RUN NUMBER
 DD  .F               537:   DEPTH DRILLER
 DL  .F               538:   DEPTH LOGGER
 BLI .F               532:   BOTTOM LOG INTERVAL
 TLI .F                40:   TOP LOG INTERVAL
 CS  .IN            8.625:   CASING SIZE
 CBD .F                40:   CASING BOTTOM DRILLER
 CBL .F                46:   CASING BOTTOM LOGGER
 BS  .IN            7.875:   BIT SIZE
 BSD .F               537:   BIT SIZE AT DEPTH
 DFT .                KCL:   DRILLING FLUID TYPE
 DFD .                8.7:   DRILLING FLUID DENSITY
 DFV .                 37:   DRILLING FLUID VISCOSITY
 DFPH.                  9:   DRILLING FLUID PH
 DFL .                 10:   DRILLING FLUID LOSS
 MSS .          FLOW LINE:   MUD SAMPLE SOURCE
 RMS .OHMM            .18:   RESISTIVITY MUD SAMPLE
 MST .F                72:   MUD SAMPLE TEMPERATURE
 RMF .OHMM            .16:   RESISTIVITY MUD FILTRATE SAMPLE
 MFST.F                76:   MUD FILTRATE SAMPLE TEMPERATURE
 RMC .OHMM            .26:   RESISTIVITY MUD CAKE
 MCST.F                76:   MUD CAKE SAMPLE TEMPERATURE
 MFSS.               MEAS:   MUD FILTRATE SAMPLE SOURCE
 RMB .OHMM            .18:   RESISTIVITY MUD AT BHT
 BHT .F                71:   BOTTOM HOLE TEMPERATURE
 TCS .HRS               3:   TIME CURCULATED STOPPED
 MRT .F                71:   MAXIMUM RECORDED TEMPERATURE
 LUN .               2958:   LOGGING UNIT NUMBER
 LUL .               CASP:   LOGGING UNIT LOCATION
 ENGI.           REYNOLDS:   RECORDING ENGINEER
 WITN.              AMEND:   WITNESSED BY
 CLNT.            A2DTECH:   CLIENT CODE
 ORIG.           5" PRINT:   ORIGIN OF DATA
 UWI .       490251068800:   UNIQUE WELL ID
 DICO. A2D Technologies, Inc.:   DIGITIZING COMPANY
~OTHER INFORMATION
~A   DEPT      SPR        ILD         SN       CALD         GRD       DEN       DPHI       CORR   
# ...
  310.5000   -61.3328     7.2821     6.7957     8.3020   136.9112     2.5091     0.1014     0.0154
  311.0000   -61.3359     7.6509     6.9389     8.3074   134.1749     2.5072     0.1014     0.0168
  311.5000   -61.3148     7.5771     7.0091     8.3099   132.3694     2.5054     0.1012     0.0181
  312.0000   -60.7258     7.4852     7.0785     8.3100   132.3008     2.5046     0.1006     0.0194
  312.5000   -60.1139     7.3745     7.1075     8.3100   131.8430     2.5062     0.1000     0.0208
  313.0000   -59.7997     7.4222     7.1069     8.3100   131.2346     2.5078     0.0993     0.0221
  313.5000   -59.9635     7.4823     7.1069     8.3100   131.6436     2.5094     0.0990     0.0230
  314.0000   -60.1198     7.5429     7.1069     8.3100   133.1803     2.5095     0.0990     0.0230
  314.5000   -60.2778     7.6040     7.1063     8.3100   134.6609     2.5096     0.0989     0.0230
  315.0000   -60.2598     7.6521     7.1662     8.3100   134.3086     2.5102     0.0978     0.0230
  315.5000   -60.0717     7.6023     7.2251     8.3100   133.7894     2.5116     0.0967     0.0218
  316.0000   -59.8858     7.6276     7.2845     8.3100   133.7009     2.5135     0.0956     0.0202
  316.5000   -59.7657     7.6529     7.3067     8.3100   133.7057     2.5155     0.0971     0.0186
  317.0000   -59.9085     7.6783     7.3067     8.3100   133.6961     2.5157     0.1019     0.0170
  317.5000   -60.0452     7.7037     7.3067     8.3099   133.1557     2.5077     0.1068     0.0170
  318.0000   -60.1818     7.7231     7.3066     8.3096   130.5273     2.4976     0.1116     0.0196
  318.5000   -60.3191     7.6449     7.3066     8.3258   129.7013     2.4875     0.1126     0.0267
  319.0000   -60.3171     7.5826     7.3062     8.3441   130.3920     2.4838     0.1003     0.0338
  319.5000   -60.2922     7.5120     7.3171     8.3625   131.3568     2.5001     0.0914     0.0337
  320.0000   -60.2669     7.6247     7.3395     8.3809   130.0904     2.5141     0.0864     0.0316
  320.5000   -60.2420     7.8105     7.3623     8.3789   127.2712     2.5279     0.0807     0.0294
  321.0000   -60.2170     8.1521     7.3851     8.3574   125.2633     2.5388     0.0794     0.0273
  321.5000   -60.1920     8.6285     7.4082     8.3358   125.4692     2.5385     0.0827     0.0251
  322.0000   -60.1655     8.2948     7.4309     8.3141   125.6865     2.5381     0.0858     0.0229
  322.5000   -60.1324     7.8229     7.4429     8.2922   125.7004     2.5249     0.0999     0.0214
  323.0000   -60.4768     7.3778     7.2371     8.2714   125.8404     2.5061     0.1134     0.0304
  323.5000   -60.8586     6.9580     7.1011     8.2986   126.7464     2.4870     0.1268     0.0438
  324.0000   -61.1181     6.7932     6.9676     8.3326   127.5491     2.4680     0.1338     0.0625
  324.5000   -61.0268     6.6235     6.8491     8.3691   124.2906     2.4555     0.1174     0.0739
  325.0000   -60.9423     6.5425     6.8491     9.6368   118.8488     2.4718     0.1047     0.0556
  325.5000   -60.7476     6.4766     6.9429     9.0766   116.3098     2.4914     0.0914     0.0336
  326.0000   -60.5396     6.4779     7.0293     8.2638   116.4071     2.5117     0.0894     0.0232
  326.5000   -60.3319     6.4776     7.1438     8.2505   116.9699     2.5205     0.0873     0.0230
  327.0000   -60.1245     6.7238     7.4829     8.2609   118.4059     2.5238     0.0854     0.0230
  327.5000   -59.8659     7.3432     7.8381     8.2704   119.9785     2.5301     0.0854     0.0230
  328.0000   -59.2901     8.0196     8.2101     8.2796   121.5501     2.5314     0.0856     0.0230
  328.5000   -58.6913     8.7583     8.4346     8.2888   122.7219     2.5282     0.0873     0.0230
  329.0000   -58.2370     9.5797     8.6017     8.2980   122.3504     2.5246     0.0889     0.0230
  329.5000   -57.8084    10.1895     8.7722     8.3072   120.8218     2.5211     0.0906     0.0214
  330.0000   -57.3819     9.9118     8.9460     8.3164   119.5118     2.5175     0.0910     0.0171
  330.5000   -56.9544     9.4636     9.1232     8.3256   119.5125     2.5118     0.0910     0.0127
  331.0000   -56.4284     9.7719     9.3528     8.3347   117.4342     2.5060     0.0984     0.0092
  331.5000   -55.8171    10.3631     9.6297     8.3439   113.1342     2.5001     0.1077     0.0061
  332.0000   -55.2076    10.9901     9.9152     8.3530    99.8585     2.4934     0.1150     0.0094
  332.5000   -54.5784    11.6392    10.2090     8.3622    86.6158     2.4824     0.1209     0.0165
  333.0000   -53.6132    12.3121    10.5109     8.3752    73.0004     2.4715     0.1266     0.0236
  333.5000   -52.8640    13.0238    10.8337     8.4089    69.4760     2.4611     0.1345     0.0308
  334.0000   -52.2671    14.4262    11.2161     8.4426    70.6400     2.4512     0.1422     0.0380
  334.5000   -51.5972    16.3338    11.6135     8.4763    72.5512     2.4410     0.1434     0.0323
  335.0000   -50.8943    20.5620    12.0245     8.5100    74.2544     2.4333     0.1439     0.0225
  335.5000   -50.1819    20.2655    12.4115     8.5437    74.9103     2.4333     0.1535     0.0189
  336.0000   -49.4686    19.7657    12.6353     8.5773    75.3311     2.4284     0.1708     0.0198
  336.5000   -48.7556    19.2744    12.9552     8.6110    74.2616     2.4023     0.1881     0.0233
  337.0000   -48.0457    18.9216    12.9446     8.6447    73.0113     2.3678     0.2038     0.0250
  337.5000   -47.4909    18.9260    12.9216     8.6783    72.2684     2.3366     0.2038     0.0250
  338.0000   -47.1918    18.9229    12.9003     8.7120    74.0054     2.3362     0.1997     0.0250
  338.5000   -46.8887    18.9240    12.8789     8.7457    76.5606     2.3439     0.1938     0.0255
  339.0000   -46.5865    18.5511    12.8571     8.7793    78.7248     2.3517     0.1889     0.0288
  339.5000   -46.2840    18.2504    12.8370     8.8129    80.3366     2.3593     0.1860     0.0313
  340.0000   -45.9808    17.9020    12.9272     8.8239    80.5067     2.3669     0.1831     0.0339
  340.5000   -45.6753    17.9559    13.0180     8.8116    81.3030     2.3702     0.1709     0.0318
  341.0000   -45.6101    18.0227    13.1088     8.7993    82.1909     2.4021     0.1510     0.0261
  341.5000   -45.5906    18.0897    13.1974     8.7870    83.0875     2.4425     0.1427     0.0201
  342.0000   -45.5719    18.1569    13.2949     8.7746    83.4929     2.4600     0.1436     0.0233
  342.5000   -45.5528    18.2244    13.3905     8.7623    83.5014     2.4484     0.1442     0.0289
  343.0000   -45.5336    18.4044    13.4435     8.7500    83.5014     2.4407     0.1442     0.0345
  343.5000   -45.5145    20.0154    13.4437     8.7378    83.4251     2.4342     0.1404     0.0391
  344.0000   -45.4953    22.0859    13.4436     8.7326    82.9396     2.4351     0.1346     0.0381
  344.5000   -45.4761    24.4031    13.4435     8.7498    82.4567     2.4542     0.1246     0.0329
  345.0000   -45.4569    25.4971    13.4435     8.7666    81.9733     2.4741     0.1146     0.0279
  345.5000   -45.4378    26.2467    13.4435     8.7835    81.5129     2.4926     0.1094     0.0227
  346.0000   -45.4286    26.6320    13.4439     8.8003    81.4967     2.4952     0.1320     0.0278
  346.5000   -45.4355    24.5073    13.4462     8.8171    81.5007     2.4651     0.1541     0.0508
  347.0000   -45.1533    24.3276    13.3522     8.8339    81.4997     2.4311     0.1746     0.0734
  347.5000   -44.8375    24.1234    13.2483     8.8508    81.6681     2.3973     0.1908     0.0958
  348.0000   -44.5202    23.1270    13.1451     8.8676    83.3425     2.3635     0.1994     0.1069
  348.5000   -44.2415    21.8245    13.0428     8.8844    85.2900     2.3451     0.1869     0.1064
  349.0000   -44.3287    20.6416    12.9413     8.9012    85.8939     2.3602     0.1762     0.1056
  349.5000   -44.4077    19.6302    12.8406     8.9181    85.7039     2.3752     0.1765     0.1048
  350.0000   -44.9758    18.5640    12.7407     8.9349    84.6923     2.3795     0.1771     0.1062
  350.5000   -45.5944    18.8883    12.6415     8.9518    83.7595     2.3795     0.1775     0.1300
