~VERSION INFORMATION
 VERS.                2.0:   CWLS LOG ASCII STANDARD - VERSION 2.0
 WRAP.                 NO:   ONE LINE PER DEPTH STEP
~WELL INFORMATION
#MNEM.UNIT      DATA TYPE    INFORMATION
#----------   ------------   ------------------------------
 STRT.F            5.0000:   START DEPTH
 STOP.F          610.0000:   STOP DEPTH
 STEP.F            0.5000:   STEP LENGTH
 NULL.          -999.2500:   NO VALUE
 COMP. FENIX & SCISSON INC:   COMPANY
 WELL.        NPR 3 #25-3:   WELL
 FLD .        TEAPOT DOME:   FIELD
 LOC .       S3 T38N R78W:   LOCATION
 CNTY.            NATRONA:   COUNTY
 STAT.            WYOMING:   STATE
 CTRY. UNITED STATES OF AMERICA:   COUNTRY
 SRVC.           BIRDWELL:   SERVICE COMPANY
 DATE.        28-SEP-1978:   LOGDATE
 API .       490251068900:   API NUMBER
~CURVE INFORMATION
#MNEM.UNIT       API CODE    CURVE DESCRIPTION
#----------   ------------   ------------------------------
 DEPT.F                  :   
 SPR .MV     05 010 01 00:   SPONTANEOUS POTENTIAL FROM RES.
 IL  .OHMM   05 120 00 00:   INDUCTION LOG
 SN  .OHMM   05 040 16 00:   SHORT NORMAL 16"
 CALD.IN     45 280 60 00:   CALIPER
 GRD .GAPI   45 310 01 00:   GAMMA RAY FROM DENSITY LOG
 CORR.G/C3   45 356 01 00:   DENSITY CORRECTION
 DEN .G/C3   45 350 01 00:   COMPENSATED BULK DENSTIY
 DPHI.DEC    45 890 12 00:   DENSITY POROSITY SANDSTONE
~PARAMETER INFORMATION
#MNEM.UNIT          VALUE    DESCRIPTION
#----------   ------------   ------------------------------
 PD  .                 GL:   PERMANENT DATUM
 EPD .F              5249:   ELEVATION PERMANENT DATUM
 LMF .                 KB:   LOG MEASURED FROM
 DAPD.F                 4:   FEET ABOVE PERMANENT DATUM
 DMF .                 KB:   DRILLING MEASURED FROM
 EKB .F              5253:   KELLING BUSHING
 EGL .F              5249:   GROUND LEVEL
 DATE.            9-28-78:   RUN DATE
 RUN .                  1:   RUN NUMBER
 DD  .F               616:   DEPTH DRILLER
 DL  .F               613:   DEPTH LOGGER
 BLI .F               607:   BOTTOM LOG INTERVAL
 TLI .F                40:   TOP LOG INTERVAL
 BS  .IN            7.875:   BIT SIZE
 BSD .F               616:   BIT SIZE AT DEPTH
 DFT .                KCL:   DRILLING FLUID TYPE
 DFD .                8.7:   DRILLING FLUID DENSITY
 DFV .                 33:   DRILLING FLUID VISCOSITY
 DFPH.                  9:   DRILLING FLUID PH
 DFL .                  5:   DRILLING FLUID LOSS
 MSS .            MUD PIT:   MUD SAMPLE SOURCE
 RMS .OHMM            .14:   RESISTIVITY MUD SAMPLE
 MST .F                65:   MUD SAMPLE TEMPERATURE
 RMF .OHMM            2.1:   RESISTIVITY MUD FILTRATE SAMPLE
 MFST.F                65:   MUD FILTRATE SAMPLE TEMPERATURE
 RMC .OHMM            .32:   RESISTIVITY MUD CAKE
 MCST.F                65:   MUD CAKE SAMPLE TEMPERATURE
 MFSS.               MEAS:   MUD FILTRATE SAMPLE SOURCE
 TCS .HRS               2:   TIME CURCULATED STOPPED
 LUN .               2958:   LOGGING UNIT NUMBER
 LUL .               CASP:   LOGGING UNIT LOCATION
 ENGI.            ROLLINS:   RECORDING ENGINEER
 WITN.              AMEND:   WITNESSED BY
 CLNT.            A2DTECH:   CLIENT CODE
 ORIG.           5" PRINT:   ORIGIN OF DATA
 UWI .       490251068900:   UNIQUE WELL ID
 DICO. A2D Technologies, Inc.:   DIGITIZING COMPANY
~OTHER INFORMATION
~A    DEPT     SPR         IL         SN         CALD       GRD      CORR        DEN       DPHI   
# ...
  450.5000   -18.5001    13.0562     9.8478     8.6925    88.3306    -0.0073     2.4306     0.1502
  451.0000   -18.7078    12.9653     9.8478     8.6850    88.3345    -0.0076     2.4352     0.1448
  451.5000   -18.9144    12.8750     9.8478     8.6775    88.3280    -0.0079     2.4419     0.1391
  452.0000   -19.1332    12.7854     9.8478     8.6700    87.6084    -0.0082     2.4505     0.1339
  452.5000   -19.4106    12.6701     9.8478     8.6625    85.0357    -0.0085     2.4588     0.1462
  453.0000   -19.6801    12.5307     9.8478     8.6550    81.8434    -0.0088     2.4506     0.1485
  453.5000   -19.9493    12.3928     9.8478     8.6475    81.2627    -0.0091     2.4349     0.1506
  454.0000   -20.2175    12.2565     9.8478     8.6400    81.6617    -0.0094     2.4307     0.1526
  454.5000   -20.4702    12.1216     9.8478     8.6326    83.3008    -0.0097     2.4308     0.1471
  455.0000   -20.5380    12.0573     9.8477     8.6342    85.3090    -0.0100     2.4400     0.1359
  455.5000   -20.6087    12.0573     9.8477     8.6369    87.3261    -0.0103     2.4504     0.1337
  456.0000   -20.6802    12.0573     9.8480     8.6397    89.3428    -0.0106     2.4605     0.1351
  456.5000   -20.7511    12.1557     9.8663     8.6424    91.2255    -0.0110     2.4597     0.1366
  457.0000   -20.8221    12.2927     9.9233     8.6451    91.5604    -0.0113     2.4570     0.1369
  457.5000   -20.8279    12.4313     9.9806     8.6478    91.5506    -0.0116     2.4543     0.1372
  458.0000   -20.7687    12.5715    10.0383     8.6506    91.1264    -0.0119     2.4516     0.1409
  458.5000   -20.7094    12.7133    10.0963     8.6456    90.2783    -0.0122     2.4491     0.1430
  459.0000   -20.6497    12.8566    10.1263     8.6330    89.4315    -0.0125     2.4466     0.1417
  459.5000   -20.5902    13.0016    10.1316     8.6205    88.5786    -0.0128     2.4464     0.1390
  460.0000   -20.5306    13.0995    10.1373     8.6079    88.0229    -0.0125     2.4491     0.1273
  460.5000   -20.4710    13.0978    10.1428     8.5953    87.5775    -0.0109     2.4707     0.1178
  461.0000   -20.4114    13.0987    10.1483     8.5828    87.1413    -0.0093     2.4844     0.1170
  461.5000   -20.3518    13.0994    10.1538     8.5702    86.7250    -0.0090     2.4816     0.1263
  462.0000   -20.2922    13.0983    10.1593     8.5576    88.1725    -0.0090     2.4700     0.1345
  462.5000   -20.2327    12.7390    10.1648     8.5450    90.6982    -0.0090     2.4558     0.1419
  463.0000   -20.1729    12.3707    10.1704     8.5325    92.3491    -0.0090     2.4489     0.1418
  463.5000   -20.1135    12.2812    10.1759     8.5252    92.3579    -0.0090     2.4511     0.1378
  464.0000   -20.0594    12.2812    10.1814     8.5186    92.3550    -0.0090     2.4586     0.1330
  464.5000   -20.0215    12.2311    10.1869     8.5120    92.3789    -0.0090     2.4631     0.1301
  465.0000   -19.9793    11.9180    10.1924     8.5055    92.6137    -0.0090     2.4609     0.1240
  465.5000   -19.9367    11.6130    10.1980     8.4989    92.8517    -0.0090     2.4742     0.1222
  466.0000   -19.8943    11.1963    10.2034     8.4923    93.0904    -0.0090     2.4820     0.1222
  466.5000   -19.8518    11.1940    10.2092     8.4857    93.0811    -0.0090     2.4838     0.1186
  467.0000   -19.8093    11.1931    10.2146     8.4791    92.8088    -0.0090     2.4855     0.1197
  467.5000   -19.7675    11.7139    10.3316     8.4725    92.5414    -0.0090     2.4861     0.1217
  468.0000   -19.7243    12.2557    10.5363     8.4659    92.4538    -0.0090     2.4811     0.1235
  468.5000   -19.6746    12.7655    10.7450     8.4593    93.0957    -0.0090     2.4773     0.1250
  469.0000   -19.2571    13.4409    10.9579     8.4527    93.7059    -0.0090     2.4761     0.1271
  469.5000   -18.4385    14.4028    11.1749     8.4468    94.3112    -0.0078     2.4752     0.1323
  470.0000   -17.4046    15.6368    11.3963     8.4412    94.3699    -0.0046     2.4564     0.1406
  470.5000   -15.5685    17.7509    11.6221     8.4356    93.2636    -0.0014     2.4333     0.1712
  471.0000   -13.7358    20.4918    11.8523     8.4300    90.3370     0.0018     2.4067     0.2017
  471.5000   -12.5703    23.1814    12.0871     8.4244    87.3881     0.0050     2.3777     0.2158
  472.0000   -11.5693    26.1164    12.2812     8.4188    83.7981     0.0070     2.3423     0.2250
  472.5000   -10.8997    27.1231    12.3947     8.4132    79.5597     0.0070     2.3118     0.2244
  473.0000   -10.5149    24.6571    12.3603     8.3953    75.3229     0.0071     2.3107     0.2216
  473.5000   -10.1469    22.9710    12.3355     8.3657    71.0452     0.0105     2.3180     0.2137
  474.0000    -9.8713    23.1721    12.3108     8.4005    69.6260     0.0191     2.3289     0.2050
  474.5000   -10.0786    22.1323    12.2862     8.4401    70.5783     0.0210     2.3397     0.1950
  475.0000   -10.3519    21.3305    12.2616     8.3403    72.5122     0.0026     2.3513     0.1850
  475.5000   -10.6291    20.8120    12.2370     8.3359    74.3006    -0.0111     2.3672     0.1772
  476.0000   -10.8839    19.6245    12.2125     8.3777    74.9441    -0.0090     2.4020     0.1711
  476.5000   -10.9392    18.0748    12.1881     8.4670    75.6067    -0.0073     2.4253     0.1662
  477.0000   -11.0051    18.4512    12.1637     8.5075    78.5765    -0.0057     2.4260     0.1792
  477.5000   -11.0742    18.8345    12.1393     8.4947    81.6662    -0.0040     2.3898     0.2006
  478.0000   -11.0784    19.2471    12.1150     8.4822    82.0984    -0.0030     2.3627     0.2064
  478.5000   -11.0780    19.6659    12.0908     8.4689    80.2901    -0.0026     2.3395     0.2083
  479.0000   -11.0779    20.0569    12.0666     8.4496    78.2648    -0.0021     2.3384     0.2046
  479.5000   -11.0778    20.3715    12.0424     8.4302    76.2492    -0.0017     2.3422     0.2000
  480.0000   -11.0771    20.1787    12.0183     8.4108    75.6518    -0.0012     2.3513     0.1938
  480.5000   -11.0351    19.8710    11.9942     8.3915    76.9160    -0.0001     2.3602     0.1910
  481.0000   -10.9493    19.8168    11.9702     8.3722    80.0341     0.0022     2.3656     0.1915
  481.5000   -10.8640    20.3737    11.9462     8.3532    83.0995     0.0044     2.3660     0.1922
  482.0000   -10.7784    20.3772    11.9223     8.3344    86.1752     0.0066     2.3664     0.1930
  482.5000   -10.6932    19.9558    11.8984     8.3158    89.2221     0.0073     2.3654     0.1951
  483.0000   -10.6074    19.3607    11.8746     8.2816    90.1682     0.0077     2.3629     0.1976
  483.5000   -10.5178    18.5807    11.8509     8.2415    90.4484     0.0080     2.3588     0.2025
  484.0000   -10.2807    18.6214    11.8271     8.2012    89.6210     0.0083     2.3487     0.2105
  484.5000    -9.8285    18.6544    11.8034     8.1609    87.0286     0.0087     2.3329     0.2126
  485.0000    -8.9410    18.6875    11.7796     8.1200    84.2274     0.0106     2.3304     0.2090
  485.5000    -2.5322    18.7207    11.7561     8.1182    81.4405     0.0184     2.3381     0.2025
  486.0000    10.0522    18.7525    11.7339     8.1314    79.3376     0.0218     2.3497     0.1994
  486.5000    10.7425    18.5282    11.6063     8.1448    79.6714     0.0232     2.3615     0.1982
  487.0000    10.5619    18.4105    11.4638     8.1583    80.4652     0.0244     2.3662     0.1987
  487.5000    10.4327    19.1145    11.3222     8.1717    81.2630     0.0257     2.3577     0.2024
  488.0000    10.3260    19.6166    11.1823     8.1858    82.0655     0.0276     2.3492     0.2034
  488.5000    10.2177    20.0000    11.0446     8.1630    82.5039     0.0413     2.3445     0.2007
  489.0000    10.1143    19.6100    10.9974     8.1262    82.6664     0.0485     2.3474     0.1971
  489.5000     9.7031    17.9585    10.9974     8.0890    82.2237     0.0461     2.3537     0.1954
  490.0000     9.1812    16.5549    10.9974     8.0529    81.7907     0.0477     2.3601     0.1954
  490.5000     8.6606    16.1852    10.9974     8.0094    81.4856     0.0651     2.3636     0.1928
