~VERSION INFORMATION
 VERS.                2.0:   CWLS LOG ASCII STANDARD - VERSION 2.0
 WRAP.                 NO:   ONE LINE PER DEPTH STEP
~WELL INFORMATION
#MNEM.UNIT      DATA TYPE    INFORMATION
#----------   ------------   ------------------------------
 STRT.F          248.0000:   START DEPTH
 STOP.F         2495.0000:   STOP DEPTH
 STEP.F            0.5000:   STEP LENGTH
 NULL.          -999.2500:   NO VALUE
 COMP. FENIX & SCISSON INC:   COMPANY
 WELL.      85 SHX #28-28:   WELL
 FLD .             TEAPOT:   FIELD
 LOC .      S28 T39N R78W:   LOCATION
 CNTY.            NATRONA:   COUNTY
 STAT.            WYOMING:   STATE
 CTRY. UNITED STATES OF AMERICA:   COUNTRY
 SRVC.           BIRDWELL:   SERVICE COMPANY
 DATE.        18-AUG-1979:   LOGDATE
 API .       490251079700:   API NUMBER
~CURVE INFORMATION
#MNEM.UNIT       API CODE    CURVE DESCRIPTION
#----------   ------------   ------------------------------
 DEPT.F                  :   
 CALD.IN     45 280 60 00:   CALIPER
 CORR.G/C3   45 356 01 00:   DENSITY CORRECTION
 RHOB.G/C3   45 350 01 00:   BULK DENSITY
 DPHI.DEC    45 890 12 00:   DENSITY POROSITY SANDSTONE
 GRD .GAPI   45 310 01 00:   GAMMA RAY FROM DENSITY LOG
~PARAMETER INFORMATION
#MNEM.UNIT          VALUE    DESCRIPTION
#----------   ------------   ------------------------------
 PD  .                 GL:   PERMANENT DATUM
 EPD .F              5044:   ELEVATION PERMANENT DATUM
 LMF .                 DF:   LOG MEASURED FROM
 DMF .                 KB:   DRILLING MEASURED FROM
 EKB .F              5054:   KELLING BUSHING
 EDF .F              5052:   DRILLING FLOOR
 EGL .F              5044:   GROUND LEVEL
 DATE.            8-18-79:   RUN DATE
 RUN .                  1:   RUN NUMBER
 DD  .F              2500:   DEPTH DRILLER
 DL  .F              2495:   DEPTH LOGGER
 BLI .F              2495:   BOTTOM LOG INTERVAL
 CS  .IN            9.625:   CASING SIZE
 CBD .F               520:   CASING BOTTOM DRILLER
 CBL .F               505:   CASING BOTTOM LOGGER
 BS  .IN             8.75:   BIT SIZE
 BSD .F              2500:   BIT SIZE AT DEPTH
 DFT .                AIR:   DRILLING FLUID TYPE
 TCS .HRS               2:   TIME CURCULATED STOPPED
 ENGI.          B. MILLER:   RECORDING ENGINEER
 WITN.           DINSMORE:   WITNESSED BY
 CLNT.            A2DTECH:   CLIENT CODE
 ORIG.           5" PRINT:   ORIGIN OF DATA
 UWI .       490251079700:   UNIQUE WELL ID
 DICO. A2D Technologies, Inc.:   DIGITIZING COMPANY
~OTHER INFORMATION
~A   DEPT     CALD       CORR       RHOB       DPHI         GRD  
# ...
  736.0000     9.9554     0.0723     2.4544     0.0546   140.5832
  736.5000     9.9541     0.0711     2.4663     0.0490   144.5753
  737.0000     9.9528     0.0600     2.4687     0.0523   142.5492
  737.5000     9.9515     0.0489     2.4448     0.0596   139.1964
  738.0000     9.9502     0.0400     2.4403     0.0628   137.2322
  738.5000     9.9489     0.0463     2.4456     0.0600   143.3470
  739.0000     9.9476     0.0553     2.4510     0.0567   148.3403
  739.5000     9.9463     0.0650     2.4564     0.0533   147.7050
  740.0000     9.9450     0.0754     2.4621     0.0512   146.1366
  740.5000     9.9437     0.0872     2.4681     0.0459   144.6024
  741.0000     9.9424     0.0967     2.4731     0.0455   143.2653
  741.5000     9.9411     0.1022     2.4724     0.0448   142.6594
  742.0000     9.9398     0.1076     2.4782     0.0404   141.8479
  742.5000     9.9385     0.1124     2.4906     0.0355   140.2417
  743.0000     9.9372     0.1090     2.4838     0.0358   139.9957
  743.5000     9.9359     0.1033     2.4886     0.0362   141.8671
  744.0000     9.9346     0.0930     2.4827     0.0386   143.7277
  744.5000     9.9333     0.0826     2.4820     0.0404   146.0492
  745.0000     9.9320     0.0751     2.4838     0.0386   146.5248
  745.5000     9.9306     0.0693     2.4845     0.0391   142.0383
  746.0000     9.9344     0.0636     2.4716     0.0458   138.2845
  746.5000     9.9402     0.0578     2.4588     0.0527   137.5418
  747.0000     9.9462     0.0518     2.4498     0.0568   142.5691
  747.5000     9.9521     0.0526     2.4500     0.0583   144.9963
  748.0000     9.9580     0.0566     2.4440     0.0596   150.1229
  748.5000     9.9640     0.0655     2.4337     0.0689   150.8379
  749.0000     9.9699     0.0763     2.4307     0.0680   145.8487
  749.5000     9.9759     0.0939     2.4287     0.0699   141.5686
  750.0000     9.9818     0.1194     2.4234     0.0718   137.3130
  750.5000     9.9878     0.1633     2.4181     0.0757   133.5072
  751.0000     9.9937     0.2065     2.4126     0.0788   134.8017
  751.5000     9.9996     0.2512     2.4293     0.0679   136.9567
  752.0000    10.0056     0.2959     2.4589     0.0517   138.9178
  752.5000    10.0101     0.3406     2.4977     0.0367   137.3823
  753.0000    10.0100     0.3023     2.4807     0.0344   136.2153
  753.5000    10.0097     0.2487     2.4464     0.0627   137.3774
  754.0000    10.0089     0.2112     2.4117     0.0871   138.6536
  754.5000    10.0080     0.1787     2.3839     0.0964   139.3610
  755.0000    10.0072     0.1856     2.4075     0.0798   137.2500
  755.5000    10.0063     0.2004     2.4427     0.0598   135.3854
  756.0000    10.0055     0.2045     2.4570     0.0536   137.4915
  756.5000    10.0047     0.1831     2.4280     0.0692   140.7247
  757.0000    10.0038     0.1966     2.4335     0.0672   143.4955
  757.5000    10.0030     0.2082     2.4387     0.0654   142.5437
  758.0000    10.0021     0.2145     2.4359     0.0664   137.6066
  758.5000    10.0013     0.2209     2.4382     0.0644   132.7923
  759.0000    10.0005     0.2274     2.4446     0.0615   132.4445
  759.5000     9.9996     0.2275     2.4428     0.0640   134.5089
  760.0000     9.9988     0.2253     2.4452     0.0599   135.8886
  760.5000     9.9980     0.2232     2.4680     0.0471   133.7925
  761.0000     9.9971     0.2215     2.4840     0.0387   133.4121
  761.5000     9.9963     0.2049     2.4773     0.0447   134.6921
  762.0000     9.9955     0.1878     2.4727     0.0446   136.0166
  762.5000     9.9946     0.1711     2.4780     0.0439   134.9743
  763.0000     9.9938     0.1545     2.4728     0.0457   132.9731
  763.5000     9.9929     0.1377     2.4663     0.0489   131.1062
  764.0000     9.9921     0.1278     2.4597     0.0531   131.5173
  764.5000     9.9913     0.1211     2.4495     0.0597   133.1355
  765.0000     9.9904     0.1184     2.4437     0.0632   135.8172
  765.5000     9.9851     0.1237     2.4491     0.0576   138.8883
  766.0000     9.9760     0.1290     2.4540     0.0588   140.2138
  766.5000     9.9668     0.1264     2.4470     0.0565   138.6012
  767.0000     9.9577     0.1203     2.4390     0.0654   135.9417
  767.5000     9.9485     0.1141     2.4444     0.0627   133.3035
  768.0000     9.9394     0.1057     2.4544     0.0569   131.3638
  768.5000     9.9302     0.0953     2.4644     0.0518   131.6708
  769.0000     9.9208     0.0796     2.4691     0.0499   132.9314
  769.5000     9.9134     0.0640     2.4652     0.0499   134.1888
  770.0000     9.8844     0.0542     2.4654     0.0499   135.3582
  770.5000     9.8712     0.0492     2.4646     0.0509   139.1878
  771.0000     9.8704     0.0445     2.4555     0.0566   143.3527
  771.5000     9.8764     0.0466     2.4471     0.0619   147.4478
  772.0000     9.8829     0.0559     2.4487     0.0588   147.7399
  772.5000     9.8894     0.0630     2.4530     0.0569   144.0072
  773.0000     9.8958     0.0678     2.4511     0.0582   141.0030
  773.5000     9.9023     0.0725     2.4498     0.0583   140.5909
  774.0000     9.9087     0.0737     2.4544     0.0570   141.1170
  774.5000     9.9151     0.0743     2.4557     0.0564   142.1009
  775.0000     9.9216     0.0687     2.4525     0.0566   143.0870
  775.5000     9.9280     0.0631     2.4420     0.0617   144.0453
  776.0000     9.9344     0.0598     2.4321     0.0696   146.5671
  776.5000     9.9409     0.0686     2.4455     0.0572   149.9704
  777.0000     9.9473     0.0774     2.4630     0.0493   151.0653
  777.5000     9.9537     0.0764     2.4724     0.0435   146.9578
  778.0000     9.9602     0.0738     2.4781     0.0435   142.4913
  778.5000     9.9666     0.0662     2.4780     0.0438   142.7796
  779.0000     9.9731     0.0543     2.4632     0.0510   146.5155
  779.5000     9.9795     0.0423     2.4485     0.0604   146.3921
  780.0000     9.9859     0.0305     2.4340     0.0697   144.6239
  780.5000     9.9924     0.0374     2.4260     0.0728   142.9372
  781.0000     9.9988     0.0604     2.4573     0.0566   141.2498
  781.5000    10.0052     0.0717     2.4475     0.0606   139.5632
  782.0000    10.0117     0.0774     2.4304     0.0719   137.8782
  782.5000    10.0181     0.1000     2.4132     0.0815   136.9882
  783.0000    10.0246     0.1417     2.4050     0.0840   138.7863
  783.5000    10.0310     0.1845     2.4237     0.0768   141.2243
  784.0000    10.0374     0.2178     2.4468     0.0590   143.6850
  784.5000    10.0439     0.2372     2.4647     0.0483   146.0167
  785.0000    10.0503     0.2502     2.4793     0.0423   146.2288
  785.5000    10.0567     0.2590     2.4670     0.0512   143.1935
  786.0000    10.0632     0.2494     2.4479     0.0611   137.5625
  786.5000    10.0696     0.2332     2.4343     0.0676   131.8827
  787.0000    10.0760     0.2236     2.4467     0.0564   129.9060
  787.5000    10.0825     0.2055     2.4518     0.0653   134.0094
  788.0000    10.0889     0.1758     2.4280     0.0725   142.8259
  788.5000    10.0954     0.1578     2.4107     0.0810   144.4596
  789.0000    10.1018     0.1401     2.4032     0.0855   141.7865
  789.5000    10.1082     0.1481     2.4241     0.0740   140.0344
  790.0000    10.1146     0.1565     2.4424     0.0634   138.9622
  790.5000    10.1214     0.1647     2.4612     0.0523   141.6674
  791.0000    10.1291     0.1465     2.4576     0.0507   146.2970
  791.5000    10.0983     0.1183     2.4498     0.0573   146.9383
  792.0000    10.0739     0.0896     2.4427     0.0619   137.7620
  792.5000    10.0500     0.0742     2.4421     0.0592   129.6683
  793.0000    10.0264     0.0661     2.4528     0.0554   129.1074
  793.5000    10.0021     0.0583     2.4643     0.0521   131.8161
  794.0000     9.9749     0.0505     2.4626     0.0541   138.1827
  794.5000     9.9679     0.0420     2.4589     0.0546   144.9336
  795.0000     9.9627     0.0468     2.4672     0.0459   148.1108
  795.5000     9.9572     0.0435     2.4690     0.0471   148.4364
  796.0000     9.9517     0.0369     2.4642     0.0492   148.1247
  796.5000     9.9461     0.0308     2.4592     0.0539   147.6517
