~VERSION INFORMATION
 VERS.                2.0:   CWLS LOG ASCII STANDARD - VERSION 2.0
 WRAP.                 NO:   ONE LINE PER DEPTH STEP
~WELL INFORMATION
#MNEM.UNIT      DATA TYPE    INFORMATION
#----------   ------------   ------------------------------
 STRT.F          714.0000:   START DEPTH
 STOP.F         2268.0000:   STOP DEPTH
 STEP.F            0.5000:   STEP LENGTH
 NULL.          -999.2500:   NO VALUE
 COMP. LAWRENCE/ALLISON INC:   COMPANY
 WELL. 25-1-STX 10 #25-10:   WELL
 FLD .             TEAPOT:   FIELD
 LOC .      S10 T38N R78W:   LOCATION
 CNTY.            NATRONA:   COUNTY
 STAT.            WYOMING:   STATE
 CTRY. UNITED STATES OF AMERICA:   COUNTRY
 SRVC.            Unknown:   SERVICE COMPANY
 DATE.        07-JUN-1991:   LOGDATE
 API .       490251091300:   API NUMBER
~CURVE INFORMATION
#MNEM.UNIT       API CODE    CURVE DESCRIPTION
#----------   ------------   ------------------------------
 DEPT.F                  :   
 TGAS.UNITS  91 830 01 00:   TOTAL GAS FROM HOTWIRE
 ROP .MIN/FT 91 810 01 00:   RATE OF DRILLING PENETRATION
~PARAMETER INFORMATION
#MNEM.UNIT          VALUE    DESCRIPTION
#----------   ------------   ------------------------------
 EKB .F              5243:   KELLING BUSHING
 EGL .F              5233:   GROUND LEVEL
 DATE.             6-8-91:   RUN DATE
 BLI .F              2280:   BOTTOM LOG INTERVAL
 TLI .F              1680:   TOP LOG INTERVAL
 CS  .IN            9.625:   CASING SIZE
 CBD .F               740:   CASING BOTTOM DRILLER
 ENGI.              TOWER:   RECORDING ENGINEER
 WITN.               HUSK:   WITNESSED BY
 CLNT.            A2DTECH:   CLIENT CODE
 ORIG.           5" PRINT:   ORIGIN OF DATA
 UWI .       490251091300:   UNIQUE WELL ID
 DICO. A2D Technologies, Inc.:   DIGITIZING COMPANY
~OTHER INFORMATION
~A   DEPT     TGAS          ROP 
# ...
 1929.0000   347.3400     0.6247
 1929.5000   349.4856     0.6025
 1930.0000   349.6154     0.6128
 1930.5000   349.7452     0.6122
 1931.0000   350.2321     0.6116
 1931.5000   352.5777     0.6221
 1932.0000   355.3845     0.6757
 1932.5000   359.9459     0.6970
 1933.0000   364.5067     0.6979
 1933.5000   369.0685     0.7067
 1934.0000   372.2885     0.7061
 1934.5000   373.1411     0.6947
 1935.0000   375.4868     0.6956
 1935.5000   378.6599     0.7045
 1936.0000   382.3412     0.7257
 1936.5000   384.6870     0.7685
 1937.0000   387.0325     0.8112
 1937.5000   390.4145     0.8324
 1938.0000   393.8871     0.8319
 1938.5000   396.2326     0.8313
 1939.0000   398.5781     0.8307
 1939.5000   399.6779     0.8302
 1940.0000   401.1058     0.7863
 1940.5000   403.4510     0.7424
 1941.0000   402.9916     0.6768
 1941.5000   402.3606     0.6329
 1942.0000   400.9835     0.6323
 1942.5000   397.3376     0.6427
 1943.0000   393.0360     0.6420
 1943.5000   388.7351     0.6306
 1944.0000   387.8654     0.6301
 1944.5000   383.6914     0.6296
 1945.0000   383.8181     0.6291
 1945.5000   379.6180     0.6284
 1946.0000   377.5812     0.6279
 1946.5000   374.8195     0.6492
 1947.0000   373.8894     0.6486
 1947.5000   372.6560     0.6372
 1948.0000   371.8558     0.6367
 1948.5000   370.4927     0.6360
 1949.0000   369.8221     0.6463
 1949.5000   369.8870     0.6567
 1950.0000   368.3292     0.6671
 1950.5000   367.8534     0.6883
 1951.0000   363.6033     0.7093
 1951.5000   359.3394     0.7314
 1952.0000   357.2390     0.7515
 1952.5000   352.9750     0.7510
 1953.0000   350.8746     0.7505
 1953.5000   348.7742     0.7500
 1954.0000   348.8372     0.7494
 1954.5000   348.9002     0.7489
 1955.0000   346.5863     0.7267
 1955.5000   342.5358     0.6827
 1956.0000   341.1762     0.6509
 1956.5000   327.8719     0.6288
 1957.0000   316.0384     0.6284
 1957.5000   312.4994     0.6280
 1958.0000   312.5769     0.6275
 1958.5000   312.0792     0.6270
 1959.0000   310.5433     0.6484
 1959.5000   310.6082     0.6588
 1960.0000   309.9162     0.6583
 1960.5000   307.7525     0.6579
 1961.0000   305.5892     0.6575
 1961.5000   302.4740     0.6679
 1962.0000   298.0819     0.6675
 1962.5000   293.6905     0.6670
 1963.0000   289.2984     0.6774
 1963.5000   283.6949     0.6879
 1964.0000   277.0752     0.7092
 1964.5000   271.7965     0.7303
 1965.0000   265.9982     0.7407
 1965.5000   259.3780     0.7512
 1966.0000   254.2940     0.7616
 1966.5000   246.7000     0.7720
 1967.0000   237.8516     0.7933
 1967.5000   227.2842     0.8146
 1968.0000   220.8569     0.8250
 1968.5000   212.2660     0.8354
 1969.0000   205.8387     0.8240
 1969.5000   205.9017     0.8236
 1970.0000   205.9647     0.8232
 1970.5000   203.8642     0.8228
 1971.0000   201.7209     0.8223
 1971.5000   197.4159     0.7894
 1972.0000   195.2526     0.7635
 1972.5000   193.2990     0.7125
 1973.0000   193.0889     0.6512
 1973.5000   191.2616     0.6077
 1974.0000   190.9257     0.6076
 1974.5000   188.7620     0.6075
 1975.0000   186.5987     0.6074
 1975.5000   185.0409     0.6073
 1976.0000   184.4350     0.6187
 1976.5000   182.2717     0.6721
 1977.0000   180.1082     0.6937
 1977.5000   178.1443     0.7045
 1978.0000   176.4951     0.6935
 1978.5000   174.8459     0.7042
 1979.0000   173.1967     0.7041
 1979.5000   171.5475     0.7149
 1980.0000   169.8983     0.7148
 1980.5000   168.3772     0.7146
 1981.0000   170.8483     0.6928
 1981.5000   172.8301     0.6493
 1982.0000   170.3726     0.6275
 1982.5000   168.6292     0.6274
 1983.0000   168.7067     0.6382
 1983.5000   168.2091     0.6272
 1984.0000   166.0459     0.6271
 1984.5000   164.5745     0.6270
 1985.0000   163.8822     0.6269
 1985.5000   162.5409     0.6159
 1986.0000   161.7191     0.6267
 1986.5000   160.5072     0.6374
 1987.0000   160.5721     0.6590
 1987.5000   158.4741     0.6914
 1988.0000   155.2285     0.7022
 1988.5000   153.0650     0.7129
 1989.0000   152.1779     0.7128
 1989.5000   150.9015     0.7127
 1990.0000   148.7380     0.7126
 1990.5000   148.1910     0.7125
 1991.0000   148.4760     0.7015
 1991.5000   148.7609     0.6906
 1992.0000   149.0459     0.6796
 1992.5000   149.3309     0.6687
 1993.0000   149.6159     0.6469
 1993.5000   149.9009     0.6343
 1994.0000   150.1859     0.6141
 1994.5000   150.4709     0.6248
 1995.0000   150.7559     0.6247
 1995.5000   151.0409     0.6246
 1996.0000   151.3259     0.6245
 1996.5000   151.6108     0.6244
 1997.0000   151.8958     0.6243
 1997.5000   152.1808     0.6242
 1998.0000   152.4658     0.6132
 1998.5000   152.7508     0.6131
 1999.0000   153.0358     0.6239
 1999.5000   153.3208     0.6237
 2000.0000   346.1643     0.6236
 2000.5000   346.2268     0.6452
 2001.0000   344.1259     0.6343
 2001.5000   337.6981     0.6229
 2002.0000   329.1068     0.5784
 2002.5000   322.5454     0.5689
 2003.0000   316.1283     0.5796
 2003.5000   313.9491     0.5795
 2004.0000   311.7694     0.5903
 2004.5000   309.2193     0.5901
 2005.0000   304.7953     0.5900
 2005.5000   300.3720     0.5899
 2006.0000   295.3347     0.5558
 2006.5000   290.0533     0.5029
 2007.0000   287.0986     0.5028
 2007.5000   281.8185     0.5027
 2008.0000   276.0863     0.5026
 2008.5000   271.6621     0.5134
 2009.0000   268.3377     0.5132
 2009.5000   266.1581     0.5131
 2010.0000   262.7164     0.5022
 2010.5000   258.2921     0.5021
 2011.0000   253.8679     0.5019
 2011.5000   249.4437     0.5018
 2012.0000   245.0187     0.5773
 2012.5000   240.5950     0.6101
 2013.0000   235.3533     0.6213
 2013.5000   235.4159     0.6325
 2014.0000   233.3150     0.6219
 2014.5000   231.2141     0.6223
 2015.0000   231.2766     0.6226
 2015.5000   229.1758     0.6229
 2016.0000   229.2404     0.6232
 2016.5000   229.1524     0.6236
 2017.0000   227.2000     0.6130
 2017.5000   227.2716     0.6134
 2018.0000   226.5439     0.6137
 2018.5000   222.5967     0.6140
 2019.0000   219.2991     0.6143
 2019.5000   212.6303     0.6147
 2020.0000   207.4038     0.6150
 2020.5000   204.4219     0.5710
 2021.0000   201.7644     0.5164
 2021.5000   201.8293     0.5184
 2022.0000   200.8487     0.5187
 2022.5000   198.6690     0.5190
 2023.0000   195.2810     0.5193
 2023.5000   190.8569     0.5522
 2024.0000   186.4331     0.5959
 2024.5000   184.9111     0.5854
 2025.0000   183.4436     0.5748
 2025.5000   181.2641     0.5752
 2026.0000   180.7788     0.5756
 2026.5000   178.6915     0.5759
 2027.0000   178.7541     0.5870
 2027.5000   176.6531     0.5982
 2028.0000   176.7157     0.6094
 2028.5000   176.7783     0.6422
 2029.0000   176.8413     0.6642
 2029.5000   176.9062     0.6862
 2030.0000   177.2416     0.6634
 2030.5000   181.1646     0.6218
 2031.0000   186.7823     0.5896
 2031.5000   192.4361     0.5573
 2032.0000   198.2160     0.5251
 2032.5000   206.3229     0.5255
 2033.0000   213.9772     0.5258
 2033.5000   222.2444     0.5262
 2034.0000   231.2892     0.5265
 2034.5000   240.3329     0.5268
 2035.0000   252.7995     0.5271
 2035.5000   270.7246     0.5275
 2036.0000   290.2584     0.5278
 2036.5000   316.2824     0.5281
 2037.0000   333.6527     0.5285
 2037.5000   346.6960     0.5288
 2038.0000   357.7577     0.5291
 2038.5000   369.2764     0.5294
 2039.0000   385.0569     0.5297
 2039.5000   400.5543     0.5409
 2040.0000   413.7260     0.6064
 2040.5000   424.7326     0.6391
 2041.0000   433.6333     0.6286
 2041.5000   440.4319     0.6398
 2042.0000   447.2311     0.6402
 2042.5000   451.1899     0.6405
 2043.0000   452.2823     0.6733
 2043.5000   454.5917     0.6953
 2044.0000   456.9015     0.6957
 2044.5000   459.2109     0.6960
 2045.0000   461.5202     0.6964
 2045.5000   463.8300     0.6750
 2046.0000   464.6250     0.6536
 2046.5000   464.6899     0.6322
 2047.0000   463.0781     0.6216
 2047.5000   460.5045     0.6111
 2048.0000   460.5671     0.6115
 2048.5000   456.3027     0.5953
 2049.0000   456.3653     0.5879
 2049.5000   452.1009     0.5805
 2050.0000   447.8365     0.5731
