~VERSION INFORMATION
 VERS.                2.0:   CWLS LOG ASCII STANDARD - VERSION 2.0
 WRAP.                 NO:   ONE LINE PER DEPTH STEP
~WELL INFORMATION
#MNEM.UNIT      DATA TYPE    INFORMATION
#----------   ------------   ------------------------------
 STRT.F          750.0000:   START DEPTH
 STOP.F         1490.0000:   STOP DEPTH
 STEP.F            0.5000:   STEP LENGTH
 NULL.          -999.2500:   NO VALUE
 COMP.    FENIX & SCISSON:   COMPANY
 WELL.  53 STX 15 #53 -15:   WELL
 FLD .             TEAPOT:   FIELD
 LOC .      S15 T38N R78W:   LOCATION
 CNTY.            NATRONA:   COUNTY
 STAT.            WYOMING:   STATE
 CTRY. UNITED STATES OF AMERICA:   COUNTRY
 SRVC.              Welex:   SERVICE COMPANY
 DATE.        01-JUN-1980:   LOGDATE
 API .       490251082000:   API NUMBER
~CURVE INFORMATION
#MNEM.UNIT       API CODE    CURVE DESCRIPTION
#----------   ------------   ------------------------------
 DEPT.F                  :   
 CALD.IN     45 280 60 00:   CALIPER
 GRD .GAPI   45 310 01 00:   GAMMA RAY FROM DENSITY LOG
 CORR.G/C3   45 356 01 00:   DENSITY CORRECTION
 RHOB.G/C3   45 350 01 00:   BULK DENSITY
 DPHI.DEC    45 890 12 00:   DENSITY POROSITY SANDSTONE
~PARAMETER INFORMATION
#MNEM.UNIT          VALUE    DESCRIPTION
#----------   ------------   ------------------------------
 PD  .                 GL:   PERMANENT DATUM
 EPD .F              5257:   ELEVATION PERMANENT DATUM
 LMF .                 KB:   LOG MEASURED FROM
 DAPD.F                10:   FEET ABOVE PERMANENT DATUM
 DMF .                 KB:   DRILLING MEASURED FROM
 EKB .F              5267:   KELLING BUSHING
 EGL .F              5257:   GROUND LEVEL
 DATE.             6-1-80:   RUN DATE
 RUN .                  1:   RUN NUMBER
 DD  .F              1498:   DEPTH DRILLER
 DL  .F              1492:   DEPTH LOGGER
 BLI .F              1490:   BOTTOM LOG INTERVAL
 TLI .F               750:   TOP LOG INTERVAL
 CS  .IN            9.625:   CASING SIZE
 CBD .F               772:   CASING BOTTOM DRILLER
 BS  .IN             8.75:   BIT SIZE
 BSD .F              1498:   BIT SIZE AT DEPTH
 DFT .        AIR DRILLED:   DRILLING FLUID TYPE
 TCS .HRS               4:   TIME CURCULATED STOPPED
 MRT .F                88:   MAXIMUM RECORDED TEMPERATURE
 ENGI.               REIN:   RECORDING ENGINEER
 WITN.            RHOADES:   WITNESSED BY
 CLNT.            A2DTECH:   CLIENT CODE
 ORIG.           5" PRINT:   ORIGIN OF DATA
 UWI .       490251082000:   UNIQUE WELL ID
 DICO. A2D Technologies, Inc.:   DIGITIZING COMPANY
~OTHER INFORMATION
~A   DEPT     CALD         GRD      CORR       RHOB       DPHI   
# ...
  872.0000     9.4826    83.7653     0.0668     2.4864     0.0310
  872.5000     9.5126    83.8760     0.0790     2.4788     0.0415
  873.0000     9.5098    84.5202     0.0731     2.4724     0.0448
  873.5000     9.5071    85.1470     0.0738     2.4926     0.0471
  874.0000     9.5047    85.7755     0.0788     2.4925     0.0294
  874.5000     9.5022    86.4015     0.0894     2.4861     0.0364
  875.0000     9.4998    87.0986     0.1010     2.4907     0.0361
  875.5000     9.4974    86.5662     0.0955     2.5039     0.0302
  876.0000     9.4950    86.0543     0.1025     2.5098     0.0222
  876.5000     9.4922    87.1416     0.1162     2.4791     0.0197
  877.0000     9.4736    87.1186     0.1265     2.4425     0.0264
  877.5000     9.4264    86.4364     0.0931     2.4612     0.0377
  878.0000     9.3803    85.8558     0.0594     2.4809     0.0465
  878.5000     9.3671    85.6340     0.0775     2.4851     0.0334
  879.0000     9.4516    85.3363     0.0897     2.4673     0.0410
  879.5000     9.4529    85.0264     0.0833     2.4499     0.0581
  880.0000     9.4700    84.9594     0.0609     2.4520     0.0600
  880.5000     9.4825    85.1059     0.0545     2.4425     0.0607
  881.0000     9.5038    85.3788     0.0551     2.4394     0.0669
  881.5000     9.5261    85.6523     0.0470     2.4417     0.0662
  882.0000     9.5322    85.9249     0.0484     2.4494     0.0641
  882.5000     9.4786    86.1675     0.0503     2.4432     0.0569
  883.0000     9.4054    86.5016     0.0559     2.4329     0.0657
  883.5000     9.3315    86.9668     0.0629     2.4321     0.0712
  884.0000     9.3300    87.4348     0.0603     2.4422     0.0635
  884.5000     9.3919    87.6777     0.0473     2.4309     0.0625
  885.0000     9.3696    87.7848     0.0468     2.4270     0.0770
  885.5000     9.3459    88.2521     0.0428     2.4469     0.0691
  886.0000     9.3228    88.6273     0.0325     2.4478     0.0597
  886.5000     9.3281    88.7926     0.0274     2.4348     0.0674
  887.0000     9.3887    88.9593     0.0248     2.4351     0.0674
  887.5000     9.3744    89.1375     0.0299     2.4311     0.0709
  888.0000     9.3255    89.7378     0.0247     2.4559     0.0713
  888.5000     9.2487    90.9965     0.0275     2.4644     0.0508
  889.0000     9.2917    92.2478     0.0449     2.4792     0.0436
  889.5000     9.3333    93.5110     0.0617     2.4948     0.0354
  890.0000     9.3750    93.6241     0.0750     2.4994     0.0237
  890.5000     9.3953    93.1683     0.0830     2.4800     0.0324
  891.0000     9.4084    92.7900     0.0888     2.4593     0.0469
  891.5000     9.4205    93.3686     0.0683     2.4516     0.0608
  892.0000     9.4009    93.2160     0.0547     2.4659     0.0521
  892.5000     9.2905    92.4164     0.0625     2.4454     0.0471
  893.0000     9.3009    91.6346     0.0567     2.4353     0.0697
  893.5000     9.3094    91.3018     0.0484     2.4658     0.0524
  894.0000     9.3098    90.9391     0.0594     2.4831     0.0338
  894.5000     9.2294    90.6150     0.0702     2.4695     0.0445
  895.0000     9.1340    90.4053     0.0655     2.4425     0.0587
  895.5000     9.0314    90.6507     0.0488     2.4312     0.0671
  896.0000     9.0750    91.4148     0.0297     2.4240     0.0738
  896.5000     9.1598    92.1686     0.0215     2.4194     0.0802
  897.0000     9.2459    92.1920     0.0269     2.4312     0.0756
  897.5000     9.2743    92.9774     0.0325     2.4420     0.0658
  898.0000     9.2998    94.0223     0.0415     2.4251     0.0625
  898.5000     9.3256    95.0756     0.0380     2.4112     0.0835
  899.0000     9.3516    96.1676     0.0406     2.4095     0.0855
  899.5000     9.3777    96.2695     0.0217     2.4144     0.0796
  900.0000     9.3830    95.7381     0.0221     2.4313     0.0843
  900.5000     9.3163    95.2044     0.0242     2.4474     0.0687
  901.0000     9.2483    94.9063     0.0324     2.4453     0.0584
  901.5000     9.1797    95.3353     0.0414     2.4341     0.0660
  902.0000     9.1769    95.8252     0.0439     2.4374     0.0696
  902.5000     9.1848    96.3182     0.0506     2.4399     0.0712
  903.0000     9.2857    96.8133     0.0571     2.4539     0.0622
  903.5000     9.3673    97.3129     0.0522     2.4624     0.0496
  904.0000     9.3536    97.3355     0.0598     2.4491     0.0539
  904.5000     9.3419    96.9882     0.0597     2.4380     0.0625
  905.0000     9.3279    96.6019     0.0486     2.4318     0.0738
  905.5000     9.2779    96.2147     0.0488     2.4465     0.0659
  906.0000     9.2307    95.8425     0.0533     2.4617     0.0532
  906.5000     9.2291    95.7400     0.0594     2.4700     0.0496
  907.0000     9.2293    96.0207     0.0742     2.4764     0.0455
  907.5000     9.2293    96.3548     0.0895     2.4792     0.0424
  908.0000     9.2294    96.4271     0.0900     2.4745     0.0399
  908.5000     9.2297    96.4261     0.0836     2.4686     0.0434
  909.0000     9.2498    96.4500     0.0866     2.4853     0.0503
  909.5000     9.2926    96.9010     0.0988     2.4911     0.0314
  910.0000     9.3352    97.3305     0.1027     2.4423     0.0370
  910.5000     9.3780    97.0510     0.0581     2.4021     0.0647
  911.0000     9.4218    96.6985     0.0312     2.4167     0.0919
  911.5000     9.4250    96.3473     0.0385     2.4187     0.0778
  912.0000     9.4023    95.9970     0.0434     2.4185     0.0799
  912.5000     9.3394    95.8200     0.0452     2.4398     0.0740
  913.0000     9.2762    96.3459     0.0465     2.4548     0.0598
  913.5000     9.2277    97.0248     0.0606     2.4522     0.0544
  914.0000     9.2530    96.4871     0.0698     2.4473     0.0584
  914.5000     9.2811    95.8058     0.0607     2.4495     0.0637
  915.0000     9.3092    96.2022     0.0677     2.4708     0.0535
  915.5000     9.3375    96.8309     0.0793     2.4844     0.0426
  916.0000     9.3497    97.4633     0.0910     2.4784     0.0349
  916.5000     9.3336    98.0963     0.0948     2.4669     0.0432
  917.0000     9.3155    98.5825     0.0820     2.4352     0.0539
  917.5000     9.3099    97.4489     0.0662     2.4089     0.0689
  918.0000     9.3098    97.2297     0.0436     2.4023     0.0837
  918.5000     9.3098    97.8898     0.0214     2.3805     0.0984
  919.0000     9.3099    97.5240     0.0039     2.3859     0.1049
  919.5000     9.3099    97.0085     0.0019     2.3848     0.0968
  920.0000     9.3099    96.4881     0.0023     2.3786     0.1025
  920.5000     9.3098    95.9546     0.0082     2.3898     0.1073
  921.0000     9.3096    96.0011     0.0010     2.4076     0.0927
  921.5000     9.3115    96.7173     0.0183     2.4277     0.0804
  922.0000     9.3447    97.4096     0.0362     2.4327     0.0720
  922.5000     9.3720    97.9755     0.0449     2.4383     0.0661
  923.0000     9.3118    97.2816     0.0564     2.4506     0.0598
  923.5000     9.3484    96.6774     0.0730     2.4691     0.0536
  924.0000     9.4165    96.1103     0.0767     2.4865     0.0393
  924.5000     9.4013    96.1534     0.0926     2.4977     0.0318
  925.0000     9.3619    96.4015     0.0934     2.4728     0.0505
  925.5000     9.3478    96.3752     0.0829     2.4467     0.0625
  926.0000     9.3370    96.1479     0.0585     2.4306     0.0697
  926.5000     9.3269    95.8034     0.0398     2.4271     0.0768
  927.0000     9.3167    95.8188     0.0371     2.4353     0.0727
  927.5000     9.3066    95.8904     0.0336     2.4348     0.0689
  928.0000     9.2966    96.2831     0.0299     2.4283     0.0713
  928.5000     9.2894    96.6722     0.0101     2.4219     0.0802
  929.0000     9.2739    97.0601     0.0109     2.4259     0.0772
  929.5000     9.2733    97.3515     0.0218     2.4473     0.0696
  930.0000     9.2805    96.9005     0.0364     2.4650     0.0599
  930.5000     9.2878    96.4395     0.0540     2.4630     0.0561
  931.0000     9.2950    96.4290     0.0595     2.4587     0.0535
  931.5000     9.3023    96.5264     0.0657     2.4707     0.0554
  932.0000     9.3090    96.6250     0.0760     2.4766     0.0404
  932.5000     9.3348    96.7348     0.0888     2.4495     0.0396
