~VERSION INFORMATION
 VERS.                2.0:   CWLS LOG ASCII STANDARD - VERSION 2.0
 WRAP.                 NO:   ONE LINE PER DEPTH STEP
~WELL INFORMATION
#MNEM.UNIT      DATA TYPE    INFORMATION
#----------   ------------   ------------------------------
 STRT.F            0.0000:   START DEPTH
 STOP.F          533.0000:   STOP DEPTH
 STEP.F            0.1000:   STEP LENGTH
 NULL.          -999.2500:   NO VALUE
 COMP.   FLUOR DANIEL INC:   COMPANY
 WELL.   84-4 X 10 #81-10:   WELL
 FLD .             TEAPOT:   FIELD
 LOC .      S10 T38N R78W:   LOCATION
 CNTY.            NATRONA:   COUNTY
 STAT.            WYOMING:   STATE
 CTRY. UNITED STATES OF AMERICA:   COUNTRY
 SRVC.     Atlas Wireline:   SERVICE COMPANY
 DATE.        25-SEP-1994:   LOGDATE
 API .       490252264000:   API NUMBER
~CURVE INFORMATION
#MNEM.UNIT       API CODE    CURVE DESCRIPTION
#----------   ------------   ------------------------------
 DEPT.F                  :   
 GRR .GAPI   07 310 01 00:   GAMMA RAY
 RILD.OHMM   07 120 46 00:   INDUCTION LOG DEEP RESISTIVITY
 RILM.OHMM   07 120 44 00:   INDUCTION LOG MEDIUM RESISTIVITY
~PARAMETER INFORMATION
#MNEM.UNIT          VALUE    DESCRIPTION
#----------   ------------   ------------------------------
 PD  .                 GL:   PERMANENT DATUM
 EPD .F              5150:   ELEVATION PERMANENT DATUM
 LMF .                 KB:   LOG MEASURED FROM
 DAPD.F                10:   FEET ABOVE PERMANENT DATUM
 DMF .                 KB:   DRILLING MEASURED FROM
 EKB .F              5160:   KELLING BUSHING
 EDF .F              5159:   DRILLING FLOOR
 EGL .F              5150:   GROUND LEVEL
 DATE.        25-SEP-1994:   RUN DATE
 RUN .                  1:   RUN NUMBER
 DD  .F               545:   DEPTH DRILLER
 DL  .F               541:   DEPTH LOGGER
 BLI .F               533:   BOTTOM LOG INTERVAL
 CS  .IN            9.625:   CASING SIZE
 CBD .F                76:   CASING BOTTOM DRILLER
 CBL .F                76:   CASING BOTTOM LOGGER
 BS  .IN             8.75:   BIT SIZE
 BSD .F               545:   BIT SIZE AT DEPTH
 DFT .                AIR:   DRILLING FLUID TYPE
 MRT .F                85:   MAXIMUM RECORDED TEMPERATURE
 LUN .            HL 6401:   LOGGING UNIT NUMBER
 LUL .         FT. MORGAN:   LOGGING UNIT LOCATION
 ENGI.    DAVE FREDERICKS:   RECORDING ENGINEER
 WITN.        GARY STRONG:   WITNESSED BY
 CLNT.            A2DTECH:   CLIENT CODE
 ORIG.           5' PRINT:   ORIGIN OF DATA
 UWI .       490252264000:   UNIQUE WELL ID
 DICO. A2D Technologies, Inc.:   DIGITIZING COMPANY
~OTHER INFORMATION
~A    DEPT      GRR      RILD       RILM   
# ...
  364.0000    98.5620    23.0046    21.7829
  364.1000    99.0703    22.9194    21.7838
  364.2000    99.5078    22.7877    21.7847
  364.3000    99.7631    22.6568    21.7461
  364.4000   100.0462    22.5345    21.6361
  364.5000   100.0483    22.5360    21.6372
  364.6000   100.0508    22.4242    21.5218
  364.7000   100.0532    22.2954    21.4897
  364.8000    99.9774    22.2281    21.4230
  364.9000    99.7269    22.1938    21.2999
  365.0000    99.4564    22.0663    21.1775
  365.1000    99.4586    21.9248    21.0517
  365.2000    99.4610    21.8136    20.9349
  365.3000    99.5980    21.6884    20.8146
  365.4000    99.8534    21.6254    20.6951
  365.5000   100.1449    21.5529    20.6226
  365.6000   100.6793    21.3288    20.5999
  365.7000   100.9217    21.3303    20.4821
  365.8000   101.1771    21.2197    20.4831
  365.9000   101.2906    21.0979    20.3875
  366.0000   101.4783    21.0389    20.3434
  366.1000   101.9432    21.0018    20.2939
  366.2000   102.2043    20.8811    20.2048
  366.3000   102.4540    20.7518    20.2056
  366.4000   102.7094    20.7529    20.2066
  366.5000   102.9648    20.8419    20.2073
  366.6000   103.2201    20.9647    20.1312
  366.7000   103.4248    21.0881    20.0696
  366.8000   103.4288    21.2122    20.1024
  366.9000   103.7322    21.3445    20.2106
  367.0000   103.5287    21.4628    20.2116
  367.1000   103.4344    21.5892    20.3169
  367.2000   103.4369    21.7163    20.3535
  367.3000   103.4393    21.7994    20.3544
  367.4000   103.4417    21.8205    20.3552
  367.5000   103.4445    21.9540    20.3560
  367.6000   103.2338    21.9552    20.3570
  367.7000   102.9833    21.9564    20.3577
  367.8000   102.7327    22.0304    20.3586
  367.9000   102.4170    22.1122    20.3594
  368.0000   101.9135    22.1134    20.3603
  368.1000   101.3441    22.1146    20.3611
  368.2000   100.9063    22.1159    20.3620
  368.3000   100.4028    22.1171    20.3628
  368.4000    99.8993    22.1183    20.3637
  368.5000    99.3958    22.1195    20.4333
  368.6000    98.9157    22.0958    20.5068
  368.7000    98.6395    21.9687    20.5076
  368.8000    98.6417    21.9701    20.5085
  368.9000    98.6441    21.9711    20.5095
  369.0000    98.6465    21.8951    20.6070
  369.1000    98.6489    21.8212    20.6534
  369.2000    98.6514    21.8224    20.6543
  369.3000    98.6540    21.8236    20.6552
  369.4000    98.6562    21.6738    20.6560
  369.5000    98.6586    21.6748    20.6570
  369.6000    98.6610    21.6760    20.6577
  369.7000    98.6634    21.6772    20.6586
  369.8000    98.6280    21.6784    20.6594
  369.9000    98.3663    21.6842    20.6603
  370.0000    98.3686    21.8323    20.6612
  370.1000    98.1784    21.8334    20.6621
  370.2000    97.9279    21.9167    20.6629
  370.3000    97.6774    22.0457    20.6637
  370.4000    97.4715    22.1755    20.6646
  370.5000    97.4744    22.3060    20.6655
  370.6000    96.9788    22.4558    20.6663
  370.7000    96.6751    22.5696    20.6672
  370.8000    96.4246    22.7025    20.6680
  370.9000    96.1740    22.8362    20.6689
  371.0000    95.9758    22.9706    20.6697
  371.1000    95.9782    23.1058    20.6706
  371.2000    95.9811    23.2584    20.6715
  371.3000    96.1901    23.2595    20.6723
  371.4000    96.4455    23.3535    20.5580
  371.5000    96.9184    23.4245    20.5315
  371.6000    97.5605    23.4258    20.5323
  371.7000    97.8265    23.4143    20.4873
  371.8000    98.4125    23.2661    20.3695
  371.9000    98.8431    23.1462    20.2526
  372.0000    99.3514    22.8273    20.2536
  372.1000    99.6278    22.4991    20.1595
  372.2000    99.6302    22.2401    20.0437
  372.3000    99.5972    21.9983    19.9776
  372.4000    99.0311    21.8614    19.9516
  372.5000    98.5901    21.7464    19.8369
  372.6000    97.9141    21.5314    19.7056
  372.7000    97.1578    21.2836    19.6097
  372.8000    96.4013    21.0386    19.4971
  372.9000    95.6448    20.8121    19.4370
  373.0000    94.8159    20.6849    19.4075
  373.1000    94.1316    20.4623    19.2872
  373.2000    93.7345    20.2269    19.0402
  373.3000    93.4840    20.0571    19.0409
  373.4000    93.3148    19.9019    18.9653
  373.5000    93.3816    19.6899    18.8564
  373.6000    93.9240    19.5717    19.0905
  373.7000    94.1624    19.4644    19.5204
  373.8000    94.9784    19.4382    19.4082
  373.9000    95.9927    19.3758    19.2966
  374.0000    96.8298    19.3056    19.1787
  374.1000    97.2592    19.3066    19.0756
  374.2000    97.2617    19.3077    19.0480
  374.3000    97.2640    19.4186    18.9880
  374.4000    97.2665    19.4447    18.8789
  374.5000    97.1239    19.4457    18.7704
  374.6000    96.9692    19.4906    18.6597
  374.7000    96.9716    19.6054    18.5553
  374.8000    96.9740    19.7215    18.4488
  374.9000    96.9764    19.7226    18.4056
  375.0000    97.1803    19.8154    18.4063
  375.1000    97.4357    19.8625    18.4071
  375.2000    97.7941    19.9105    18.4078
  375.3000    98.3564    20.0033    18.4087
  375.4000    99.1131    20.0044    18.3220
  375.5000    99.7104    19.8671    18.2832
  375.6000   100.1297    19.8680    18.2379
  375.7000   100.6381    19.7977    18.1330
  375.8000   101.0360    19.7325    18.0288
  375.9000   101.2915    19.7335    17.9106
  376.0000   101.5347    19.7310    17.8223
  376.1000   101.5375    19.5991    17.7885
  376.2000   101.9714    19.5051    17.6921
  376.3000   102.3130    19.4652    17.5454
  376.4000   102.4508    19.4163    17.5462
  376.5000   102.5217    19.3047    17.5470
  376.6000   102.7577    19.1938    17.5476
  376.7000   102.7604    19.0676    17.5484
  376.8000   102.7625    18.9740    17.5491
  376.9000   102.9389    18.9374    17.5498
  377.0000   103.0695    19.0411    17.5505
  377.1000   103.1476    19.1752    17.5513
  377.2000   103.3764    19.0650    17.5520
  377.3000   103.3791    18.9417    17.5527
  377.4000   103.6117    18.7514    17.4976
  377.5000   103.5045    18.6086    17.4331
  377.6000   102.9897    18.5017    17.4339
  377.7000   102.0674    18.3954    17.4346
  377.8000   100.8389    18.2897    17.3372
  377.9000    99.7681    18.1735    17.3158
  378.0000    98.3444    18.0803    17.2576
  378.1000    97.0175    17.9765    17.1978
  378.2000    96.4520    17.8732    17.1783
  378.3000    96.5446    17.7705    17.0806
  378.4000    96.8822    17.6684    17.0815
  378.5000    97.6677    17.5580    17.0821
  378.6000    98.6497    17.5589    17.0209
  378.7000    99.8598    17.4870    16.9657
  378.8000   100.9804    17.3866    16.9664
  378.9000   101.9946    17.2867    16.9622
  379.0000   102.9607    17.2000    16.8509
  379.1000   103.7245    17.2011    16.8515
  379.2000   104.0295    17.1092    16.8522
  379.3000   104.0314    17.0837    16.8529
  379.4000   103.8800    17.0847    16.8536
  379.5000   103.5247    17.0856    16.8543
  379.6000   103.0212    17.0866    16.8550
  379.7000   102.5112    17.0876    16.8557
  379.8000   101.6270    17.0885    16.8564
  379.9000   101.2085    17.0894    16.8571
  380.0000   100.5438    17.0904    16.8578
  380.1000    99.7873    17.0913    16.8585
  380.2000    98.9681    17.0923    16.8592
  380.3000    97.9859    17.0933    16.7689
  380.4000    97.4118    17.0942    16.6726
  380.5000    96.9789    17.0185    16.6295
  380.6000    96.6437    16.9776    16.6302
  380.7000    96.5124    16.9785    16.6152
  380.8000    96.5148    16.9795    16.5169
  380.9000    96.5382    16.9804    16.5176
  381.0000    96.8220    16.8840    16.5183
  381.1000    97.0489    16.8646    16.5190
  381.2000    97.4799    16.8655    16.4820
  381.3000    97.8618    16.8273    16.4064
  381.4000    98.1945    16.7505    16.4071
  381.5000    98.7313    16.7514    16.4079
  381.6000    99.5555    16.7525    16.3309
  381.7000   100.4859    16.7533    16.2960
  381.8000   101.3172    16.7542    16.2966
  381.9000   101.8110    16.7551    16.2973
  382.0000   101.9819    16.7344    16.2935
  382.1000   101.9488    16.6408    16.1864
