~VERSION INFORMATION
 VERS.                2.0:   CWLS LOG ASCII STANDARD - VERSION 2.0
 WRAP.                 NO:   ONE LINE PER DEPTH STEP
~WELL INFORMATION
#MNEM.UNIT      DATA TYPE    INFORMATION
#----------   ------------   ------------------------------
 STRT.F            2.0000:   START DEPTH
 STOP.F          564.0000:   STOP DEPTH
 STEP.F            0.5000:   STEP LENGTH
 NULL.          -999.2500:   NO VALUE
 COMP.       F D SERV INC:   COMPANY
 WELL. NAVAL PETROLEUM RESERVE 3 SX-3 #88-2-3:   WELL
 FLD .             TEAPOT:   FIELD
 LOC .       S3 T38N R78W:   LOCATION
 CNTY.            NATRONA:   COUNTY
 STAT.            WYOMING:   STATE
 CTRY. UNITED STATES OF AMERICA:   COUNTRY
 SRVC.      Western Atlas:   SERVICE COMPANY
 DATE.        29-OCT-1992:   LOGDATE
 API .       490252255900:   API NUMBER
~CURVE INFORMATION
#MNEM.UNIT       API CODE    CURVE DESCRIPTION
#----------   ------------   ------------------------------
 DEPT.F                  :   
 GRR .GAPI   07 310 01 00:   GAMMA RAY
 RILD.OHMM   07 120 46 00:   INDUCTION LOG DEEP RESISTIVITY
 RILM.OHMM   07 120 44 00:   INDUCTION LOG MEDIUM RESISTIVITY
~PARAMETER INFORMATION
#MNEM.UNIT          VALUE    DESCRIPTION
#----------   ------------   ------------------------------
 PD  .                 GL:   PERMANENT DATUM
 EPD .F              5138:   ELEVATION PERMANENT DATUM
 LMF .                 KB:   LOG MEASURED FROM
 DAPD.F                10:   FEET ABOVE PERMANENT DATUM
 DMF .                 KB:   DRILLING MEASURED FROM
 EKB .F              5148:   KELLING BUSHING
 EDF .F              5147:   DRILLING FLOOR
 EGL .F              5138:   GROUND LEVEL
 DATE.        29-OCT-1992:   RUN DATE
 RUN .                  1:   RUN NUMBER
 DD  .F               570:   DEPTH DRILLER
 DL  .F               572:   DEPTH LOGGER
 BLI .F               564:   BOTTOM LOG INTERVAL
 CS  .IN            8.625:   CASING SIZE
 CBD .F                98:   CASING BOTTOM DRILLER
 CBL .F                98:   CASING BOTTOM LOGGER
 BS  .IN            7.875:   BIT SIZE
 BSD .F               570:   BIT SIZE AT DEPTH
 DFT .           AIR FOAM:   DRILLING FLUID TYPE
 TCS .HRS               2:   TIME CURCULATED STOPPED
 MRT .F                60:   MAXIMUM RECORDED TEMPERATURE
 LUN .            HL-6274:   LOGGING UNIT NUMBER
 LUL .             CASPER:   LOGGING UNIT LOCATION
 ENGI.             RAUTIO:   RECORDING ENGINEER
 WITN.     BRUCE ANDERSON:   WITNESSED BY
 CLNT.            A2DTECH:   CLIENT CODE
 ORIG.           5" PRINT:   ORIGIN OF DATA
 UWI .       490252255900:   UNIQUE WELL ID
 DICO. A2D Technologies, Inc.:   DIGITIZING COMPANY
~OTHER INFORMATION
~A    DEPT      GRR      RILD       RILM   
# ...
   93.0000    84.0302  -999.2500  -999.2500
   93.5000    83.1111  -999.2500  -999.2500
   94.0000    80.6862  -999.2500  -999.2500
   94.5000    80.0713  -999.2500  -999.2500
   95.0000    79.1547  -999.2500  -999.2500
   95.5000    75.2215  -999.2500  -999.2500
   96.0000    72.7966  -999.2500  -999.2500
   96.5000    82.7368  -999.2500  -999.2500
   97.0000    98.4115  -999.2500  -999.2500
   97.5000   107.7513  -999.2500  -999.2500
   98.0000   124.3310     2.7773     6.4190
   98.5000   130.9559     2.0455     7.9874
   99.0000   132.7542     2.1769    13.9897
   99.5000   129.4214     3.3433    19.6086
  100.0000   126.3347     5.6961    42.0330
  100.5000   125.5686     9.5781    55.8190
  101.0000   125.1826    16.1279    49.9660
  101.5000   126.0847    10.6416    25.8911
  102.0000   126.6844     8.4162    14.5743
  102.5000   128.7932     7.8587    10.7505
  103.0000   129.6953     7.5965    10.5291
  103.5000   129.6917     7.4969    10.8240
  104.0000   130.8955     7.5161    10.5279
  104.5000   133.3059     8.9882     9.6619
  105.0000   133.0014    10.6190     9.2938
  105.5000   132.6968    11.6263     9.1656
  106.0000   132.0900    11.4741     9.2288
  106.5000   132.9921    10.3391     9.1646
  107.0000   133.8942     9.6641     9.0925
  107.5000   135.0980     9.7392     8.9133
  108.0000   137.2067     9.9501     8.9128
  108.5000   127.2484     9.9567     8.9123
  109.0000   121.2124     9.8946     8.9118
  109.5000   115.7796     9.6879     8.9113
  110.0000   113.6652     9.3757     8.8492
  110.5000   122.7113     9.1187     8.7877
  111.0000   128.1384     8.9283     8.8484
  111.5000   127.5322     8.7479     8.9092
  112.0000   126.9260     8.5681     8.8392
  112.5000   128.2051     8.5090     8.7251
  113.0000   131.7461     8.4504     8.7246
  113.5000   132.9506     8.4504     8.6042
  114.0000   133.8520     8.4504     8.5444
  114.5000   136.5641     8.5090     8.4850
  115.0000   140.4821     8.4504     8.4260
  115.5000   144.7024     8.3921     8.3674
  116.0000   136.2531     8.2767     8.2519
  116.5000   130.5187     8.0420     8.1381
  117.0000   127.1775     7.8310     8.0184
  117.5000   132.0206     7.6701     7.8061
  118.0000   138.3526     7.5125     7.5926
  118.5000   143.7796     7.4093     7.3849
  119.0000   145.9185     7.3016     7.2328
  119.5000   144.3067     7.1573     7.1264
  120.0000   141.6586     7.0589     6.9378
  120.5000   140.4491     7.0102     6.8896
  121.0000   141.6529     6.9139     6.8417
  121.5000   143.4600     6.9139     6.8888
  122.0000   145.8697     6.9619     6.9974
  122.5000   143.4536     7.0589     7.3815
  123.0000   137.1159     7.1573     7.4840
  123.5000   130.4765     7.2570     7.5879
  124.0000   127.4369     7.3582     7.6931
  124.5000   127.1525     7.4607     7.7461
  125.0000   129.2606     7.6172     7.7994
  125.5000   128.9561     7.7234     7.7990
  126.0000   128.3499     7.7770     7.9072
  126.5000   129.2520     7.8854     7.9617
  127.0000   128.6451     7.9953     7.9063
  127.5000   126.8323     7.9953     7.9608
  128.0000   125.0195     7.9401     7.9603
  128.5000   123.8049     7.8854     7.9598
  129.0000   123.2031     7.8854     7.9594
  129.5000   125.9151     7.8854     7.9040
  130.0000   129.2305     7.8854     7.9035
  130.5000   132.5459     7.8854     7.9031
  131.0000   136.2232     7.8854     7.9576
  131.5000   138.8743     7.9401     8.0123
  132.0000   140.3798     7.9401     8.0675
  132.5000   139.1703     8.0508     8.1231
  133.0000   137.0558     8.0508     8.2359
  133.5000   134.3373     8.1630     8.3501
  134.0000   132.8261     8.2767     8.4076
  134.5000   132.8233     8.3342     8.3491
  135.0000   130.7088     8.2767     8.2338
  135.5000   130.7059     8.2767     8.1766
  136.0000   130.0990     8.2197     8.1761
  136.5000   128.8895     8.2197     8.1757
  137.0000   127.3784     8.2197     8.1752
  137.5000   126.1689     8.2197     8.1747
  138.0000   125.5626     8.2767     8.1742
  138.5000   126.4641     8.3342     8.1738
  139.0000   127.9695     8.2767     8.2150
  139.5000   128.2690     8.2197     8.1729
  140.0000   127.0588     8.1067     8.1723
  140.5000   125.8486     8.1067     8.1155
  141.0000   127.3540     8.0508     8.1151
  141.5000   129.7645     8.0508     8.1146
  142.0000   130.4052     8.0508     8.0582
  142.5000   130.0604     8.0508     8.0577
  143.0000   130.3592     8.0508     8.0572
  143.5000   129.7523     8.0508     8.0568
  144.0000   129.1461     8.0508     8.0564
  144.5000   128.8266     7.9953     8.0559
  145.0000   130.9496     7.9401     8.0554
  145.5000   130.6451     7.9401     8.0549
  146.0000   130.9446     7.9530     8.0545
  146.5000   132.7510     7.9953     8.0540
  147.0000   133.3515     7.9953     8.0536
  147.5000   133.0462     7.9953     8.0530
  148.0000   133.6467     8.0017     8.1086
  148.5000   135.4538     8.0508     8.0522
  149.0000   136.0845     7.9953     8.0517
  149.5000   134.7742     7.8854     8.0439
  150.0000   131.1444     7.8310     7.9402
  150.5000   129.0987     7.7445     7.9395
  151.0000   134.5143     7.6667     7.9390
  151.5000   139.6311     7.7184     7.8837
  152.0000   140.5389     7.7169     7.8831
  152.5000   137.5967     7.7154     7.8826
  153.0000   133.8624     7.7135     7.9369
  153.5000   133.8510     7.7659     7.9914
  154.0000   134.4458     7.8183     8.1075
  154.5000   134.7331     7.8707     8.2145
  155.0000   135.3222     7.9784     8.2710
  155.5000   136.5174     8.0880     8.2704
  156.0000   136.5060     8.1991     8.3273
  156.5000   136.7964     8.2544     8.3846
  157.0000   137.0865     8.2527     8.4422
  157.5000   136.4689     8.2507     8.5003
  158.0000   132.8376     8.3064     8.4410
  158.5000   131.3178     8.3048     8.4404
  159.0000   130.7029     8.4189     8.4397
  159.5000   131.5938     8.4168     8.4392
  160.0000   134.5990     8.4151     8.4386
  160.5000   132.1743     8.2978     8.4381
  161.0000   130.6546     8.1258     8.4374
  161.5000   130.0398     8.0681     8.3787
  162.0000   132.7405     8.0105     8.2060
  162.5000   133.3352     7.9537     8.0368
  163.0000   133.6229     7.8973     7.9259
  163.5000   134.8537     7.8413     7.8163
  164.0000   137.2168     7.6783     7.7084
  164.5000   139.6187     7.6239     7.6019
  165.0000   138.0990     7.5698     7.6014
  165.5000   136.5792     7.5683     7.6009
  166.0000   136.2633     7.5146     7.6003
  166.5000   136.2519     7.5654     7.6526
  167.0000   135.3355     7.5635     7.6521
  167.5000   132.3075     7.6149     7.7047
  168.0000   129.5783     7.6680     7.7577
  168.5000   128.3602     7.7758     7.8238
  169.0000   129.2538     7.8775     7.9320
  169.5000   129.8486     7.9938     7.9737
  170.0000   131.3826     8.0955     8.0843
  170.5000   134.0432     8.2067     8.1964
  171.0000   135.5430     8.2691     8.2527
  171.5000   135.8332     8.3751     8.3671
  172.0000   135.8189     8.4316     8.4247
  172.5000   136.7096     8.4299     8.4826
  173.0000   137.6060     8.4279     8.5410
  173.5000   135.1785     8.4262     8.6593
  174.0000   133.0555     8.4835     8.6587
  174.5000   131.8374     8.4814     8.6514
  175.0000   135.7447     8.4793     8.4211
  175.5000   139.6549     8.4194     8.3624
  176.0000   136.6268     8.4177     8.2470
  176.5000   135.1071     8.4159     8.1896
  177.0000   137.5061     8.4142     8.1889
  177.5000   140.5113     8.4121     8.2452
  178.0000   142.6143     8.4107     8.2447
  178.5000   139.5835     8.4088     8.2441
  179.0000   136.7682     8.4072     8.3008
  179.5000   133.5246     8.4051     8.3792
  180.0000   132.0049     8.4622     8.4739
  180.5000   132.9013     8.4601     8.5912
  181.0000   131.3304     8.5173     8.6503
  181.5000   126.8396     8.6984     8.7945
  182.0000   124.7165     8.8316     9.0157
  182.5000   124.1018     9.0587     9.1408
  183.0000   125.2971     9.2469     9.3319
  183.5000   125.5873     9.3740     9.5270
