~VERSION INFORMATION
 VERS.                2.0:   CWLS LOG ASCII STANDARD - VERSION 2.0
 WRAP.                 NO:   ONE LINE PER DEPTH STEP
~WELL INFORMATION
#MNEM.UNIT      DATA TYPE    INFORMATION
#----------   ------------   ------------------------------
 STRT.F            5.0000:   START DEPTH
 STOP.F          610.0000:   STOP DEPTH
 STEP.F            0.5000:   STEP LENGTH
 NULL.          -999.2500:   NO VALUE
 COMP. FENIX & SCISSON INC:   COMPANY
 WELL.        NPR 3 #25-3:   WELL
 FLD .        TEAPOT DOME:   FIELD
 LOC .       S3 T38N R78W:   LOCATION
 CNTY.            NATRONA:   COUNTY
 STAT.            WYOMING:   STATE
 CTRY. UNITED STATES OF AMERICA:   COUNTRY
 SRVC.           BIRDWELL:   SERVICE COMPANY
 DATE.        28-SEP-1978:   LOGDATE
 API .       490251068900:   API NUMBER
~CURVE INFORMATION
#MNEM.UNIT       API CODE    CURVE DESCRIPTION
#----------   ------------   ------------------------------
 DEPT.F                  :   
 SPR .MV     05 010 01 00:   SPONTANEOUS POTENTIAL FROM RES.
 IL  .OHMM   05 120 00 00:   INDUCTION LOG
 SN  .OHMM   05 040 16 00:   SHORT NORMAL 16"
 CALD.IN     45 280 60 00:   CALIPER
 GRD .GAPI   45 310 01 00:   GAMMA RAY FROM DENSITY LOG
 CORR.G/C3   45 356 01 00:   DENSITY CORRECTION
 DEN .G/C3   45 350 01 00:   COMPENSATED BULK DENSTIY
 DPHI.DEC    45 890 12 00:   DENSITY POROSITY SANDSTONE
~PARAMETER INFORMATION
#MNEM.UNIT          VALUE    DESCRIPTION
#----------   ------------   ------------------------------
 PD  .                 GL:   PERMANENT DATUM
 EPD .F              5249:   ELEVATION PERMANENT DATUM
 LMF .                 KB:   LOG MEASURED FROM
 DAPD.F                 4:   FEET ABOVE PERMANENT DATUM
 DMF .                 KB:   DRILLING MEASURED FROM
 EKB .F              5253:   KELLING BUSHING
 EGL .F              5249:   GROUND LEVEL
 DATE.            9-28-78:   RUN DATE
 RUN .                  1:   RUN NUMBER
 DD  .F               616:   DEPTH DRILLER
 DL  .F               613:   DEPTH LOGGER
 BLI .F               607:   BOTTOM LOG INTERVAL
 TLI .F                40:   TOP LOG INTERVAL
 BS  .IN            7.875:   BIT SIZE
 BSD .F               616:   BIT SIZE AT DEPTH
 DFT .                KCL:   DRILLING FLUID TYPE
 DFD .                8.7:   DRILLING FLUID DENSITY
 DFV .                 33:   DRILLING FLUID VISCOSITY
 DFPH.                  9:   DRILLING FLUID PH
 DFL .                  5:   DRILLING FLUID LOSS
 MSS .            MUD PIT:   MUD SAMPLE SOURCE
 RMS .OHMM            .14:   RESISTIVITY MUD SAMPLE
 MST .F                65:   MUD SAMPLE TEMPERATURE
 RMF .OHMM            2.1:   RESISTIVITY MUD FILTRATE SAMPLE
 MFST.F                65:   MUD FILTRATE SAMPLE TEMPERATURE
 RMC .OHMM            .32:   RESISTIVITY MUD CAKE
 MCST.F                65:   MUD CAKE SAMPLE TEMPERATURE
 MFSS.               MEAS:   MUD FILTRATE SAMPLE SOURCE
 TCS .HRS               2:   TIME CURCULATED STOPPED
 LUN .               2958:   LOGGING UNIT NUMBER
 LUL .               CASP:   LOGGING UNIT LOCATION
 ENGI.            ROLLINS:   RECORDING ENGINEER
 WITN.              AMEND:   WITNESSED BY
 CLNT.            A2DTECH:   CLIENT CODE
 ORIG.           5" PRINT:   ORIGIN OF DATA
 UWI .       490251068900:   UNIQUE WELL ID
 DICO. A2D Technologies, Inc.:   DIGITIZING COMPANY
~OTHER INFORMATION
~A    DEPT     SPR         IL         SN         CALD       GRD      CORR        DEN       DPHI   
# ...
  288.5000   -27.9079     7.7839     7.2512     8.4222   118.7276    -0.0095     2.4839     0.1214
  289.0000   -28.0314     7.8067     7.2614     8.4327   117.0418    -0.0058     2.4880     0.1138
  289.5000   -28.1551     7.8237     7.2698     8.4433   113.8839    -0.0020     2.4960     0.1057
  290.0000   -28.3017     7.7150     7.2036     8.4550   110.1371     0.0018     2.5039     0.1046
  290.5000   -28.5314     7.6292     7.1423     8.4694   108.6476     0.0030     2.5068     0.1154
  291.0000   -28.7537     7.5445     7.0816     8.4838   109.1013     0.0016     2.4974     0.1160
  291.5000   -28.9754     7.4607     7.0214     8.4981   109.9423    -0.0001     2.4896     0.1162
  292.0000   -29.1972     7.3780     6.9617     8.5125   111.6429    -0.0018     2.4887     0.1173
  292.5000   -29.4195     7.2950     6.8822     8.5271   113.3052    -0.0026     2.4877     0.1186
  293.0000   -29.6407     7.1870     6.7935     8.5290   113.4857    -0.0006     2.4866     0.1178
  293.5000   -29.8510     7.0665     6.7060     8.5246   113.4781     0.0013     2.4885     0.1105
  294.0000   -29.9346     6.9481     6.6196     8.5203   113.4667     0.0027     2.4975     0.1050
  294.5000   -30.0199     6.8317     6.5343     8.5158   114.0362    -0.0029     2.5053     0.1054
  295.0000   -30.1055     6.7175     6.4502     8.5115   117.3879    -0.0084     2.5067     0.1150
  295.5000   -30.1911     6.6035     6.3251     8.5149   120.7665    -0.0072     2.4939     0.1242
  296.0000   -30.2757     6.4667     6.0984     8.5191   123.2943    -0.0050     2.4777     0.1231
  296.5000   -30.3570     6.3193     5.8799     8.5234   122.7512    -0.0029     2.4785     0.1214
  297.0000   -30.4774     6.1753     5.6691     8.5277   121.4051    -0.0010     2.4801     0.1208
  297.5000   -31.1667     5.9732     5.4660     8.5319   120.5078    -0.0010     2.4817     0.1213
  298.0000   -31.8631     5.7702     5.2199     8.5362   120.5225    -0.0010     2.4826     0.1218
  298.5000   -32.3052     5.5741     4.9358     8.5404   118.6002    -0.0010     2.4823     0.1255
  299.0000   -32.5388     5.3941     4.6671     8.5447   117.2966    -0.0010     2.4773     0.1329
  299.5000   -32.7686     4.6935     4.3805     8.5489   117.1511    -0.0010     2.4636     0.1388
  300.0000   -33.2098     4.0497     4.0984     8.5532   117.0142    -0.0010     2.4502     0.1433
  300.5000   -33.7313     3.4900     3.8345     8.5575   116.8802    -0.0010     2.4464     0.1482
  301.0000   -34.2573     3.0113     3.5875     8.5617   116.7586    -0.0010     2.4417     0.1571
  301.5000   -34.6797     2.6868     3.3564     8.5660   115.1674    -0.0010     2.4265     0.1678
  302.0000   -34.8463     2.5464     3.1403     8.5702   112.4447    -0.0010     2.4083     0.1901
  302.5000   -35.0119     2.5416     3.0609     8.5795   109.5544    -0.0011     2.3744     0.2162
  303.0000   -35.1765     2.5348     3.0328     8.5907   106.5474     0.0047     2.3400     0.2486
  303.5000   -35.0474     2.5280     3.1694     8.6019   104.8356     0.0127     2.3034     0.2687
  304.0000   -34.6728     2.5231     3.3298     8.6132   105.1803     0.0211     2.2595     0.2870
  304.5000   -34.3019     2.7362     3.4685     8.6242   105.8304     0.0251     2.2119     0.2914
  305.0000   -34.0274     3.0578     3.8043     8.6244   106.4829     0.0245     2.2069     0.2781
  305.5000   -34.0363     3.4948     4.2745     8.6011   107.1419     0.0201     2.2089     0.2451
  306.0000   -34.0010     3.9941     4.7605     8.5781   108.1204     0.0157     2.2548     0.2126
  306.5000   -33.3553     4.5649     5.0638     8.5551   111.4540     0.0112     2.3524     0.1796
  307.0000   -32.7167     5.0772     5.3532     8.5316   114.7977     0.0068     2.3965     0.1467
  307.5000   -32.0804     5.3710     5.6478     8.5035   118.2039     0.0021     2.4322     0.1314
  308.0000   -31.4346     5.6604     5.9369     8.4780   119.0421    -0.0038     2.4603     0.1227
  308.5000   -31.0293     5.8825     5.9917     8.4545   118.8014    -0.0098     2.4804     0.1182
  309.0000   -30.9165     5.8669     5.9917     8.4312   118.5435    -0.0158     2.4864     0.1260
  309.5000   -30.7495     5.8490     5.9917     8.4079   119.1572    -0.0212     2.4798     0.1305
  310.0000   -30.5760     5.8311     5.9917     8.3848   120.5387    -0.0190     2.4719     0.1350
  310.5000   -30.4016     5.8133     5.9917     8.3713   122.3104    -0.0153     2.4641     0.1351
  311.0000   -30.2462     5.7955     5.9917     8.3751   124.0744    -0.0116     2.4605     0.1342
  311.5000   -30.3325     5.7778     5.8901     8.3785   125.5877    -0.0079     2.4603     0.1253
  312.0000   -30.4171     5.5970     5.7954     8.3820   125.2061    -0.0041     2.4689     0.1194
  312.5000   -30.7618     5.3951     5.7022     8.3855   124.2905    -0.0007     2.4808     0.1191
  313.0000   -31.1410     5.2107     5.5446     8.3890   123.7366     0.0007     2.4863     0.1196
  313.5000   -31.5209     5.0343     5.3565     8.3918   123.7430     0.0009     2.4858     0.1201
  314.0000   -31.9046     4.8639     5.1694     8.3956   123.7418     0.0008     2.4843     0.1279
  314.5000   -32.0165     4.6993     5.1217     8.3994   123.7453     0.0006     2.4762     0.1403
  315.0000   -31.9921     4.5465     5.1256     8.4031   123.9212     0.0004     2.4551     0.1527
  315.5000   -31.9650     4.5465     5.1241     8.4069   124.3589     0.0003     2.4340     0.1625
  316.0000   -31.9379     4.5468     5.2329     8.4095   124.8032     0.0002     2.4130     0.1634
  316.5000   -31.9109     4.5454     5.3762     8.3978   124.8913     0.0000     2.4112     0.1579
  317.0000   -31.8841     4.6983     5.5230     8.4372   123.4367    -0.0001     2.4210     0.1555
  317.5000   -31.8571     4.8078     5.6704     8.4521   121.9504    -0.0003     2.4240     0.1557
  318.0000   -31.8217     4.9195     5.8430     8.4547   121.0756    -0.0004     2.4259     0.1546
  318.5000   -31.7491     5.2793     6.0164     8.4571   122.7694    -0.0006     2.4407     0.1312
  319.0000   -31.6762     5.5528     6.2060     8.4595   124.7082    -0.0007     2.4565     0.1282
  319.5000   -31.5209     5.8405     6.4041     8.4620   126.3245    -0.0009     2.4720     0.1294
  320.0000   -31.2427     6.1430     6.6085     8.4644   125.5432    -0.0010     2.4694     0.1258
  320.5000   -30.9660     6.4225     6.8155     8.4668   123.7465    -0.0008     2.4722     0.1163
  321.0000   -30.6873     6.5604     6.8877     8.4692   122.0028    -0.0006     2.4977     0.1066
  321.5000   -30.5574     6.6988     6.8993     8.4716   120.5747    -0.0004     2.5003     0.1058
  322.0000   -30.4575     6.7531     6.9105     8.4741   120.3232    -0.0002     2.5085     0.1058
  322.5000   -30.3582     6.7196     6.9218     8.4765   120.7591     0.0000     2.5051     0.1056
  323.0000   -30.2586     6.6786     6.9331     8.4789   122.6633     0.0002     2.5045     0.1054
  323.5000   -30.1585     6.6378     6.9421     8.4813   124.4972     0.0004     2.5057     0.1079
  324.0000   -30.0553     6.5973     6.8291     8.4838   126.1967     0.0005     2.5043     0.1128
  324.5000   -30.1288     6.5571     6.7368     8.4862   126.3010     0.0007     2.4959     0.1203
  325.0000   -30.2390     6.5170     6.6458     8.4886   126.0451     0.0009     2.4841     0.1222
  325.5000   -30.3500     6.3672     6.5560     8.4910   123.2437     0.0048     2.4795     0.1218
  326.0000   -30.4607     6.1942     6.4674     8.4935   120.1838     0.0110     2.4797     0.1196
  326.5000   -30.5724     6.0259     6.3456     8.4959   117.4610     0.0172     2.4881     0.1113
  327.0000   -30.7470     5.9129     6.2174     8.4983   116.9360     0.0211     2.4967     0.1048
  327.5000   -31.0273     5.8150     6.0918     8.5007   117.0903     0.0135     2.5108     0.1010
  328.0000   -31.3062     5.5850     5.9533     8.5032   117.5176     0.0012     2.5162     0.1083
  328.5000   -31.5851     5.2765     5.7517     8.5056   119.0289    -0.0029     2.5009     0.1204
