~VERSION INFORMATION
 VERS.                2.0:   CWLS LOG ASCII STANDARD - VERSION 2.0
 WRAP.                 NO:   ONE LINE PER DEPTH STEP
~WELL INFORMATION
#MNEM.UNIT      DATA TYPE    INFORMATION
#----------   ------------   ------------------------------
 STRT.F            0.0000:   START DEPTH
 STOP.F         1008.0000:   STOP DEPTH
 STEP.F            0.5000:   STEP LENGTH
 NULL.          -999.2500:   NO VALUE
 COMP. LAWRENCE/ALLISON INC:   COMPANY
 WELL. NPR 3 #51-61-SX-14:   WELL
 FLD .             TEAPOT:   FIELD
 LOC .      S14 T38N R78W:   LOCATION
 CNTY.            NATRONA:   COUNTY
 STAT.            WYOMING:   STATE
 CTRY. UNITED STATES OF AMERICA:   COUNTRY
 SRVC.      Dresser Atlas:   SERVICE COMPANY
 DATE.        05-FEB-1986:   LOGDATE
 API .       490251106600:   API NUMBER
~CURVE INFORMATION
#MNEM.UNIT       API CODE    CURVE DESCRIPTION
#----------   ------------   ------------------------------
 DEPT.F                  :   
 GRR .GAPI   07 310 01 00:   GAMMA RAY FROM RES. LOG.
 RILD.OHMM   10 120 46 00:   INDUCTION LOG DEEP RESISTIVITY
 RILM.OHMM   07 120 44 00:   INDUCTION LOG MEDIUM RESISTIVITY
 CALD.IN     45 280 60 00:   CALIPER
 DEN .G/C3   45 350 01 00:   COMPENSATED BULK DENSTIY
 CORR.G/C3   45 356 01 00:   DENSITY CORRECTION
 PORD.DEC    45 890 10 00:   POROSITY DENSITY LIMESTONE
~PARAMETER INFORMATION
#MNEM.UNIT          VALUE    DESCRIPTION
#----------   ------------   ------------------------------
 PD  .                 GL:   PERMANENT DATUM
 EPD .F              5225:   ELEVATION PERMANENT DATUM
 LMF .                 GL:   LOG MEASURED FROM
 DMF .                 GL:   DRILLING MEASURED FROM
 EGL .F              5225:   GROUND LEVEL
 DATE.             2-5-86:   RUN DATE
 RUN .                  1:   RUN NUMBER
 DD  .F              1010:   DEPTH DRILLER
 DL  .F              1008:   DEPTH LOGGER
 BLI .F              1008:   BOTTOM LOG INTERVAL
 CS  .IN            8.625:   CASING SIZE
 CBD .F                86:   CASING BOTTOM DRILLER
 CBL .F                84:   CASING BOTTOM LOGGER
 BS  .IN             6.25:   BIT SIZE
 BSD .F              1010:   BIT SIZE AT DEPTH
 DFT .                AIR:   DRILLING FLUID TYPE
 LUN .            HL 6264:   LOGGING UNIT NUMBER
 LUL .           GILLETTE:   LOGGING UNIT LOCATION
 ENGI.           FAHLSING:   RECORDING ENGINEER
 WITN.              FIVAS:   WITNESSED BY
 CLNT.            A2DTECH:   CLIENT CODE
 ORIG.       2", 5" PRINT:   ORIGIN OF DATA
 UWI .       490251106600:   UNIQUE WELL ID
 DICO. A2D Technologies, Inc.:   DIGITIZING COMPANY
~OTHER INFORMATION
~A    DEPT      GRR      RILD       RILM       CALD        DEN       CORR       PORD   
# ...
  682.5000   123.5706     7.2710     6.9236     6.5594     2.4449     0.0557     0.1405
  683.0000   121.4887     7.2468     6.8997     6.5576     2.4582     0.0805     0.1318
  683.5000   119.4259     7.2227     6.8760     6.5558     2.4716     0.0951     0.1229
  684.0000   118.9481     7.1987     6.8523     6.5539     2.4782     0.1056     0.1194
  684.5000   119.8760     7.1747     6.8288     6.5521     2.4781     0.1161     0.1204
  685.0000   120.8182     7.1508     6.8053     6.5503     2.4723     0.1186     0.1243
  685.5000   121.2483     7.1181     6.7818     6.5500     2.4678     0.1133     0.1272
  686.0000   121.6568     7.0720     6.7585     6.5500     2.4728     0.1093     0.1236
  686.5000   122.0704     7.0262     6.7352     6.5500     2.4798     0.1185     0.1201
  687.0000   122.4375     6.9807     6.7121     6.5500     2.4841     0.1056     0.1169
  687.5000   121.7552     6.9357     6.6735     6.5500     2.4882     0.0927     0.1132
  688.0000   119.4034     6.8909     6.4946     6.5500     2.4989     0.0991     0.1095
  688.5000   116.8011     6.7317     6.3204     6.5500     2.5044     0.1085     0.1056
  689.0000   114.1022     6.5349     6.1509     6.5500     2.4930     0.1130     0.1124
  689.5000   115.2365     6.3442     5.9860     6.5500     2.4802     0.1070     0.1196
  690.0000   117.1361     6.1591     5.8286     6.5500     2.4736     0.1015     0.1243
  690.5000   116.0310     5.9792     5.5731     6.5500     2.4725     0.0956     0.1244
  691.0000   114.8192     5.8047     5.3334     6.5500     2.4758     0.0996     0.1221
  691.5000   115.1783     5.6181     5.1241     6.5500     2.4768     0.1103     0.1213
  692.0000   116.7261     5.6815     5.2574     6.5500     2.4696     0.1342     0.1271
  692.5000   118.0514     5.7533     5.3824     6.5500     2.4553     0.1231     0.1356
  693.0000   115.7586     5.8286     5.5110     6.5500     2.4411     0.1094     0.1441
  693.5000   112.6722     5.9221     5.6423     6.5500     2.4384     0.0958     0.1449
  694.0000   109.5293     6.0459     5.7768     6.5507     2.4533     0.0821     0.1358
  694.5000   111.3998     6.1722     5.9146     6.5528     2.4671     0.0696     0.1286
  695.0000   116.0760     6.3012     6.0559     6.5548     2.4670     0.0670     0.1264
  695.5000   119.5494     6.4329     6.1764     6.5568     2.4671     0.0802     0.1274
  696.0000   122.3944     6.5674     6.2388     6.5588     2.4590     0.0940     0.1303
  696.5000   124.8980     6.7044     6.3013     6.5608     2.4526     0.1032     0.1343
  697.0000   124.4117     6.8785     6.3645     6.5628     2.4567     0.1091     0.1356
  697.5000   121.2428     6.8708     6.4284     6.5648     2.4616     0.1283     0.1303
  698.0000   117.7809     6.8607     6.4930     6.5668     2.4667     0.1172     0.1282
  698.5000   118.7180     6.8506     6.5686     6.5687     2.4661     0.1011     0.1285
  699.0000   120.5945     6.8405     6.4535     6.5703     2.4647     0.0947     0.1288
  699.5000   119.4642     6.8306     6.3179     6.5788     2.4634     0.0937     0.1291
  700.0000   117.4049     6.8203     6.1827     6.5880     2.4631     0.0919     0.1287
  700.5000   115.3300     6.7521     6.0471     6.5835     2.4662     0.0775     0.1267
  701.0000   115.9246     6.6299     6.1030     6.5745     2.4715     0.0790     0.1225
  701.5000   114.2039     6.5299     6.1030     6.5654     2.4802     0.0937     0.1183
  702.0000   111.7457     6.4059     6.0471     6.5564     2.4858     0.1083     0.1160
  702.5000   118.2896     6.2842     5.8825     6.5473     2.4860     0.1192     0.1159
  703.0000   124.9928     6.1649     5.7752     6.5382     2.4860     0.1205     0.1152
  703.5000   126.2586     6.0471     5.6442     6.5292     2.4870     0.1221     0.1155
  704.0000   117.6500     5.7168     5.5665     6.5201     2.4877     0.1145     0.1174
  704.5000   111.3635     5.4030     5.1872     6.5111     2.4816     0.1032     0.1192
  705.0000   113.2173     5.1058     4.8451     6.5100     2.4843     0.1054     0.1172
  705.5000   116.5163     4.8249     4.5256     6.5100     2.4883     0.1133     0.1149
  706.0000   119.7036     4.5604     4.2272     6.5100     2.4860     0.1212     0.1158
  706.5000   122.8911     4.4553     3.9604     6.5100     2.4805     0.1286     0.1205
  707.0000   125.1896     4.4419     3.8525     6.5100     2.4638     0.1256     0.1288
  707.5000   122.3958     4.4227     4.0859     6.5100     2.4367     0.1105     0.1460
  708.0000   119.6330     4.5646     4.3137     6.5100     2.4071     0.0945     0.1618
  708.5000   119.2924     4.8348     4.5542     6.5111     2.3767     0.0786     0.1777
  709.0000   120.7574     5.1211     4.8081     6.5138     2.3941     0.0644     0.1809
  709.5000   122.2863     5.4244     5.0761     6.5166     2.4229     0.0582     0.1555
  710.0000   121.1420     5.7456     5.3590     6.5193     2.4512     0.0743     0.1378
  710.5000   119.5269     6.0039     5.6588     6.5221     2.4703     0.0931     0.1268
  711.0000   121.4568     6.2462     5.8986     6.5248     2.4757     0.0940     0.1225
  711.5000   124.3851     6.4981     6.0347     6.5275     2.4771     0.0955     0.1203
  712.0000   125.9204     6.6484     6.1542     6.5308     2.4769     0.0994     0.1213
  712.5000   125.2484     6.7128     6.2758     6.5388     2.4799     0.1236     0.1208
  713.0000   124.5673     6.7775     6.4001     6.5469     2.4838     0.1232     0.1174
  713.5000   125.6931     6.8428     6.4602     6.5459     2.4845     0.1134     0.1162
  714.0000   127.3841     6.9087     6.4860     6.5396     2.4855     0.1088     0.1151
  714.5000   125.5037     6.9697     6.5113     6.5330     2.4958     0.1271     0.1125
  715.0000   121.4303     7.0256     6.5308     6.5443     2.4984     0.1418     0.1100
  715.5000   120.7341     7.0969     6.5504     6.5693     2.4888     0.1241     0.1135
  716.0000   121.1612     7.2318     6.5692     6.5701     2.4791     0.1023     0.1196
  716.5000   118.8107     7.3693     6.7354     6.5700     2.4743     0.0825     0.1228
  717.0000   115.8332     7.5094     6.8988     6.5700     2.4824     0.0928     0.1188
  717.5000   113.3865     7.6521     7.0661     6.5700     2.4905     0.0993     0.1128
  718.0000   116.3493     7.7976     7.2375     6.5700     2.4875     0.0912     0.1128
  718.5000   119.2983     7.8349     7.3361     6.5700     2.4799     0.0918     0.1192
  719.0000   119.4192     7.8520     7.1124     6.5700     2.4826     0.1170     0.1182
  719.5000   117.7797     7.8691     6.9606     6.5654     2.4860     0.1421     0.1161
  720.0000   116.0574     7.8863     6.8120     6.5565     2.4806     0.1421     0.1186
  720.5000   117.0091     7.8965     6.6403     6.5475     2.4747     0.1250     0.1228
  721.0000   121.4198     7.6855     6.4557     6.5386     2.4805     0.1079     0.1191
  721.5000   125.5064     7.4062     6.2762     6.5297     2.4883     0.1011     0.1146
  722.0000   124.7138     6.8998     6.0374     6.5207     2.4944     0.0987     0.1112
  722.5000   120.4784     6.3865     5.6863     6.5116     2.4878     0.0960     0.1162
  723.0000   117.5626     5.9106     5.3555     6.5100     2.4722     0.0808     0.1249
  723.5000   119.2098     5.4688     4.9800     6.5100     2.4562     0.0761     0.1336
  724.0000   121.3204     5.0341     4.4481     6.5100     2.4453     0.0924     0.1396
  724.5000   121.0617     4.4642     3.9783     6.5100     2.4475     0.1081     0.1384
  725.0000   121.1545     3.9220     3.5572     6.5100     2.4488     0.1145     0.1386
  725.5000   121.6626     3.4448     3.1808     6.5100     2.4404     0.1208     0.1491
  726.0000   124.5165     3.0695     2.8442     6.5130     2.4042     0.1092     0.1653
  726.5000   127.6049     2.7556     2.5432     6.5266     2.3634     0.0892     0.1825
  727.0000   130.4116     2.5313     2.2740     6.5482     2.3227     0.0692     0.2067
  727.5000   129.3521     2.4250     2.1380     6.5727     2.2801     0.0609     0.2328
