~VERSION INFORMATION
 VERS.                2.0:   CWLS LOG ASCII STANDARD - VERSION 2.0
 WRAP.                 NO:   ONE LINE PER DEPTH STEP
~WELL INFORMATION
#MNEM.UNIT      DATA TYPE    INFORMATION
#----------   ------------   ------------------------------
 STRT.F           67.0000:   START DEPTH
 STOP.F          510.0000:   STOP DEPTH
 STEP.F            0.5000:   STEP LENGTH
 NULL.          -999.2500:   NO VALUE
 COMP.       F D SERV INC:   COMPANY
 WELL.    77-5 SX 3 #77-3:   WELL
 FLD .             TEAPOT:   FIELD
 LOC .       S3 T38N R78W:   LOCATION
 CNTY.            NATRONA:   COUNTY
 STAT.            WYOMING:   STATE
 CTRY. UNITED STATES OF AMERICA:   COUNTRY
 SRVC.     Atlas Wireline:   SERVICE COMPANY
 DATE.        24-NOV-1992:   LOGDATE
 API .       490252254400:   API NUMBER
~CURVE INFORMATION
#MNEM.UNIT       API CODE    CURVE DESCRIPTION
#----------   ------------   ------------------------------
 DEPT.F                  :   
 PORZ.DEC    45 890 12 00:   DENSITY POROSITY
 NPOR.DEC    42 890 03 00:   NEUTRON POROSITY SANDSTONE
 C13 .IN     45 280 13 00:   CALIPER 1 - 3
 GRD .GAPI   45 310 01 00:   GAMMA RAY FROM DENSITY LOG
 ZCOR.G/C3   45 356 01 00:   DENSITY CORRECTION
 ZDEN.G/C3   45 350 01 00:   BULK DENSITY
~PARAMETER INFORMATION
#MNEM.UNIT          VALUE    DESCRIPTION
#----------   ------------   ------------------------------
 PD  .                 GL:   PERMANENT DATUM
 EPD .F              5137:   ELEVATION PERMANENT DATUM
 LMF .                 KB:   LOG MEASURED FROM
 DAPD.F                10:   FEET ABOVE PERMANENT DATUM
 DMF .                 KB:   DRILLING MEASURED FROM
 EKB .F              5147:   KELLING BUSHING
 EDF .F              5146:   DRILLING FLOOR
 EGL .F              5137:   GROUND LEVEL
 DATE.        24-NOV-1992:   RUN DATE
 RUN .                  1:   RUN NUMBER
 DD  .F               510:   DEPTH DRILLER
 DL  .F               512:   DEPTH LOGGER
 BLI .F               510:   BOTTOM LOG INTERVAL
 TLI .F                99:   TOP LOG INTERVAL
 CS  .IN            8.625:   CASING SIZE
 CBD .F                97:   CASING BOTTOM DRILLER
 CBL .F                99:   CASING BOTTOM LOGGER
 BS  .IN            7.875:   BIT SIZE
 BSD .F               510:   BIT SIZE AT DEPTH
 DFT .           AIR FOAM:   DRILLING FLUID TYPE
 MRT .F                70:   MAXIMUM RECORDED TEMPERATURE
 LUN .            HL-6274:   LOGGING UNIT NUMBER
 LUL .             CASPER:   LOGGING UNIT LOCATION
 WITN.           G.STRONG:   WITNESSED BY
 CLNT.            A2DTECH:   CLIENT CODE
 ORIG.           5" PRINT:   ORIGIN OF DATA
 UWI .       490252254400:   UNIQUE WELL ID
 DICO. A2D Technologies, Inc.:   DIGITIZING COMPANY
~OTHER INFORMATION
~A   DEPT     PORZ       NPOR        C13        GRD       ZCOR       ZDEN   
# ...
  223.0000     0.1049     0.3441     7.9781   165.2166     0.0176     2.4782
  223.5000     0.1053     0.3425     7.9775   160.6612     0.0145     2.4766
  224.0000     0.1065     0.3405     7.9768   158.8373     0.0069     2.4735
  224.5000     0.1092     0.3417     7.9762   163.6902     0.0023     2.4712
  225.0000     0.1144     0.3478     7.9756   167.9360     0.0008     2.4583
  225.5000     0.1280     0.3636     7.9754   169.7547     0.0022     2.4348
  226.0000     0.1469     0.3751     7.9758   169.7510     0.0127     2.4056
  226.5000     0.1633     0.3770     7.9762   169.7480     0.0248     2.3802
  227.0000     0.1559     0.3718     7.9765   169.1380     0.0307     2.3830
  227.5000     0.1452     0.3676     7.9769   164.2792     0.0125     2.4015
  228.0000     0.1346     0.3622     7.9772   159.4203     0.0064     2.4199
  228.5000     0.1233     0.3561     7.9776   155.7514     0.0048     2.4388
  229.0000     0.1124     0.3522     7.9780   155.8574     0.0108     2.4579
  229.5000     0.1076     0.3531     7.9783   160.8032     0.0168     2.4732
  230.0000     0.1124     0.3552     7.9787   165.4774     0.0137     2.4664
  230.5000     0.1128     0.3487     7.9791   166.9926     0.0122     2.4610
  231.0000     0.1048     0.3407     7.9794   166.0784     0.0196     2.4671
  231.5000     0.0960     0.3367     7.9798   164.2545     0.0256     2.4801
  232.0000     0.0882     0.3345     7.9802   160.6096     0.0316     2.4965
  232.5000     0.0843     0.3322     7.9805   156.9647     0.0315     2.5094
  233.0000     0.0883     0.3314     7.9809   155.7477     0.0222     2.5086
  233.5000     0.0919     0.3305     7.9805   156.6552     0.0146     2.5040
  234.0000     0.0925     0.3296     7.9799   159.0802     0.0132     2.4978
  234.5000     0.0907     0.3317     7.9793   159.3814     0.0177     2.4972
  235.0000     0.0889     0.3323     7.9787   156.6462     0.0237     2.5017
  235.5000     0.0883     0.3305     7.9781   155.4293     0.0282     2.5032
  236.0000     0.0929     0.3302     7.9775   154.8193     0.0266     2.4993
  236.5000     0.0969     0.3321     7.9768   157.8512     0.0205     2.4932
  237.0000     0.0993     0.3336     7.9762   157.5447     0.0174     2.4887
  237.5000     0.1005     0.3351     7.9756   159.3627     0.0173     2.4856
  238.0000     0.0978     0.3373     7.9750   163.0666     0.0233     2.4833
  238.5000     0.0963     0.3400     7.9744   166.3693     0.0293     2.4901
  239.0000     0.0960     0.3434     7.9738   166.6375     0.0292     2.4908
  239.5000     0.0966     0.3458     7.9732   166.3302     0.0246     2.4900
  240.0000     0.1033     0.3486     7.9726   166.3272     0.0184     2.4839
  240.5000     0.1101     0.3537     7.9720   166.9312     0.0094     2.4748
  241.0000     0.1190     0.3619     7.9714   171.4806     0.0018     2.4578
  241.5000     0.1389     0.3744     7.9708   175.1202    -0.0028     2.4354
  242.0000     0.1535     0.3893     7.9702   173.9025     0.0047     2.4053
  242.5000     0.1675     0.3785     7.9696   170.5611     0.0379     2.3724
  243.0000     0.1542     0.3587     7.9690   168.1302     0.0634     2.3876
  243.5000     0.1317     0.3463     7.9684   165.3958     0.0468     2.4262
  244.0000     0.1075     0.3338     7.9830   162.9649     0.0286     2.4635
  244.5000     0.0932     0.3290     7.9824   160.5340     0.0195     2.4935
  245.0000     0.0913     0.3293     7.9818   159.6205     0.0179     2.4973
  245.5000     0.0944     0.3308     7.9812   161.7419     0.0179     2.4957
  246.0000     0.0962     0.3342     7.9804   163.2565     0.0194     2.4927
  246.5000     0.0959     0.3387     7.9952   162.9499     0.0223     2.4896
  247.0000     0.0957     0.3397     7.9944   165.3866     0.0237     2.4888
  247.5000     0.0966     0.3351     7.9938   168.1637     0.0222     2.4895
  248.0000     0.0948     0.3327     7.9780   170.2974     0.0191     2.4919
  248.5000     0.0947     0.3318     7.9774   171.7916     0.0160     2.4963
  249.0000     0.0966     0.3321     7.9768   171.1284     0.0160     2.4879
  249.5000     0.0976     0.3328     7.9914   168.6975     0.0174     2.4864
  250.0000     0.0936     0.3331     7.9909   165.3710     0.0175     2.4879
  250.5000     0.0912     0.3340     7.9903   161.8525     0.0178     2.4954
  251.0000     0.0918     0.3365     7.9897   160.4886     0.0182     2.4992
  251.5000     0.0909     0.3396     7.9890   162.9093     0.0186     2.4999
  252.0000     0.0879     0.3422     7.9884   162.2964     0.0186     2.5021
  252.5000     0.0867     0.3426     7.9878   160.7729     0.0170     2.5074
  253.0000     0.0915     0.3423     7.9872   163.8019     0.0155     2.5021
  253.5000     0.0940     0.3435     7.9866   167.1343     0.0169     2.4960
  254.0000     0.0943     0.3444     7.9860   167.7368     0.0169     2.4914
  254.5000     0.0937     0.3447     7.9854   168.0329     0.0198     2.4929
  255.0000     0.0961     0.3420     7.9696   169.8479     0.0213     2.4890
  255.5000     0.0973     0.3408     7.9690   170.4504     0.0257     2.4868
  256.0000     0.0928     0.3415     7.9683   167.7115     0.0272     2.4879
  256.5000     0.0867     0.3421     7.9677   164.9741     0.0271     2.5019
  257.0000     0.0858     0.3427     7.9671   163.4425     0.0240     2.5064
  257.5000     0.0870     0.3436     7.9665   163.1411     0.0210     2.5056
  258.0000     0.0856     0.3439     7.9660   163.7947     0.0209     2.5071
  258.5000     0.0831     0.3452     7.9670   165.8593     0.0224     2.5108
  259.0000     0.0849     0.3485     7.9680   169.7987     0.0193     2.5112
  259.5000     0.0956     0.3592     7.9689   173.4346     0.0162     2.4878
  260.0000     0.1219     0.3744     7.9698   177.3740     0.0327     2.4501
  260.5000     0.1469     0.3799     7.9707   178.2800     0.0553     2.4082
  261.0000     0.1360     0.3682     7.9716   173.7202     0.0537     2.4167
  261.5000     0.1146     0.3563     7.9725   172.8038     0.0401     2.4534
  262.0000     0.0969     0.3511     7.9734   175.2258     0.0264     2.4896
  262.5000     0.0889     0.3508     7.9743   174.6128     0.0098     2.5036
  263.0000     0.0920     0.3519     7.9753   173.0894     0.0037     2.4960
  263.5000     0.0974     0.3596     7.9762   171.8695     0.0021     2.4862
  264.0000     0.1106     0.3674     7.9771   171.2565     0.0036     2.4574
  264.5000     0.1282     0.3797     7.9780   173.1480     0.0111     2.4255
  265.0000     0.1460     0.3849     7.9789   175.1885     0.0216     2.4073
  265.5000     0.1442     0.3712     7.9798   171.2372     0.0321     2.4096
  266.0000     0.1293     0.3539     7.9807   167.8928     0.0241     2.4414
  266.5000     0.1102     0.3445     7.9817   168.4938     0.0184     2.4687
  267.0000     0.0981     0.3424     7.9826   169.0963     0.0168     2.4808
  267.5000     0.0944     0.3418     7.9835   164.8400     0.0152     2.4899
  268.0000     0.0938     0.3427     7.9843   160.2817     0.0091     2.4929
  268.5000     0.0951     0.3418     7.9835   159.0618     0.0091     2.4929
  269.0000     0.0951     0.3406     7.9829   159.6628     0.0136     2.4929
  269.5000     0.0917     0.3403     7.9823   161.1743     0.0195     2.4944
  270.0000     0.0890     0.3403     7.9817   163.5963     0.0255     2.5020
  270.5000     0.0869     0.3403     7.9811   167.5416     0.0315     2.5050
  271.0000     0.0890     0.3415     7.9805   171.2199     0.0331     2.5020
  271.5000     0.0960     0.3485     7.9799   174.2933     0.0178     2.4959
  272.0000     0.1042     0.3612     7.9793   177.5315     0.0055     2.4733
  272.5000     0.1169     0.3713     7.9787   179.0430     0.0170     2.4406
  273.0000     0.1318     0.3670     7.9780   177.2160     0.0477     2.4300
  273.5000     0.1272     0.3537     7.9774   172.6577     0.0613     2.4435
  274.0000     0.1116     0.3473     7.9768   169.9204     0.0416     2.4660
  274.5000     0.0978     0.3410     7.9762   167.2505     0.0280     2.4866
