~VERSION INFORMATION
 VERS.                2.0:   CWLS LOG ASCII STANDARD - VERSION 2.0
 WRAP.                 NO:   ONE LINE PER DEPTH STEP
~WELL INFORMATION
#MNEM.UNIT      DATA TYPE    INFORMATION
#----------   ------------   ------------------------------
 STRT.F           30.0000:   START DEPTH
 STOP.F         2441.0000:   STOP DEPTH
 STEP.F            0.5000:   STEP LENGTH
 NULL.          -999.2500:   NO VALUE
 COMP. FENIX & SCISSON INC:   COMPANY
 WELL.      NPR 3 #81 S-4:   WELL
 FLD .             TEAPOT:   FIELD
 LOC .       S4 T38N R78W:   LOCATION
 CNTY.            NATRONA:   COUNTY
 STAT.            WYOMING:   STATE
 CTRY. UNITED STATES OF AMERICA:   COUNTRY
 SRVC.            Unknown:   SERVICE COMPANY
 DATE.        28-MAR-1978:   LOGDATE
 API .       490251060700:   API NUMBER
~CURVE INFORMATION
#MNEM.UNIT       API CODE    CURVE DESCRIPTION
#----------   ------------   ------------------------------
 DEPT.F                  :   
 CALD.IN     45 280 60 00:   CALIPER
 RHOB.G/C3   45 350 01 00:   BULK DENSITY
 DPHI.DEC    45 890 12 00:   DENSITY POROSITY SANDSTONE
 CORR.G/C3   45 356 01 00:   DENSITY CORRECTION
 GRD .GAPI   45 310 01 00:   GAMMA RAY FROM DENSITY LOG
~PARAMETER INFORMATION
#MNEM.UNIT          VALUE    DESCRIPTION
#----------   ------------   ------------------------------
 PD  .                 GL:   PERMANENT DATUM
 EPD .F              5169:   ELEVATION PERMANENT DATUM
 LMF .                 KB:   LOG MEASURED FROM
 DAPD.F                10:   FEET ABOVE PERMANENT DATUM
 DMF .                 KB:   DRILLING MEASURED FROM
 EKB .F              5179:   KELLING BUSHING
 EGL .F              5169:   GROUND LEVEL
 DATE.          3-28-1978:   RUN DATE
 RUN .                  1:   RUN NUMBER
 DD  .F              2454:   DEPTH DRILLER
 DL  .F              2443:   DEPTH LOGGER
 BLI .F              2441:   BOTTOM LOG INTERVAL
 TLI .F                40:   TOP LOG INTERVAL
 CS  .IN            9.625:   CASING SIZE
 CBD .F               660:   CASING BOTTOM DRILLER
 CBL .F               660:   CASING BOTTOM LOGGER
 BS  .IN             8.75:   BIT SIZE
 BSD .F              2454:   BIT SIZE AT DEPTH
 DFT .           AIR MIST:   DRILLING FLUID TYPE
 TCS .HRS               2:   TIME CURCULATED STOPPED
 LUN .               2958:   LOGGING UNIT NUMBER
 LUL .               CASP:   LOGGING UNIT LOCATION
 ENGI.             MILLER:   RECORDING ENGINEER
 CLNT.            A2DTECH:   CLIENT CODE
 ORIG.       2"  5" PRINT:   ORIGIN OF DATA
 UWI .       490251060700:   UNIQUE WELL ID
 DICO. A2D Technologies, Inc.:   DIGITIZING COMPANY
~OTHER INFORMATION
~A   DEPT     CALD       RHOB       DPHI       CORR        GRD   
# ...
  640.0000  -999.2500  -999.2500  -999.2500  -999.2500    92.0745
  640.5000  -999.2500  -999.2500  -999.2500  -999.2500    90.8613
  641.0000  -999.2500  -999.2500  -999.2500  -999.2500    90.0509
  641.5000  -999.2500  -999.2500  -999.2500  -999.2500    90.3443
  642.0000  -999.2500  -999.2500  -999.2500  -999.2500    90.8527
  642.5000  -999.2500  -999.2500  -999.2500  -999.2500    91.0860
  643.0000  -999.2500  -999.2500  -999.2500  -999.2500    91.5415
  643.5000  -999.2500  -999.2500  -999.2500  -999.2500    92.8262
  644.0000  -999.2500  -999.2500  -999.2500  -999.2500    92.2256
  644.5000  -999.2500  -999.2500  -999.2500  -999.2500    92.3493
  645.0000  -999.2500  -999.2500  -999.2500  -999.2500    94.9385
  645.5000  -999.2500  -999.2500  -999.2500  -999.2500    94.8708
  646.0000  -999.2500  -999.2500  -999.2500  -999.2500    94.9246
  646.5000  -999.2500  -999.2500  -999.2500  -999.2500    97.8362
  647.0000  -999.2500  -999.2500  -999.2500  -999.2500    98.2320
  647.5000  -999.2500  -999.2500  -999.2500  -999.2500    98.1786
  648.0000  -999.2500  -999.2500  -999.2500  -999.2500   106.0201
  648.5000  -999.2500  -999.2500  -999.2500  -999.2500   103.4602
  649.0000  -999.2500  -999.2500  -999.2500  -999.2500   100.4352
  649.5000  -999.2500  -999.2500  -999.2500  -999.2500    98.1541
  650.0000  -999.2500  -999.2500  -999.2500  -999.2500   112.7415
  650.5000  -999.2500  -999.2500  -999.2500  -999.2500   119.2790
  651.0000  -999.2500  -999.2500  -999.2500  -999.2500   112.4662
  651.5000  -999.2500  -999.2500  -999.2500  -999.2500   107.8821
  652.0000  -999.2500  -999.2500  -999.2500  -999.2500   104.7698
  652.5000  -999.2500  -999.2500  -999.2500  -999.2500   105.1042
  653.0000  -999.2500  -999.2500  -999.2500  -999.2500   105.4092
  653.5000  -999.2500  -999.2500  -999.2500  -999.2500   106.5437
  654.0000  -999.2500  -999.2500  -999.2500  -999.2500   113.8329
  654.5000  -999.2500  -999.2500  -999.2500  -999.2500   124.3358
  655.0000  -999.2500  -999.2500  -999.2500  -999.2500   132.7798
  655.5000  -999.2500  -999.2500  -999.2500  -999.2500   138.0566
  656.0000  -999.2500  -999.2500  -999.2500  -999.2500   143.3549
  656.5000  -999.2500  -999.2500  -999.2500  -999.2500   145.5702
  657.0000  -999.2500  -999.2500  -999.2500  -999.2500   145.4635
  657.5000  -999.2500  -999.2500  -999.2500  -999.2500   145.3286
  658.0000  -999.2500  -999.2500  -999.2500  -999.2500   147.2579
  658.5000  -999.2500  -999.2500  -999.2500  -999.2500   156.2467
  659.0000  -999.2500  -999.2500  -999.2500  -999.2500   158.1613
  659.5000  -999.2500  -999.2500  -999.2500  -999.2500   157.5392
  660.0000  -999.2500  -999.2500  -999.2500  -999.2500   153.7906
  660.5000    12.1046  -999.2500  -999.2500  -999.2500   147.0746
  661.0000    11.0848  -999.2500  -999.2500  -999.2500   143.9655
  661.5000    11.1928  -999.2500  -999.2500  -999.2500   141.7261
  662.0000    10.9627     2.1352     0.2375    -0.0738   140.9642
  662.5000    10.5233     2.0366     0.2698    -0.0738   144.4400
  663.0000    10.3384     2.0065     0.2963    -0.1816   148.1090
  663.5000    10.3313     2.2007     0.2540    -0.1117   151.1682
  664.0000    10.3321     2.4090     0.0936     0.0126   153.8867
  664.5000    10.3330     2.5005     0.0979     0.1236   153.7540
  665.0000    10.3336     2.4785     0.1044     0.1696   152.8852
  665.5000    10.3341     2.3759     0.1212     0.2188   148.7969
  666.0000    10.3347     2.2182     0.1764     0.0910   146.1330
  666.5000    10.3352     2.1602     0.2184    -0.1023   147.2113
  667.0000    10.3357     2.3747     0.1236    -0.1065   150.4316
  667.5000    10.3363     2.4961     0.0918     0.0096   153.2299
  668.0000    10.3368     2.5055     0.0946     0.0150   153.1783
  668.5000    10.3374     2.5012     0.0957     0.0069   151.1810
  669.0000    10.3379     2.5025     0.0926     0.0092   148.9685
  669.5000    10.3385     2.4945     0.1022     0.0015   147.4431
  670.0000    10.3390     2.4915     0.1026    -0.0006   145.9050
  670.5000    10.3395     2.4976     0.0962     0.0032   145.6605
  671.0000    10.3401     2.4842     0.1053     0.0027   145.7776
  671.5000    10.3406     2.4734     0.1094    -0.0007   145.9042
  672.0000    10.3412     2.4782     0.1081    -0.0041   145.9824
  672.5000    10.3417     2.4698     0.1144    -0.0074   145.2254
  673.0000    10.3422     2.4537     0.1230    -0.0100   144.4574
  673.5000    10.3428     2.4633     0.1081    -0.0057   144.3646
  674.0000    10.3433     2.4887     0.0993     0.0039   145.0943
  674.5000    10.3439     2.5091     0.0934     0.0135   145.4656
  675.0000    10.3444     2.4900     0.0980     0.0225   144.7642
  675.5000    10.3449     2.4876     0.1022     0.0248   144.0479
  676.0000    10.3455     2.4930     0.1003     0.0274   141.8633
  676.5000    10.3460     2.4983     0.0997     0.0257   139.4063
  677.0000    10.3466     2.4898     0.1012     0.0226   138.9598
  677.5000    10.3471     2.4823     0.1030     0.0220   141.4895
  678.0000    10.3477     2.4868     0.1012     0.0220   145.5107
  678.5000    10.3482     2.4889     0.1026     0.0218   149.4911
  679.0000    10.3488     2.4731     0.1085     0.0177   151.9348
  679.5000    10.3493     2.4689     0.1106     0.0135   151.5878
  680.0000    10.3498     2.4755     0.1075     0.0092   151.2931
  680.5000    10.3503     2.4817     0.1054     0.0058   151.7419
  681.0000    10.3509     2.4820     0.1054     0.0045   153.1354
  681.5000    10.3548     2.4862     0.0982     0.0061   153.2858
  682.0000    10.3714     2.4983     0.0945     0.0153   147.4301
  682.5000    10.3875     2.4894     0.0985     0.0156   142.1054
  683.0000    10.4036     2.4839     0.1038     0.0077   142.0155
  683.5000    10.4194     2.4818     0.1080     0.0040   142.0374
  684.0000    10.4313     2.4711     0.1124     0.0012   142.2423
  684.5000    10.4326     2.4632     0.1168    -0.0014   143.9257
  685.0000    10.4341     2.4564     0.1212    -0.0039   145.6223
  685.5000    10.4356     2.4496     0.1253    -0.0040   147.2943
  686.0000    10.4371     2.4500     0.1253    -0.0020   148.4160
  686.5000    10.4386     2.4567     0.1179     0.0024   148.7423
  687.0000    10.4401     2.4628     0.1131     0.0069   149.1108
  687.5000    10.4416     2.4681     0.1095     0.0122   148.7040
  688.0000    10.4431     2.4743     0.1055     0.0196   147.4547
  688.5000    10.4446     2.4816     0.1010     0.0269   146.2143
  689.0000    10.4461     2.4888     0.0933     0.0344   146.8476
  689.5000    10.4475     2.4943     0.0984     0.0417   149.4868
  690.0000    10.4490     2.4934     0.0999     0.0420   154.5091
  690.5000    10.4506     2.4925     0.1006     0.0419   154.1657
  691.0000    10.4537     2.4929     0.0994     0.0434   153.6485
  691.5000    10.4568     2.4951     0.0963     0.0458   153.8107
  692.0000    10.4599     2.4972     0.0954     0.0481   153.5604
  692.5000    10.4630     2.4994     0.0941     0.0491   152.1746
  693.0000    10.4661     2.5005     0.0934     0.0454   152.2621
  693.5000    10.4692     2.4988     0.1004     0.0418   153.0718
  694.0000    10.4723     2.4693     0.1090     0.0381   153.9086
  694.5000    10.4754     2.4583     0.1118     0.0379   153.8725
  695.0000    10.4784     2.4509     0.1142     0.0325   153.6194
  695.5000    10.4815     2.4496     0.1166     0.0221   152.7785
  696.0000    10.4846     2.4523     0.1151     0.0214   151.1514
  696.5000    10.4877     2.4531     0.1138     0.0232   152.8801
  697.0000    10.4913     2.4520     0.1160     0.0184   157.1707
  697.5000    10.4969     2.4514     0.1182     0.0093   159.8537
  698.0000    10.5025     2.4522     0.1166     0.0064   161.7067
  698.5000    10.5081     2.4652     0.1097     0.0164   162.4453
  699.0000    10.5136     2.4780     0.1040     0.0250   158.0222
  699.5000    10.5192     2.4871     0.1018     0.0280   157.5140
  700.0000    10.5247     2.4925     0.0996     0.0273   157.8141
  700.5000    10.5300     2.4978     0.0981     0.0267   158.3972
