~VERSION INFORMATION
 VERS.                2.0:   CWLS LOG ASCII STANDARD - VERSION 2.0
 WRAP.                 NO:   ONE LINE PER DEPTH STEP
~WELL INFORMATION
#MNEM.UNIT      DATA TYPE    INFORMATION
#----------   ------------   ------------------------------
 STRT.F            4.0000:   START DEPTH
 STOP.F          584.0000:   STOP DEPTH
 STEP.F            0.1000:   STEP LENGTH
 NULL.          -999.2500:   NO VALUE
 COMP.       F D SERV INC:   COMPANY
 WELL. N P R 3 SX-3 #62-3:   WELL
 FLD .             TEAPOT:   FIELD
 LOC .       S3 T38N R78W:   LOCATION
 CNTY.            NATRONA:   COUNTY
 STAT.            WYOMING:   STATE
 CTRY. UNITED STATES OF AMERICA:   COUNTRY
 SRVC.     Atlas Wireline:   SERVICE COMPANY
 DATE.        17-APR-1992:   LOGDATE
 API .       490252251600:   API NUMBER
~CURVE INFORMATION
#MNEM.UNIT       API CODE    CURVE DESCRIPTION
#----------   ------------   ------------------------------
 DEPT.F                  :   
 GRR .GAPI   07 310 01 00:   GAMMA RAY
 RILD.OHMM   07 120 46 00:   INDUCTION LOG DEEP RESISTIVITY
 RILM.OHMM   07 120 44 00:   INDUCTION LOG MEDIUM RESISTIVITY
~PARAMETER INFORMATION
#MNEM.UNIT          VALUE    DESCRIPTION
#----------   ------------   ------------------------------
 PD  .                 GL:   PERMANENT DATUM
 EPD .F              5135:   ELEVATION PERMANENT DATUM
 LMF .                 KB:   LOG MEASURED FROM
 DAPD.F                 5:   FEET ABOVE PERMANENT DATUM
 DMF .                 KB:   DRILLING MEASURED FROM
 EKB .F              5140:   KELLING BUSHING
 EDF .F              5139:   DRILLING FLOOR
 EGL .F              5135:   GROUND LEVEL
 DATE.        17-APR-1992:   RUN DATE
 RUN .                  1:   RUN NUMBER
 DD  .F               589:   DEPTH DRILLER
 DL  .F               590:   DEPTH LOGGER
 BLI .F               584:   BOTTOM LOG INTERVAL
 TLI .F                48:   TOP LOG INTERVAL
 CS  .IN            8.625:   CASING SIZE
 CBD .F                48:   CASING BOTTOM DRILLER
 CBL .F                48:   CASING BOTTOM LOGGER
 BS  .IN            7.875:   BIT SIZE
 BSD .F               589:   BIT SIZE AT DEPTH
 DFT .                AIR:   DRILLING FLUID TYPE
 TCS .HRS               2:   TIME CURCULATED STOPPED
 MRT .F                85:   MAXIMUM RECORDED TEMPERATURE
 LUN .            HL-6274:   LOGGING UNIT NUMBER
 LUL .             CASPER:   LOGGING UNIT LOCATION
 ENGI.             RAUTIO:   RECORDING ENGINEER
 WITN.        GARY STRONG:   WITNESSED BY
 CLNT.            A2DTECH:   CLIENT CODE
 ORIG.           5" PRINT:   ORIGIN OF DATA
 UWI .       490252251600:   UNIQUE WELL ID
 DICO. A2D Technologies, Inc.:   DIGITIZING COMPANY
~OTHER INFORMATION
~A    DEPT      GRR      RILD       RILM   
# ...
  513.6000   107.2809    11.4210    11.5707
  513.7000   107.0242    11.4197    11.5697
  513.8000   106.7462    11.4184    11.5688
  513.9000   106.1630    11.4171    11.5679
  514.0000   105.7210    11.4159    11.5669
  514.1000   105.0435    11.4146    11.5659
  514.2000   104.2746    11.4133    11.5649
  514.3000   103.5577    11.4121    11.5640
  514.4000   103.0350    11.4108    11.5631
  514.5000   102.5322    11.4095    11.5622
  514.6000   102.0198    11.4081    11.5612
  514.7000   101.5071    11.4070    11.5603
  514.8000   101.1575    11.4056    11.5593
  514.9000   101.1061    11.4044    11.5584
  515.0000   100.5312    11.4031    11.5575
  515.1000   100.5306    11.4018    11.5565
  515.2000   100.3616    11.4006    11.5556
  515.3000   100.2169    11.3993    11.5545
  515.4000   100.2163    11.3980    11.5537
  515.5000   100.2156    11.3967    11.5528
  515.6000    99.9599    11.3955    11.5518
  515.7000    99.9019    11.3940    11.5509
  515.8000    99.9012    11.3929    11.5499
  515.9000    99.9006    11.3917    11.5490
  516.0000    99.9000    11.3904    11.4980
  516.1000    99.8993    11.3891    11.4666
  516.2000   100.3561    11.3878    11.4451
  516.3000   100.6955    11.3244    11.3788
  516.4000   101.0669    11.3060    11.3045
  516.5000   101.5781    11.3047    11.3036
  516.6000   102.0867    11.3034    11.2610
  516.7000   102.3421    11.2982    11.2230
  516.8000   102.5974    11.2220    11.2221
  516.9000   102.9988    11.2210    11.2212
  517.0000   103.3313    11.1807    11.2203
  517.1000   103.3306    11.1159    11.1711
  517.2000   103.3299    11.0616    11.1065
  517.3000   103.3294    11.0602    11.0422
  517.4000   103.1524    11.0590    10.9838
  517.5000   102.8958    11.0578    10.9828
  517.6000   102.6393    11.0566    10.9820
  517.7000   102.3825    11.0387    10.9410
  517.8000   102.0761    10.9771    10.9037
  517.9000   101.8693    10.9757    10.9028
  518.0000   101.6127    10.9237    10.9019
  518.1000   101.3558    10.8604    10.9010
  518.2000   101.0991    10.8200    10.8535
  518.3000   100.8231    10.8187    10.7907
  518.4000   100.8225    10.8174    10.7283
  518.5000   101.0020    10.8732    10.6712
  518.6000   101.5049    10.8910    10.6702
  518.7000   102.2726    10.9190    10.6173
  518.8000   103.0508    10.9649    10.5942
  518.9000   104.2568    10.9637    10.5934
  519.0000   105.0977    10.9625    10.5811
  519.1000   105.9673    10.9612    10.5178
  519.2000   106.6376    10.9600    10.5169
  519.3000   107.1493    10.9805    10.5161
  519.4000   107.6912    11.0345    10.5153
  519.5000   107.9312    11.0330    10.5144
  519.6000   108.1867    11.0319    10.5135
  519.7000   108.4421    11.0307    10.5126
  519.8000   108.6262    11.0295    10.5118
  519.9000   108.5961    11.0282    10.5490
  520.0000   107.9999    11.0270    10.5839
  520.1000   107.1418    11.0258    10.5830
  520.2000   106.4329    11.0246    10.5821
  520.3000   106.1231    11.0233    10.5812
  520.4000   106.1676    11.0015    10.5804
  520.5000   106.4343    10.9441    10.6109
  520.6000   105.9446    10.9427    10.6529
  520.7000   105.4316    10.9416    10.6520
  520.8000   105.1825    10.8998    10.6511
  520.9000   105.1819    10.8365    10.6503
  521.0000   105.2188    10.7736    10.6494
  521.1000   105.8055    10.7098    10.6486
  521.2000   106.0233    10.7086    10.6369
  521.3000   106.2787    10.7074    10.5726
  521.4000   106.6395    10.6740    10.5141
  521.5000   107.1509    10.6305    10.4097
  521.6000   107.6775    10.6196    10.3205
  521.7000   108.1740    10.4804    10.2608
  521.8000   108.8777    10.4283    10.1976
  521.9000   109.5095    10.3679    10.0625
  522.0000   110.0207    10.3077    10.0135
  522.1000   110.5323    10.2372     9.9205
  522.2000   111.1112    10.1150     9.8069
  522.3000   111.3328    10.1139     9.7041
  522.4000   111.4225    10.0705     9.6451
  522.5000   111.4219    10.0121     9.5402
  522.6000   111.4213     9.9540     9.4702
  522.7000   111.4206     9.8963     9.4426
  522.8000   111.4200     9.8295     9.4116
  522.9000   111.6154     9.8285     9.3068
  523.0000   111.7312     9.8274     9.2442
  523.1000   111.7306     9.8047     9.1994
  523.2000   111.7834     9.7568     9.1783
  523.3000   112.3543     9.7557     9.1572
  523.4000   112.3537     9.6509     9.1042
  523.5000   112.5229     9.5792     9.0486
  523.6000   112.8917     9.5502     8.9992
  523.7000   113.4030     9.5491     8.9842
  523.8000   113.9139     9.5458     8.9834
  523.9000   114.1696     9.4803     8.9685
  524.0000   114.6252     9.3916     8.9194
  524.1000   115.1366     9.3154     8.9185
  524.2000   115.6478     9.2807     8.9179
  524.3000   116.1286     9.2796     8.9172
  524.4000   116.4099     9.2785     8.9164
  524.5000   116.4094     9.2775     8.9240
  524.6000   116.5824     9.2765     8.9775
  524.7000   116.7206     9.2507     8.9768
  524.8000   116.7200     9.1970     8.9761
  524.9000   116.7194     9.1425     8.9753
  525.0000   116.7187     9.0379     8.9886
  525.1000   116.5142     9.0158     9.0369
  525.2000   116.4050     8.9854     8.9730
  525.3000   116.3135     8.8984     8.8883
  525.4000   116.0219     8.7522     8.7565
  525.5000   115.4656     8.6416     8.5883
  525.6000   114.7625     8.5093     8.4005
  525.7000   113.9940     8.3323     8.2475
  525.8000   113.3464     8.1027     8.0729
  525.9000   112.8984     7.8578     7.9538
  526.0000   112.6256     7.7232     7.8410
  526.1000   111.7118     7.5057     7.7069
  526.2000   111.5034     7.3583     7.5768
  526.3000   111.2467     7.2103     7.4745
  526.4000   111.1800     7.0337     7.3698
  526.5000   111.3970     6.8306     7.2439
  526.6000   111.3962     6.5720     7.1051
  526.7000   111.6336     6.4415     6.9437
  526.8000   112.0707     6.2956     6.7747
  526.9000   112.4572     6.1528     6.6321
  527.0000   112.8504     6.0131     6.4559
  527.1000   113.6052     5.8736     6.2397
  527.2000   114.2049     5.7435     5.9855
  527.3000   114.8401     5.6133     5.7159
  527.4000   115.6072     5.5024     5.4135
  527.5000   116.2758     5.4365     5.3137
  527.6000   116.8728     5.4360     5.1931
  527.7000   117.9518     5.4353     5.0857
  527.8000   118.9196     5.4347     5.0028
  527.9000   119.9432     5.4341     4.9411
  528.0000   121.7422     5.4335     4.8632
  528.1000   124.7385     5.4329     4.7993
  528.2000   128.7539     5.4323     4.7443
  528.3000   132.0105     5.4317     4.7035
  528.4000   135.0338     5.4539     4.7041
  528.5000   138.2978     5.4686     4.7357
  528.6000   141.6776     5.4679     4.7795
  528.7000   145.3790     5.4674     4.8505
  528.8000   148.5700     5.4666     4.9236
  528.9000   150.0448     5.4923     4.9839
  529.0000   150.8229     5.5038     5.0767
  529.1000   151.2014     5.5032     5.1572
  529.2000   151.0728     5.5077     5.2042
  529.3000   150.0082     5.5405     5.2479
  529.4000   148.2537     5.5400     5.3078
  529.5000   146.9344     5.5620     5.3675
  529.6000   144.7432     5.5776     5.4038
  529.7000   141.2189     5.6025     5.4284
  529.8000   136.9601     5.7011     5.4591
  529.9000   135.1256     5.8962     5.4899
  530.0000   132.3746     6.0071     5.5210
  530.1000   130.3317     6.1242     5.5549
  530.2000   128.8137     6.2028     5.6424
  530.3000   127.4533     6.2479     5.6943
  530.4000   125.8678     6.3638     5.7575
  530.5000   123.5593     6.3966     5.8400
  530.6000   122.6630     6.5100     5.8744
  530.7000   120.8017     6.6414     5.9756
  530.8000   119.1626     6.8123     6.0788
  530.9000   118.3938     6.9677     6.1630
  531.0000   117.6187     7.0873     6.2718
  531.1000   117.3643     7.2090     6.4578
  531.2000   116.7125     7.3327     6.7033
  531.3000   116.2257     7.4584     6.9892
  531.4000   115.9690     7.5970     7.2293
  531.5000   115.6843     7.8384     7.4383
  531.6000   115.1149     8.0004     7.6423
  531.7000   114.8868     8.1845     7.8172
