~VERSION INFORMATION
 VERS.                2.0:   CWLS LOG ASCII STANDARD - VERSION 2.0
 WRAP.                 NO:   ONE LINE PER DEPTH STEP
~WELL INFORMATION
#MNEM.UNIT      DATA TYPE    INFORMATION
#----------   ------------   ------------------------------
 STRT.F           32.0000:   START DEPTH
 STOP.F          688.5000:   STOP DEPTH
 STEP.F            0.5000:   STEP LENGTH
 NULL.          -999.2500:   NO VALUE
 COMP. FENIX & SCISSON INC:   COMPANY
 WELL.       NPR 3 #78-34:   WELL
 FLD .  TEAPOT DOME NPR-3:   FIELD
 LOC .      S34 T39N R78W:   LOCATION
 CNTY.            NATRONA:   COUNTY
 STAT.            WYOMING:   STATE
 CTRY. UNITED STATES OF AMERICA:   COUNTRY
 SRVC.           BIRDWELL:   SERVICE COMPANY
 DATE.        16-AUG-1978:   LOGDATE
 API .       490251070700:   API NUMBER
~CURVE INFORMATION
#MNEM.UNIT       API CODE    CURVE DESCRIPTION
#----------   ------------   ------------------------------
 DEPT.F                  :   
 SPR .MV     05 010 01 00:   SPONTANEOUS POTENTIAL
 SN  .OHMM   05 040 16 00:   SHORT NORMAL 16'
 ILD .OHMM   05 120 46 00:   INDUCTION LOG DEEP RESISTIVITY
 CALD.IN     45 280 60 00:   CALIPER
 GRD .GAPI   45 310 01 00:   GAMMA RAY FROM DENSITY LOG
 RHOB.G/C3   45 350 01 00:   BULK DENSITY
 DPHI.DEC    45 890 12 00:   DENSITY POROSITY SANDSTONE
 CORR.G/C3   45 356 01 00:   DENSITY CORRECTION
~PARAMETER INFORMATION
#MNEM.UNIT          VALUE    DESCRIPTION
#----------   ------------   ------------------------------
 PD  .                 GL:   PERMANENT DATUM
 EPD .F              5085:   ELEVATION PERMANENT DATUM
 LMF .                 KB:   LOG MEASURED FROM
 DAPD.F                 4:   FEET ABOVE PERMANENT DATUM
 DMF .                 KB:   DRILLING MEASURED FROM
 EKB .F              5089:   KELLING BUSHING
 EGL .F              5085:   GROUND LEVEL
 DATE.          8-16-1978:   RUN DATE
 RUN .                  1:   RUN NUMBER
 DD  .F               680:   DEPTH DRILLER
 DL  .F               688:   DEPTH LOGGER
 BLI .F               682:   BOTTOM LOG INTERVAL
 TLI .F                50:   TOP LOG INTERVAL
 CS  .IN            8.625:   CASING SIZE
 CBD .F                40:   CASING BOTTOM DRILLER
 BS  .IN            7.875:   BIT SIZE
 BSD .F               680:   BIT SIZE AT DEPTH
 DFT .                KCL:   DRILLING FLUID TYPE
 RMS .OHMM            .32:   RESISTIVITY MUD SAMPLE
 MST .F                64:   MUD SAMPLE TEMPERATURE
 RMF .OHMM             .3:   RESISTIVITY MUD FILTRATE SAMPLE
 MFST.F                76:   MUD FILTRATE SAMPLE TEMPERATURE
 RMC .OHMM            .16:   RESISTIVITY MUD CAKE
 MCST.F                64:   MUD CAKE SAMPLE TEMPERATURE
 MFSS.               MEAS:   MUD FILTRATE SAMPLE SOURCE
 MCSS.               MEAS:   MUD CAKE SAMPLE SOURCE
 TCS .HRS               1:   TIME CURCULATED STOPPED
 LUN .               3006:   LOGGING UNIT NUMBER
 LUL .               CASP:   LOGGING UNIT LOCATION
 ENGI.             MILLER:   RECORDING ENGINEER
 WITN.           MCGINLEY:   WITNESSED BY
 CLNT.            A2DTECH:   CLIENT CODE
 ORIG.           5" PRINT:   ORIGIN OF DATA
 UWI .       490251070700:   UNIQUE WELL ID
 DICO. A2D Technologies, Inc.:   DIGITIZING COMPANY
~OTHER INFORMATION
~A   DEPT      SPR         SN        ILD       CALD         GRD      RHOB       DPHI       CORR   
# ...
  356.0000   -34.7629     6.4268     5.9332     7.7580    88.0792     2.4904     0.1178     0.0210
  356.5000   -34.6480     6.3322     5.8318     7.7589    91.8853     2.4927     0.1172     0.0206
  357.0000   -34.5336     6.2390     5.7321     7.7597    95.3721     2.4956     0.1139     0.0203
  357.5000   -34.4182     6.1472     5.6340     7.7606    95.2764     2.4972     0.1110     0.0199
  358.0000   -34.4173     6.0568     5.5374     7.7614    94.6883     2.4903     0.1152     0.0196
  358.5000   -34.5001     5.9714     5.4465     7.7623    93.4256     2.4837     0.1223     0.0192
  359.0000   -34.5845     6.0266     5.4470     7.7631    91.0611     2.4782     0.1218     0.0189
  359.5000   -34.6689     6.0947     5.4518     7.7639    88.7038     2.4779     0.1254     0.0185
  360.0000   -34.7532     6.1730     5.4976     7.7647    86.5989     2.4785     0.1234     0.0182
  360.5000   -34.8374     6.2523     5.5438     7.7651    84.6935     2.4793     0.1216     0.0179
  361.0000   -34.9217     6.3327     5.5904     7.7709    83.3387     2.4781     0.1214     0.0175
  361.5000   -35.0061     6.4141     5.6374     7.7975    84.0130     2.4690     0.1285     0.0172
  362.0000   -35.0909     6.4271     5.6848     7.8121    85.9205     2.4659     0.1300     0.0168
  362.5000   -35.1679     6.3952     5.7326     7.8258    87.8874     2.4639     0.1312     0.0165
  363.0000   -35.1397     6.3685     5.8090     7.8244    89.8699     2.4619     0.1358     0.0161
  363.5000   -35.1091     6.3545     5.8090     7.8221    91.8619     2.4606     0.1345     0.0158
  364.0000   -35.0791     6.3399     5.8090     7.8198    92.2629     2.4606     0.1353     0.0154
  364.5000   -35.0492     6.3252     5.7582     7.8176    92.2894     2.4616     0.1352     0.0151
  365.0000   -35.0193     6.3106     5.7077     7.8155    91.5503     2.4627     0.1329     0.0147
  365.5000   -34.9894     6.2960     5.6575     7.8133    89.7757     2.4635     0.1307     0.0144
  366.0000   -34.9595     6.2816     5.6078     7.8110    88.0247     2.4627     0.1322     0.0141
  366.5000   -34.9296     6.2674     5.5585     7.8088    88.5008     2.4651     0.1361     0.0161
  367.0000   -34.8997     6.2521     5.5097     7.8066    89.2311     2.4662     0.1297     0.0164
  367.5000   -34.8697     6.1355     5.4616     7.8044    88.2569     2.4598     0.1341     0.0174
  368.0000   -34.8401     6.0189     5.4133     7.8022    86.0600     2.4556     0.1385     0.0184
  368.5000   -34.8129     5.9047     5.3130     7.8000    87.7931     2.4614     0.1309     0.0194
  369.0000   -34.7803     5.7928     5.1885     7.7978    90.6637     2.4676     0.1301     0.0204
  369.5000   -34.5547     5.6830     5.0669     7.7956    93.2189     2.4685     0.1289     0.0214
  370.0000   -33.5811     5.5753     4.9482     7.7934    92.5255     2.4674     0.1271     0.0224
  370.5000   -32.7367     5.4696     4.8322     7.7912    90.7201     2.4663     0.1274     0.0234
  371.0000   -32.7252     5.3659     4.7189     7.7890    88.9199     2.4652     0.1289     0.0244
  371.5000   -32.6938     5.2642     4.7021     7.7868    88.2012     2.4643     0.1305     0.0254
  372.0000   -32.6603     5.1644     4.7021     7.7846    87.9867     2.4637     0.1321     0.0264
  372.5000   -32.6267     5.0609     4.7021     7.7824    89.0058     2.4630     0.1327     0.0273
  373.0000   -32.5930     5.1368     4.7455     7.7802    90.1229     2.4624     0.1322     0.0283
  373.5000   -32.5594     5.2553     4.8335     7.7780    91.2390     2.4618     0.1317     0.0294
  374.0000   -32.5257     5.5315     5.0045     7.7758    91.3149     2.4558     0.1362     0.0318
  374.5000   -32.4921     5.8222     5.2166     7.7736    90.0505     2.4484     0.1408     0.0364
  375.0000   -32.4584     6.1283     5.4377     7.7714    87.4210     2.4446     0.1457     0.0408
  375.5000   -32.4247     6.4504     5.6681     7.7692    84.7853     2.4531     0.1292     0.0416
  376.0000   -32.3911     6.7294     5.9169     7.7670    82.3700     2.4771     0.1190     0.0341
  376.5000   -32.3574     6.7915     6.0836     7.7648    82.9359     2.4804     0.1249     0.0266
  377.0000   -32.3238     6.7915     6.1402     7.7626    85.6945     2.4809     0.1230     0.0241
  377.5000   -32.2901     6.7915     6.1377     7.7604    87.6527     2.4838     0.1211     0.0241
  378.0000   -32.2565     6.8542     6.1384     7.7582    88.9912     2.4866     0.1192     0.0243
  378.5000   -32.2226     6.8836     6.1384     7.7560    88.5234     2.4885     0.1173     0.0244
  379.0000   -32.1880     6.9255     6.1384     7.7538    87.8834     2.4884     0.1158     0.0245
  379.5000   -32.1702     6.9678     6.1384     7.7516    87.2179     2.4883     0.1166     0.0246
  380.0000   -32.3205     7.0103     6.1384     7.7494    87.8356     2.4882     0.1185     0.0247
  380.5000   -32.4686     7.0531     6.1384     7.7474    89.2692     2.4881     0.1202     0.0248
  381.0000   -32.6266     7.0961     6.1384     7.7338    90.7030     2.4880     0.1185     0.0249
  381.5000   -32.8037     7.1393     6.1384     7.7154    90.4137     2.4879     0.1168     0.0250
  382.0000   -32.9808     7.1766     6.1384     7.6968    90.1238     2.4878     0.1165     0.0252
  382.5000   -33.1577     7.1420     6.1384     7.6782    90.6106     2.4877     0.1182     0.0253
  383.0000   -33.3348     7.1118     6.1384     7.6597    89.9487     2.4876     0.1160     0.0254
  383.5000   -33.5114     7.0817     6.1384     7.6443    88.7321     2.4865     0.1146     0.0255
  384.0000   -33.6890     7.0518     6.1384     7.6370    87.4909     2.4876     0.1217     0.0256
  384.5000   -33.7662     7.0220     6.1384     7.6294    86.6498     2.4902     0.1173     0.0257
  385.0000   -33.7678     6.9923     6.1385     7.6273    86.0783     2.4905     0.1146     0.0258
  385.5000   -33.7677     6.9628     6.1388     7.6408    85.5485     2.4886     0.1175     0.0267
  386.0000   -33.7675     6.9334     6.0877     7.6546    86.1015     2.4863     0.1206     0.0321
  386.5000   -33.7675     6.9040     6.0233     7.6683    87.2565     2.4878     0.1179     0.0376
  387.0000   -33.7675     6.8749     5.9594     7.6820    88.9017     2.4942     0.1145     0.0430
  387.5000   -33.7675     6.8243     5.8963     7.6957    90.5497     2.4986     0.1111     0.0479
  388.0000   -33.7675     6.7225     5.8339     7.7094    92.1826     2.4985     0.1109     0.0472
  388.5000   -33.7675     6.6221     5.7721     7.7236    91.7272     2.4990     0.1118     0.0465
  389.0000   -33.7675     6.5233     5.7109     7.7092    90.4858     2.5023     0.1080     0.0459
  389.5000   -33.7675     6.4259     5.6505     7.6782    89.2450     2.5056     0.1026     0.0452
  390.0000   -33.7675     6.3300     5.5906     7.6467    88.0064     2.5085     0.1054     0.0446
  390.5000   -33.7675     6.2355     5.5128     7.6156    87.3641     2.5090     0.1028     0.0439
  391.0000   -33.7675     6.1425     5.3896     7.5870    87.3578     2.5096     0.1002     0.0433
  391.5000   -33.7675     6.0045     5.2693     7.5925    88.4164     2.5102     0.1016     0.0426
  392.0000   -33.7675     5.7849     5.1516     7.5965    90.2713     2.5106     0.1030     0.0420
  392.5000   -33.7675     5.5733     5.0609     7.6006    92.1029     2.5078     0.1092     0.0413
  393.0000   -33.7675     5.2754     4.6942     7.6046    92.7625     2.4980     0.1204     0.0407
  393.5000   -33.7681     4.9423     4.3793     7.6074    92.4613     2.4833     0.1232     0.0400
  394.0000   -33.7665     4.6303     4.1327     7.6453    91.5606     2.4781     0.1210     0.0401
  394.5000   -33.7655     4.3380     3.8198     7.6859    90.6621     2.4750     0.1250     0.0402
  395.0000   -33.5681     4.0641     3.4688     7.7263    89.9928     2.4686     0.1290     0.0404
  395.5000   -33.1986     3.8075     3.1487     7.7407    90.3213     2.4582     0.1358     0.0406
  396.0000   -31.7667     3.5671     2.8586     7.7210    90.8554     2.4478     0.1438     0.0408
