~VERSION INFORMATION
 VERS.                2.0:   CWLS LOG ASCII STANDARD - VERSION 2.0
 WRAP.                 NO:   ONE LINE PER DEPTH STEP
~WELL INFORMATION
#MNEM.UNIT      DATA TYPE    INFORMATION
#----------   ------------   ------------------------------
 STRT.F           10.5000:   START DEPTH
 STOP.F          604.0000:   STOP DEPTH
 STEP.F            0.5000:   STEP LENGTH
 NULL.          -999.2500:   NO VALUE
 COMP. FENIX & SCISSON INC:   COMPANY
 WELL.  NPR 3 #87 S 10-10:   WELL
 FLD .             TEAPOT:   FIELD
 LOC .      S10 T38N R78W:   LOCATION
 CNTY.            NATRONA:   COUNTY
 STAT.            WYOMING:   STATE
 CTRY. UNITED STATES OF AMERICA:   COUNTRY
 SRVC.           BIRDWELL:   SERVICE COMPANY
 DATE.        11-DEC-1978:   LOGDATE
 API .       490251075400:   API NUMBER
~CURVE INFORMATION
#MNEM.UNIT       API CODE    CURVE DESCRIPTION
#----------   ------------   ------------------------------
 DEPT.F                  :   
 SPR .MV     05 010 01 00:   SPONTANEOUS POTENTIAL FROM RES.
 SN  .OHMM   05 040 16 00:   SHORT NORMAL 16"
 IL  .OHMM   05 120 00 00:   INDUCTION LOG
 CALD.IN     45 280 60 00:   CALIPER
 GRD .GAPI   45 310 01 00:   GAMMA RAY FROM DENSITY LOG
 RHOB.G/C3   45 350 01 00:   BULK DENSITY
 DPHI.DEC    45 890 12 00:   DENSITY POROSITY SANDSTONE
 CORR.G/C3   45 356 01 00:   DENSITY CORRECTION
~PARAMETER INFORMATION
#MNEM.UNIT          VALUE    DESCRIPTION
#----------   ------------   ------------------------------
 PD  .                 GL:   PERMANENT DATUM
 LMF .                 KB:   LOG MEASURED FROM
 DAPD.F                 4:   FEET ABOVE PERMANENT DATUM
 DMF .                 KB:   DRILLING MEASURED FROM
 DATE.           12-11-78:   RUN DATE
 RUN .                  1:   RUN NUMBER
 DD  .F               600:   DEPTH DRILLER
 DL  .F               602:   DEPTH LOGGER
 BLI .F               596:   BOTTOM LOG INTERVAL
 TLI .F                60:   TOP LOG INTERVAL
 CBD .F                40:   CASING BOTTOM DRILLER
 CBL .F                35:   CASING BOTTOM LOGGER
 BS  .IN            7.875:   BIT SIZE
 BSD .F               600:   BIT SIZE AT DEPTH
 DFT .                KCC:   DRILLING FLUID TYPE
 DFD .                8.7:   DRILLING FLUID DENSITY
 DFV .                 39:   DRILLING FLUID VISCOSITY
 DFPH.               10.5:   DRILLING FLUID PH
 DFL .                 10:   DRILLING FLUID LOSS
 MSS .           FLOWLINE:   MUD SAMPLE SOURCE
 RMS .OHMM              1:   RESISTIVITY MUD SAMPLE
 MST .F                62:   MUD SAMPLE TEMPERATURE
 RMF .OHMM            .85:   RESISTIVITY MUD FILTRATE SAMPLE
 MFST.F                58:   MUD FILTRATE SAMPLE TEMPERATURE
 RMC .OHMM             .8:   RESISTIVITY MUD CAKE
 MCST.F                66:   MUD CAKE SAMPLE TEMPERATURE
 MFSS.           MEASURED:   MUD FILTRATE SAMPLE SOURCE
 MCSS.           MEASURED:   MUD CAKE SAMPLE SOURCE
 BHT .F                72:   BOTTOM HOLE TEMPERATURE
 TCS .HRS               3:   TIME CURCULATED STOPPED
 MRT .F                72:   MAXIMUM RECORDED TEMPERATURE
 LUN .               2958:   LOGGING UNIT NUMBER
 LUL .             CASPER:   LOGGING UNIT LOCATION
 ENGI.            ROLLINS:   RECORDING ENGINEER
 WITN.           DINSMORE:   WITNESSED BY
 CLNT.            A2DTECH:   CLIENT CODE
 ORIG.       2", 5" PRINT:   ORIGIN OF DATA
 UWI .       490251075400:   UNIQUE WELL ID
 DICO. A2D Technologies, Inc.:   DIGITIZING COMPANY
~OTHER INFORMATION
~A   DEPT      SPR         SN         IL       CALD        GRD       RHOB       DPHI       CORR   
# ...
  577.5000   -38.1630    13.1920    12.3290     8.4980   107.8880     2.4900     0.1180     0.0270
  578.0000   -38.2710    13.4660    12.3410     8.4940   107.2180     2.4850     0.1200     0.0290
  578.5000   -38.5170    13.7390    12.3520     8.4900   108.3380     2.4890     0.1210     0.0310
  579.0000   -38.9880    13.9010    12.3630     8.4860   108.0320     2.4930     0.1160     0.0330
  579.5000   -39.4740    13.9230    12.3740     8.4830   105.2750     2.4850     0.1180     0.0350
  580.0000   -39.5870    13.9460    12.3860     8.4790    99.9410     2.4790     0.1260     0.0370
  580.5000   -39.6830    13.9690    12.3970     8.4750    99.3600     2.4750     0.1270     0.0390
  581.0000   -39.7780    13.9920    12.4080     8.4710    99.5730     2.4760     0.1270     0.0380
  581.5000   -39.8640    14.0150    12.4190     8.4670    97.3730     2.4850     0.1270     0.0310
  582.0000   -40.3970    14.0380    12.4330     8.4630    94.6530     2.4940     0.1200     0.0180
  582.5000   -41.0630    14.0600    12.3650     8.4600    95.1320     2.4950     0.1140     0.0130
  583.0000   -41.5130    14.0830    12.2650     8.4560    96.3660     2.4750     0.1210     0.0140
  583.5000   -41.5480    14.1060    12.1640     8.4520   100.8310     2.4700     0.1330     0.0170
  584.0000   -41.5900    14.1290    12.0890     8.4480   105.9270     2.4680     0.1340     0.0210
  584.5000   -41.6340    14.1460    12.0720     8.4440   106.3020     2.4700     0.1320     0.0240
  585.0000   -41.6770    14.0780    12.0540     8.4400   106.0270     2.4770     0.1280     0.0270
  585.5000   -41.8620    14.0140    12.0370     8.4370   104.2050     2.4850     0.1230     0.0290
  586.0000   -42.2690    13.9490    12.0190     8.4330   102.7480     2.4870     0.1200     0.0290
  586.5000   -42.6720    13.8850    12.0020     8.4290   104.9960     2.4870     0.1200     0.0290
  587.0000   -43.1920    13.8210    11.9840     8.4250   106.4740     2.4840     0.1210     0.0280
  587.5000   -43.8910    13.7570    11.8940     8.4210   107.7400     2.4820     0.1210     0.0280
  588.0000   -44.2810    13.6930    11.7990     8.4240   109.5190     2.4800     0.1260     0.0280
  588.5000   -44.5740    13.6280    11.7040     8.4270   112.7940     2.4790     0.1260     0.0300
  589.0000   -44.8720    13.5640    11.6090     8.4300   113.7580     2.4780     0.1270     0.0340
  589.5000   -45.7920    13.4730    11.4520     8.4320   113.2540     2.4770     0.1270     0.0380
  590.0000   -46.6910    13.2500    11.1900     8.4360   112.7990     2.4820     0.1280     0.0390
  590.5000   -47.3480    13.0270    11.0230     8.4400   113.7430     2.4930     0.1210     0.0380
  591.0000   -48.0030    12.8050    10.9970     8.4200   114.7570     2.4980     0.1170     0.0370
  591.5000   -48.6830    12.5820    10.9700     7.6290   113.5050     2.4900     0.1170     0.0360
  592.0000   -49.4300    12.3590    10.9430     7.9340   111.9610     2.4870     0.1190     0.0350
  592.5000   -50.2250    12.1370    10.8430     6.1900   113.7950     2.4920     0.1160     0.0340
  593.0000   -51.2830    11.9160    10.6370     7.5840   117.5590     2.4980     0.1140     0.0330
  593.5000   -53.1700    11.6950    10.4310     8.0370   115.5330     2.5040     0.1090     0.0320
  594.0000   -54.8710    11.4750    10.1510     8.1130   110.4280     2.5070     0.1080     0.0320
  594.5000   -54.9090    11.2550    10.1560     8.1030  -999.2500     2.5050     0.1090     0.0340
  595.0000   -51.2880    11.1250    10.1670     8.0750  -999.2500     2.5020     0.1110     0.0360
  595.5000   -46.0270    11.1110    10.1780     8.0520  -999.2500     2.4980     0.1130     0.0370
  596.0000   -22.9970    11.0980    10.1890     8.0370  -999.2500     2.4970     0.1150     0.0350
  596.5000  -999.2500    11.0840    10.2000     7.6590  -999.2500     2.5000     0.1150     0.0330
  597.0000  -999.2500    11.0710    10.2110     7.5950  -999.2500     2.5030     0.1150     0.0310
  597.5000  -999.2500    11.0570    10.2220     7.5830  -999.2500     2.5050     0.1100     0.0310
  598.0000  -999.2500    11.0440    10.2330     7.5710  -999.2500     2.5020     0.1080     0.0390
  598.5000  -999.2500    11.0300    10.2430     7.5600  -999.2500     2.4790     0.1240     0.0470
  599.0000  -999.2500  -999.2500  -999.2500     7.5480  -999.2500     2.4860     0.1210     0.0500
  599.5000  -999.2500  -999.2500  -999.2500     7.5380  -999.2500     2.5010     0.1150     0.0530
  600.0000  -999.2500  -999.2500  -999.2500     7.5270  -999.2500     2.5050     0.1080     0.0530
  600.5000  -999.2500  -999.2500  -999.2500     7.4750  -999.2500     2.5080     0.1070     0.0520
  601.0000  -999.2500  -999.2500  -999.2500  -999.2500  -999.2500     2.5110     0.1050     0.0460
  601.5000  -999.2500  -999.2500  -999.2500  -999.2500  -999.2500     2.5130     0.1040     0.0370
  602.0000  -999.2500  -999.2500  -999.2500  -999.2500  -999.2500     2.5090     0.1040     0.0340
  602.5000  -999.2500  -999.2500  -999.2500  -999.2500  -999.2500     2.5040     0.1070     0.0340
  603.0000  -999.2500  -999.2500  -999.2500  -999.2500  -999.2500     2.5010     0.1110     0.0340
  603.5000  -999.2500  -999.2500  -999.2500  -999.2500  -999.2500     2.5000     0.1130     0.0330
  604.0000  -999.2500  -999.2500  -999.2500  -999.2500  -999.2500     2.4990     0.1130  -999.2500
