~VERSION INFORMATION
 VERS.                2.0:   CWLS LOG ASCII STANDARD - VERSION 2.0
 WRAP.                 NO:   ONE LINE PER DEPTH STEP
~WELL INFORMATION
#MNEM.UNIT      DATA TYPE    INFORMATION
#----------   ------------   ------------------------------
 STRT.F           39.0000:   START DEPTH
 STOP.F          590.0000:   STOP DEPTH
 STEP.F            0.5000:   STEP LENGTH
 NULL.          -999.2500:   NO VALUE
 COMP. FENIX & SCISSON INC:   COMPANY
 WELL.    NPR-3 SX #41-34:   WELL
 FLD .             TEAPOT:   FIELD
 LOC .      S34 T39N R78W:   LOCATION
 CNTY.            NATRONA:   COUNTY
 STAT.            WYOMING:   STATE
 CTRY. UNITED STATES OF AMERICA:   COUNTRY
 SRVC.           BIRDWELL:   SERVICE COMPANY
 DATE.        28-AUG-1978:   LOGDATE
 API .       490251069800:   API NUMBER
~CURVE INFORMATION
#MNEM.UNIT       API CODE    CURVE DESCRIPTION
#----------   ------------   ------------------------------
 DEPT.F                  :   
 SPR .MV     05 010 01 00:   SPONTANEOUS POTENTIAL FROM RES.
 SN  .OHMM   05 040 16 00:   SHORT NORMAL 16"
 ILD .OHMM   05 120 46 00:   INDUCTION LOG DEEP
 CALD.IN     45 280 60 00:   CALIPER
 GRD .GAPI   45 310 01 00:   GAMMA RAY FROM DENSITY LOG
 RHOB.G/C3   45 350 01 00:   BULK DENSITY
 DPHI.DEC    45 890 12 00:   DENSITY POROSITY SANDSTONE
 CORR.G/C3   45 356 01 00:   DENSITY CORRECTION
~PARAMETER INFORMATION
#MNEM.UNIT          VALUE    DESCRIPTION
#----------   ------------   ------------------------------
 PD  .                 GL:   PERMANENT DATUM
 EPD .F              5064:   ELEVATION PERMANENT DATUM
 LMF .                 KB:   LOG MEASURED FROM
 DAPD.F                 4:   FEET ABOVE PERMANENT DATUM
 DMF .                 KB:   DRILLING MEASURED FROM
 EKB .F              5068:   KELLING BUSHING
 EGL .F              5064:   GROUND LEVEL
 DATE.          8-28-1978:   RUN DATE
 RUN .                  1:   RUN NUMBER
 DD  .F               600:   DEPTH DRILLER
 DL  .F               596:   DEPTH LOGGER
 BLI .F               590:   BOTTOM LOG INTERVAL
 TLI .F                50:   TOP LOG INTERVAL
 CS  .IN            8.625:   CASING SIZE
 CBD .F                40:   CASING BOTTOM DRILLER
 BS  .IN            7.875:   BIT SIZE
 BSD .F               600:   BIT SIZE AT DEPTH
 DFT .                KCL:   DRILLING FLUID TYPE
 DFD .                8.7:   DRILLING FLUID DENSITY
 DFV .                 35:   DRILLING FLUID VISCOSITY
 DFPH.                  9:   DRILLING FLUID PH
 DFL .                 10:   DRILLING FLUID LOSS
 MSS .          FLOW LINE:   MUD SAMPLE SOURCE
 RMS .OHMM             .4:   RESISTIVITY MUD SAMPLE
 MST .F                76:   MUD SAMPLE TEMPERATURE
 RMF .OHMM             .3:   RESISTIVITY MUD FILTRATE SAMPLE
 MFST.F                80:   MUD FILTRATE SAMPLE TEMPERATURE
 RMC .OHMM             .4:   RESISTIVITY MUD CAKE
 MCST.F                80:   MUD CAKE SAMPLE TEMPERATURE
 MFSS.               MEAS:   MUD FILTRATE SAMPLE SOURCE
 MCSS.               MEAS:   MUD CAKE SAMPLE SOURCE
 TCS .HRS               3:   TIME CURCULATED STOPPED
 LUN .               2958:   LOGGING UNIT NUMBER
 LUL .               CASP:   LOGGING UNIT LOCATION
 ENGI.             MILLER:   RECORDING ENGINEER
 WITN.              AMEND:   WITNESSED BY
 CLNT.            A2DTECH:   CLIENT CODE
 ORIG.           5" PRINT:   ORIGIN OF DATA
 UWI .       490251069800:   UNIQUE WELL ID
 DICO. A2D Technologies, Inc.:   DIGITIZING COMPANY
~OTHER INFORMATION
~A   DEPT      SPR         SN        ILD       CALD        GRD         RHOB       DPHI      CORR  
# ...
   79.5000   -31.8413     3.7094     2.3582     7.1163    75.5633     2.0515     0.3477     0.1081
   80.0000   -31.8353     3.0667     1.9531     7.3534    71.7523     2.0815     0.3127     0.1141
   80.5000   -31.8369     2.5354     1.6765     7.3491    68.4419     2.1593     0.2684     0.1097
   81.0000   -31.8363     2.0701     1.6175     7.3301    63.9166     2.2362     0.2221     0.1003
   81.5000   -31.8363     1.9061     1.5421     7.3234    60.4598     2.3137     0.1889     0.0764
   82.0000   -31.8364     1.8037     1.5433     7.3224    60.6639     2.3704     0.1860     0.0532
   82.5000   -31.8339     1.8165     1.5716     7.2775    60.8595     2.3746     0.1899     0.0307
   83.0000   -31.8486     1.8729     1.6304     7.1738    60.6567     2.3691     0.1936     0.0298
   83.5000   -31.6344     1.9311     1.8590     7.0497    60.4299     2.3639     0.1936     0.0307
   84.0000   -31.3134     2.0758     2.2913     6.9251    60.2347     2.3638     0.1910     0.0316
   84.5000   -30.9366     2.3158     2.8278     6.8006    60.9884     2.3740     0.1809     0.0306
   85.0000   -30.6069     2.5835     3.4883     6.6761    64.0020     2.3872     0.1753     0.0257
   85.5000   -30.2767     2.8868     4.3024     6.5512    75.0306     2.3939     0.1744     0.0208
   86.0000   -29.9512     3.6015     5.3067     6.4210    73.3098     2.3965     0.1741     0.0159
   86.5000   -29.6099     4.7786     6.5453     6.3846    70.4665     2.3924     0.1826     0.0204
   87.0000   -28.8654     6.1350     8.1321     6.3636    67.7352     2.3834     0.1912     0.0250
   87.5000   -28.2194     6.6202     8.2071     6.3641    68.2382     2.3725     0.1956     0.0295
   88.0000   -28.1924     7.1437     8.2071     6.3570    68.8636     2.3659     0.1915     0.0268
   88.5000   -28.1513     7.6286     7.8003     6.3503    69.4740     2.3701     0.1871     0.0223
   89.0000   -28.1081     7.8412     7.3152     6.3437    70.7947     2.3774     0.1765     0.0177
   89.5000   -28.0655     7.8414     6.8602     6.3372    72.3748     2.3872     0.1755     0.0166
   90.0000   -27.6947     7.8388     6.4320     6.3308    73.9590     2.3934     0.1748     0.0197
   90.5000   -27.0236     7.6962     6.2297     6.3205    74.0784     2.3948     0.1741     0.0220
   91.0000   -26.3548     7.3833     6.1747     6.2256    73.2937     2.3963     0.1708     0.0230
   91.5000   -25.8444     7.1169     6.1739     6.1006    71.6643     2.4023     0.1666     0.0237
   92.0000   -25.8935     6.8600     6.2309     5.9727    69.7052     2.4097     0.1625     0.0312
   92.5000   -25.9310     6.6125     6.2884     5.9470    67.7332     2.4153     0.1624     0.0406
   93.0000   -25.9686     6.4049     6.5733     6.1582    65.9744     2.4129     0.1621     0.0501
   93.5000   -26.0075     6.7692     7.1906     6.3765    67.7467     2.4166     0.1607     0.0593
   94.0000   -26.0672     7.2520     7.8661     6.5944    70.5361     2.4204     0.1597     0.0633
   94.5000   -25.1614     7.7691     8.6047     6.8122    73.3497     2.4149     0.1666     0.0541
   95.0000   -24.6729     8.3238     9.4122     7.0277    76.1795     2.4086     0.1691     0.0451
   95.5000   -24.4102     8.9176    10.2955     7.1589    76.4481     2.4065     0.1657     0.0377
   96.0000   -24.1517     9.5041    11.2617     7.1197    75.5300     2.4114     0.1601     0.0364
   96.5000   -23.8913     9.6766    11.9591     7.0830    73.7730     2.4162     0.1612     0.0348
   97.0000   -23.8349     9.8810    11.8931     7.0639    72.0338     2.4140     0.1626     0.0333
   97.5000   -23.8151    10.0581    11.8162     7.0799    70.2948     2.4109     0.1640     0.0318
   98.0000   -23.7957    10.2347    11.7398     7.1541    68.7821     2.4078     0.1654     0.0390
   98.5000   -23.7758    10.4144    11.6639     7.2304    69.5979     2.4047     0.1680     0.0484
   99.0000   -23.7559    10.5973    11.6342     7.2431    70.5879     2.4015     0.1757     0.0518
   99.5000   -23.7360    10.7835    11.9422     7.2191    71.5723     2.3933     0.1807     0.0412
  100.0000   -23.7161    10.9739    12.1890     7.0610    72.5572     2.3853     0.1841     0.0316
  100.5000   -23.6963    11.1639    12.4406     6.8712    72.0215     2.3780     0.1876     0.0273
  101.0000   -23.6766    11.3181    12.6973     6.8123    70.3365     2.3729     0.1910     0.0238
  101.5000   -23.6549    11.4225    12.9591     6.7492    69.9711     2.3677     0.1945     0.0236
  102.0000   -23.5763    11.4225    13.2303     6.6859    69.5906     2.3624     0.1971     0.0233
  102.5000   -23.3956    11.5199    13.3523     6.6226    68.3518     2.3570     0.1986     0.0231
  103.0000   -23.2162    11.6136    13.5998     6.5591    65.9127     2.3535     0.2001     0.0228
  103.5000   -23.0359    11.7079    13.7857     6.4958    61.5325     2.3537     0.1981     0.0225
  104.0000   -22.8530    11.8031    13.8686     6.4435    57.1938     2.3610     0.1919     0.0222
  104.5000   -22.6500    11.8990    13.9510     6.4463    53.6532     2.3683     0.1857     0.0218
  105.0000   -22.6544    11.9957    14.0307     6.4829    53.4707     2.3759     0.1700     0.0257
  105.5000   -22.6546    12.0931    14.1086     6.5199    53.8621     2.4030     0.1497     0.0301
  106.0000   -22.6547    12.1914    14.3001     6.5569    55.1436     2.4734     0.1298     0.0345
  106.5000   -22.6545    12.2905    14.7149     6.5498    59.9307     2.5234     0.1114     0.0367
  107.0000   -22.6531    12.3903    15.1841     6.5319    66.1964     2.5403     0.0930     0.0295
  107.5000   -22.6621    12.6208    15.6831     6.5118    71.8238     2.5422     0.0870     0.0223
  108.0000   -22.8649    12.8812    16.3000     6.5249    77.4600     2.5026     0.1305     0.0219
  108.5000   -23.0702    13.1470    16.9412     6.5471    83.0838     2.4697     0.1582     0.0219
  109.0000   -23.2742    13.4183    17.6075     6.5683    88.6836     2.4365     0.1564     0.0220
  109.5000   -23.4781    13.6952    17.9419     6.5893    89.6919     2.4215     0.1548     0.0235
  110.0000   -23.6819    13.9797    18.2452     6.6100    91.1944     2.4256     0.1474     0.0306
  110.5000   -23.8858    14.1086    18.4767     6.6280    94.8619     2.4485     0.1344     0.0376
  111.0000   -24.0897    14.1086    18.6981     6.6404    98.4263     2.4706     0.1214     0.0435
  111.5000   -24.2936    14.1086    18.7549     6.6522   101.4837     2.4927     0.1084     0.0395
  112.0000   -24.4974    13.9797    18.7513     6.6665   100.2430     2.5041     0.1066     0.0356
  112.5000   -24.7013    13.8519    18.5883     6.7363    98.6432     2.5104     0.1023     0.0318
  113.0000   -24.9050    13.4755    17.1824     6.8085    97.1586     2.5165     0.0982     0.0309
  113.5000   -25.1083    12.9071    15.6949     6.8809    96.6792     2.5203     0.1027     0.0326
  114.0000   -25.3123    12.2925    14.3361     6.8936   104.0101     2.5122     0.1087     0.0338
  114.5000   -25.6489    11.7071    13.0950     6.9021   107.5371     2.5043     0.1147     0.0278
  115.0000   -26.2799    11.1496    11.9596     6.9285   106.7156     2.4964     0.1202     0.0214
  115.5000   -27.1828    10.6186    10.9249     6.9760   105.8174     2.4883     0.1181     0.0203
  116.0000   -28.5317    10.1129    10.4355     6.9976   105.1541     2.4856     0.1157     0.0234
  116.5000   -29.3931     9.6313    10.0497     7.0179   105.9509     2.4892     0.1134     0.0265
  117.0000   -29.7103     9.1727     9.6776     7.0381   107.6525     2.4941     0.1171     0.0296
  117.5000   -30.0284     8.8116     9.3193     7.0584   108.9094     2.4878     0.1229     0.0242
  118.0000   -30.3458     8.7166     8.9123     7.0786   104.3369     2.4800     0.1255     0.0157
  118.5000   -30.6639     8.6227     8.8378     7.0989    99.5347     2.4769     0.1232     0.0128
  119.0000   -30.9821     8.5298     8.7463     7.1192    96.9154     2.4776     0.1210     0.0140
  119.5000   -31.3027     8.4379     8.7610     7.1399    94.3104     2.4802     0.1194     0.0153
