~VERSION INFORMATION
 VERS.                2.0:   CWLS LOG ASCII STANDARD - VERSION 2.0
 WRAP.                 NO:   ONE LINE PER DEPTH STEP
~WELL INFORMATION
#MNEM.UNIT      DATA TYPE    INFORMATION
#----------   ------------   ------------------------------
 STRT.F           40.0000:   START DEPTH
 STOP.F         3444.0000:   STOP DEPTH
 STEP.F            0.5000:   STEP LENGTH
 NULL.          -999.2500:   NO VALUE
 COMP.    FENIX & SCISSON:   COMPANY
 WELL.     13-A-10 #13-10:   WELL
 FLD .            WILDCAT:   FIELD
 LOC .      S10 T38N R78W:   LOCATION
 CNTY.            NATRONA:   COUNTY
 STAT.            WYOMING:   STATE
 CTRY. UNITED STATES OF AMERICA:   COUNTRY
 SRVC.       Schlumberger:   SERVICE COMPANY
 DATE.        08-JUL-1970:   LOGDATE
 API .       490251090300:   API NUMBER
~CURVE INFORMATION
#MNEM.UNIT       API CODE    CURVE DESCRIPTION
#----------   ------------   ------------------------------
 DEPT.F                  :   
 ASN .OHMM   05 041 16 00:   AMPLIFIED SHORT NORMAL 16"
 CILD.MMHO   05 110 46 00:   CONDUCTIVITY INDUCTION LOG DEEP
 ILD .OHMM   05 120 46 00:   INDUCTION LOG DEEP
 SPR .MV     05 010 01 00:   SPONTANEOUS POTENTIAL FROM RES.
 CALD.IN     45 280 60 00:   CALIPER FROM DENSITY
 CORR.G/C3   45 356 01 00:   DENSITY CORRECTION
 DPHI.DEC    45 890 12 00:   DENSITY POROSITY SANDSTONE
 RHOB.G/C3   45 350 01 00:   BULK DENSITY
~PARAMETER INFORMATION
#MNEM.UNIT          VALUE    DESCRIPTION
#----------   ------------   ------------------------------
 PD  .                 GL:   PERMANENT DATUM
 EPD .F              5295:   ELEVATION PERMANENT DATUM
 LMF .                 KB:   LOG MEASURED FROM
 DAPD.F                10:   FEET ABOVE PERMANENT DATUM
 DMF .                 KB:   DRILLING MEASURED FROM
 EKB .F              5305:   KELLING BUSHING
 EGL .F              5295:   GROUND LEVEL
 DATE.        08-JUL-1970:   RUN DATE
 RUN .                  3:   RUN NUMBER
 DD  .F              3450:   DEPTH DRILLER
 DL  .F              3444:   DEPTH LOGGER
 BLI .F              3443:   BOTTOM LOG INTERVAL
 TLI .F              2950:   TOP LOG INTERVAL
 CS  .IN            10.75:   CASING SIZE
 CBD .F               842:   CASING BOTTOM DRILLER
 BS  .IN                9:   BIT SIZE
 BSD .F              3450:   BIT SIZE AT DEPTH
 DFT .      FRESH GEL MUD:   DRILLING FLUID TYPE
 DFD .               10.4:   DRILLING FLUID DENSITY
 DFV .                 43:   DRILLING FLUID VISCOSITY
 DFPH.                7.6:   DRILLING FLUID PH
 DFL .                  8:   DRILLING FLUID LOSS
 MSS .           FLOWLINE:   MUD SAMPLE SOURCE
 RMS .OHMM              2:   RESISTIVITY MUD SAMPLE
 MST .F                85:   MUD SAMPLE TEMPERATURE
 RMF .OHMM            1.6:   RESISTIVITY MUD FILTRATE SAMPLE
 MFST.F                85:   MUD FILTRATE SAMPLE TEMPERATURE
 MFSS.               MEAS:   MUD FILTRATE SAMPLE SOURCE
 RMB .OHMM           1.49:   RESISTIVITY MUD AT BHT
 BHT .F               114:   BOTTOM HOLE TEMPERATURE
 TCS .HRS               3:   TIME CURCULATED STOPPED
 MRT .F               114:   MAXIMUM RECORDED TEMPERATURE
 LUN .               4507:   LOGGING UNIT NUMBER
 LUL .               CSPR:   LOGGING UNIT LOCATION
 ENGI.             TURNER:   RECORDING ENGINEER
 WITN.                MAY:   WITNESSED BY
 CLNT.            A2DTECH:   CLIENT CODE
 ORIG.     2.5", 5" PRINT:   ORIGIN OF DATA
 UWI .       490251090300:   UNIQUE WELL ID
 DICO. A2D Technologies, Inc.:   DIGITIZING COMPANY
~OTHER INFORMATION
~A   DEPT        ASN      CILD         ILD      SPR       CALD       CORR       DPHI       RHOB   
# ...
   80.5000     0.9241   156.4170     6.1904   -35.5479  -999.2500  -999.2500  -999.2500  -999.2500
   81.0000     0.9683   152.7990     6.4923   -35.2502  -999.2500  -999.2500  -999.2500  -999.2500
   81.5000     1.0180   148.7922     6.6445   -35.0148  -999.2500  -999.2500  -999.2500  -999.2500
   82.0000     1.1078   144.2312     6.9464   -35.0148  -999.2500  -999.2500  -999.2500  -999.2500
   82.5000     1.2275   140.3823     7.2482   -34.7181  -999.2500  -999.2500  -999.2500  -999.2500
   83.0000     1.4271   136.6070     7.5501   -34.7181  -999.2500  -999.2500  -999.2500  -999.2500
   83.5000     1.7006   132.9879     7.7023   -34.7843  -999.2500  -999.2500  -999.2500  -999.2500
   84.0000     1.7785   130.0012     7.8545   -35.0148  -999.2500  -999.2500  -999.2500  -999.2500
   84.5000     2.1197   128.5114     7.8570   -35.0831  -999.2500  -999.2500  -999.2500  -999.2500
   85.0000     2.7246   127.0209     7.8595   -35.3116  -999.2500  -999.2500  -999.2500  -999.2500
   85.5000     3.8024   127.0290     7.8620   -35.3819  -999.2500  -999.2500  -999.2500  -999.2500
   86.0000     4.6407   127.0363     7.8645   -35.6795  -999.2500  -999.2500  -999.2500  -999.2500
   86.5000     6.8842   127.0436     7.8670   -35.9050  -999.2500  -999.2500  -999.2500  -999.2500
   87.0000     7.4491   130.0449     7.7197   -36.2018  -999.2500  -999.2500  -999.2500  -999.2500
   87.5000     7.7146   134.6061     7.4228   -36.2760  -999.2500  -999.2500  -999.2500  -999.2500
   88.0000     7.8284   139.3208     6.9762   -36.4985  -999.2500  -999.2500  -999.2500  -999.2500
   88.5000     7.9042   145.4711     6.5296   -36.4985  -999.2500  -999.2500  -999.2500  -999.2500
   89.0000     7.8743   149.8302     6.2327   -36.4214  -999.2500  -999.2500  -999.2500  -999.2500
   89.5000     6.7964   154.4061     6.0855   -36.2018  -999.2500  -999.2500  -999.2500  -999.2500
   90.0000     6.3772   157.0359     6.0880   -35.9050  -999.2500  -999.2500  -999.2500  -999.2500
   90.5000     6.6587   156.5170     6.2402   -35.9050  -999.2500  -999.2500  -999.2500  -999.2500
   91.0000     6.8044   153.4531     6.3923   -35.6083  -999.2500  -999.2500  -999.2500  -999.2500
   91.5000     6.9221   149.7078     6.5445   -35.5262  -999.2500  -999.2500  -999.2500  -999.2500
   92.0000     7.0838   145.8282     6.8464   -35.3116  -999.2500  -999.2500  -999.2500  -999.2500
   92.5000     7.2455   142.7643     6.9986   -35.0148  -999.2500  -999.2500  -999.2500  -999.2500
   93.0000     7.2754   139.1182     7.1508   -34.9298  -999.2500  -999.2500  -999.2500  -999.2500
   93.5000     7.2754   137.6285     7.1533   -34.7181  -999.2500  -999.2500  -999.2500  -999.2500
   94.0000     7.1517   136.1377     7.0061   -34.7181  -999.2500  -999.2500  -999.2500  -999.2500
   94.5000     7.0239   140.6371     6.5595   -34.4214  -999.2500  -999.2500  -999.2500  -999.2500
   95.0000     6.9361   151.1234     6.2625   -34.4214  -999.2500  -999.2500  -999.2500  -999.2500
   95.5000     6.8722   160.1128     5.9656   -34.1246  -999.2500  -999.2500  -999.2500  -999.2500
   96.0000     6.7066   166.1081     5.8184   -34.1246  -999.2500  -999.2500  -999.2500  -999.2500
   96.5000     6.4970   172.1034     5.6712   -33.8279  -999.2500  -999.2500  -999.2500  -999.2500
   97.0000     6.3772   176.6018     5.6737   -34.1246  -999.2500  -999.2500  -999.2500  -999.2500
   97.5000     6.2874   178.1063     5.5265   -34.5153  -999.2500  -999.2500  -999.2500  -999.2500
   98.0000     6.2235   178.3036     5.5290   -34.7181  -999.2500  -999.2500  -999.2500  -999.2500
   98.5000     6.1597   179.6183     5.6812   -35.0148  -999.2500  -999.2500  -999.2500  -999.2500
   99.0000     6.1078   178.1279     5.5339   -35.0148  -999.2500  -999.2500  -999.2500  -999.2500
   99.5000     6.0778   178.1362     5.5364   -35.0148  -999.2500  -999.2500  -999.2500  -999.2500
  100.0000     6.0778   177.6449     5.5389   -35.0155  -999.2500  -999.2500  -999.2500  -999.2500
  100.5000     6.1078   175.1558     5.5404   -35.0197  -999.2500  -999.2500  -999.2500  -999.2500
  101.0000     6.1377   174.5111     5.5419   -35.0243  -999.2500  -999.2500  -999.2500  -999.2500
  101.5000     6.1976   172.1782     5.5434   -35.0286  -999.2500  -999.2500  -999.2500  -999.2500
  102.0000     6.2275   171.3773     5.5449   -34.7359  -999.2500  -999.2500  -999.2500  -999.2500
  102.5000     6.2575   169.1991     5.7298   -34.7406  -999.2500  -999.2500  -999.2500  -999.2500
  103.0000     6.3174   167.7096     5.9970   -34.7449  -999.2500  -999.2500  -999.2500  -999.2500
  103.5000     6.3772   166.1947     6.0457   -34.4525  -999.2500  -999.2500  -999.2500  -999.2500
  104.0000     6.3772   164.3593     5.9997   -34.1602  -999.2500  -999.2500  -999.2500  -999.2500
  104.5000     6.2874   162.5239     6.2118   -34.1647  -999.2500  -999.2500  -999.2500  -999.2500
  105.0000     6.1377   163.5231     6.2351   -34.1295  -999.2500  -999.2500  -999.2500  -999.2500
  105.5000     6.0738   166.9539     6.0045   -33.8765  -999.2500  -999.2500  -999.2500  -999.2500
  106.0000     6.0180   172.6749     5.7755   -33.8813  -999.2500  -999.2500  -999.2500  -999.2500
  106.5000     5.9760   175.7538     5.6206   -33.5884  -999.2500  -999.2500  -999.2500  -999.2500
  107.0000     5.9421   178.8321     5.4102   -33.5935  -999.2500  -999.2500  -999.2500  -999.2500
  107.5000     5.8982   181.2500     5.2622   -33.5979  -999.2500  -999.2500  -999.2500  -999.2500
  108.0000     5.8982   184.2515     5.2637   -33.6024  -999.2500  -999.2500  -999.2500  -999.2500
  108.5000     5.8982   185.7560     5.2651   -33.6068  -999.2500  -999.2500  -999.2500  -999.2500
  109.0000     5.8982   185.7649     5.4163   -33.6113  -999.2500  -999.2500  -999.2500  -999.2500
  109.5000     5.8982   184.2739     5.5675   -33.6157  -999.2500  -999.2500  -999.2500  -999.2500
  110.0000     5.9036   184.2825     5.7186   -33.9178  -999.2500  -999.2500  -999.2500  -999.2500
  110.5000     5.9385   182.7919     5.8698   -34.2189  -999.2500  -999.2500  -999.2500  -999.2500
  111.0000     5.9733   181.3024     6.0210   -34.2232  -999.2500  -999.2500  -999.2500  -999.2500
  111.5000     6.0082   179.8129     6.0224   -34.5243  -999.2500  -999.2500  -999.2500  -999.2500
  112.0000     6.0317   178.3233     6.0240   -34.5287  -999.2500  -999.2500  -999.2500  -999.2500
  112.5000     6.0925   176.8340     6.0255   -34.5330  -999.2500  -999.2500  -999.2500  -999.2500
  113.0000     6.1377   175.3296     6.0269   -34.5374  -999.2500  -999.2500  -999.2500  -999.2500
  113.5000     6.1543   173.7627     6.0285   -34.2450  -999.2500  -999.2500  -999.2500  -999.2500
  114.0000     6.1976   172.1958     6.0299   -34.2493  -999.2500  -999.2500  -999.2500  -999.2500
  114.5000     6.1976   170.8751     5.8815   -34.2537  -999.2500  -999.2500  -999.2500  -999.2500
  115.0000     6.0479   169.3854     5.7333   -34.2581  -999.2500  -999.2500  -999.2500  -999.2500
  115.5000     5.8683   173.1912     5.6759   -34.2626  -999.2500  -999.2500  -999.2500  -999.2500
  116.0000     5.7186   178.8624     5.4371   -33.9700  -999.2500  -999.2500  -999.2500  -999.2500
  116.5000     5.5689   182.4978     5.4386   -33.9134  -999.2500  -999.2500  -999.2500  -999.2500
  117.0000     5.4491   186.5172     5.2904   -33.6819  -999.2500  -999.2500  -999.2500  -999.2500
  117.5000     5.3593   189.5961     5.2919   -33.6870  -999.2500  -999.2500  -999.2500  -999.2500
  118.0000     5.3293   193.3832     5.2937   -33.3939  -999.2500  -999.2500  -999.2500  -999.2500
  118.5000     5.3293   198.1158     5.2952   -33.3991  -999.2500  -999.2500  -999.2500  -999.2500
  119.0000     5.3593   202.3816     5.2966   -33.1068  -999.2500  -999.2500  -999.2500  -999.2500
  119.5000     5.3892   205.3829     5.2981   -33.1113  -999.2500  -999.2500  -999.2500  -999.2500
  120.0000     5.3892   208.3842     5.1498   -33.1157  -999.2500  -999.2500  -999.2500  -999.2500
  120.5000     5.3892   209.8885     5.1513   -32.8235  -999.2500  -999.2500  -999.2500  -999.2500
