~VERSION INFORMATION
 VERS.                2.0:   CWLS LOG ASCII STANDARD - VERSION 2.0
 WRAP.                 NO:   ONE LINE PER DEPTH STEP
~WELL INFORMATION
#MNEM.UNIT      DATA TYPE    INFORMATION
#----------   ------------   ------------------------------
 STRT.F           46.0000:   START DEPTH
 STOP.F          472.0000:   STOP DEPTH
 STEP.F            0.5000:   STEP LENGTH
 NULL.          -999.2500:   NO VALUE
 COMP. BROWN JOHN E&C INC:   COMPANY
 WELL. NPR 3 SX10 1 #63-10:   WELL
 FLD .             TEAPOT:   FIELD
 LOC .      S10 T38N R78W:   LOCATION
 CNTY.            NATRONA:   COUNTY
 STAT.            WYOMING:   STATE
 CTRY. UNITED STATES OF AMERICA:   COUNTRY
 SRVC.       Schlumberger:   SERVICE COMPANY
 DATE.        01-OCT-1990:   LOGDATE
 API .       490251132000:   API NUMBER
~CURVE INFORMATION
#MNEM.UNIT       API CODE    CURVE DESCRIPTION
#----------   ------------   ------------------------------
 DEPT.F                  :   
 GRR .GAPI   07 310 01 00:   GAMMA RAY
 ILD .OHMM   07 120 46 00:   INDUCTION LOG DEEP
 ILM .OHMM   07 120 44 00:   INDUCTION LOG MEDIUM
~PARAMETER INFORMATION
#MNEM.UNIT          VALUE    DESCRIPTION
#----------   ------------   ------------------------------
 PD  .                 GL:   PERMANENT DATUM
 EPD .F            5182.0:   ELEVATION PERMANENT DATUM
 LMF .                 KB:   LOG MEASURED FROM
 DAPD.F              10.0:   FEET ABOVE PERMANENT DATUM
 DMF .                 KB:   DRILLING MEASURED FROM
 EKB .F            5192.0:   KELLING BUSHING
 EDF .F            5191.0:   DRILLING FLOOR
 EGL .F            5182.0:   GROUND LEVEL
 DATE.        01-OCT-1990:   RUN DATE
 RUN .                  1:   RUN NUMBER
 DD  .F               477:   DEPTH DRILLER
 DL  .F               478:   DEPTH LOGGER
 BLI .F               472:   BOTTOM LOG INTERVAL
 TLI .F                50:   TOP LOG INTERVAL
 CS  .IN            8.625:   CASING SIZE
 CBL .F                53:   CASING BOTTOM LOGGER
 BS  .IN            7.875:   BIT SIZE
 BSD .F               477:   BIT SIZE AT DEPTH
 DFT .                AIR:   DRILLING FLUID TYPE
 TLAB.HRS            1758:   TIME LOGGER AT BOTTOM
 LUN .               5882:   LOGGING UNIT NUMBER
 LUL .               CODY:   LOGGING UNIT LOCATION
 ENGI.        MIKE FISHER:   RECORDING ENGINEER
 WITN.       GARRY STRONG:   WITNESSED BY
 CLNT.            A2DTECH:   CLIENT CODE
 ORIG.           5" PRINT:   ORIGIN OF DATA
 UWI .       490251132000:   UNIQUE WELL ID
 DICO. A2D Technologies, Inc.:   DIGITIZING COMPANY
~OTHER INFORMATION
~A   DEPT      GRR        ILD        ILM   
   46.0000  -999.2500  -999.2500  -999.2500
   46.5000    92.2610  -999.2500  -999.2500
   47.0000   101.5587  -999.2500  -999.2500
   47.5000   107.8753  -999.2500  -999.2500
   48.0000   120.5173  -999.2500  -999.2500
   48.5000   130.4484  -999.2500  -999.2500
   49.0000   131.9458  -999.2500  -999.2500
   49.5000   132.5395  -999.2500  -999.2500
   50.0000   133.1311  -999.2500  -999.2500
   50.5000   134.6306  -999.2500  -999.2500
   51.0000   135.5256  -999.2500  -999.2500
   51.5000   136.7196  -999.2500  -999.2500
   52.0000   138.5422  -999.2500  -999.2500
   52.5000   140.6158  -999.2500  -999.2500
   53.0000   137.8963  -999.2500  -999.2500
   53.5000   136.0804   330.2610    49.0443
   54.0000   133.3609    17.3199    13.8561
   54.5000   133.0050     6.7665     7.8404
   55.0000   135.8133     6.8159     9.7255
   55.5000   137.2506     7.0585    26.3108
   56.0000   137.2398     7.8351    33.2631
   56.5000   135.4261     9.4542    18.3066
   57.0000   136.9213    10.3477    11.4166
   57.5000   140.2259     9.1355     8.8304
   58.0000   144.5301     8.2918     8.2390
   58.5000   143.8209     7.9557     7.8974
   59.0000   142.6074     7.6863     7.7957
   59.5000   144.4059     7.5824     7.7430
   60.0000   146.8069     7.5320     7.7441
   60.5000   147.0995     7.8548     7.7991
   61.0000   145.8839     7.9117     7.7461
   61.5000   147.0800     7.8585     7.9657
   62.0000   148.2784     7.9159     7.9113
   62.5000   146.7615     7.9185     7.9126
   63.0000   144.9456     7.9758     7.8589
   63.5000   140.9900     7.9779     7.9147
   64.0000   138.6009     8.0356     8.1540
   64.5000   138.2910     8.2640     8.7865
   65.0000   137.6799     8.4989     8.9103
   65.5000   135.5628     8.6206     8.8498
   66.0000   132.2409     8.8043     8.8430
   66.5000   131.6295     8.9297     8.9141
   67.0000   133.7275     9.0569     9.1668
   67.5000   136.1285     9.1860     9.2963
   68.0000   136.1198     9.4568     9.5594
   68.5000   134.9063     9.8521     9.8986
   69.0000   130.8976    10.2027    10.4656
   69.5000   122.5375    10.8633    11.0116
   70.0000   114.0951    10.9418    11.3787
   70.5000   109.8696    11.0210    11.6198
   71.0000   113.1742    11.1787    11.4607
   71.5000   117.0812    11.4170    11.3832
   72.0000   127.9799    11.6603    11.6299
   72.5000   129.1120    11.9917    11.9539
   73.0000   129.7058    11.9949    12.0389
   73.5000   129.6950    11.9151    12.1240
   74.0000   129.6863    11.8366    11.9583
   74.5000   128.7741    11.8398    11.9603
   75.0000   127.5584    11.8429    11.9623
   75.5000   127.5498    11.8461    11.9639
   76.0000   127.5411    11.8492    12.0489
   76.5000   126.0265    11.8531    12.0505
   77.0000   122.1021    11.7735    11.9686
   77.5000   118.4789    11.6151    11.5550
   78.0000   118.1670    11.0672    11.2467
   78.5000   119.0620    11.0701    11.1700
   79.0000   123.2702    11.0731    11.1718
   79.5000   125.0687    11.0767    11.1733
   80.0000   126.5661    11.0797    11.2527
   80.5000   129.2683    11.1598    11.2546
   81.0000   128.3539    11.2405    11.3345
   81.5000   121.4175    11.4007    11.4946
   82.0000   117.4932    11.4839    11.5762
   82.5000   116.2797    11.4067    11.5778
   83.0000   117.7771    11.2532    11.6601
   83.5000   124.3928    11.1003    11.5812
   84.0000   127.3962    11.0272    11.1870
   84.5000   129.4960    10.9538    11.0342
   85.0000   130.0919    10.8057    11.0360
   85.5000   130.0811    10.7338    10.8086
   86.0000   128.5181    10.5161    10.5151
   86.5000   124.6399    10.3739    10.2999
   87.0000   122.8240    10.2336    10.1592
   87.5000   122.5163    10.0260    10.0899
   88.0000   125.2164     9.9593    10.0915
   88.5000   125.2269     9.9620    10.1715
   89.0000   122.0844     9.9646    10.2354
   89.5000   119.1641     9.9673    10.0956
   90.0000   119.1555     9.9010     9.9579
   90.5000   122.7613     9.8351     9.8218
   91.0000   124.5599     9.8715     9.8916
   91.5000   124.5512     9.9089     9.8933
   92.0000   125.1428     9.7079     9.8258
   92.5000   128.1462     9.7105     9.7591
   93.0000   130.5472     9.7131     9.7607
   93.5000   132.3457     9.7163     9.7620
   94.0000   134.1443     9.7189     9.7633
   94.5000   133.4819     9.7214     9.7649
   95.0000   129.6068     9.7240     9.7662
   95.5000   123.5740     9.7266     9.8356
   96.0000   122.0593     9.7976     9.8369
   96.5000   122.6531     9.8002     9.8382
   97.0000   124.7529     9.8028     9.7714
   97.5000   124.7088     9.8054     9.7730
   98.0000   122.6250     9.8080     9.7743
   98.5000   117.4958     9.7428     9.7756
   99.0000   116.2824     9.6117     9.7092
   99.5000   119.2858     9.4817     9.5103
  100.0000   125.3010     9.0974     9.0606
  100.5000   128.9126     8.7906     8.6931
  101.0000   131.3193     8.4887     8.3986
  101.5000   129.8097     8.3224     8.1706
  102.0000   128.3008     8.2117     7.9493
  102.5000   127.3943     8.1573     7.8959
  103.0000   127.0903     8.0489     7.8985
  103.5000   126.7861     8.0528     8.0111
  104.0000   127.0838     8.0560     8.1253
  104.5000   129.7918     8.1719     8.2417
  105.0000   131.8973     8.2894     8.3013
  105.5000   132.4976     8.3512     8.3614
  106.0000   132.1767     8.4127     8.4806
  106.5000   129.4783     8.4160     8.5420
  107.0000   127.6683     8.4194     8.5448
  107.5000   127.6654     8.5404     8.5470
  108.0000   128.8673     8.6034     8.6089
  108.5000   132.4819     8.7279     8.7316
  109.0000   133.3797     8.8534     8.8631
  109.5000   131.2676     8.8569     8.9829
  110.0000   126.4455     8.9221     9.0479
  110.5000   124.9366     8.9349     9.0503
  111.0000   124.0301     9.0549     9.1158
  111.5000   126.4362     9.0585     9.1188
  112.0000   128.2405     9.0620     9.1212
  112.5000   128.5396     9.0656     9.1236
  113.0000   128.2348     9.0065     9.1260
  113.5000   127.3283     8.8858     9.1284
  114.0000   126.7230     8.8279     9.0676
  114.5000   130.6351     8.7103     8.9455
  115.0000   134.8491     8.7140     8.7633
  115.5000   138.4607     8.7182     8.8267
  116.0000   140.5662     8.7824     8.8324
  116.5000   139.1697     8.8471     8.9555
  117.0000   135.4393     8.9122     9.0203
  117.5000   134.8340     8.9780     9.0856
  118.0000   135.1331     8.9823     9.0880
  118.5000   134.2259     8.9858     9.0905
  119.0000   132.0723     8.9894     9.0934
  119.5000   131.5093     8.9929     9.0323
  120.0000   133.9153     8.9974     9.0352
  120.5000   139.0329     9.0009     9.0376
  121.0000   142.0421     8.9413     9.0401
  121.5000   142.9429     8.9458     8.9182
  122.0000   139.9272     8.8227     8.6161
  122.5000   135.4063     8.6483     8.3817
  123.0000   133.2950     8.5316     8.3844
  123.5000   133.5933     8.4760     8.3872
  124.0000   133.5261     8.4802     8.3308
  124.5000   128.3535     8.4766     8.2186
  125.0000   124.2469     8.4282     8.1633
  125.5000   124.6264     8.2586     8.0509
  126.0000   130.2645     8.0356     7.8353
  126.5000   131.1660     7.8187     7.6226
  127.0000   131.1624     7.4000     7.3133
  127.5000   128.7499     7.1010     7.1148
  128.0000   127.2329     6.9574     6.8650
  128.5000   126.3338     6.9602     6.5497
  129.0000   127.5357     6.9629     6.5515
  129.5000   128.7377     6.9175     6.6449
  130.0000   129.9396     6.9209     6.7866
  130.5000   132.0452     6.9719     6.9937
  131.0000   133.2471     7.1214     7.2790
  131.5000   132.9423     7.3303     7.4343
  132.0000   131.7346     7.6400     7.5403
  132.5000   129.6233     7.8582     7.6478
  133.0000   127.5120     8.0267     7.7036
  133.5000   127.2080     8.0299     7.8134
  134.0000   129.9152     8.0339     7.8155
  134.5000   132.3220     8.0370     7.8721
  135.0000   133.5246     8.0402     7.8196
  135.5000   134.4247     8.0994     7.8222
  136.0000   134.7230     8.0466     7.7696
  136.5000   132.6110     7.9941     7.7179
