~VERSION INFORMATION
 VERS.                2.0:   CWLS LOG ASCII STANDARD - VERSION 2.0
 WRAP.                 NO:   ONE LINE PER DEPTH STEP
~WELL INFORMATION
#MNEM.UNIT      DATA TYPE    INFORMATION
#----------   ------------   ------------------------------
 STRT.F            0.0000:   START DEPTH
 STOP.F          533.0000:   STOP DEPTH
 STEP.F            0.1000:   STEP LENGTH
 NULL.          -999.2500:   NO VALUE
 COMP.   FLUOR DANIEL INC:   COMPANY
 WELL.   84-4 X 10 #81-10:   WELL
 FLD .             TEAPOT:   FIELD
 LOC .      S10 T38N R78W:   LOCATION
 CNTY.            NATRONA:   COUNTY
 STAT.            WYOMING:   STATE
 CTRY. UNITED STATES OF AMERICA:   COUNTRY
 SRVC.     Atlas Wireline:   SERVICE COMPANY
 DATE.        25-SEP-1994:   LOGDATE
 API .       490252264000:   API NUMBER
~CURVE INFORMATION
#MNEM.UNIT       API CODE    CURVE DESCRIPTION
#----------   ------------   ------------------------------
 DEPT.F                  :   
 GRR .GAPI   07 310 01 00:   GAMMA RAY
 RILD.OHMM   07 120 46 00:   INDUCTION LOG DEEP RESISTIVITY
 RILM.OHMM   07 120 44 00:   INDUCTION LOG MEDIUM RESISTIVITY
~PARAMETER INFORMATION
#MNEM.UNIT          VALUE    DESCRIPTION
#----------   ------------   ------------------------------
 PD  .                 GL:   PERMANENT DATUM
 EPD .F              5150:   ELEVATION PERMANENT DATUM
 LMF .                 KB:   LOG MEASURED FROM
 DAPD.F                10:   FEET ABOVE PERMANENT DATUM
 DMF .                 KB:   DRILLING MEASURED FROM
 EKB .F              5160:   KELLING BUSHING
 EDF .F              5159:   DRILLING FLOOR
 EGL .F              5150:   GROUND LEVEL
 DATE.        25-SEP-1994:   RUN DATE
 RUN .                  1:   RUN NUMBER
 DD  .F               545:   DEPTH DRILLER
 DL  .F               541:   DEPTH LOGGER
 BLI .F               533:   BOTTOM LOG INTERVAL
 CS  .IN            9.625:   CASING SIZE
 CBD .F                76:   CASING BOTTOM DRILLER
 CBL .F                76:   CASING BOTTOM LOGGER
 BS  .IN             8.75:   BIT SIZE
 BSD .F               545:   BIT SIZE AT DEPTH
 DFT .                AIR:   DRILLING FLUID TYPE
 MRT .F                85:   MAXIMUM RECORDED TEMPERATURE
 LUN .            HL 6401:   LOGGING UNIT NUMBER
 LUL .         FT. MORGAN:   LOGGING UNIT LOCATION
 ENGI.    DAVE FREDERICKS:   RECORDING ENGINEER
 WITN.        GARY STRONG:   WITNESSED BY
 CLNT.            A2DTECH:   CLIENT CODE
 ORIG.           5' PRINT:   ORIGIN OF DATA
 UWI .       490252264000:   UNIQUE WELL ID
 DICO. A2D Technologies, Inc.:   DIGITIZING COMPANY
~OTHER INFORMATION
~A    DEPT      GRR      RILD       RILM   
# ...
  309.4000   137.5760     7.9725     8.2838
  309.5000   138.2569     7.9726     8.2357
  309.6000   139.2097     7.9727     8.2065
  309.7000   140.2382     7.9728     8.1967
  309.8000   141.1760     7.9730     8.1508
  309.9000   141.9474     7.9925     8.1513
  310.0000   142.7190     8.0397     8.1932
  310.1000   143.6268     8.0872     8.2420
  310.2000   144.2623     8.1408     8.2662
  310.3000   144.8677     8.1831     8.2831
  310.4000   145.3825     8.2315     8.3324
  310.5000   145.8218     8.2801     8.3828
  310.6000   146.0495     8.3290     8.4416
  310.7000   146.0508     8.3700     8.4419
  310.8000   146.0520     8.3701     8.4740
  310.9000   145.8568     8.4284     8.5476
  311.0000   145.6012     8.4285     8.6493
  311.1000   145.3456     8.4600     8.7466
  311.2000   145.0900     8.5100     8.8023
  311.3000   144.8194     8.5464     8.8999
  311.4000   144.2467     8.5466     8.9658
  311.5000   143.7946     8.5467     9.0502
  311.6000   143.1010     8.5930     9.1579
  311.7000   142.3318     8.6063     9.2542
  311.8000   141.4719     8.6064     9.3122
  311.9000   140.5819     8.6260     9.4367
  312.0000   140.3263     8.6665     9.4860
  312.1000   140.0256     8.6666     9.5032
  312.2000   139.8151     8.6667     9.5333
  312.3000   139.7257     8.6668     9.5702
  312.4000   139.6060     8.6669     9.5707
  312.5000   139.4260     8.6421     9.5713
  312.6000   139.3970     8.6074     9.5059
  312.7000   139.1264     8.5940     9.5063
  312.8000   138.8858     8.4892     9.4707
  312.9000   138.6302     8.3946     9.4156
  313.0000   138.3746     8.2967     9.3446
  313.1000   138.1190     8.1713     9.2422
  313.2000   137.8635     8.0285     9.1856
  313.3000   137.6079     7.8882     9.0341
  313.4000   137.3222     7.7474     8.8766
  313.5000   137.0967     7.5471     8.6617
  313.6000   136.8411     7.4305     8.3905
  313.7000   136.5855     7.2411     8.0993
  313.8000   136.5112     7.0315     7.8179
  313.9000   136.8145     6.8278     7.5184
  314.0000   137.3293     6.6299     7.2110
  314.1000   137.9350     6.4364     6.9375
  314.2000   138.5703     6.2607     6.7606
  314.3000   139.5082     6.1423     6.6425
  314.4000   140.5366     5.9998     6.5193
  314.5000   141.6406     5.8760     6.3677
  314.6000   142.8956     5.7828     6.1965
  314.7000   143.9844     5.7152     6.1058
  314.8000   145.4358     5.6435     5.9993
  314.9000   146.7812     5.6130     5.9114
  315.0000   148.0665     5.5802     5.8426
  315.1000   149.2460     5.5661     5.7837
  315.2000   150.3347     5.5661     5.7841
  315.3000   151.6202     5.5662     5.7844
  315.4000   153.0563     5.5663     5.7847
  315.5000   154.1905     5.5664     5.7851
  315.6000   155.4756     5.5664     5.7854
  315.7000   156.7607     5.5665     5.7857
  315.8000   157.9552     5.5666     5.7889
  315.9000   158.9837     5.5772     5.8265
  316.0000   160.0121     5.6101     5.8581
  316.1000   161.2220     5.6445     5.8930
  316.2000   162.0689     5.6766     5.9282
  316.3000   162.9312     5.7101     5.9500
  316.4000   163.5819     5.7234     5.9650
  316.5000   163.7190     5.7525     6.0359
  316.6000   162.8595     5.8120     6.1181
  316.7000   161.2291     5.8463     6.1493
  316.8000   159.7803     5.8845     6.2109
  316.9000   158.4368     5.9156     6.3037
  317.0000   156.7009     5.9757     6.4163
  317.1000   154.7535     6.0273     6.5491
  317.2000   152.7151     6.1018     6.7895
  317.3000   149.8922     6.2334     7.0778
  317.4000   146.7361     6.3072     7.3179
  317.5000   144.9246     6.4842     7.6553
  317.6000   142.8714     6.6115     7.9378
  317.7000   140.5463     6.7690     8.1680
  317.8000   138.2514     6.9301     8.5006
  317.9000   136.4550     7.1072     8.7741
  318.0000   134.6586     7.3091     9.0175
  318.1000   134.0558     7.4481     9.2054
  318.2000   133.8454     7.6136     9.3699
  318.3000   133.7559     7.7603     9.5148
  318.4000   133.7571     7.9255     9.6279
  318.5000   133.8338     8.0949     9.7424
  318.6000   134.0616     8.2496     9.8733
  318.7000   134.0629     8.4456     9.9757
  318.8000   134.0640     8.6746    10.0530
  318.9000   134.0652     8.8530    10.1442
  319.0000   134.2175     9.0271    10.2439
  319.1000   134.3698     9.1878    10.3049
  319.2000   134.3710     9.3331    10.3667
  319.3000   134.3873     9.4352    10.4393
  319.4000   134.6757     9.4926    10.4903
  319.5000   134.6767     9.6017    10.5129
  319.6000   134.8593     9.6702    10.5425
  319.7000   134.9813     9.7627    10.5870
  319.8000   135.0731     9.8528    10.5876
  319.9000   135.3311     9.9110    10.5882
  320.0000   135.5891     9.9742    10.5888
  320.1000   135.8927    10.1040    10.5894
  320.2000   136.1051    10.1578    10.5900
  320.3000   136.1970    10.2178    10.5906
  320.4000   136.3190    10.2454    10.5911
  320.5000   136.5015    10.2676    10.5917
  320.6000   136.5027    10.3282    10.5924
  320.7000   136.5040    10.3892    10.5929
  320.8000   136.5051    10.4611    10.5935
  320.9000   136.3100    10.4612    10.5941
  321.0000   136.0544    10.5015    10.5947
  321.1000   135.6930    10.5342    10.5952
  321.2000   135.1807    10.5343    10.5958
  321.3000   134.6833    10.5345    10.5965
  321.4000   134.3977    10.5346    10.5970
  321.5000   134.1722    10.5347    10.5976
  321.6000   133.7354    10.5349    10.6284
  321.7000   133.3589    10.5712    10.6724
  321.8000   133.1033    10.6337    10.6813
  321.9000   132.8928    10.6823    10.7477
  322.0000   132.8943    10.6854    10.8090
  322.1000   133.1978    10.7568    10.8734
  322.2000   133.4103    10.8121    10.9382
  322.3000   134.0005    10.8318    11.0314
  322.4000   134.7721    10.8647    11.1458
  322.5000   135.5438    10.9289    11.2174
  322.6000   136.2851    11.0036    11.3639
  322.7000   136.8303    11.1367    11.4861
  322.8000   137.7981    11.2657    11.5730
  322.9000   138.6302    11.3991    11.7184
  323.0000   139.4018    11.5341    11.8745
  323.1000   140.0676    11.6706    11.9738
  323.2000   140.5824    11.8272    12.1875
  323.3000   141.0671    12.0375    12.4384
  323.4000   141.0684    12.2717    12.6275
  323.5000   141.0695    12.4036    12.8533
  323.6000   141.0707    12.6048    13.1220
  323.7000   140.9359    12.7874    13.4352
  323.8000   140.4989    12.9674    13.7680
  323.9000   139.7299    13.1676    14.1908
  324.0000   138.9607    13.2478    14.4377
  324.1000   138.0558    13.5223    14.6960
  324.2000   137.4223    13.5893    14.9037
  324.3000   136.1546    13.7229    15.0810
  324.4000   134.4942    13.8853    15.2603
  324.5000   132.6222    14.0496    15.4417
  324.6000   130.5085    14.2158    15.6404
  324.7000   127.7910    14.3931    15.7261
  324.8000   125.6172    14.5544    15.8198
  324.9000   123.6996    14.6603    15.9141
  325.0000   121.1480    14.8502    16.0090
  325.1000   118.0678    15.0410    16.1043
  325.2000   115.0474    15.1507    16.2003
  325.3000   112.2094    15.3299    16.3099
  325.4000   108.7663    15.5339    16.3940
  325.5000   106.7281    15.6143    16.4917
  325.6000   104.0558    15.7714    16.5900
  325.7000   101.6400    15.9092    16.6888
  325.8000    99.4961    16.0355    16.8045
  325.9000    97.2315    16.2252    17.0068
  326.0000    95.1783    16.4201    17.1260
  326.1000    93.0649    16.6494    17.2916
  326.2000    92.0084    16.7287    17.4317
  326.3000    91.2241    16.8276    17.5356
  326.4000    90.9535    16.9720    17.6401
  326.5000    90.8037    17.1453    17.7452
  326.6000    90.3214    17.2465    17.8579
  326.7000    90.0508    17.3572    17.9573
  326.8000    89.8103    17.5452    18.0644
  326.9000    89.7511    17.7530    18.1721
  327.0000    89.6012    17.8454    18.2803
  327.1000    89.4514    17.9258    18.3892
  327.2000    89.4526    18.1162    18.4988
  327.3000    89.4538    18.2232    18.6222
  327.4000    89.4551    18.3477    18.6231
  327.5000    89.4562    18.5313    18.7798
