~VERSION INFORMATION
 VERS.                2.0:   CWLS LOG ASCII STANDARD - VERSION 2.0
 WRAP.                 NO:   ONE LINE PER DEPTH STEP
~WELL INFORMATION
#MNEM.UNIT      DATA TYPE    INFORMATION
#----------   ------------   ------------------------------
 STRT.F           40.0000:   START DEPTH
 STOP.F          821.0000:   STOP DEPTH
 STEP.F            0.5000:   STEP LENGTH
 NULL.          -999.2500:   NO VALUE
 COMP. FENIX & SCISSON INC:   COMPANY
 WELL. NPR 3 -68 SX #68-27:   WELL
 FLD .             TEAPOT:   FIELD
 LOC .      S27 T39N R78W:   LOCATION
 CNTY.            NATRONA:   COUNTY
 STAT.            WYOMING:   STATE
 CTRY. UNITED STATES OF AMERICA:   COUNTRY
 SRVC.           BIRDWELL:   SERVICE COMPANY
 DATE.        11-SEP-1978:   LOGDATE
 API .       490251069500:   API NUMBER
~CURVE INFORMATION
#MNEM.UNIT       API CODE    CURVE DESCRIPTION
#----------   ------------   ------------------------------
 DEPT.F                  :   
 SPR .MV     05 010 01 00:   SPONTANEOUS POTENTIAL FROM RES.
 SN  .OHMM   05 040 16 00:   SHORT NORMAL 16"
 ILD .OHMM   05 120 46 00:   INDUCTION LOG DEEP
 GRD .GAPI   45 310 01 00:   GAMMA RAY FROM DENSITY LOG
 CALD.IN     45 280 60 00:   CALIPER
 RHOB.G/C3   45 350 01 00:   BULK DENSITY
 CORR.G/C3   45 356 01 00:   DENSITY CORRECTION
 DPHI.DEC    45 890 12 00:   DENSITY POROSITY SANDSTONE
~PARAMETER INFORMATION
#MNEM.UNIT          VALUE    DESCRIPTION
#----------   ------------   ------------------------------
 PD  .                 GL:   PERMANENT DATUM
 EPD .F              5032:   ELEVATION PERMANENT DATUM
 LMF .                 GL:   LOG MEASURED FROM
 DAPD.F                 4:   FEET ABOVE PERMANENT DATUM
 DMF .                 GL:   DRILLING MEASURED FROM
 EKB .F              5036:   KELLING BUSHING
 EGL .F              5032:   GROUND LEVEL
 DATE.            9-11-78:   RUN DATE
 RUN .                  1:   RUN NUMBER
 DD  .F               820:   DEPTH DRILLER
 DL  .F               822:   DEPTH LOGGER
 BLI .F               818:   BOTTOM LOG INTERVAL
 TLI .F                40:   TOP LOG INTERVAL
 CS  .IN            8.625:   CASING SIZE
 CBD .F                40:   CASING BOTTOM DRILLER
 CBL .F                40:   CASING BOTTOM LOGGER
 BS  .IN            7.875:   BIT SIZE
 BSD .F               820:   BIT SIZE AT DEPTH
 DFT .                KCL:   DRILLING FLUID TYPE
 DFD .                8.6:   DRILLING FLUID DENSITY
 DFV .                 34:   DRILLING FLUID VISCOSITY
 DFPH.                  9:   DRILLING FLUID PH
 DFL .                  8:   DRILLING FLUID LOSS
 MSS .           FLOWLINE:   MUD SAMPLE SOURCE
 RMS .OHMM            .24:   RESISTIVITY MUD SAMPLE
 MST .F                62:   MUD SAMPLE TEMPERATURE
 RMF .OHMM            .18:   RESISTIVITY MUD FILTRATE SAMPLE
 MFST.F                64:   MUD FILTRATE SAMPLE TEMPERATURE
 RMC .OHMM             .3:   RESISTIVITY MUD CAKE
 MCST.F                66:   MUD CAKE SAMPLE TEMPERATURE
 MFSS.               MEAS:   MUD FILTRATE SAMPLE SOURCE
 MCSS.               MEAS:   MUD CAKE SAMPLE SOURCE
 RMB .OHMM            .22:   RESISTIVITY MUD AT BHT
 BHT .F                68:   BOTTOM HOLE TEMPERATURE
 TCS .HRS               1:   TIME CURCULATED STOPPED
 MRT .F                68:   MAXIMUM RECORDED TEMPERATURE
 LUN .               3006:   LOGGING UNIT NUMBER
 LUL .               CASP:   LOGGING UNIT LOCATION
 ENGI.            POINTER:   RECORDING ENGINEER
 WITN.              AMEND:   WITNESSED BY
 CLNT.            A2DTECH:   CLIENT CODE
 ORIG.           5" PRINT:   ORIGIN OF DATA
 UWI .       490251069500:   UNIQUE WELL ID
 DICO. A2D Technologies, Inc.:   DIGITIZING COMPANY
~OTHER INFORMATION
~A   DEPT       SPR        SN        ILD         GRD        CALD     RHOB       CORR       DPHI   
# ...
  121.0000   -40.0338     5.7013     5.5372    80.3671     7.8956     2.4009     0.0011     0.1724
  121.5000   -40.0638     5.6699     5.5222    80.5880     7.8602     2.3950    -0.0002     0.1761
  122.0000   -40.0943     5.5191     5.4707    82.8468     7.8248     2.3832     0.0020     0.1832
  122.5000   -40.1255     5.3471     5.2031    85.7365     7.7894     2.3546     0.0042     0.2056
  123.0000   -40.1556     5.1804     4.9487    88.6160     7.7540     2.3222     0.0063     0.2279
  123.5000   -40.1372     5.0190     4.5438    91.2004     7.7186     2.2898     0.0085     0.2503
  124.0000   -39.8678     4.7801     4.1301    91.0972     7.6831     2.2564     0.0106     0.2564
  124.5000   -39.6017     4.5202     3.7541    90.0076     7.6470     2.2792     0.0110     0.2626
  125.0000   -39.3381     4.2743     3.6122    88.9410     7.6118     2.3128     0.0104     0.2630
  125.5000   -39.1766     4.0418     3.6432    88.4097     7.6211     2.3466     0.0096     0.2484
  126.0000   -39.1786     3.8220     3.6692    90.3094     7.6342     2.3720     0.0086     0.2055
  126.5000   -39.1782     3.7823     3.6954    92.4065     7.6470     2.3888     0.0075     0.1815
  127.0000   -39.1784     3.8172     3.7218    88.4799     7.6598     2.3933     0.0064     0.1791
  127.5000   -39.1784     3.8881     3.7476    85.1215     7.6726     2.3936     0.0053     0.1799
  128.0000   -39.1784     4.3126     3.9203    84.6777     7.6853     2.3939     0.0041     0.1787
  128.5000   -39.1784     4.8314     4.3937    85.1102     7.6981     2.3960     0.0030     0.1758
  129.0000   -39.1783     5.0772     4.8935    83.4105     7.7108     2.4005     0.0019     0.1729
  129.5000   -39.1786     5.0905     4.9846    80.3528     7.7236     2.4051     0.0018     0.1700
  130.0000   -39.1766     5.1033     5.0174    80.7956     7.7351     2.4096     0.0025     0.1670
  130.5000   -39.2868     5.1161     5.0311    83.1054     7.7454     2.4129     0.0031     0.1651
  131.0000   -39.4462     5.1289     5.0223    83.1247     7.7556     2.4092     0.0038     0.1643
  131.5000   -39.6076     5.1417     5.0141    81.3024     7.7659     2.4023     0.0045     0.1696
  132.0000   -39.7690     5.1546     5.0061    79.6654     7.7762     2.3954     0.0052     0.1754
  132.5000   -39.9327     5.1672     4.9980    83.4955     7.7864     2.3895     0.0058     0.1813
  133.0000   -39.9617     5.1725     4.9902    99.3783     7.7967     2.3871     0.0065     0.1825
  133.5000   -39.9376     5.0691     4.9467    97.1554     7.8070     2.3801     0.0072     0.1823
  134.0000   -39.9122     4.9917     4.8224    94.2298     7.8308     2.3662     0.0079     0.1965
  134.5000   -39.8869     4.9153     4.7012    91.2668     7.8725     2.3454     0.0086     0.2103
  135.0000   -39.8617     4.8239     4.5830    90.2172     7.9142     2.3247     0.0092     0.2240
  135.5000   -39.8367     4.6191     4.4193    93.0131     7.9558     2.3040     0.0114     0.2377
  136.0000   -39.8103     4.4229     4.1655    91.4744     7.9975     2.2795     0.0157     0.2457
  136.5000   -39.8004     4.2351     3.9267    90.3590     8.0392     2.2983     0.0259     0.2479
  137.0000   -39.1223     4.0551     3.6993    92.9979     8.0807     2.3372     0.0316     0.2383
  137.5000   -38.9175     3.8831     3.6127    95.7815     8.1106     2.3759     0.0287     0.2291
  138.0000   -38.4857     3.7174     3.5464    96.0981     8.1093     2.4147     0.0245     0.2095
  138.5000   -37.7393     3.7134     3.5464    95.5427     8.1068     2.4338     0.0203     0.1733
  139.0000   -37.6446     3.7120     3.6781    94.0460     8.1042     2.4333     0.0162     0.1532
  139.5000   -37.5915     3.9138     3.7979    92.9786     8.1018     2.4326     0.0124     0.1559
  140.0000   -37.6412     4.0932     3.9241    93.3810     8.0992     2.4331     0.0106     0.1584
  140.5000   -37.6886     4.4409     4.1248    93.5888     8.0968     2.4377     0.0089     0.1545
  141.0000   -37.7365     4.8183     4.3422    91.4490     8.0944     2.4402     0.0071     0.1500
  141.5000   -37.7804     5.2276     4.7964    87.9528     8.0916     2.4356     0.0054     0.1463
  142.0000   -38.0146     5.6699     5.2046    84.4015     8.0709     2.4313     0.0037     0.1463
  142.5000   -38.6226     5.8825     5.6180    83.2288     8.0034     2.4269     0.0019     0.1537
  143.0000   -39.0969     5.9349     5.7223    85.8366     7.9367     2.4216     0.0002     0.1633
  143.5000   -39.3785     5.9391     5.7024    92.8879     7.8699     2.4090    -0.0015     0.1691
  144.0000   -39.6624     5.9213     5.6831    97.3044     7.8031     2.3965    -0.0033     0.1704
  144.5000   -39.9457     5.9063     5.6637    96.1671     7.7278     2.3814    -0.0040     0.1774
  145.0000   -40.2302     5.8916     5.6448    94.9405     7.7022     2.3665    -0.0020     0.1945
  145.5000   -40.5143     5.8882     5.6248    94.1023     7.6775     2.3461     0.0003     0.2117
  146.0000   -40.7721     5.7820     5.3716    93.3863     7.6524     2.3190     0.0025     0.2285
  146.5000   -40.5003     5.5643     4.9619    92.5946     7.6275     2.2928     0.0047     0.2519
  147.0000   -39.8701     5.3182     4.5833    92.1289     7.6090     2.2706     0.0069     0.2526
  147.5000   -39.2458     4.9754     4.2323    91.9973     7.6451     2.2696     0.0091     0.2443
  148.0000   -38.6195     4.6596     3.9583    91.8680     7.6949     2.3224     0.0111     0.2223
  148.5000   -37.9937     4.3630     3.9608    91.8079     7.7451     2.3624     0.0176     0.1934
  149.0000   -37.3602     4.1088     3.9604    90.0084     7.7949     2.3842     0.0261     0.1814
  149.5000   -37.1754     4.1088     3.9942    87.7447     7.8307     2.3985     0.0351     0.1717
  150.0000   -37.1688     4.2294     4.0439    86.7134     7.8281     2.4129     0.0318     0.1655
  150.5000   -37.1833     4.4089     4.0942    87.0938     7.8241     2.4217     0.0240     0.1631
  151.0000   -38.1962     4.5960     4.2179    87.4601     7.8201     2.4248     0.0161     0.1606
  151.5000   -39.0958     4.7911     4.5137    87.8265     7.8162     2.4286     0.0082     0.1591
  152.0000   -39.4257     4.9944     4.8302    86.1378     7.8123     2.4337     0.0003     0.1543
  152.5000   -39.7670     5.2181     5.0307    85.2485     7.8083     2.4361     0.0022     0.1507
  153.0000   -39.8418     5.3064     5.0792    88.8026     7.8044     2.4289     0.0052     0.1528
  153.5000   -39.9034     5.3991     5.0657    88.2182     7.8004     2.4209     0.0082     0.1583
  154.0000   -39.9662     5.4932     5.0442    87.6610     7.7965     2.4128     0.0112     0.1638
  154.5000   -40.0294     5.5665     5.0229    87.5973     7.7926     2.4091     0.0109     0.1694
  155.0000   -40.0927     5.5156     5.0018    90.5093     7.7886     2.4095     0.0102     0.1707
  155.5000   -40.1559     5.4650     4.9807    88.5394     7.7847     2.4099     0.0096     0.1707
  156.0000   -40.2193     5.3546     4.9598    85.5971     7.7807     2.4087     0.0126     0.1707
  156.5000   -40.2825     5.2180     4.9390    83.3779     7.7767     2.3964     0.0161     0.1707
  157.0000   -40.3451     5.0849     4.8545    84.7971     7.7724     2.3772     0.0196     0.1738
  157.5000   -40.3555     4.9551     4.6720    87.2945     7.7729     2.3571     0.0231     0.1781
  158.0000   -40.2970     4.8287     4.4964    88.6650     7.8369     2.3372     0.0217     0.1860
  158.5000   -40.2394     4.7055     4.3274    86.3823     7.9006     2.3261     0.0200     0.2202
  159.0000   -40.1815     4.5854     4.1648    86.0143     7.9634     2.3294     0.0172     0.2192
  159.5000   -40.1236     4.4684     4.0688    85.1882     8.0093     2.3478     0.0143     0.2171
  160.0000   -40.0657     4.3544     4.0694    83.4765     8.0008     2.3685     0.0115     0.2137
  160.5000   -40.0063     4.2433     4.0720    82.1271     7.9933     2.3834     0.0094     0.1967
  161.0000   -39.9837     4.1350     4.0084    85.3780     7.9859     2.3783     0.0091     0.1799
