~VERSION INFORMATION
 VERS.                2.0:   CWLS LOG ASCII STANDARD - VERSION 2.0
 WRAP.                 NO:   ONE LINE PER DEPTH STEP
~WELL INFORMATION
#MNEM.UNIT      DATA TYPE    INFORMATION
#----------   ------------   ------------------------------
 STRT.F           30.0000:   START DEPTH
 STOP.F          626.0000:   STOP DEPTH
 STEP.F            0.5000:   STEP LENGTH
 NULL.          -999.2500:   NO VALUE
 COMP.       F D SERV INC:   COMPANY
 WELL.    63-2 SX-3 #63-3:   WELL
 FLD .             TEAPOT:   FIELD
 LOC .       S3 T38N R78W:   LOCATION
 CNTY.            NATRONA:   COUNTY
 STAT.            WYOMING:   STATE
 CTRY. UNITED STATES OF AMERICA:   COUNTRY
 SRVC.     Atlas Wireline:   SERVICE COMPANY
 DATE.        29-APR-1992:   LOGDATE
 API .       490252251900:   API NUMBER
~CURVE INFORMATION
#MNEM.UNIT       API CODE    CURVE DESCRIPTION
#----------   ------------   ------------------------------
 DEPT.F                  :   
 CALD.IN     45 280 60 00:   CALIPER FROM DENSITY
 CORR.G/C3   45 356 01 00:   DENSITY CORRECTION
 DEN .G/C3   45 350 01 00:   COMPENSATED BULK DENSTIY
 GRD .GAPI   45 310 01 00:   GAMMA RAY FROM DENSITY LOG
 PORD.DEC    45 890 12 00:   POROSITY DENSITY SANDSTONE
 RILD.OHMM   07 120 46 00:   INDUCTION LOG DEEP RESISTIVITY
 RILM.OHMM   07 120 44 00:   INDUCTION LOG MEDIUM RESISTIVITY
~PARAMETER INFORMATION
#MNEM.UNIT          VALUE    DESCRIPTION
#----------   ------------   ------------------------------
 PD  .                 GL:   PERMANENT DATUM
 EPD .F              5160:   ELEVATION PERMANENT DATUM
 LMF .                 KB:   LOG MEASURED FROM
 DAPD.F                 5:   FEET ABOVE PERMANENT DATUM
 DMF .                 KB:   DRILLING MEASURED FROM
 EKB .F              5165:   KELLING BUSHING
 EGL .F              5160:   GROUND LEVEL
 DATE.        29-APR-1992:   RUN DATE
 RUN .                  1:   RUN NUMBER
 DD  .F               630:   DEPTH DRILLER
 DL  .F               629:   DEPTH LOGGER
 BLI .F               626:   BOTTOM LOG INTERVAL
 CS  .IN            8.625:   CASING SIZE
 CBD .F                45:   CASING BOTTOM DRILLER
 CBL .F                45:   CASING BOTTOM LOGGER
 BS  .IN            7.875:   BIT SIZE
 BSD .F               630:   BIT SIZE AT DEPTH
 DFT .                AIR:   DRILLING FLUID TYPE
 LUN .            HL-6212:   LOGGING UNIT NUMBER
 LUL .             CASPER:   LOGGING UNIT LOCATION
 ENGI.             ZIEGEN:   RECORDING ENGINEER
 WITN.             STRONG:   WITNESSED BY
 CLNT.            A2DTECH:   CLIENT CODE
 ORIG.           5" PRINT:   ORIGIN OF DATA
 UWI .       490252251900:   UNIQUE WELL ID
 DICO. A2D Technologies, Inc.:   DIGITIZING COMPANY
~OTHER INFORMATION
~A   DEPT     CALD       CORR        DEN        GRD       PORD       RILD       RILM   
   30.0000  -999.2500  -999.2500  -999.2500   121.1480  -999.2500  -999.2500  -999.2500
   30.5000  -999.2500  -999.2500  -999.2500   121.1480  -999.2500  -999.2500  -999.2500
   31.0000  -999.2500  -999.2500  -999.2500   121.7523  -999.2500  -999.2500  -999.2500
   31.5000  -999.2500  -999.2500  -999.2500   121.7523  -999.2500  -999.2500  -999.2500
   32.0000  -999.2500  -999.2500  -999.2500   121.7523  -999.2500  -999.2500  -999.2500
   32.5000  -999.2500  -999.2500  -999.2500   121.7523  -999.2500  -999.2500  -999.2500
   33.0000  -999.2500  -999.2500  -999.2500   121.7523  -999.2500  -999.2500  -999.2500
   33.5000  -999.2500  -999.2500  -999.2500   122.0544  -999.2500  -999.2500  -999.2500
   34.0000  -999.2500  -999.2500  -999.2500   123.8671  -999.2500  -999.2500  -999.2500
   34.5000  -999.2500  -999.2500  -999.2500   125.6798  -999.2500  -999.2500  -999.2500
   35.0000  -999.2500  -999.2500  -999.2500   126.2840  -999.2500  -999.2500  -999.2500
   35.5000  -999.2500  -999.2500  -999.2500   125.3776  -999.2500  -999.2500  -999.2500
   36.0000  -999.2500  -999.2500  -999.2500   123.8671  -999.2500  -999.2500  -999.2500
   36.5000  -999.2500  -999.2500  -999.2500   123.5650  -999.2500  -999.2500  -999.2500
   37.0000  -999.2500  -999.2500  -999.2500   123.8671  -999.2500  -999.2500  -999.2500
   37.5000  -999.2500  -999.2500  -999.2500   124.1692  -999.2500  -999.2500  -999.2500
   38.0000  -999.2500  -999.2500  -999.2500   127.4924  -999.2500  -999.2500  -999.2500
   38.5000  -999.2500  -999.2500  -999.2500   132.0242  -999.2500  -999.2500  -999.2500
   39.0000  -999.2500  -999.2500  -999.2500   132.3465  -999.2500  -999.2500  -999.2500
   39.5000  -999.2500  -999.2500  -999.2500   128.3988  -999.2500  -999.2500  -999.2500
   40.0000  -999.2500  -999.2500  -999.2500   125.3776  -999.2500  -999.2500  -999.2500
   40.5000  -999.2500  -999.2500  -999.2500   124.1692  -999.2500  -999.2500  -999.2500
   41.0000  -999.2500  -999.2500  -999.2500   127.2105  -999.2500  -999.2500  -999.2500
   41.5000  -999.2500  -999.2500  -999.2500   127.7946  -999.2500  -999.2500  -999.2500
   42.0000  -999.2500  -999.2500  -999.2500   125.9014  -999.2500  -999.2500  -999.2500
   42.5000  -999.2500  -999.2500  -999.2500   124.1692  -999.2500  -999.2500  -999.2500
   43.0000  -999.2500  -999.2500  -999.2500   125.9819  -999.2500  -999.2500  -999.2500
   43.5000  -999.2500  -999.2500  -999.2500   128.0967  -999.2500  -999.2500  -999.2500
   44.0000  -999.2500  -999.2500  -999.2500   129.0030  -999.2500  -999.2500  -999.2500
   44.5000  -999.2500  -999.2500  -999.2500   129.3051  -999.2500  -999.2500  -999.2500
   45.0000  -999.2500  -999.2500  -999.2500   129.3051  -999.2500  -999.2500  -999.2500
   45.5000  -999.2500  -999.2500  -999.2500   129.0030  -999.2500  -999.2500  -999.2500
   46.0000  -999.2500  -999.2500  -999.2500   128.3988  -999.2500  -999.2500  -999.2500
   46.5000  -999.2500  -999.2500  -999.2500   132.6284  -999.2500  -999.2500  -999.2500
   47.0000  -999.2500  -999.2500  -999.2500   141.3897  -999.2500  -999.2500  -999.2500
   47.5000  -999.2500  -999.2500  -999.2500   159.8187  -999.2500  -999.2500  -999.2500
   48.0000     8.2649     0.0101     2.5033   173.1118     0.0957  -999.2500  -999.2500
   48.5000     8.2643     0.0099     2.4913   176.1329     0.1038  -999.2500  -999.2500
   49.0000     8.2637     0.0011     2.4687   176.4350     0.1131     1.2675     8.3946
   49.5000     8.2629     0.0041     2.4642   175.2266     0.1083     1.3397     3.6985
   50.0000     8.2623     0.0072     2.4717   174.9245     0.1065     2.9448     2.3711
   50.5000     8.2921    -0.0003     2.4650   176.4212     0.1134    18.9216     3.0306
   51.0000     8.3066    -0.0033     2.4537   176.4093     0.1182    34.8983     3.8877
   51.5000     8.3210    -0.0048     2.4492   177.3038     0.1161    50.8750     4.0164
   52.0000     8.3203    -0.0018     2.4568   178.8025     0.1101    50.1191     4.5170
   52.5000     8.3197    -0.0002     2.4651   181.5097     0.1085    21.1876     5.3865
   53.0000     8.3040    -0.0017     2.4704   183.3105     0.1073     8.3631     5.8391
   53.5000     8.3034    -0.0017     2.4711   182.3923     0.1052     8.8393     5.5992
   54.0000     8.2878    -0.0016     2.4764   178.1508     0.1046     9.3428     5.2584
   54.5000     8.2721    -0.0001     2.4765   177.2287     0.1085     9.3415     5.6351
   55.0000     8.2564     0.0044     2.4658   179.3757     0.1121     9.2114     7.1342
   55.5000     8.2558     0.0093     2.4622   181.1364     0.1133     8.8345     7.5403
   56.0000     8.3003     0.0151     2.4787   181.1215     0.1000     8.1274     7.2805
   56.5000     8.3150     0.0151     2.4901   179.9012     0.0955     7.5814     7.1283
   57.0000     8.2992     0.0106     2.4932   177.7745     0.0949     7.1709     6.9794
   57.5000     8.2986     0.0046     2.4864   176.2521     0.0964     7.0711     6.9292
   58.0000     8.2980     0.0001     2.4834   178.9593     0.0988     7.0701     6.9273
   58.5000     8.2974    -0.0014     2.4812   180.7601     0.1024     7.1219     6.9737
   59.0000     8.2968    -0.0029     2.4797   181.0533     0.1039     7.2671     7.0693
   59.5000     8.2962    -0.0073     2.4774   180.1321     0.1051     7.3327     7.2161
   60.0000     8.2504    -0.0088     2.4767   177.4012     0.1051     7.5738     7.3665
   60.5000     8.2347    -0.0118     2.4760   174.6703     0.1042     7.6789     7.5720
   61.0000     8.2495    -0.0103     2.4775   173.1479     0.1030     7.8391     7.7293
   61.5000     8.2787    -0.0072     2.4813   173.7463     0.0996     7.8929     7.7810
   62.0000     8.2958    -0.0072     2.4858   174.0305     0.0978     7.8916     7.7784
   62.5000     8.3227    -0.0072     2.4812   172.8097     0.1000     8.0568     7.7762
   63.0000     8.3070    -0.0056     2.4766   174.6080     0.1042     7.9997     7.6668
   63.5000     8.3064    -0.0056     2.4746   177.9194     0.1059     7.7257     7.5590
   64.0000     8.2907    -0.0056     2.4784   181.5329     0.1029     7.4612     7.3498
   64.5000     8.3054    -0.0055     2.4807   183.9380     0.1008     7.3065     7.1963
   65.0000     8.2895    -0.0055     2.4800   182.4155     0.1023     7.1549     7.1445
   65.5000     8.3042    -0.0070     2.4762   179.6846     0.1059     7.0553     7.0915
   66.0000     8.3034    -0.0085     2.4702   177.2559     0.1077     7.0543     6.9933
   66.5000     8.3028    -0.0099     2.4710   176.3376     0.1083     7.0534     6.9429
   67.0000     8.3023    -0.0069     2.4718   178.4406     0.1065     7.0524     6.8929
   67.5000     8.3017    -0.0053     2.4725   181.4498     0.1056     7.0514     6.8910
   68.0000     8.3011    -0.0008     2.4733   182.6466     0.1049     7.0505     6.8887
   68.5000     8.3005    -0.0008     2.4748   181.7000     0.1034     7.0986     6.8869
   69.0000     8.2997    -0.0007     2.4794   180.8100     0.1019     7.0976     6.9334
   69.5000     8.2841    -0.0007     2.4847   184.4206     0.0995     7.0966     6.9310
   70.0000     8.2835    -0.0022     2.4856   187.1277     0.0977     7.0957     6.9291
   70.5000     8.2829    -0.0021     2.4847   188.3243     0.0971     7.0947     6.9272
   71.0000     8.2672    -0.0021     2.4840   187.7082     0.0980     7.0937     6.9253
   71.5000     8.2666     0.0009     2.4840   182.8625     0.0998     7.1421     7.0202
   72.0000     8.2811    -0.0006     2.4840   177.4126     0.1001     7.1409     7.0677
   72.5000     8.2805    -0.0020     2.4841   175.8931     0.1006     7.1899     7.0653
   73.0000     8.2820    -0.0050     2.4811   178.8994     0.1021     7.1887     6.9659
   73.5000     8.2793    -0.0065     2.4728   181.0024     0.1073     7.1877     6.9158
   74.0000     8.2637    -0.0004     2.4630   177.6673     0.1133     7.1867     6.9139
   74.5000     8.2480     0.0041     2.4585   176.9849     0.1154     7.1857     6.9120
   75.0000     8.2474     0.0041     2.4691   182.7794     0.1093     7.1847     6.9101
