~VERSION INFORMATION
 VERS.                2.0:   CWLS LOG ASCII STANDARD - VERSION 2.0
 WRAP.                 NO:   ONE LINE PER DEPTH STEP
~WELL INFORMATION
#MNEM.UNIT      DATA TYPE    INFORMATION
#----------   ------------   ------------------------------
 STRT.F           19.0000:   START DEPTH
 STOP.F          600.0000:   STOP DEPTH
 STEP.F            0.5000:   STEP LENGTH
 NULL.          -999.2500:   NO VALUE
 COMP. FENIX & SCISSON INC:   COMPANY
 WELL.       NPR-3 #18-34:   WELL
 FLD .             TEAPOT:   FIELD
 LOC .      S34 T39N R78W:   LOCATION
 CNTY.            NATRONA:   COUNTY
 STAT.            WYOMING:   STATE
 CTRY. UNITED STATES OF AMERICA:   COUNTRY
 SRVC.           BIRDWELL:   SERVICE COMPANY
 DATE.        10-AUG-1978:   LOGDATE
 API .       490251068100:   API NUMBER
~CURVE INFORMATION
#MNEM.UNIT       API CODE    CURVE DESCRIPTION
#----------   ------------   ------------------------------
 DEPT.F                  :   
 SPR .MV     05 010 01 00:   SPONTANEOUS POTENTIAL FROM RES.
 SN  .OHMM   05 040 16 00:   SHORT NORMAL 16"
 ILD .OHMM   05 120 46 00:   INDUCTION LOG DEEP
 GRD .GAPI   45 310 01 00:   GAMMA RAY FROM DENSITY LOG
 CALD.IN     45 280 60 00:   CALIPER
 CORR.G/C3   45 356 01 00:   DENSITY CORRECTION
 DPHI.DEC    45 890 12 00:   DENSITY POROSITY SANDSTONE
 DEN .G/C3   45 350 01 00:   COMPENSATED BULK DENSTIY
~PARAMETER INFORMATION
#MNEM.UNIT          VALUE    DESCRIPTION
#----------   ------------   ------------------------------
 PD  .                 GL:   PERMANENT DATUM
 EPD .F              5159:   ELEVATION PERMANENT DATUM
 LMF .                 KB:   LOG MEASURED FROM
 DAPD.F                 4:   FEET ABOVE PERMANENT DATUM
 DMF .                 KB:   DRILLING MEASURED FROM
 EKB .F              5163:   KELLING BUSHING
 EGL .F              5159:   GROUND LEVEL
 DATE.            8-10-78:   RUN DATE
 RUN .                  1:   RUN NUMBER
 DD  .F               605:   DEPTH DRILLER
 DL  .F               606:   DEPTH LOGGER
 BLI .F               600:   BOTTOM LOG INTERVAL
 TLI .F                35:   TOP LOG INTERVAL
 CS  .IN            8.625:   CASING SIZE
 CBD .F                40:   CASING BOTTOM DRILLER
 BS  .IN            7.875:   BIT SIZE
 BSD .F               605:   BIT SIZE AT DEPTH
 DFT .                KCL:   DRILLING FLUID TYPE
 DFD .                8.7:   DRILLING FLUID DENSITY
 DFV .                 33:   DRILLING FLUID VISCOSITY
 DFPH.                  9:   DRILLING FLUID PH
 MSS .          FLOW LINE:   MUD SAMPLE SOURCE
 RMS .OHMM            .14:   RESISTIVITY MUD SAMPLE
 MST .F                88:   MUD SAMPLE TEMPERATURE
 MFSS.               MEAS:   MUD FILTRATE SAMPLE SOURCE
 MCSS.               MEAS:   MUD CAKE SAMPLE SOURCE
 TCS .HRS               1:   TIME CURCULATED STOPPED
 LUN .               3006:   LOGGING UNIT NUMBER
 LUL .               CASP:   LOGGING UNIT LOCATION
 ENGI.             MILLER:   RECORDING ENGINEER
 WITN.           MCGINLEY:   WITNESSED BY
 CLNT.            A2DTECH:   CLIENT CODE
 ORIG.           5" PRINT:   ORIGIN OF DATA
 UWI .       490251068100:   UNIQUE WELL ID
 DICO. A2D Technologies, Inc.:   DIGITIZING COMPANY
~OTHER INFORMATION
~A   DEPT      SPR         SN        ILD         GRD      CALD       CORR       DPHI        DEN   
# ...
  221.5000   -36.3787     8.0121     7.7882    85.5871     7.8024     0.0310     0.1488     2.4278
  222.0000   -36.4215     8.0079     7.7693    90.6845     7.8526     0.0345     0.1395     2.4504
  222.5000   -36.4659     8.0037     7.7520    94.2313     7.9063     0.0382     0.1297     2.4633
  223.0000   -36.5630     7.9995     7.7526    92.0683     7.9603     0.0385     0.1255     2.4679
  223.5000   -36.8994     7.9952     7.7525    87.8994     8.0139     0.0380     0.1260     2.4689
  224.0000   -37.1020     7.9910     7.7525    84.8682     8.0633     0.0376     0.1265     2.4699
  224.5000   -37.0986     7.9868     7.7525    85.0630     8.0844     0.0371     0.1229     2.4710
  225.0000   -37.1051     7.9826     7.7525    86.7801     8.1090     0.0344     0.1271     2.4710
  225.5000   -37.2651     7.9784     7.7534    90.0904     8.1339     0.0214     0.1465     2.4526
  226.0000   -37.4337     7.9737     7.7540    93.1230     8.1588     0.0208     0.1349     2.4456
  226.5000   -37.5054     7.9687     7.6462    94.2931     8.1808     0.0229     0.1370     2.4499
  227.0000   -37.5233     7.8422     7.5414    96.8657     8.1747     0.0263     0.1396     2.4511
  227.5000   -37.5399     7.6815     7.4615    96.7317     8.1683     0.0269     0.1352     2.4517
  228.0000   -37.5565     7.5923     7.3896    93.6476     8.1620     0.0281     0.1325     2.4523
  228.5000   -37.5731     7.5121     7.3184    92.8305     8.1669     0.0347     0.1357     2.4521
  229.0000   -37.5897     7.4605     7.2689    92.9989     8.1733     0.0367     0.1376     2.4507
  229.5000   -37.6064     7.4369     7.2322    93.1840     8.1798     0.0386     0.1366     2.4507
  230.0000   -37.6230     7.4133     7.1990    93.2512     8.1862     0.0405     0.1356     2.4507
  230.5000   -37.6396     7.3898     7.1660    91.6390     8.1925     0.0408     0.1345     2.4507
  231.0000   -37.6561     7.3664     7.1331    88.8313     8.1991     0.0408     0.1348     2.4507
  231.5000   -37.6726     7.3431     7.1003    89.4102     8.1973     0.0408     0.1353     2.4499
  232.0000   -37.6912     7.3198     7.0710    91.1444     8.1915     0.0408     0.1396     2.4475
  232.5000   -37.8087     7.2966     7.0710    92.1312     8.1858     0.0409     0.1429     2.4451
  233.0000   -38.1082     7.2735     7.0710    92.5299     8.1857     0.0447     0.1360     2.4494
  233.5000   -38.3138     7.2505     7.0710    92.9268     8.2085     0.0487     0.1333     2.4574
  234.0000   -38.3422     7.2273     7.0710    93.2582     8.2306     0.0488     0.1310     2.4627
  234.5000   -38.3739     7.2023     7.0166    91.9960     8.2526     0.0488     0.1310     2.4626
  235.0000   -38.4050     7.1507     6.9395    86.8917     8.2748     0.0502     0.1329     2.4627
  235.5000   -38.4362     7.0937     6.8633    86.9251     8.2974     0.0527     0.1314     2.4634
  236.0000   -38.4674     7.0371     6.7882    92.3877     8.2904     0.0549     0.1284     2.4649
  236.5000   -38.4986     6.9811     6.7124    92.5617     8.2776     0.0553     0.1253     2.4663
  237.0000   -38.5298     6.9421     6.6740    93.5879     8.2648     0.0558     0.1293     2.4661
  237.5000   -38.5609     6.9419     6.6495    95.8776     8.2520     0.0562     0.1329     2.4646
  238.0000   -38.5921     6.9420     6.6251    96.3640     8.2392     0.0567     0.1312     2.4630
  238.5000   -38.6234     6.9420     6.6007    96.3858     8.2263     0.0549     0.1261     2.4629
  239.0000   -38.6544     6.9448     6.5691    93.8032     8.2212     0.0500     0.1269     2.4632
  239.5000   -38.6860     6.9504     6.5842    93.2387     8.2211     0.0418     0.1293     2.4637
  240.0000   -38.6659     6.9559     6.6060    91.4370     8.2210     0.0347     0.1408     2.4495
  240.5000   -38.6039     6.9614     6.6299    88.9393     8.2206     0.0348     0.1416     2.4475
  241.0000   -38.5416     6.9669     6.6723    87.9780     8.2442     0.0351     0.1408     2.4472
  241.5000   -38.4791     6.9724     6.7197    90.0917     8.2739     0.0356     0.1391     2.4487
  242.0000   -38.4165     6.9780     6.7531    92.4092     8.3037     0.0362     0.1371     2.4512
  242.5000   -38.3541     6.9835     6.7531    92.4063     8.3347     0.0369     0.1357     2.4558
  243.0000   -38.3052     6.9890     6.7531    91.0451     8.3070     0.0410     0.1329     2.4606
  243.5000   -38.3604     6.9946     6.7531    89.7152     8.2843     0.0449     0.1327     2.4625
  244.0000   -38.4148     6.9999     6.7531    91.0857     8.2922     0.0449     0.1325     2.4639
  244.5000   -38.4688     7.0070     6.7531    93.5826     8.3002     0.0469     0.1280     2.4670
  245.0000   -38.5227     6.9741     6.7531    93.3179     8.2877     0.0537     0.1218     2.4739
  245.5000   -38.5766     6.9417     6.7531    88.2836     8.2475     0.0605     0.1201     2.4742
  246.0000   -38.6307     6.9535     6.7531    88.0378     8.2084     0.0595     0.1242     2.4741
  246.5000   -38.6872     6.9638     6.7531    87.9978     8.1807     0.0477     0.1268     2.4705
  247.0000   -38.6779     6.9741     6.7531    87.9565     8.1719     0.0449     0.1232     2.4707
  247.5000   -38.6476     6.9845     6.7531    88.4619     8.1615     0.0449     0.1185     2.4772
  248.0000   -38.6167     6.9949     6.7531    90.2441     8.1512     0.0448     0.1224     2.4754
  248.5000   -38.5860     7.0061     6.7529    91.5078     8.1409     0.0294     0.1299     2.4678
  249.0000   -38.5553     6.9996     6.7540    91.7367     8.1306     0.0211     0.1328     2.4601
  249.5000   -38.5246     6.9921     6.6985    92.4503     8.1224     0.0241     0.1289     2.4632
  250.0000   -38.4939     6.9846     6.6624    97.4391     8.1337     0.0303     0.1245     2.4698
  250.5000   -38.4631     6.9771     6.6299   100.8333     8.1449     0.0269     0.1297     2.4685
  251.0000   -38.4324     6.9697     6.6813    97.3202     8.1561     0.0231     0.1380     2.4573
  251.5000   -38.4017     6.9622     6.7294    93.3474     8.1491     0.0251     0.1329     2.4559
  252.0000   -38.3710     6.9548     6.7529    92.0665     8.1258     0.0267     0.1252     2.4651
  252.5000   -38.3404     6.9473     6.6902    92.9315     8.1031     0.0244     0.1314     2.4627
  253.0000   -38.3084     6.9365     6.6485    94.5416     8.1291     0.0233     0.1354     2.4531
  253.5000   -38.3447     6.9164     6.6070    94.8790     8.1588     0.0245     0.1368     2.4526
  254.0000   -38.4074     6.8966     6.5692    94.8766     8.1884     0.0257     0.1376     2.4526
  254.5000   -38.4711     6.8769     6.5848    94.3197     8.1924     0.0268     0.1350     2.4573
  255.0000   -38.5349     6.8572     6.5992    92.7480     8.1685     0.0275     0.1308     2.4634
  255.5000   -38.5986     6.8377     6.6138    91.3142     8.1446     0.0282     0.1265     2.4637
  256.0000   -38.6623     6.8179     6.6294    91.3772     8.1207     0.0288     0.1310     2.4637
  256.5000   -38.7260     6.7609     6.6032    92.0000     8.1009     0.0283     0.1271     2.4671
  257.0000   -38.7897     6.6991     6.5731    92.8712     8.0938     0.0279     0.1260     2.4691
  257.5000   -38.8533     6.6379     6.5430    94.7439     8.0861     0.0274     0.1249     2.4699
  258.0000   -38.9068     6.6299     6.5130    97.2235     8.0784     0.0268     0.1245     2.4706
  258.5000   -38.9321     6.6299     6.4832    99.4700     8.0706     0.0244     0.1245     2.4701
  259.0000   -38.9573     6.6299     6.4535   101.2946     8.0625     0.0219     0.1245     2.4698
  259.5000   -38.9826     6.6300     6.4373    99.6159     8.0751     0.0194     0.1284     2.4641
  260.0000   -39.0079     6.6300     6.4232    93.8672     8.0910     0.0171     0.1355     2.4552
  260.5000   -39.0331     6.6307     6.4092    88.3480     8.1069     0.0188     0.1346     2.4526
  261.0000   -39.0584     6.5953     6.3952    84.8187     8.1213     0.0207     0.1340     2.4527
  261.5000   -39.0836     6.5200     6.3329    98.1654     8.1215     0.0197     0.1338     2.4527
