~VERSION INFORMATION
 VERS.                2.0:   CWLS LOG ASCII STANDARD - VERSION 2.0
 WRAP.                 NO:   ONE LINE PER DEPTH STEP
~WELL INFORMATION
#MNEM.UNIT      DATA TYPE    INFORMATION
#----------   ------------   ------------------------------
 STRT.F            6.0000:   START DEPTH
 STOP.F          522.0000:   STOP DEPTH
 STEP.F            0.5000:   STEP LENGTH
 NULL.          -999.2500:   NO VALUE
 COMP.       F D SERV INC:   COMPANY
 WELL.    88-7 SX-3 #88-3:   WELL
 FLD .             TEAPOT:   FIELD
 LOC .       S3 T38N R78W:   LOCATION
 CNTY.            NATRONA:   COUNTY
 STAT.            WYOMING:   STATE
 CTRY. UNITED STATES OF AMERICA:   COUNTRY
 SRVC.      Western Atlas:   SERVICE COMPANY
 DATE.        30-NOV-1992:   LOGDATE
 API .       490252254100:   API NUMBER
~CURVE INFORMATION
#MNEM.UNIT       API CODE    CURVE DESCRIPTION
#----------   ------------   ------------------------------
 DEPT.F                  :   
 GRR .GAPI   07 310 01 00:   GAMMA RAY
 RILD.OHMM   07 120 46 00:   INDUCTION LOG DEEP RESISTIVITY
 RILM.OHMM   07 120 44 00:   INDUCTION LOG MEDIUM RESISTIVITY
 C13 .IN     45 280 13 00:   CALIPER 13
 ZCOR.G/C3   45 356 01 00:   DENSITY CORRECTION
 ZDEN.G/C3   45 350 01 00:   BULK DENSITY
 PORZ.DEC    45 890 00 00:   DENSITY POROSITY
 NPHI.DEC    42 890 03 00:   NEUTRON POROSITY SANDSTONE
~PARAMETER INFORMATION
#MNEM.UNIT          VALUE    DESCRIPTION
#----------   ------------   ------------------------------
 PD  .                 GL:   PERMANENT DATUM
 EPD .F              5155:   ELEVATION PERMANENT DATUM
 LMF .                 KB:   LOG MEASURED FROM
 DAPD.F                10:   FEET ABOVE PERMANENT DATUM
 DMF .                 KB:   DRILLING MEASURED FROM
 EKB .F              5165:   KELLING BUSHING
 EDF .F              5164:   DRILLING FLOOR
 EGL .F              5155:   GROUND LEVEL
 DATE.        30-NOV-1992:   RUN DATE
 RUN .                  1:   RUN NUMBER
 DD  .F               525:   DEPTH DRILLER
 DL  .F               525:   DEPTH LOGGER
 BLI .F               516:   BOTTOM LOG INTERVAL
 TLI .F                 6:   TOP LOG INTERVAL
 CS  .IN            8.625:   CASING SIZE
 CBD .F                95:   CASING BOTTOM DRILLER
 CBL .F                98:   CASING BOTTOM LOGGER
 BS  .IN            7.875:   BIT SIZE
 BSD .F               525:   BIT SIZE AT DEPTH
 DFT .           AIR FOAM:   DRILLING FLUID TYPE
 MRT .F                68:   MAXIMUM RECORDED TEMPERATURE
 LUN .           HL- 6774:   LOGGING UNIT NUMBER
 LUL .             CASPER:   LOGGING UNIT LOCATION
 ENGI.             RAUTIO:   RECORDING ENGINEER
 WITN.          BOB SYLER:   WITNESSED BY
 CLNT.            A2DTECH:   CLIENT CODE
 ORIG.           5" PRINT:   ORIGIN OF DATA
 UWI .       490252254100:   UNIQUE WELL ID
 DICO. A2D Technologies, Inc.:   DIGITIZING COMPANY
~OTHER INFORMATION
~A    DEPT     GRR       RILD       RILM        C13       ZCOR       ZDEN       PORZ       NPHI   
# ...
  289.5000   144.9848     7.1523     7.0930     8.2200     0.0295     2.5008     0.0887     0.3370
  290.0000   142.8571     6.9996     6.9458     8.2178     0.0279     2.5090     0.0939     0.3371
  290.5000   139.5137     6.7022     6.5688     8.2160     0.0127     2.4998     0.0996     0.3383
  291.0000   137.9939     6.1305     6.1264     8.2143     0.0021     2.4914     0.1045     0.3423
  291.5000   140.1661     5.6764     5.5181     8.2125    -0.0115     2.4735     0.1176     0.3582
  292.0000   147.0071     5.4807     5.0371     8.2107    -0.0134     2.4463     0.1354     0.3751
  292.5000   153.9818     5.3287     4.9698     8.2089    -0.0011     2.4123     0.1521     0.3772
  293.0000   156.8389     5.3276     5.0744     8.2071     0.0350     2.3987     0.1499     0.3602
  293.5000   147.7204     5.3638     5.1096     8.2053     0.0351     2.4183     0.1342     0.3530
  294.0000   140.4255     5.5145     5.2170     8.2035     0.0061     2.4461     0.1209     0.3554
  294.5000   142.8571     5.7491     5.5543     8.2018     0.0061     2.4552     0.1155     0.3509
  295.0000   148.9362     5.9936     5.9546     8.2000     0.0185     2.4702     0.1037     0.3452
  295.5000   149.8480     6.2486     6.3395     8.1982     0.0241     2.4875     0.0925     0.3395
  296.0000   147.4164     6.5600     6.7024     8.1964     0.0164     2.5086     0.0837     0.3343
  296.5000   145.2888     6.8870     7.0626     8.2098     0.0088     2.5191     0.0804     0.3313
  297.0000   144.3769     7.2302     7.5184     8.2227    -0.0033     2.5153     0.0849     0.3292
  297.5000   144.3769     7.5395     7.7835     8.2516    -0.0079     2.5062     0.0902     0.3283
  298.0000   144.3769     7.8081     7.8916     8.2650    -0.0095     2.5001     0.0919     0.3278
  298.5000   144.3769     7.9751     7.9452     8.2628    -0.0035     2.5011     0.0929     0.3245
  299.0000   144.3769     8.0775     7.9431     8.2610    -0.0021     2.4971     0.0950     0.3196
  299.5000   143.4650     8.0754     7.9974     8.2592    -0.0022     2.4948     0.0965     0.3181
  300.0000   138.2979     8.1307     8.1081     8.2574    -0.0023     2.4940     0.0968     0.3182
  300.5000   138.9058     8.0728     8.1631     8.2556    -0.0023     2.4909     0.0968     0.3182
  301.0000   138.6018     8.1285     8.2185     8.2387    -0.0039     2.4901     0.0968     0.3178
  301.5000   138.9058     8.2413     8.2740     8.2369    -0.0070     2.4893     0.0969     0.3169
  302.0000   139.2097     8.2979     8.2722     8.2351    -0.0146     2.4878     0.0969     0.3125
  302.5000   140.7295     8.2967     8.2130     8.2333    -0.0192     2.4893     0.0951     0.3086
  303.0000   140.4255     8.2956     8.2113     8.2315    -0.0178     2.4937     0.0918     0.3053
  303.5000   139.5086     8.3525     8.2096     8.2297    -0.0160     2.5012     0.0875     0.3041
  304.0000   138.8855     8.3514     8.2654     8.2275    -0.0045     2.5057     0.0863     0.3050
  304.5000   137.9939     8.4087     8.3215     8.2258     0.0090     2.5073     0.0863     0.3063
  305.0000   138.2979     8.4664     8.3780     8.2240     0.0164     2.5057     0.0863     0.3078
  305.5000   141.3374     8.5245     8.4938     8.2378     0.0224     2.5071     0.0864     0.3066
  306.0000   142.2492     8.5830     8.5515     8.2356     0.0163     2.5078     0.0864     0.3039
  306.5000   141.6413     8.7021     8.6698     8.2338     0.0147     2.5086     0.0861     0.3010
  307.0000   137.3860     8.7621     8.7893     8.2471     0.0116     2.5115     0.0828     0.2943
  307.5000   134.3465     8.8223     8.8489     8.2609     0.0177     2.5188     0.0764     0.2907
  308.0000   133.7386     8.7594     8.3671     8.3193     0.0219     2.5218     0.0743     0.2883
  308.5000   138.9058     8.3407     7.2766     8.3479     0.0203     2.5247     0.0722     0.2868
  309.0000   140.4255     7.2533     6.2405     8.3915     0.0172     2.5337     0.0743     0.2878
  309.5000   140.7295     6.0914     5.3520     8.3559     0.0141     2.5254     0.1080     0.3147
  310.0000   141.0334     5.8818     5.0960     8.3212    -0.0026     2.4811     0.1419     0.3562
  310.5000   150.4559     5.8401     5.0244     8.3187    -0.0041     2.3987     0.1750     0.3650
  311.0000   158.6626     5.7987     5.2380     8.3015     0.0063     2.3425     0.1907     0.3490
  311.5000   159.6301     5.7576     5.8549     8.3151     0.0577     2.3504     0.1771     0.3212
  312.0000   150.1520     5.7568     6.5445     8.3125     0.0680     2.4055     0.1344     0.3014
  312.5000   142.2492     5.9189     7.0648     8.3105     0.0226     2.4691     0.0917     0.2924
  313.0000   134.9544     6.6171     7.5207     8.3084     0.0150     2.5190     0.0725     0.2861
  313.5000   130.6991     7.5541     8.2364     8.3064     0.0149     2.5385     0.0683     0.2861
  314.0000   132.8470     8.7449     9.2797     8.3042     0.0148     2.5332     0.0702     0.2864
  314.5000   133.7386     9.7112     9.9499     8.3017     0.0147     2.5301     0.0730     0.2874
  315.0000   130.6484    10.0518    10.1416     8.2997     0.0146     2.5301     0.0727     0.2895
  315.5000   130.3951    10.0504    10.0685     8.2976     0.0130     2.5361     0.0657     0.2935
  316.0000   132.2188    10.0490    10.0664     8.2956     0.0024     2.5443     0.0636     0.2968
  316.5000   133.4346    10.0473    10.1353     8.2935     0.0023     2.5473     0.0672     0.3021
  317.0000   133.4346    10.1871    10.3469     8.2914     0.0052     2.5275     0.0757     0.3045
  317.5000   133.4346    10.5473    10.7867     8.2894     0.0066     2.5238     0.0773     0.3027
  318.0000   133.1307    10.9967    11.4031     8.2873     0.0171     2.5237     0.0773     0.2989
  318.5000   131.3070    11.6264    11.9709     8.2848     0.0306     2.5207     0.0779     0.2951
  319.0000   122.4924    12.6401    13.1039     8.2827     0.0396     2.5176     0.0818     0.2803
  319.5000   109.1185    14.0328    14.5456     8.3109     0.0244     2.5115     0.0846     0.2564
  320.0000    99.3921    15.6880    16.2589     8.3246     0.0198     2.5024     0.1063     0.2437
  320.5000    90.5775    17.4166    17.5513     8.3826     0.0163     2.4680     0.1356     0.2456
  321.0000    79.6353    19.3356    19.0790     8.4411     0.0015     2.4155     0.1648     0.2526
  321.5000    77.2036    20.7301    20.7397     8.5148     0.0195     2.3630     0.1940     0.2550
  322.0000    77.2036    22.3807    22.3883     8.5127     0.0435     2.3031     0.2074     0.2532
  322.5000    80.8511    24.3320    24.1679     8.5254     0.0374     2.2819     0.2227     0.2511
  323.0000    84.4985    26.0868    25.7277     8.5390     0.0237     2.2819     0.2228     0.2505
  323.5000    86.3273    27.1984    27.0120     8.5364     0.0071     2.2818     0.2263     0.2506
  324.0000    84.4174    27.9643    27.5869     8.5343    -0.0006     2.2757     0.2346     0.2497
  324.5000    81.1195    28.3534    27.9555     8.5479     0.0100     2.2629     0.2467     0.2463
  325.0000    80.8511    28.3495    27.5625     8.5454     0.0259     2.2425     0.2491     0.2481
  325.5000    82.0669    28.1484    26.9852     8.5585     0.0414     2.2379     0.2457     0.2537
  326.0000    83.2827    27.9488    26.6060     8.5867     0.0307     2.2446     0.2356     0.2586
  326.5000    82.9787    27.9449    26.2322     8.5998     0.0186     2.2642     0.2322     0.2562
  327.0000    83.2827    27.9410    26.2268     8.6129     0.0125     2.2649     0.2334     0.2538
  327.5000    84.8024    28.3290    26.4062     8.6103     0.0244     2.2648     0.2265     0.2541
  328.0000    86.9301    28.9242    27.1460     8.6083     0.0424     2.2731     0.2107     0.2529
  328.5000    87.2340    30.3678    29.1002     8.6062     0.0137     2.3047     0.2044     0.2469
  329.0000    83.8906    31.6618    31.8545     8.6041     0.0056     2.3114     0.2154     0.2390
  329.5000    80.8511    33.4748    35.3591     8.6021    -0.0076     2.2865     0.2591     0.2321
