~VERSION INFORMATION
 VERS.                2.0:   CWLS LOG ASCII STANDARD - VERSION 2.0
 WRAP.                 NO:   ONE LINE PER DEPTH STEP
~WELL INFORMATION
#MNEM.UNIT      DATA TYPE    INFORMATION
#----------   ------------   ------------------------------
 STRT.F           29.0000:   START DEPTH
 STOP.F          539.0000:   STOP DEPTH
 STEP.F            0.1000:   STEP LENGTH
 NULL.          -999.2500:   NO VALUE
 COMP. LAWRENCE/ALLISON INC:   COMPANY
 WELL. NPR 3 81-11 STX #10-10:   WELL
 FLD .             TEAPOT:   FIELD
 LOC .      S10 T38N R78W:   LOCATION
 CNTY.            NATRONA:   COUNTY
 STAT.            WYOMING:   STATE
 CTRY. UNITED STATES OF AMERICA:   COUNTRY
 SRVC.           Gearhart:   SERVICE COMPANY
 DATE.        01-JUN-1987:   LOGDATE
 API .       490251113000:   API NUMBER
~CURVE INFORMATION
#MNEM.UNIT       API CODE    CURVE DESCRIPTION
#----------   ------------   ------------------------------
 DEPT.F                  :   
 GRR .GAPI   07 310 01 00:   GAMMA RAY FROM RES. LOG.
 ILD .OHMM   07 120 46 00:   INDUCTION LOG DEEP RESISTIVITY
 RILM.OHMM   07 120 44 00:   INDUCTION LOG MEDIUM RESISTIVITY
~PARAMETER INFORMATION
#MNEM.UNIT          VALUE    DESCRIPTION
#----------   ------------   ------------------------------
 PD  .                 GL:   PERMANENT DATUM
 EPD .F              5156:   ELEVATION PERMANENT DATUM
 LMF .                 KB:   LOG MEASURED FROM
 DAPD.F                 8:   FEET ABOVE PERMANENT DATUM
 DMF .                 KB:   DRILLING MEASURED FROM
 EKB .F              5164:   KELLING BUSHING
 EDF .F              5162:   DRILLING FLOOR
 EGL .F              5156:   GROUND LEVEL
 DATE.             6-1-87:   RUN DATE
 RUN .                  1:   RUN NUMBER
 DD  .F               550:   DEPTH DRILLER
 DL  .F               546:   DEPTH LOGGER
 BLI .F               540:   BOTTOM LOG INTERVAL
 TLI .F                30:   TOP LOG INTERVAL
 CS  .IN            8.625:   CASING SIZE
 CBD .F                50:   CASING BOTTOM DRILLER
 CBL .F                49:   CASING BOTTOM LOGGER
 BS  .IN            7.875:   BIT SIZE
 BSD .F               550:   BIT SIZE AT DEPTH
 DFT .                AIR:   DRILLING FLUID TYPE
 TLAB.HRS            0634:   TIME LOGGER AT BOTTOM
 MRT .F                80:   MAXIMUM RECORDED TEMPERATURE
 LUN .               7597:   LOGGING UNIT NUMBER
 LUL .           GILLETTE:   LOGGING UNIT LOCATION
 ENGI. WEATHERMON/JOHNSTON:   RECORDING ENGINEER
 WITN.             STRONG:   WITNESSED BY
 CLNT.            A2DTECH:   CLIENT CODE
 ORIG.       2", 5" PRINT:   ORIGIN OF DATA
 UWI .       490251113000:   UNIQUE WELL ID
 DICO. A2D Technologies, Inc.:   DIGITIZING COMPANY
~OTHER INFORMATION
~A   DEPT       GRR       ILD       RILM   
# ...
   83.6000   121.1410     7.3158     7.0672
   83.7000   120.9392     7.3114     7.0805
   83.8000   120.7374     7.3070     7.0938
   83.9000   120.5356     7.3026     7.1072
   84.0000   120.3338     7.2982     7.1205
   84.1000   119.9160     7.2939     7.1100
   84.2000   119.4982     7.2895     7.0996
   84.3000   119.0804     7.2851     7.0892
   84.4000   118.6626     7.2808     7.0788
   84.5000   118.2448     7.2764     7.0684
   84.6000   117.8209     7.2721     7.0610
   84.7000   117.3971     7.2678     7.0536
   84.8000   116.9732     7.2634     7.0462
   84.9000   116.5493     7.2591     7.0389
   85.0000   116.1255     7.2547     7.0315
   85.1000   115.6863     7.2504     7.0242
   85.2000   115.2470     7.2461     7.0168
   85.3000   114.8078     7.2417     7.0095
   85.4000   114.3686     7.2374     7.0021
   85.5000   113.9294     7.2331     6.9948
   85.6000   113.4650     7.2288     6.9875
   85.7000   113.0006     7.2244     6.9802
   85.8000   112.5362     7.2201     6.9729
   85.9000   112.0718     7.2158     6.9656
   86.0000   111.6074     7.2115     6.9583
   86.1000   111.1273     7.2072     6.9512
   86.2000   110.6473     7.2029     6.9441
   86.3000   110.1673     7.1986     6.9369
   86.4000   109.6873     7.1943     6.9298
   86.5000   109.2073     7.1900     6.9227
   86.6000   108.8976     7.1857     6.9135
   86.7000   108.5879     7.1814     6.9044
   86.8000   108.2781     7.1771     6.8952
   86.9000   107.9684     7.1729     6.8861
   87.0000   107.6587     7.1686     6.8769
   87.1000   108.3228     7.1643     6.8680
   87.2000   108.9869     7.1600     6.8591
   87.3000   109.6509     7.1557     6.8501
   87.4000   110.3150     7.1514     6.8412
   87.5000   110.9791     7.1471     6.8323
   87.6000   112.5141     7.1428     6.8245
   87.7000   114.0490     7.1386     6.8168
   87.8000   115.5840     7.1343     6.8090
   87.9000   117.1190     7.1300     6.8012
   88.0000   118.6540     7.1258     6.7935
   88.1000   119.7725     7.0982     6.7936
   88.2000   120.8911     7.0707     6.7937
   88.3000   122.0097     7.0431     6.7938
   88.4000   123.1282     7.0156     6.7939
   88.5000   124.2468     6.9880     6.7940
   88.6000   124.1486     6.9927     6.7939
   88.7000   124.0504     6.9973     6.7939
   88.8000   123.9522     7.0020     6.7939
   88.9000   123.8540     7.0066     6.7939
   89.0000   123.7558     7.0113     6.7939
   89.1000   122.4893     7.0191     6.7939
   89.2000   121.2228     7.0270     6.7939
   89.3000   119.9563     7.0348     6.7939
   89.4000   118.6898     7.0427     6.7939
   89.5000   117.4232     7.0505     6.7939
   89.6000   116.7222     7.0584     6.7994
   89.7000   116.0211     7.0663     6.8048
   89.8000   115.3200     7.0742     6.8103
   89.9000   114.6189     7.0821     6.8158
   90.0000   113.9179     7.0900     6.8212
   90.1000   113.5647     7.0979     6.8326
   90.2000   113.2115     7.1058     6.8440
   90.3000   112.8583     7.1138     6.8555
   90.4000   112.5051     7.1217     6.8669
   90.5000   112.1519     7.1296     6.8783
   90.6000   112.6594     7.1376     6.8898
   90.7000   113.1668     7.1456     6.9013
   90.8000   113.6743     7.1536     6.9128
   90.9000   114.1817     7.1616     6.9244
   91.0000   114.6892     7.1695     6.9359
   91.1000   115.3104     7.1776     6.9475
   91.2000   115.9317     7.1856     6.9591
   91.3000   116.5530     7.1936     6.9707
   91.4000   117.1743     7.2016     6.9823
   91.5000   117.7955     7.2096     6.9939
   91.6000   117.6018     7.2177     7.0056
   91.7000   117.4080     7.2258     7.0173
   91.8000   117.2142     7.2338     7.0291
   91.9000   117.0204     7.2419     7.0408
   92.0000   116.8266     7.2500     7.0525
   92.1000   116.5133     7.2591     7.0643
   92.2000   116.2000     7.2683     7.0761
   92.3000   115.8867     7.2774     7.0879
   92.4000   115.5734     7.2866     7.0997
   92.5000   115.2601     7.2957     7.1115
   92.6000   115.1399     7.3050     7.1234
   92.7000   115.0197     7.3143     7.1353
   92.8000   114.8995     7.3235     7.1472
   92.9000   114.7793     7.3328     7.1591
   93.0000   114.6590     7.3421     7.1710
   93.1000   114.9407     7.3515     7.1830
   93.2000   115.2224     7.3609     7.1950
   93.3000   115.5041     7.3703     7.2070
   93.4000   115.7857     7.3796     7.2190
   93.5000   116.0674     7.3890     7.2311
   93.6000   116.5302     7.3985     7.2387
   93.7000   116.9931     7.4079     7.2463
   93.8000   117.4559     7.4173     7.2540
   93.9000   117.9187     7.4268     7.2616
   94.0000   118.3815     7.4362     7.2693
   94.1000   118.7476     7.4457     7.2762
   94.2000   119.1137     7.4552     7.2831
   94.3000   119.4798     7.4647     7.2899
   94.4000   119.8459     7.4742     7.2968
   94.5000   120.2120     7.4837     7.3037
   94.6000   119.8441     7.4933     7.3106
   94.7000   119.4762     7.5029     7.3175
   94.8000   119.1082     7.5124     7.3245
   94.9000   118.7403     7.5220     7.3314
   95.0000   118.3724     7.5315     7.3383
   95.1000   118.0124     7.5412     7.3453
   95.2000   117.6525     7.5508     7.3522
   95.3000   117.2925     7.5605     7.3592
   95.4000   116.9325     7.5701     7.3661
   95.5000   116.5726     7.5797     7.3731
   95.6000   116.3767     7.5895     7.3801
   95.7000   116.1807     7.5992     7.3871
   95.8000   115.9848     7.6090     7.3940
   95.9000   115.7889     7.6187     7.4010
   96.0000   115.5929     7.6284     7.4080
   96.1000   116.3334     7.6379     7.4151
   96.2000   117.0739     7.6473     7.4222
   96.3000   117.8144     7.6568     7.4293
   96.4000   118.5549     7.6662     7.4364
   96.5000   119.2954     7.6757     7.4435
   96.6000   119.9366     7.6678     7.4473
   96.7000   120.5778     7.6600     7.4511
   96.8000   121.2190     7.6521     7.4549
   96.9000   121.8601     7.6443     7.4587
   97.0000   122.5013     7.6365     7.4625
   97.1000   122.8832     7.6288     7.4517
   97.2000   123.2651     7.6211     7.4409
   97.3000   123.6469     7.6134     7.4301
   97.4000   124.0288     7.6057     7.4193
   97.5000   124.4107     7.5980     7.4085
   97.6000   124.5771     7.5903     7.4011
   97.7000   124.7436     7.5827     7.3936
   97.8000   124.9101     7.5750     7.3861
   97.9000   125.0766     7.5674     7.3787
   98.0000   125.2431     7.5597     7.3712
   98.1000   125.2478     7.5521     7.3638
   98.2000   125.2525     7.5445     7.3563
   98.3000   125.2572     7.5369     7.3489
   98.4000   125.2619     7.5292     7.3415
   98.5000   125.2666     7.5216     7.3341
   98.6000   125.2649     7.5141     7.3267
   98.7000   125.2633     7.5065     7.3193
   98.8000   125.2616     7.4989     7.3119
   98.9000   125.2599     7.4913     7.3045
   99.0000   125.2583     7.4837     7.2971
   99.1000   125.1280     7.4795     7.2898
   99.2000   124.9978     7.4753     7.2824
   99.3000   124.8676     7.4711     7.2751
   99.4000   124.7374     7.4669     7.2677
   99.5000   124.6072     7.4627     7.2604
   99.6000   124.0105     7.4874     7.2594
   99.7000   123.4138     7.5121     7.2584
   99.8000   122.8172     7.5368     7.2574
   99.9000   122.2205     7.5615     7.2564
  100.0000   121.6238     7.5862     7.2554
  100.1000   121.1089     7.6236     7.2730
  100.2000   120.5939     7.6611     7.2905
  100.3000   120.0790     7.6985     7.3080
  100.4000   119.5641     7.7359     7.3256
  100.5000   119.0491     7.7734     7.3431
  100.6000   118.9834     7.8117     7.3627
  100.7000   118.9178     7.8501     7.3824
  100.8000   118.8521     7.8884     7.4020
  100.9000   118.7865     7.9268     7.4217
  101.0000   118.7208     7.9651     7.4413
  101.1000   118.9107     7.9962     7.4809
  101.2000   119.1007     8.0273     7.5204
  101.3000   119.2906     8.0585     7.5599
  101.4000   119.4806     8.0896     7.5995
  101.5000   119.6705     8.1207     7.6390
  101.6000   119.8709     8.1422     7.6851
  101.7000   120.0713     8.1638     7.7313
