~VERSION INFORMATION
 VERS.                2.0:   CWLS LOG ASCII STANDARD - VERSION 2.0
 WRAP.                 NO:   ONE LINE PER DEPTH STEP
~WELL INFORMATION
#MNEM.UNIT      DATA TYPE    INFORMATION
#----------   ------------   ------------------------------
 STRT.F            0.0000:   START DEPTH
 STOP.F          550.0000:   STOP DEPTH
 STEP.F            0.1000:   STEP LENGTH
 NULL.          -999.2500:   NO VALUE
 COMP.       F D SERV INC:   COMPANY
 WELL. NAVAL PETROLEUM RESERVE 3 SX-3 #77-4-3:   WELL
 FLD .          N.P.R. #3:   FIELD
 LOC .       S3 T38N R78W:   LOCATION
 CNTY.            NATRONA:   COUNTY
 STAT.            WYOMING:   STATE
 CTRY. UNITED STATES OF AMERICA:   COUNTRY
 SRVC.      Western Atlas:   SERVICE COMPANY
 DATE.        28-OCT-1992:   LOGDATE
 API .       490252255100:   API NUMBER
~CURVE INFORMATION
#MNEM.UNIT       API CODE    CURVE DESCRIPTION
#----------   ------------   ------------------------------
 DEPT.F                  :   
 GRR .GAPI   07 310 01 00:   GAMMA RAY FROM RESISTIVITY
 RILD.OHMM   07 120 46 00:   DEEP INDUCTION RESISTIVITY
 RILM.OHMM   07 120 44 00:   INDUCTION LOG MEDIUM RESISTIVITY
~PARAMETER INFORMATION
#MNEM.UNIT          VALUE    DESCRIPTION
#----------   ------------   ------------------------------
 PD  .                 GL:   PERMANENT DATUM
 EPD .F              5160:   ELEVATION PERMANENT DATUM
 LMF .                 KB:   LOG MEASURED FROM
 DAPD.F                10:   FEET ABOVE PERMANENT DATUM
 DMF .                 KB:   DRILLING MEASURED FROM
 EKB .F              5170:   KELLING BUSHING
 EDF .F              5169:   DRILLING FLOOR
 EGL .F              5160:   GROUND LEVEL
 DATE.        28-OCT-1992:   RUN DATE
 RUN .                  1:   RUN NUMBER
 DD  .F               555:   DEPTH DRILLER
 DL  .F               558:   DEPTH LOGGER
 BLI .F               550:   BOTTOM LOG INTERVAL
 CS  .IN            8.625:   CASING SIZE
 CBD .F                54:   CASING BOTTOM DRILLER
 CBL .F                54:   CASING BOTTOM LOGGER
 BS  .IN            7.875:   BIT SIZE
 BSD .F               555:   BIT SIZE AT DEPTH
 DFT .           AIR FOAM:   DRILLING FLUID TYPE
 TCS .HRS               1:   TIME CURCULATED STOPPED
 MRT .F                65:   MAXIMUM RECORDED TEMPERATURE
 LUN .            HL-6274:   LOGGING UNIT NUMBER
 LUL .             CASPER:   LOGGING UNIT LOCATION
 ENGI.             RAUTIO:   RECORDING ENGINEER
 WITN.     BRUCE ANDERSON:   WITNESSED BY
 CLNT.            A2DTECH:   CLIENT CODE
 ORIG.           5" PRINT:   ORIGIN OF DATA
 UWI .       490252255100:   UNIQUE WELL ID
 DICO. A2D Technologies, Inc.:   DIGITIZING COMPANY
~OTHER INFORMATION
~A    DEPT      GRR      RILD       RILM   
# ...
  345.8000    93.5895    21.9332    20.8050
  345.9000    93.3345    21.9360    20.8043
  346.0000    93.1964    21.9387    20.8038
  346.1000    93.1267    21.9416    20.8032
  346.2000    92.8717    21.9442    20.8026
  346.3000    92.5808    21.9470    20.8021
  346.4000    92.3617    21.8807    20.8015
  346.5000    92.2719    21.7572    20.8008
  346.6000    92.2683    21.6344    20.8003
  346.7000    92.2647    21.5040    20.7997
  346.8000    92.2481    21.5065    20.7992
  346.9000    91.9547    21.5092    20.7986
  347.0000    91.9517    21.5119    20.7980
  347.1000    91.7853    21.5146    20.7973
  347.2000    91.5303    21.5173    20.8991
  347.3000    91.2753    21.5203    20.9416
  347.4000    91.0308    21.5227    20.9410
  347.5000    91.0266    21.6132    20.9404
  347.6000    90.8125    21.6786    20.9398
  347.7000    90.5575    21.6813    20.9391
  347.8000    90.3025    21.6841    20.9386
  347.9000    90.0475    21.6871    20.9381
  348.0000    89.8006    21.6895    20.9901
  348.1000    89.7964    21.7776    21.0832
  348.2000    89.5846    21.9067    21.0826
  348.3000    89.6455    21.9990    21.0819
  348.4000    89.8932    21.9903    21.0814
  348.5000    90.1973    21.9816    21.0808
  348.6000    90.6964    21.9729    21.0802
  348.7000    91.2851    21.9641    21.0796
  348.8000    91.6947    21.9554    21.0790
  348.9000    92.0383    21.9467    21.0783
  349.0000    92.3907    21.9380    21.0779
  349.1000    92.8899    21.9293    21.0773
  349.2000    93.3923    21.9205    21.0767
  349.3000    94.2845    21.9118    21.0761
  349.4000    94.4854    21.9031    21.0767
  349.5000    94.7332    21.8930    21.2220
  349.6000    94.8785    21.8935    21.2216
  349.7000    94.8749    21.8941    21.2957
  349.8000    94.8713    21.9480    21.4188
  349.9000    94.8670    22.0753    21.5173
  350.0000    95.0654    22.2032    21.5167
  350.1000    95.1625    22.2038    21.5161
  350.2000    95.3460    22.3057    21.3500
  350.3000    95.8131    22.3603    21.1421
  350.4000    96.2803    22.3609    20.9282
  350.5000    96.6738    22.3616    21.0462
  350.6000    96.6731    22.3622    21.0755
  350.7000    96.6725    22.3628    21.0761
  350.8000    96.6719    22.3634    21.0767
  350.9000    96.6713    22.3640    21.0939
  351.0000    96.5922    22.3647    21.2252
  351.1000    96.3680    22.3653    21.2257
  351.2000    96.3673    22.3660    21.2263
  351.3000    96.3668    22.3665    21.2269
  351.4000    96.1958    22.3672    21.2275
  351.5000    95.9456    22.3678    21.2281
  351.6000    95.6955    22.3684    21.2287
  351.7000    95.4199    22.3690    21.2293
  351.8000    94.5510    22.3698    21.1476
  351.9000    93.7118    22.4788    21.0832
  352.0000    93.1843    22.5273    21.1152
  352.1000    92.8296    22.5279    21.2316
  352.2000    92.4338    22.5286    21.2323
  352.3000    92.4332    22.5292    21.2328
  352.4000    92.9304    22.5298    21.2334
  352.5000    93.2326    22.6328    21.2340
  352.6000    93.4815    22.6886    21.2346
  352.7000    93.8217    22.6892    21.2352
  352.8000    94.2815    22.7102    21.1132
  352.9000    94.5444    22.8492    21.0890
  353.0000    95.2507    22.8498    21.0896
  353.1000    95.8157    22.9472    21.0902
  353.2000    96.4447    23.0108    21.0701
  353.3000    97.1927    23.0114    20.9451
  353.4000    97.8647    23.0256    20.9456
  353.5000    97.8640    23.1737    20.9462
  353.6000    97.8634    23.1743    20.9468
  353.7000    97.5233    23.1749    20.9474
  353.8000    97.1408    23.1755    20.9480
  353.9000    96.8907    23.1762    20.9486
  354.0000    96.6405    23.1768    20.9491
  354.1000    96.3498    23.1776    20.9497
  354.2000    96.1402    23.1781    20.9503
  354.3000    95.8901    23.1788    20.9509
  354.4000    95.7438    23.1794    20.9515
  354.5000    95.7945    23.1527    20.9521
  354.6000    96.0447    23.0198    20.9526
  354.7000    96.0441    23.0204    20.9532
  354.8000    96.6308    23.0211    20.8988
  354.9000    97.3788    22.9459    20.8090
  355.0000    98.0725    22.8149    20.8096
  355.1000    98.6708    22.7043    20.8103
  355.2000    99.0622    22.7051    20.8108
  355.3000    99.0616    22.5830    20.8113
  355.4000    99.0610    22.5487    20.8119
  355.5000    99.1903    22.5493    20.7880
  355.6000    99.4393    22.5499    20.6687
  355.7000    99.6635    22.5377    20.6693
  355.8000    99.3607    22.3947    20.6698
  355.9000    99.3601    22.2811    20.6017
  356.0000    99.1903    22.2404    20.5276
  356.1000    98.9401    22.1814    20.5281
  356.2000    98.6900    22.0547    20.5287
  356.3000    98.4283    21.9344    20.5293
  356.4000    97.8464    21.9352    20.5299
  356.5000    97.8459    21.9357    20.5304
  356.6000    97.5334    21.8577    20.4925
  356.7000    97.2405    21.7329    20.3891
  356.8000    97.1891    21.6087    20.3898
  356.9000    96.9372    21.4844    20.3903
  357.0000    96.9366    21.3626    20.3908
  357.1000    96.7408    21.3364    20.3338
  357.2000    96.6332    21.3370    20.2505
  357.3000    96.6326    21.2934    20.2511
  357.4000    96.5945    21.1899    20.2517
  357.5000    96.3293    21.1906    20.1515
  357.6000    96.3287    21.0770    20.1123
  357.7000    96.3281    21.0447    20.0610
  357.8000    96.3275    21.0452    19.9738
  357.9000    96.4037    21.0087    19.9708
  358.0000    96.6285    20.8887    19.8365
  358.1000    96.6277    20.7558    19.8369
  358.2000    96.8483    20.7564    19.8375
  358.3000    97.0973    20.6765    19.8380
  358.4000    97.4622    20.5039    19.8162
  358.5000    97.8973    20.2991    19.7015
  358.6000    98.1571    20.1831    19.7021
  358.7000    98.7389    20.0486    19.7026
  358.8000    98.9462    20.0491    19.7031
  358.9000    99.0399    19.9781    19.7037
  359.0000    99.1420    19.8640    19.7042
  359.1000    99.3408    19.7733    19.7048
  359.2000    99.3402    19.7739    19.7053
  359.3000    99.0924    19.6621    19.6227
  359.4000    98.6477    19.6377    19.5697
  359.5000    97.8639    19.6382    19.5345
  359.6000    96.7757    19.6388    19.4350
  359.7000    95.6750    19.6393    19.4356
  359.8000    95.4090    19.6399    19.4361
  359.9000    95.4085    19.6404    19.4367
  360.0000    95.4079    19.6410    19.4372
  360.1000    95.5359    19.6415    19.4378
  360.2000    95.7849    19.6421    19.4383
  360.3000    96.0574    19.6426    19.4389
  360.4000    96.6138    19.6432    19.4394
  360.5000    97.7160    19.6437    19.4399
  360.6000    98.4592    19.6443    19.3914
  360.7000    98.9577    19.6448    19.3061
  360.8000    99.3934    19.6454    19.3067
  360.9000    99.6320    19.6459    19.3073
  361.0000    99.6313    19.6465    19.3077
  361.1000    99.4236    19.6470    19.3083
  361.2000    99.3281    19.6475    19.3088
  361.3000    99.3275    19.6945    19.3303
  361.4000    99.2774    19.7860    19.4448
  361.5000    99.0242    19.7866    19.4453
  361.6000    98.7771    19.7871    19.4459
  361.7000    98.3330    19.7877    19.4464
  361.8000    97.8333    19.7882    19.4866
  361.9000    96.6230    19.7888    19.5834
  362.0000    94.3807    19.7893    19.5839
  362.1000    93.5824    19.7899    19.5844
  362.2000    92.8822    19.7904    19.6673
  362.3000    92.3136    19.7910    19.7224
  362.4000    92.0701    19.7915    19.7229
  362.5000    92.0695    19.7921    19.7235
  362.6000    92.0918    19.7926    19.7241
  362.7000    92.3703    19.7932    19.7246
  362.8000    92.5897    19.7937    19.7251
  362.9000    93.0060    19.7943    19.7257
  363.0000    93.6192    19.7948    19.7262
  363.1000    94.3051    19.7954    19.7203
  363.2000    94.8036    19.7959    19.5905
  363.3000    95.3878    19.7966    19.5910
  363.4000    95.5939    19.7030    19.5196
  363.5000    95.6888    19.6601    19.4562
  363.6000    95.6882    19.6607    19.4567
  363.7000    95.6876    19.6612    19.4572
  363.8000    95.6870    19.6618    19.4579
  363.9000    95.4405    19.6623    19.4583
