~VERSION INFORMATION
 VERS.                2.0:   CWLS LOG ASCII STANDARD - VERSION 2.0
 WRAP.                 NO:   ONE LINE PER DEPTH STEP
~WELL INFORMATION
#MNEM.UNIT      DATA TYPE    INFORMATION
#----------   ------------   ------------------------------
 STRT.F           20.0000:   START DEPTH
 STOP.F         2420.0000:   STOP DEPTH
 STEP.F            0.5000:   STEP LENGTH
 NULL.          -999.2500:   NO VALUE
 COMP. FENIX & SCISSON INC:   COMPANY
 WELL.    SHX 15 #71-1-15:   WELL
 FLD .             TEAPOT:   FIELD
 LOC .      S15 T38N R78W:   LOCATION
 CNTY.            NATRONA:   COUNTY
 STAT.            WYOMING:   STATE
 CTRY. UNITED STATES OF AMERICA:   COUNTRY
 SRVC.           BIRDWELL:   SERVICE COMPANY
 DATE.        03-SEP-1978:   LOGDATE
 API .       490251081800:   API NUMBER
~CURVE INFORMATION
#MNEM.UNIT       API CODE    CURVE DESCRIPTION
#----------   ------------   ------------------------------
 DEPT.F                  :   
 CALD.IN     45 280 60 00:   CALIPER
 GRD .GAPI   45 310 01 00:   GAMMA RAY FROM DENSITY LOG
 RHOB.G/C3   45 350 01 00:   BULK DENSITY
 DPHI.DEC    45 890 12 00:   DENSITY POROSITY SANDSTONE
 CORR.G/C3   45 356 01 00:   DENSITY CORRECTION
 NPHI.DEC    42 890 03 00:   NEUTRON POROSITY
~PARAMETER INFORMATION
#MNEM.UNIT          VALUE    DESCRIPTION
#----------   ------------   ------------------------------
 PD  .                 GL:   PERMANENT DATUM
 EPD .F              5249:   ELEVATION PERMANENT DATUM
 LMF .                 KB:   LOG MEASURED FROM
 DAPD.F                10:   FEET ABOVE PERMANENT DATUM
 DMF .                 KB:   DRILLING MEASURED FROM
 EKB .F              5259:   KELLING BUSHING
 EGL .F              5249:   GROUND LEVEL
 DATE.             9-3-78:   RUN DATE
 RUN .                  1:   RUN NUMBER
 DD  .F              2450:   DEPTH DRILLER
 DL  .F              2422:   DEPTH LOGGER
 BLI .F              2420:   BOTTOM LOG INTERVAL
 TLI .F                50:   TOP LOG INTERVAL
 CS  .IN            9.625:   CASING SIZE
 CBD .F               650:   CASING BOTTOM DRILLER
 CBL .F               676:   CASING BOTTOM LOGGER
 BS  .IN             8.75:   BIT SIZE
 BSD .F              2450:   BIT SIZE AT DEPTH
 DFT .           AIR MIST:   DRILLING FLUID TYPE
 LUN .               2958:   LOGGING UNIT NUMBER
 LUL .               CASP:   LOGGING UNIT LOCATION
 ENGI.             MILLER:   RECORDING ENGINEER
 WITN.           MCGINLEY:   WITNESSED BY
 CLNT.            A2DTECH:   CLIENT CODE
 ORIG.         2.5" PRINT:   ORIGIN OF DATA
 UWI .       490251081800:   UNIQUE WELL ID
 DICO. A2D Technologies, Inc.:   DIGITIZING COMPANY
~OTHER INFORMATION
~A   DEPT     CALD        GRD       RHOB       DPHI       CORR         NPHI 
# ...
 2256.0000    12.0976   108.8074     2.4951     0.0937     0.0758  -999.2500
 2256.5000    12.0538   107.3732     2.5069     0.0886     0.0928  -999.2500
 2257.0000    12.0176   102.8732     2.5075     0.0835     0.1010  -999.2500
 2257.5000    11.9835    97.1810     2.5124     0.0797     0.1129  -999.2500
 2258.0000    11.9469    96.6262     2.5238     0.0814     0.1048  -999.2500
 2258.5000    11.9120    96.7721     2.5062     0.0843     0.0353  -999.2500
 2259.0000    11.8748    97.2325     2.4957     0.0872     0.0360  -999.2500
 2259.5000    11.8598    96.8531     2.5049     0.0900     0.0340  -999.2500
 2260.0000    11.8641    95.7642     2.5058     0.0893     0.0381  -999.2500
 2260.5000    11.8664    96.1279     2.5075     0.0881     0.0357  -999.2500
 2261.0000    11.8687   100.6286     2.5023     0.0877     0.0332  -999.2500
 2261.5000    11.8715   105.3999     2.4972     0.0904     0.0318  -999.2500
 2262.0000    11.8739   108.2322     2.4722     0.0928     0.0314  -999.2500
 2262.5000    11.8765   108.7039     2.4858     0.0951     0.0520  -999.2500
 2263.0000    11.8790   107.0610     2.4875     0.0974     0.0580  -999.2500
 2263.5000    11.8815   106.0125     2.4782     0.0988     0.0535  -999.2500
 2264.0000    11.8841   106.2969     2.4586     0.1052     0.0466  -999.2500
 2264.5000    11.8867   107.3158     2.4534     0.1116     0.0492  -999.2500
 2265.0000    11.8890   105.0773     2.4660     0.1116     0.0534  -999.2500
 2265.5000    11.8919   104.1458     2.4836     0.0978     0.0534  -999.2500
 2266.0000    11.8944   105.8596     2.4520     0.0909     0.0380  -999.2500
 2266.5000    11.8958   104.4123     2.4592     0.1019     0.0292  -999.2500
 2267.0000    11.9018   101.3972     2.4656     0.1099     0.0303  -999.2500
 2267.5000    11.8841    98.5456     2.4776     0.1077     0.0304  -999.2500
 2268.0000    11.8545    95.6974     2.4916     0.1028     0.0403  -999.2500
 2268.5000    11.7680    93.7282     2.4901     0.1028     0.0499  -999.2500
 2269.0000    11.6856    93.9855     2.4877     0.1028     0.0570  -999.2500
 2269.5000    11.6627    96.5427     2.4831     0.1049     0.0456  -999.2500
 2270.0000    11.6724    99.9588     2.4797     0.1067     0.0363  -999.2500
 2270.5000    11.6797   103.6030     2.4597     0.1085     0.0258  -999.2500
 2271.0000    11.6864   105.2877     2.4624     0.1100     0.0176  -999.2500
 2271.5000    11.6939   107.1749     2.4624     0.1126     0.0121  -999.2500
 2272.0000    11.6993   105.9287     2.4613     0.1149     0.0066  -999.2500
 2272.5000    11.6929   104.4004     2.4594     0.1171     0.0090  -999.2500
 2273.0000    11.6875   100.6742     2.4618     0.1178     0.0135  -999.2500
 2273.5000    11.6812    96.7499     2.4673     0.1190     0.0131  -999.2500
 2274.0000    11.6754    95.2141     2.4681     0.1203     0.0116  -999.2500
 2274.5000    11.6695    94.8567     2.4602     0.1216     0.0107  -999.2500
 2275.0000    11.6632    96.1495     2.4483     0.1248     0.0105  -999.2500
 2275.5000    11.6597    97.1770     2.4528     0.1268     0.0246  -999.2500
 2276.0000    11.6601    95.8394     2.4680     0.1177     0.0342  -999.2500
 2276.5000    11.6600    94.4562     2.4853     0.1086     0.0413  -999.2500
 2277.0000    11.6600    93.2659     2.4678     0.1171     0.0165  -999.2500
 2277.5000    11.6600    92.9558     2.4482     0.1222     0.0151  -999.2500
 2278.0000    11.6600    92.5096     2.4548     0.1208     0.0106  -999.2500
 2278.5000    11.6600    93.2430     2.4479     0.1183     0.0211  -999.2500
 2279.0000    11.6600    94.8286     2.4439     0.1164     0.0300  -999.2500
 2279.5000    11.6600   101.2067     2.4506     0.1155     0.0390  -999.2500
 2280.0000    11.6600   105.4136     2.4543     0.1228     0.0494  -999.2500
 2280.5000    11.6600   104.5712     2.4449     0.1302     0.0571  -999.2500
 2281.0000    11.6600    99.3206     2.4365     0.1339     0.0580  -999.2500
 2281.5000    11.6600    95.4414     2.4361     0.0932     0.0593  -999.2500
 2282.0000    11.6600    95.0427     2.4565     0.0999     0.0737  -999.2500
 2282.5000    11.6600    93.4571     2.4699     0.1155     0.0874  -999.2500
 2283.0000    11.6600    90.7203     2.4719     0.1132     0.0525  -999.2500
 2283.5000    11.6600    94.7419     2.4621     0.1089     0.0316  -999.2500
 2284.0000    11.6598   102.8585     2.4523     0.1174     0.0298  -999.2500
 2284.5000    11.6601   101.6239     2.4520     0.1291     0.0351  -999.2500
 2285.0000    11.6607    94.6784     2.4547     0.1236     0.0489  -999.2500
 2285.5000    11.6763    93.7309     2.4504     0.1151     0.0615  -999.2500
 2286.0000    11.6927    91.3974     2.4445     0.1295     0.0770  -999.2500
 2286.5000    11.7099    90.7661     2.4460     0.1224     0.0707  -999.2500
 2287.0000    11.7267    93.9977     2.4452     0.1119     0.0629  -999.2500
 2287.5000    11.7397    97.7843     2.4280     0.1375     0.0289  -999.2500
 2288.0000    11.7399    98.7366     2.4193     0.1296     0.0257  -999.2500
 2288.5000    11.7401    99.7443     2.4703     0.1217     0.0381  -999.2500
 2289.0000    11.7400   100.1806     2.4827     0.1138     0.0681  -999.2500
 2289.5000    11.7400   100.8523     2.4763     0.1059     0.0685  -999.2500
 2290.0000    11.7400   102.4571     2.4698     0.1071     0.0672  -999.2500
 2290.5000    11.7400   104.7874     2.4634     0.1091     0.0599  -999.2500
 2291.0000    11.7400   105.7788     2.4612     0.1115     0.0393  -999.2500
 2291.5000    11.7400   109.1681     2.4597     0.1141     0.0371  -999.2500
 2292.0000    11.7402   109.4454     2.4659     0.1171     0.0345  -999.2500
 2292.5000    11.7379   106.4607     2.4740     0.1101     0.0335  -999.2500
 2293.0000    11.7339   103.9291     2.4824     0.1013     0.0240  -999.2500
 2293.5000    11.7304   101.1380     2.4911     0.0924     0.0138  -999.2500
 2294.0000    11.7268   101.0639     2.4959     0.0912     0.0100  -999.2500
 2294.5000    11.7232   101.1524     2.4965     0.0900     0.0112  -999.2500
 2295.0000    11.7197   101.3436     2.4982     0.0873     0.0119  -999.2500
 2295.5000    11.7159   101.0940     2.5031     0.0853     0.0125  -999.2500
 2296.0000    11.7127   100.4133     2.5068     0.0853     0.0133  -999.2500
 2296.5000    11.7088    99.7591     2.5039     0.0873     0.0140  -999.2500
 2297.0000    11.7048    99.0969     2.4994     0.0898     0.0133  -999.2500
 2297.5000    11.7039    98.3853     2.4992     0.0924     0.0120  -999.2500
 2298.0000    11.6757    98.2599     2.4987     0.0949     0.0107  -999.2500
 2298.5000    11.6252    98.6247     2.4988     0.0985     0.0095  -999.2500
 2299.0000    11.5778    98.9182     2.4855     0.1038     0.0084  -999.2500
 2299.5000    11.5304    99.2191     2.4745     0.1092     0.0072  -999.2500
 2300.0000    11.4823    99.5923     2.4588     0.1145     0.0060  -999.2500
 2300.5000    11.4351    99.4124     2.4524     0.1198     0.0048  -999.2500
 2301.0000    11.3869    98.6290     2.4515     0.1221     0.0036  -999.2500
 2301.5000    11.3392    97.6992     2.4523     0.1226     0.0027  -999.2500
 2302.0000    11.3011    96.5557     2.4530     0.1227    -0.0008  -999.2500
 2302.5000    11.3039    91.9350     2.4492     0.1207    -0.0061  -999.2500
 2303.0000    11.3058    89.0859     2.4519     0.1190    -0.0101  -999.2500
 2303.5000    11.3093    89.8845     2.4557     0.1153    -0.0073  -999.2500
 2304.0000    11.3121    92.3520     2.4751     0.1088     0.0017  -999.2500
 2304.5000    11.3150    97.9940     2.4866     0.1022     0.0095  -999.2500
 2305.0000    11.3180   102.8485     2.4872     0.0996     0.0212  -999.2500
 2305.5000    11.3209   112.7929     2.4887     0.0996     0.0219  -999.2500
 2306.0000    11.3239   113.4160     2.4841     0.0996     0.0222  -999.2500
 2306.5000    11.3267   113.3507     2.4792     0.1012     0.0219  -999.2500
 2307.0000    11.3298   111.3502     2.4738     0.1032     0.0220  -999.2500
 2307.5000    11.3326   110.8076     2.4725     0.1052     0.0221  -999.2500
