~VERSION INFORMATION
 VERS.                2.0:   CWLS LOG ASCII STANDARD - VERSION 2.0
 WRAP.                 NO:   ONE LINE PER DEPTH STEP
~WELL INFORMATION
#MNEM.UNIT      DATA TYPE    INFORMATION
#----------   ------------   ------------------------------
 STRT.F            0.0000:   START DEPTH
 STOP.F          596.0000:   STOP DEPTH
 STEP.F            0.1000:   STEP LENGTH
 NULL.          -999.2500:   NO VALUE
 COMP. BROWN JOHN E&C INC:   COMPANY
 WELL.    72-5 SX-3 #72-3:   WELL
 FLD .             TEAPOT:   FIELD
 LOC .       S3 T38N R78W:   LOCATION
 CNTY.            NATRONA:   COUNTY
 STAT.            WYOMING:   STATE
 CTRY. UNITED STATES OF AMERICA:   COUNTRY
 SRVC.      Western Atlas:   SERVICE COMPANY
 DATE.        15-APR-1992:   LOGDATE
 API .       490252250900:   API NUMBER
~CURVE INFORMATION
#MNEM.UNIT       API CODE    CURVE DESCRIPTION
#----------   ------------   ------------------------------
 DEPT.F                  :   
 GRR .GAPI   07 310 01 00:   GAMMA RAY
 RILD.OHMM   07 120 46 00:   INDUCTION LOG DEEP RESISTIVITY
 RILM.OHMM   07 120 44 00:   INDUCTION LOG MEDIUM RESISTIVITY
~PARAMETER INFORMATION
#MNEM.UNIT          VALUE    DESCRIPTION
#----------   ------------   ------------------------------
 PD  .                 GL:   PERMANENT DATUM
 EPD .F              5132:   ELEVATION PERMANENT DATUM
 LMF .                 KB:   LOG MEASURED FROM
 DAPD.F                 5:   FEET ABOVE PERMANENT DATUM
 DMF .                 KB:   DRILLING MEASURED FROM
 EKB .F              5137:   KELLING BUSHING
 EDF .F              5136:   DRILLING FLOOR
 EGL .F              5132:   GROUND LEVEL
 DATE.        15-APR-1992:   RUN DATE
 RUN .                  1:   RUN NUMBER
 DD  .F               605:   DEPTH DRILLER
 DL  .F               599:   DEPTH LOGGER
 BLI .F               596:   BOTTOM LOG INTERVAL
 TLI .F                46:   TOP LOG INTERVAL
 CS  .IN            8.625:   CASING SIZE
 CBD .F                48:   CASING BOTTOM DRILLER
 CBL .F                46:   CASING BOTTOM LOGGER
 BS  .IN            7.875:   BIT SIZE
 BSD .F               605:   BIT SIZE AT DEPTH
 DFT .                AIR:   DRILLING FLUID TYPE
 LUN .            HL-6321:   LOGGING UNIT NUMBER
 LUL .        RK. SPRINGS:   LOGGING UNIT LOCATION
 ENGI.            TRIBBLE:   RECORDING ENGINEER
 WITN.             STRONG:   WITNESSED BY
 CLNT.            A2DTECH:   CLIENT CODE
 ORIG.           5" PRINT:   ORIGIN OF DATA
 UWI .       490252250900:   UNIQUE WELL ID
 DICO. A2D Technologies, Inc.:   DIGITIZING COMPANY
~OTHER INFORMATION
~A    DEPT     GRR       RILD       RILM   
# ...
  291.2000   115.3311     7.2277     7.2081
  291.3000   115.7574     7.2275     7.2251
  291.4000   116.0963     7.2273     7.2662
  291.5000   116.3450     7.2484     7.3089
  291.6000   116.5410     7.2776     7.3087
  291.7000   116.5395     7.2799     7.3395
  291.8000   116.5380     7.3282     7.3595
  291.9000   116.7320     7.3280     7.3593
  292.0000   116.8389     7.3532     7.3618
  292.1000   116.9256     7.3790     7.4104
  292.2000   117.1400     7.3852     7.4458
  292.3000   117.1382     7.4303     7.4619
  292.4000   117.5987     7.4301     7.4783
  292.5000   118.0978     7.4299     7.5208
  292.6000   118.8441     7.4496     7.5662
  292.7000   119.7736     7.4816     7.5660
  292.8000   120.5391     7.4814     7.5658
  292.9000   121.6882     7.4812     7.5867
  293.0000   122.3254     7.5146     7.6184
  293.1000   123.3928     7.5332     7.6198
  293.2000   124.5369     7.5473     7.6713
  293.3000   125.4848     7.5857     7.6711
  293.4000   126.2401     7.5854     7.6709
  293.5000   126.7350     7.5852     7.6865
  293.6000   127.2341     7.6131     7.7243
  293.7000   127.5922     7.6380     7.7240
  293.8000   127.8410     7.6378     7.7238
  293.9000   128.1231     7.6375     7.7236
  294.0000   128.6625     7.6373     7.7436
  294.1000   128.6611     7.6693     7.7773
  294.2000   128.6596     7.6905     7.7771
  294.3000   128.2902     7.7027     7.7769
  294.4000   127.4691     7.7440     7.7766
  294.5000   126.4514     7.7437     7.7764
  294.6000   125.0058     7.7435     7.7762
  294.7000   124.1574     7.7433     7.7760
  294.8000   122.9969     7.7596     7.7757
  294.9000   121.8486     7.7972     7.7756
  295.0000   120.8967     7.7969     7.8044
  295.1000   120.1444     7.7967     7.8296
  295.2000   119.5258     7.8273     7.8294
  295.3000   119.5243     7.8510     7.8292
  295.4000   119.2817     7.8508     7.8727
  295.5000   118.6551     7.8505     7.8836
  295.6000   118.3040     7.8503     7.8834
  295.7000   118.2224     7.8851     7.8967
  295.8000   117.9706     7.9299     7.9382
  295.9000   117.6913     7.9601     7.9379
  296.0000   117.9128     7.9644     7.9377
  296.1000   118.1616     8.0155     7.9658
  296.2000   118.5259     8.0153     7.9929
  296.3000   119.0248     8.0151     7.9927
  296.4000   119.5319     8.0148     7.9924
  296.5000   120.4177     8.0146     7.9922
  296.6000   121.0304     8.0144     7.9920
  296.7000   121.6287     8.0142     7.9918
  296.8000   122.3223     8.0139     7.9916
  296.9000   123.2345     8.0369     7.9913
  297.0000   123.7537     8.0697     7.9911
  297.1000   124.4725     8.0695     7.9909
  297.2000   125.2219     8.0692     7.9907
  297.3000   125.8385     8.0690     7.9904
  297.4000   126.3375     8.0688     7.9902
  297.5000   126.8364     8.0686     7.9900
  297.6000   127.3919     8.0683     7.9898
  297.7000   127.6124     8.0681     7.9895
  297.8000   127.8612     8.0679     7.9893
  297.9000   127.8809     8.0677     7.9891
  298.0000   127.5684     8.0465     7.9889
  298.1000   127.0593     8.0110     7.9887
  298.2000   126.1669     8.0108     7.9884
  298.3000   125.9620     8.0106     7.9626
  298.4000   125.4102     7.9751     7.9324
  298.5000   124.8505     7.9544     7.9322
  298.6000   124.5988     7.9397     7.9319
  298.7000   124.3358     7.8985     7.9317
  298.8000   123.8562     7.8983     7.9315
  298.9000   123.5395     7.8981     7.9313
  299.0000   123.2877     7.8979     7.9215
  299.1000   122.9579     7.8976     7.8757
  299.2000   122.5046     7.8974     7.8754
  299.3000   122.5029     7.8972     7.8752
  299.4000   122.0598     7.8970     7.8750
  299.5000   121.7249     7.8968     7.8748
  299.6000   121.4732     7.8741     7.8746
  299.7000   121.2214     7.8413     7.8743
  299.8000   120.9696     7.8411     7.8741
  299.9000   120.6699     7.8408     7.8739
  300.0000   120.4660     7.8407     7.8626
  300.1000   120.2142     7.8405     7.8354
  300.2000   119.9625     7.8402     7.8180
  300.3000   119.7108     7.8400     7.8176
  300.4000   119.4467     7.8398     7.8171
  300.5000   119.4453     7.8870     7.8582
  300.6000   119.4438     7.9497     7.8710
  300.7000   119.5730     7.9495     7.8706
  300.8000   119.8217     7.9492     7.8702
  300.9000   120.0937     7.9885     7.8697
  301.0000   120.6533     8.0045     7.8692
  301.1000   121.0917     8.0043     7.8688
  301.2000   121.5907     7.9949     7.8684
  301.3000   122.0896     7.9481     7.8680
  301.4000   122.5299     7.9479     7.8675
  301.5000   123.0029     7.9477     7.8671
  301.6000   123.0012     7.9475     7.8666
  301.7000   122.6592     7.9472     7.8349
  301.8000   121.9325     7.9425     7.8110
  301.9000   120.9402     7.8914     7.7993
  302.0000   119.9476     7.8912     7.7558
  302.1000   118.9551     7.8910     7.7553
  302.2000   117.3731     7.8908     7.7549
  302.3000   115.6376     7.8906     7.7545
  302.4000   114.0735     7.8904     7.7541
  302.5000   112.8333     7.8453     7.7536
  302.6000   111.4677     7.8350     7.7532
  302.7000   111.2434     7.8348     7.7528
  302.8000   111.3285     7.8345     7.7523
  302.9000   111.5743     7.8241     7.7519
  303.0000   111.9333     7.7253     7.7515
  303.1000   112.6745     7.6466     7.7497
  303.2000   113.4159     7.5305     7.6966
  303.3000   114.3506     7.4020     7.6257
  303.4000   115.6158     7.2473     7.3917
  303.5000   116.9344     7.0034     7.1033
  303.6000   117.9233     6.9236     6.9133
  303.7000   119.0234     6.8446     6.7857
  303.8000   119.9009     6.8107     6.7499
  303.9000   120.7254     6.8105     6.7111
  304.0000   121.2485     6.8104     6.6905
  304.1000   121.4406     6.8101     6.6901
  304.2000   121.4388     6.8100     6.6908
  304.3000   121.4370     6.8098     6.7362
  304.4000   121.4352     6.8096     6.7359
  304.5000   121.2980     6.8191     6.7580
  304.6000   121.0485     6.8570     6.7963
  304.7000   120.7744     6.8090     6.8295
  304.8000   120.2155     6.8088     6.8290
  304.9000   119.9970     6.8086     6.7931
  305.0000   119.4243     6.7942     6.7808
  305.1000   118.5731     6.7497     6.7623
  305.2000   117.6315     6.6668     6.7234
  305.3000   116.8733     6.5965     6.6828
  305.4000   116.1418     6.4952     6.5466
  305.5000   115.0211     6.3844     6.4867
  305.6000   113.7810     6.2847     6.3707
  305.7000   112.6181     6.2129     6.2389
  305.8000   111.6037     6.1295     6.1324
  305.9000   110.1955     6.0437     6.0187
  306.0000   109.3374     5.9609     5.9253
  306.1000   108.5036     5.8675     5.8017
  306.2000   108.1725     5.7395     5.6703
  306.3000   108.4665     5.6357     5.5417
  306.4000   108.9745     5.5158     5.4152
  306.5000   109.2132     5.3690     5.2325
  306.6000   109.2739     5.2174     5.1379
  306.7000   109.2721     5.0698     5.0053
  306.8000   109.1960     4.9262     4.8736
  306.9000   108.9465     4.7647     4.7561
  307.0000   108.6603     4.6967     4.5811
  307.1000   108.2361     4.6005     4.4638
  307.2000   107.7389     4.4962     4.3549
  307.3000   107.3424     4.3985     4.2563
  307.4000   107.0929     4.3200     4.1597
  307.5000   106.8333     4.2267     4.0653
  307.6000   106.8315     4.1138     3.9735
  307.7000   107.0119     3.9976     3.8836
  307.8000   107.2578     3.8845     3.7835
  307.9000   107.5036     3.7730     3.6839
  308.0000   107.7655     3.6269     3.6003
  308.1000   108.3373     3.5227     3.5112
  308.2000   108.9613     3.4159     3.4216
  308.3000   109.5494     3.3193     3.3252
  308.4000   110.1407     3.2254     3.2230
  308.5000   110.8818     3.1315     3.1018
  308.6000   111.6617     3.0458     2.9456
  308.7000   113.0685     2.9599     2.8145
  308.8000   114.3734     2.8593     2.7253
  308.9000   115.4858     2.7561     2.6656
  309.0000   116.3373     2.6794     2.6150
  309.1000   116.8308     2.6108     2.5575
  309.2000   117.4082     2.5595     2.5097
  309.3000   117.8181     2.5107     2.4711
