~VERSION INFORMATION
 VERS.                2.0:   CWLS LOG ASCII STANDARD - VERSION 2.0
 WRAP.                 NO:   ONE LINE PER DEPTH STEP
~WELL INFORMATION
#MNEM.UNIT      DATA TYPE    INFORMATION
#----------   ------------   ------------------------------
 STRT.F            0.0000:   START DEPTH
 STOP.F         2182.0000:   STOP DEPTH
 STEP.F            0.1000:   STEP LENGTH
 NULL.          -999.2500:   NO VALUE
 COMP.       FLUOR DANIEL:   COMPANY
 WELL.   75-1 X 29 #75-29:   WELL
 FLD .             TEAPOT:   FIELD
 LOC .      S29 T39N R78W:   LOCATION
 CNTY.            NATRONA:   COUNTY
 STAT.            WYOMING:   STATE
 CTRY. UNITED STATES OF AMERICA:   COUNTRY
 SRVC.      Western Atlas:   SERVICE COMPANY
 DATE.        10-MAY-1996:   LOGDATE
 API .       490252279100:   API NUMBER
~CURVE INFORMATION
#MNEM.UNIT       API CODE    CURVE DESCRIPTION
#----------   ------------   ------------------------------
 DEPT.F                  :   
 GRR .GAPI   07 310 01 00:   GAMMA RAY
 RFOC.OHMM   07 220 04 00:   RESISTIVITY FOCUSED LOG
 RILD.OHMM   07 120 46 00:   INDUCTION LOG DEEP RESISTIVITY
 RILM.OHMM   07 120 44 00:   INDUCTION LOG MEDIUM RESISTIVITY
~PARAMETER INFORMATION
#MNEM.UNIT          VALUE    DESCRIPTION
#----------   ------------   ------------------------------
 PD  .                 GL:   PERMANENT DATUM
 EPD .F              5031:   ELEVATION PERMANENT DATUM
 LMF .                 KB:   LOG MEASURED FROM
 DAPD.F                10:   FEET ABOVE PERMANENT DATUM
 DMF .                 KB:   DRILLING MEASURED FROM
 EKB .F              5041:   KELLING BUSHING
 EDF .F              5040:   DRILLING FLOOR
 EGL .F              5031:   GROUND LEVEL
 DATE.        10-MAY-1996:   RUN DATE
 RUN .                  1:   RUN NUMBER
 DD  .F              2188:   DEPTH DRILLER
 DL  .F              2184:   DEPTH LOGGER
 BLI .F              2182:   BOTTOM LOG INTERVAL
 TLI .F               400:   TOP LOG INTERVAL
 CS  .IN                7:   CASING SIZE
 CBD .F               400:   CASING BOTTOM DRILLER
 CBL .F               400:   CASING BOTTOM LOGGER
 BS  .IN             6.25:   BIT SIZE
 BSD .F              2188:   BIT SIZE AT DEPTH
 DFT .                AIR:   DRILLING FLUID TYPE
 MRT .F                97:   MAXIMUM RECORDED TEMPERATURE
 LUN .            HL-6530:   LOGGING UNIT NUMBER
 LUL .             CASPER:   LOGGING UNIT LOCATION
 ENGI.           BROWNLOW:   RECORDING ENGINEER
 WITN.             LEBEAU:   WITNESSED BY
 CLNT.            A2DTECH:   CLIENT CODE
 ORIG.           5" PRINT:   ORIGIN OF DATA
 UWI .       490252279100:   UNIQUE WELL ID
 DICO. A2D Technologies, Inc.:   DIGITIZING COMPANY
~OTHER INFORMATION
~A    DEPT      GRR      RFOC       RILD       RILM   
# ...
 1095.0000   124.7892  -999.2500    10.9642    11.6162
 1095.1000   124.4858  -999.2500    10.9023    11.5436
 1095.2000   124.2754  -999.2500    10.8879    11.4804
 1095.3000   123.8561  -999.2500    10.8494    11.4632
 1095.4000   123.5771  -999.2500    10.7856    11.4250
 1095.5000   123.5049  -999.2500    10.7222    11.3580
 1095.6000   123.2480  -999.2500    10.6591    11.2784
 1095.7000   122.9691  -999.2500    10.5890    11.1486
 1095.8000   122.7346  -999.2500    10.5887    11.1483
 1095.9000   122.6644  -999.2500    10.5451    11.0940
 1096.0000   122.6626  -999.2500    10.4831    10.9874
 1096.1000   122.5664  -999.2500    10.4215    10.8885
 1096.2000   122.3578  -999.2500    10.3602    10.8423
 1096.3000   122.3519  -999.2500    10.2980    10.8360
 1096.4000   121.7515  -999.2500    10.2978    10.7668
 1096.5000   121.1173  -999.2500    10.2493    10.7093
 1096.6000   120.5152  -999.2500    10.1891    10.6464
 1096.7000   120.0036  -999.2500    10.1553    10.5840
 1096.8000   119.4919  -999.2500    10.1397    10.5441
 1096.9000   118.9798  -999.2500    10.0800    10.5330
 1097.0000   118.4276  -999.2500    10.0147    10.4707
 1097.1000   117.9560  -999.2500    10.0145    10.4704
 1097.2000   117.2550  -999.2500    10.0142    10.4208
 1097.3000   116.3461  -999.2500     9.9824    10.3597
 1097.4000   115.5173  -999.2500     9.9445    10.2989
 1097.5000   115.1054  -999.2500     9.9443    10.2385
 1097.6000   115.0995  -999.2500     9.9440    10.1784
 1097.7000   114.8003  -999.2500     9.8750    10.1121
 1097.8000   114.5861  -999.2500     9.8748    10.0594
 1097.9000   114.3292  -999.2500     9.8745    10.0005
 1098.0000   113.9519  -999.2500     9.8479     9.9418
 1098.1000   113.5144  -999.2500     9.8058     9.9030
 1098.2000   113.2573  -999.2500     9.8001     9.9027
 1098.3000   112.9824  -999.2500     9.7376     9.9024
 1098.4000   112.7440  -999.2500     9.6852     9.9022
 1098.5000   112.6777  -999.2500     9.6283     9.8565
 1098.6000   112.6759  -999.2500     9.5716     9.8332
 1098.7000   112.6741  -999.2500     9.5154     9.8330
 1098.8000   112.7766  -999.2500     9.4487     9.8193
 1098.9000   113.2963  -999.2500     9.3389     9.7645
 1099.0000   114.4756  -999.2500     9.2750     9.7642
 1099.1000   115.5479  -999.2500     9.2295     9.7146
 1099.2000   116.9901  -999.2500     9.1753     9.6962
 1099.3000   118.3967  -999.2500     9.1213     9.6960
 1099.4000   119.5936  -999.2500     9.0676     9.6780
 1099.5000   120.6106  -999.2500     9.0204     9.6285
 1099.6000   121.6939  -999.2500     9.0201     9.6282
 1099.7000   122.8873  -999.2500     8.9707     9.5748
 1099.8000   124.3532  -999.2500     8.9574     9.5612
 1099.9000   125.7343  -999.2500     8.9271     9.5610
 1100.0000   126.6763  -999.2500     8.8951     9.5421
 1100.1000   127.1078  -999.2500     8.8947     9.4947
 1100.2000   127.5392  -999.2500     8.8944     9.4473
 1100.3000   127.7054  -999.2500     8.8939     9.4287
 1100.4000   127.7036  -999.2500     8.8936     9.4285
 1100.5000   127.7581  -999.2500     8.8932     9.4404
 1100.6000   128.0084  -999.2500     8.8929     9.4939
 1100.7000   128.3003  -999.2500     8.8925     9.4937
 1100.8000   128.5091  -999.2500     8.8921     9.4936
 1100.9000   129.0821  -999.2500     8.8917     9.4934
 1101.0000   129.7248  -999.2500     8.8914     9.4933
 1101.1000   130.2912  -999.2500     8.8910     9.4932
 1101.2000   131.0316  -999.2500     8.8907     9.4931
 1101.3000   131.6028  -999.2500     8.8903     9.4929
 1101.4000   131.8190  -999.2500     8.8910     9.4928
 1101.5000   132.0692  -999.2500     8.9513     9.4927
 1101.6000   132.0805  -999.2500     8.9510     9.5181
 1101.7000   131.7557  -999.2500     8.9506     9.5585
 1101.8000   131.2276  -999.2500     8.9502     9.5583
 1101.9000   130.3872  -999.2500     8.9498     9.5581
 1102.0000   128.8118  -999.2500     8.9511     9.5580
 1102.1000   127.2198  -999.2500     9.0112     9.5579
 1102.2000   125.3232  -999.2500     9.0109     9.5578
 1102.3000   123.3631  -999.2500     9.0105     9.5577
 1102.4000   122.0710  -999.2500     9.0102     9.5628
 1102.5000   120.4366  -999.2500     9.0098     9.6238
 1102.6000   119.2751  -999.2500     9.0094     9.6236
 1102.7000   118.7441  -999.2500     9.0090     9.6235
 1102.8000   118.6241  -999.2500     9.0527     9.6234
 1102.9000   118.9630  -999.2500     9.0709     9.6233
 1103.0000   119.9695  -999.2500     9.0705     9.6299
 1103.1000   121.0282  -999.2500     9.0701     9.6899
 1103.2000   122.2236  -999.2500     9.0725     9.6898
 1103.3000   123.2928  -999.2500     9.1323     9.6897
 1103.4000   124.2996  -999.2500     9.1320     9.6896
 1103.5000   125.1214  -999.2500     9.1316     9.6894
 1103.6000   125.5806  -999.2500     9.1312     9.6893
 1103.7000   125.8367  -999.2500     9.1309     9.6891
 1103.8000   125.8349  -999.2500     9.1337     9.6890
 1103.9000   125.4378  -999.2500     9.1935     9.6889
 1104.0000   124.6345  -999.2500     9.1932     9.6887
 1104.1000   123.4250  -999.2500     9.1928     9.6886
 1104.2000   122.0613  -999.2500     9.1924     9.6885
 1104.3000   121.3043  -999.2500     9.2063     9.6883
 1104.4000   120.7033  -999.2500     9.2556     9.6882
 1104.5000   120.7018  -999.2500     9.2551     9.6446
 1104.6000   120.5443  -999.2500     9.3015     9.6210
 1104.7000   120.5037  -999.2500     9.3187     9.6209
 1104.8000   120.7542  -999.2500     9.3183     9.6208
 1104.9000   121.0135  -999.2500     9.3329     9.6206
 1105.0000   121.5961  -999.2500     9.3823     9.6205
 1105.1000   122.0186  -999.2500     9.3818     9.6204
 1105.2000   122.5212  -999.2500     9.3815     9.6541
 1105.3000   122.9098  -999.2500     9.4183     9.6870
 1105.4000   123.1601  -999.2500     9.4459     9.6869
 1105.5000   123.4106  -999.2500     9.4455     9.6867
 1105.6000   123.6937  -999.2500     9.4501     9.6866
 1105.7000   123.9113  -999.2500     9.5103     9.6865
 1105.8000   124.1617  -999.2500     9.5099     9.7218
 1105.9000   124.4122  -999.2500     9.5478     9.7535
 1106.0000   124.6627  -999.2500     9.6028     9.7670
 1106.1000   124.9132  -999.2500     9.6414     9.8236
 1106.2000   125.1890  -999.2500     9.6410     9.8892
 1106.3000   125.1873  -999.2500     9.6406     9.9380
 1106.4000   125.1856  -999.2500     9.6906     9.9578
 1106.5000   124.7985  -999.2500     9.7068     9.9576
 1106.6000   124.1988  -999.2500     9.7064     9.9727
 1106.7000   123.9753  -999.2500     9.7232    10.0266
 1106.8000   123.9734  -999.2500     9.7731    10.0264
 1106.9000   123.9717  -999.2500     9.7726    10.0772
 1107.0000   123.9698  -999.2500     9.8238    10.0959
 1107.1000   123.9681  -999.2500     9.8397    10.0958
 1107.2000   123.9663  -999.2500     9.8686    10.1125
 1107.3000   123.9644  -999.2500     9.9073    10.1657
 1107.4000   123.9626  -999.2500     9.9069    10.1655
 1107.5000   123.9608  -999.2500     9.9064    10.1654
 1107.6000   123.9591  -999.2500     9.9588    10.2067
 1107.7000   123.9573  -999.2500     9.9744    10.2358
 1107.8000   123.9554  -999.2500     9.9740    10.2357
 1107.9000   123.9536  -999.2500     9.9736    10.2356
 1108.0000   123.9518  -999.2500     9.9732    10.2354
 1108.1000   123.9500  -999.2500     9.9728    10.2352
 1108.2000   123.9482  -999.2500    10.0262    10.2351
 1108.3000   123.6458  -999.2500    10.0413    10.2350
 1108.4000   123.1398  -999.2500    10.0409    10.2548
 1108.5000   122.6338  -999.2500    10.0405    10.3059
 1108.6000   122.1275  -999.2500    10.0400    10.3057
 1108.7000   121.5292  -999.2500    10.0396    10.3055
 1108.8000   120.9081  -999.2500    10.0392    10.3054
 1108.9000   120.1499  -999.2500    10.0388    10.3053
 1109.0000   119.6084  -999.2500    10.0384    10.3051
 1109.1000   119.3544  -999.2500    10.0380    10.3050
 1109.2000   119.1002  -999.2500    10.0375    10.3049
 1109.3000   118.8076  -999.2500    10.0371    10.3047
 1109.4000   118.8060  -999.2500    10.0367    10.3046
 1109.5000   118.8042  -999.2500     9.9929    10.3044
