~VERSION INFORMATION
 VERS.                2.0:   CWLS LOG ASCII STANDARD - VERSION 2.0
 WRAP.                 NO:   ONE LINE PER DEPTH STEP
~WELL INFORMATION
#MNEM.UNIT      DATA TYPE    INFORMATION
#----------   ------------   ------------------------------
 STRT.F           11.5000:   START DEPTH
 STOP.F          583.0000:   STOP DEPTH
 STEP.F            0.5000:   STEP LENGTH
 NULL.          -999.2500:   NO VALUE
 COMP.    FENIX & SCISSON:   COMPANY
 WELL.      41 SX 3 #41-3:   WELL
 FLD .             TEAPOT:   FIELD
 LOC .       S3 T38N R78W:   LOCATION
 CNTY.            NATRONA:   COUNTY
 STAT.            WYOMING:   STATE
 CTRY. UNITED STATES OF AMERICA:   COUNTRY
 SRVC.            Unknown:   SERVICE COMPANY
 DATE.        01-DEC-1978:   LOGDATE
 API .       490251074000:   API NUMBER
~CURVE INFORMATION
#MNEM.UNIT       API CODE    CURVE DESCRIPTION
#----------   ------------   ------------------------------
 DEPT.F                  :   
 SPR .MV     05 010 01 00:   SPONTANEOUS POTENTIAL FROM RES.
 SN  .OHMM   05 040 16 00:   SHORT NORMAL 16"
 IL  .OHMM   05 120 00 00:   INDUCTION LOG
 GRD .GAPI   45 310 01 00:   GAMMA RAY FROM DENSITY LOG
 CALD.IN     45 280 60 00:   CALIPER
 DEN .G/C3   45 350 01 00:   COMPENSATED BULK DENSTIY
 CORR.G/C3   45 356 01 00:   DENSITY CORRECTION
 DPHI.DEC    45 890 12 00:   DENSITY POROSITY SANDSTONE
~PARAMETER INFORMATION
#MNEM.UNIT          VALUE    DESCRIPTION
#----------   ------------   ------------------------------
 PD  .                 GL:   PERMANENT DATUM
 EPD .F              5150:   ELEVATION PERMANENT DATUM
 LMF .                 KB:   LOG MEASURED FROM
 DAPD.F                 4:   FEET ABOVE PERMANENT DATUM
 DMF .                 KB:   DRILLING MEASURED FROM
 EKB .F              5154:   KELLING BUSHING
 EGL .F              5150:   GROUND LEVEL
 DATE.            12-1-78:   RUN DATE
 RUN .                  1:   RUN NUMBER
 DD  .F               600:   DEPTH DRILLER
 DL  .F               582:   DEPTH LOGGER
 BLI .F               576:   BOTTOM LOG INTERVAL
 TLI .F                42:   TOP LOG INTERVAL
 CS  .IN            8.625:   CASING SIZE
 CBD .F                40:   CASING BOTTOM DRILLER
 CBL .F                41:   CASING BOTTOM LOGGER
 BS  .IN            7.875:   BIT SIZE
 BSD .F               600:   BIT SIZE AT DEPTH
 DFT .                KCL:   DRILLING FLUID TYPE
 DFD .                8.8:   DRILLING FLUID DENSITY
 DFV .                 35:   DRILLING FLUID VISCOSITY
 DFPH.               11.2:   DRILLING FLUID PH
 DFL .               11.6:   DRILLING FLUID LOSS
 MSS .          FLOW LINE:   MUD SAMPLE SOURCE
 RMS .OHMM            .36:   RESISTIVITY MUD SAMPLE
 MST .F                52:   MUD SAMPLE TEMPERATURE
 RMF .OHMM            .36:   RESISTIVITY MUD FILTRATE SAMPLE
 MFST.F                55:   MUD FILTRATE SAMPLE TEMPERATURE
 RMC .OHMM            .42:   RESISTIVITY MUD CAKE
 MCST.F                60:   MUD CAKE SAMPLE TEMPERATURE
 MFSS.           MEASURED:   MUD FILTRATE SAMPLE SOURCE
 MCSS.           MEASURED:   MUD CAKE SAMPLE SOURCE
 RMB .OHMM            .32:   RESISTIVITY MUD AT BHT
 BHT .F                58:   BOTTOM HOLE TEMPERATURE
 MRT .F                58:   MAXIMUM RECORDED TEMPERATURE
 LUN .               2958:   LOGGING UNIT NUMBER
 LUL .                CPR:   LOGGING UNIT LOCATION
 ENGI.            ROLLINS:   RECORDING ENGINEER
 WITN.              AMEND:   WITNESSED BY
 CLNT.            A2DTECH:   CLIENT CODE
 ORIG.       2", 5" PRINT:   ORIGIN OF DATA
 UWI .       490251074000:   UNIQUE WELL ID
 DICO. A2D Technologies, Inc.:   DIGITIZING COMPANY
~OTHER INFORMATION
~A   DEPT      SPR         SN         IL         GRD      CALD        DEN       CORR       DPHI   
# ...
  133.0000   -34.1921     9.0084     9.3141    98.2363     8.0483     2.4930     0.0390     0.1173
  133.5000   -34.2375     9.0484     9.3578    98.6515     8.0483     2.4941     0.0386     0.1138
  134.0000   -34.2829     9.0885     9.4017   100.1722     8.0483     2.4971     0.0382     0.1130
  134.5000   -34.3284     9.1202     9.4459   101.7212     8.0483     2.5044     0.0378     0.1121
  135.0000   -34.3739     9.2994     9.5722   103.2472     8.0483     2.5056     0.0375     0.1082
  135.5000   -34.4190     9.4802     9.7541   103.7546     8.0483     2.5078     0.0371     0.1044
  136.0000   -34.4633     9.6644     9.9395   102.0345     8.0483     2.5167     0.0362     0.1007
  136.5000   -34.4214     9.8352    10.1416   104.7003     8.0483     2.5240     0.0345     0.0974
  137.0000   -34.2223     9.9256    10.4127   107.7658     8.0483     2.5261     0.0328     0.0987
  137.5000   -34.0257    10.0168    10.6911   110.8971     8.0483     2.5246     0.0312     0.1006
  138.0000   -33.8290    10.1088    10.9769   112.4390     8.0483     2.5190     0.0295     0.1044
  138.5000   -33.6328    10.2017    11.2703   112.1799     8.0483     2.5120     0.0278     0.1102
  139.0000   -33.4368    10.2954    11.5963   110.2249     8.0483     2.5054     0.0253     0.1120
  139.5000   -33.2314    10.3900    11.6029   111.1665     8.0453     2.5021     0.0220     0.1158
  140.0000   -32.6774    10.4758    11.6101   109.9176     8.0400     2.4990     0.0187     0.1194
  140.5000   -32.1134    10.6818    11.6173   105.6178     8.0346     2.4958     0.0153     0.1173
  141.0000   -31.5477    10.9157    11.6244   101.4278     8.0292     2.4932     0.0120     0.1171
  141.5000   -30.9909    11.1547    11.6316    98.8989     8.0239     2.4922     0.0111     0.1192
  142.0000   -31.3426    11.3840    11.6388   102.1304     8.0185     2.4912     0.0114     0.1212
  142.5000   -31.8337    11.4066    11.6460   105.4515     8.0131     2.4901     0.0117     0.1213
  143.0000   -32.3005    11.4279    11.6532   105.7222     8.0078     2.4902     0.0120     0.1201
  143.5000   -32.4362    11.4492    11.6604   105.4693     8.0024     2.4917     0.0123     0.1200
  144.0000   -32.5569    11.4706    11.6676   105.7562     7.9971     2.4932     0.0125     0.1208
  144.5000   -32.6676    11.4921    11.6748   107.2316     7.9917     2.4931     0.0128     0.1217
  145.0000   -33.1072    11.5135    11.6820   109.9856     7.9863     2.4924     0.0129     0.1198
  145.5000   -33.3922    11.5353    11.6888   111.9175     7.9810     2.4917     0.0154     0.1174
  146.0000   -33.6476    11.5579    11.6968   110.2795     7.9756     2.4950     0.0262     0.1159
  146.5000   -33.6565    11.5782    11.7039   109.4428     7.9703     2.5017     0.0351     0.1205
  147.0000   -33.6063    11.5963    11.5241   110.5465     7.9649     2.5085     0.0349     0.1151
  147.5000   -33.5543    11.3001    11.3415   113.3615     7.9595     2.5111     0.0350     0.1114
  148.0000   -33.4983    11.1059    11.1619   116.0923     7.9542     2.4997     0.0393     0.1188
  148.5000   -33.3665    10.9151    10.9850   117.5448     7.9403     2.4889     0.0435     0.1221
  149.0000   -33.1515    10.7275    10.8110   116.0852     7.9194     2.4884     0.0468     0.1209
  149.5000   -32.8227    10.5431    10.6397   116.0691     7.8984     2.4887     0.0449     0.1197
  150.0000   -32.1427    10.3618    10.4712   116.8062     7.8771     2.4920     0.0429     0.1163
  150.5000   -31.5233    10.1838    10.2840   117.3139     7.8567     2.4955     0.0384     0.1130
  151.0000   -31.5873    10.0088    10.3458   115.4046     7.8993     2.4988     0.0336     0.1129
  151.5000   -31.6648     9.9109    10.4393   111.4087     7.9472     2.4998     0.0287     0.1201
  152.0000   -31.7398    10.0110    10.5336   106.6015     7.9949     2.4908     0.0249     0.1252
  152.5000   -31.8138    10.0932    10.6288   102.8894     8.0424     2.4827     0.0275     0.1248
  153.0000   -31.8844    10.1764    10.7531   102.6469     8.0484     2.4845     0.0301     0.1221
  153.5000   -32.1437    10.2603    10.9013   101.4954     8.0484     2.4888     0.0329     0.1193
  154.0000   -32.4616    10.2988    11.0516    99.8245     8.0483     2.4964     0.0458     0.1139
  154.5000   -32.6988    10.3185    11.2040    99.1895     8.0485     2.5040     0.0531     0.1076
  155.0000   -32.6431    10.3387    11.3840    99.5180     8.0470     2.5115     0.0481     0.1014
  155.5000   -32.5941    10.3589    11.3743   101.1003     8.0119     2.5191     0.0432     0.0954
  156.0000   -32.5466    10.3795    11.3627   104.5999     7.9764     2.5266     0.0383     0.0988
  156.5000   -32.5286    10.6472    11.3511   105.0336     7.9396     2.5271     0.0376     0.1028
  157.0000   -32.6960    10.9241    11.3395   105.2347     7.9511     2.5205     0.0386     0.1070
  157.5000   -32.8646    11.1716    11.3279   108.0225     7.9760     2.5136     0.0389     0.1074
  158.0000   -33.0325    11.1329    11.3163   111.4473     8.0011     2.5150     0.0429     0.1037
  158.5000   -33.2006    11.0942    11.3047   113.0739     8.0259     2.5182     0.0465     0.0978
  159.0000   -33.4769    11.0559    11.2931   108.9788     8.0339     2.5215     0.0400     0.1012
  159.5000   -33.9180    11.0177    11.2819   105.6945     8.0394     2.5204     0.0334     0.1042
  160.0000   -34.2944    10.9713    11.2654   107.6437     8.0449     2.5178     0.0289     0.1041
  160.5000   -34.2953    11.0109    11.2479   109.4909     8.0483     2.5161     0.0294     0.1040
  161.0000   -34.2941    11.0634    11.2305   110.2116     8.0483     2.5143     0.0297     0.1038
  161.5000   -34.2942    11.1160    11.2132   109.7645     8.0483     2.5125     0.0301     0.1057
  162.0000   -34.2943    11.1756    11.1957   110.5034     8.0483     2.5108     0.0305     0.1094
  162.5000   -34.2944    11.0831    11.1783   108.3290     8.0483     2.5089     0.0308     0.1054
  163.0000   -34.2942    10.8854    11.0985   106.2510     8.0483     2.5088     0.0294     0.1059
  163.5000   -34.2797    10.6913    11.0081   106.1894     8.0483     2.5093     0.0265     0.1072
  164.0000   -34.1825    10.5706    10.9633   105.7617     8.0483     2.5079     0.0236     0.1110
  164.5000   -34.1016    10.5641    10.9502   104.0522     8.0483     2.5052     0.0207     0.1147
  165.0000   -34.2179    10.5577    10.9370   103.5096     8.0483     2.5025     0.0179     0.1163
  165.5000   -34.3326    10.5513    10.9239   107.1167     8.0406     2.4998     0.0169     0.1174
  166.0000   -34.4472    10.5449    10.9108   107.3780     8.0263     2.4975     0.0202     0.1163
  166.5000   -34.4766    10.5385    10.8977   107.0127     8.0119     2.4987     0.0265     0.1103
  167.0000   -34.4512    10.5321    10.8847   107.6656     8.0121     2.5059     0.0329     0.1044
  167.5000   -34.4254    10.5257    10.8716   107.1641     8.0151     2.5136     0.0392     0.0986
  168.0000   -34.3993    10.5193    10.8586   106.1824     8.0182     2.5219     0.0421     0.0982
  168.5000   -34.3731    10.5129    10.8456   107.8276     8.0212     2.5252     0.0386     0.1013
  169.0000   -34.3469    10.5065    10.8326   109.9042     8.0243     2.5210     0.0351     0.1062
  169.5000   -34.3205    10.5001    10.8196   111.5162     8.0273     2.5162     0.0317     0.1100
  170.0000   -34.2962    10.4937    10.8067   111.2167     8.0293     2.5080     0.0282     0.1117
  170.5000   -34.3411    10.4873    10.7937   110.9609     8.0300     2.4995     0.0270     0.1173
  171.0000   -34.3897    10.4809    10.7807   111.1981     8.0307     2.4948     0.0309     0.1201
  171.5000   -34.4387    10.4760    10.7710   114.8387     8.0315     2.4906     0.0349     0.1192
  172.0000   -34.4862    10.4915    10.8009   115.9046     8.0322     2.4899     0.0389     0.1181
  172.5000   -34.3536    10.5075    10.8271   106.3766     8.0329     2.4948     0.0408     0.1106
  173.0000   -34.1926    10.5235    10.8532   103.9939     8.0336     2.4997     0.0368     0.1105
