~VERSION INFORMATION
 VERS.                2.0:   CWLS LOG ASCII STANDARD - VERSION 2.0
 WRAP.                 NO:   ONE LINE PER DEPTH STEP
~WELL INFORMATION
#MNEM.UNIT      DATA TYPE    INFORMATION
#----------   ------------   ------------------------------
 STRT.F         1050.0000:   START DEPTH
 STOP.F         2592.5000:   STOP DEPTH
 STEP.F            0.5000:   STEP LENGTH
 NULL.          -999.2500:   NO VALUE
 COMP. LAWRENCE/ALLISON INC:   COMPANY
 WELL. NAVAL PETROLEUM RESERVE 3 X15 #34-15:   WELL
 FLD .            WILDCAT:   FIELD
 LOC .      S15 T38N R78W:   LOCATION
 CNTY.            NATRONA:   COUNTY
 STAT.            WYOMING:   STATE
 CTRY. UNITED STATES OF AMERICA:   COUNTRY
 SRVC.            Unknown:   SERVICE COMPANY
 DATE.        07-AUG-1988:   LOGDATE
 API .       490251125500:   API NUMBER
~CURVE INFORMATION
#MNEM.UNIT       API CODE    CURVE DESCRIPTION
#----------   ------------   ------------------------------
 DEPT.F                  :   
 ROP .MIN/FT 91 810 01 00:   RATE OF DRILLING PENETRATION
 TGAS.UNITS  91 830 01 00:   TOTAL GAS FROM HOTWIRE
~PARAMETER INFORMATION
#MNEM.UNIT          VALUE    DESCRIPTION
#----------   ------------   ------------------------------
 EKB .F              5286:   KELLING BUSHING
 EGL .F              5276:   GROUND LEVEL
 DATE.           9-7-1988:   RUN DATE
 RUN .                  1:   RUN NUMBER
 DD  .F              2592:   DEPTH DRILLER
 CBD .F              1044:   CASING BOTTOM DRILLER
 ENGI.               HUSK:   RECORDING ENGINEER
 CLNT.            A2DTECH:   CLIENT CODE
 ORIG.           5" PRINT:   ORIGIN OF DATA
 UWI .       490251125500:   UNIQUE WELL ID
 DICO. A2D Technologies, Inc.:   DIGITIZING COMPANY
~OTHER INFORMATION
~A  DEPT         ROP     TGAS   
# ...
 1171.5000     0.4948     8.2961
 1172.0000     0.5085     8.2961
 1172.5000     0.4825     8.2961
 1173.0000     0.4557     8.2961
 1173.5000     0.4292     8.2961
 1174.0000     0.4077     8.2961
 1174.5000     0.4060     8.2961
 1175.0000     0.4038     8.2960
 1175.5000     0.4015     8.2957
 1176.0000     0.3992     8.2963
 1176.5000     0.3970     8.2976
 1177.0000     0.3947     8.4431
 1177.5000     0.3925     8.7823
 1178.0000     0.3902     9.1143
 1178.5000     0.3879     9.2878
 1179.0000     0.3856     9.3998
 1179.5000     0.3838     9.7791
 1180.0000     0.3999     8.9576
 1180.5000     0.4320     8.0013
 1181.0000     0.4780     7.0422
 1181.5000     0.5239     6.0509
 1182.0000     0.5485     5.8340
 1182.5000     0.5516     5.8912
 1183.0000     0.5548     5.9599
 1183.5000     0.5574     6.0278
 1184.0000     0.5479     6.0945
 1184.5000     0.5020     6.1612
 1185.0000     0.4571     6.2279
 1185.5000     0.4108     6.2946
 1186.0000     0.4069     6.3613
 1186.5000     0.4016     6.4280
 1187.0000     0.3962     6.4948
 1187.5000     0.3907     6.5615
 1188.0000     0.3857     6.6282
 1188.5000     0.3596     6.6947
 1189.0000     0.3253     6.7628
 1189.5000     0.3086     6.7237
 1190.0000     0.3421     6.6201
 1190.5000     0.3801     6.5161
 1191.0000     0.4197     6.4115
 1191.5000     0.4319     6.3052
 1192.0000     0.4441     6.3046
 1192.5000     0.4568     6.3287
 1193.0000     0.4593     6.3538
 1193.5000     0.4517     6.3786
 1194.0000     0.4228     6.4034
 1194.5000     0.3948     6.4282
 1195.0000     0.3658     6.4529
 1195.5000     0.3598     6.4777
 1196.0000     0.3877     6.5025
 1196.5000     0.4151     6.5272
 1197.0000     0.4424     6.5520
 1197.5000     0.4704     6.5768
 1198.0000     0.4558     6.6015
 1198.5000     0.4377     6.6263
 1199.0000     0.4196     6.6511
 1199.5000     0.4010     6.6758
 1200.0000     0.3969     6.7008
 1200.5000     0.3975     6.7259
 1201.0000     0.3983     6.7492
 1201.5000     0.3990     6.7721
 1202.0000     0.3998     6.5461
 1202.5000     0.4006     6.0488
 1203.0000     0.4013     5.7902
 1203.5000     0.4021     5.8004
 1204.0000     0.4028     5.8101
 1204.5000     0.4036     5.8220
 1205.0000     0.4044     5.8337
 1205.5000     0.4051     5.8453
 1206.0000     0.4059     5.8568
 1206.5000     0.4066     5.8684
 1207.0000     0.4073     5.8799
 1207.5000     0.4081     5.8914
 1208.0000     0.4132     5.9030
 1208.5000     0.4443     5.9145
 1209.0000     0.4755     5.9260
 1209.5000     0.5064     5.9376
 1210.0000     0.5159     5.9491
 1210.5000     0.4934     5.9607
 1211.0000     0.4717     5.9722
 1211.5000     0.4471     5.9837
 1212.0000     0.4345     5.9953
 1212.5000     0.4370     6.0068
 1213.0000     0.4407     6.0184
 1213.5000     0.4443     6.0299
 1214.0000     0.4342     6.0414
 1214.5000     0.4047     6.0530
 1215.0000     0.3753     6.0645
 1215.5000     0.3476     6.0761
 1216.0000     0.3708     6.0876
 1216.5000     0.4074     6.0991
 1217.0000     0.4545     6.1107
 1217.5000     0.4966     6.1222
 1218.0000     0.5399     6.1337
 1218.5000     0.5909     6.1453
 1219.0000     0.6488     6.1568
 1219.5000     0.7081     6.1684
 1220.0000     0.7046     6.1799
 1220.5000     0.6787     6.1915
 1221.0000     0.6540     6.2030
 1221.5000     0.6296     6.2145
 1222.0000     0.6043     6.2261
 1222.5000     0.6196     6.2376
 1223.0000     0.6633     6.2491
 1223.5000     0.7086     6.2607
 1224.0000     0.7045     6.2724
 1224.5000     0.6790     6.2843
 1225.0000     0.6549     6.2679
 1225.5000     0.6484     6.2488
 1226.0000     0.7512     6.2297
 1226.5000     0.8794     6.2106
 1227.0000     1.0085     6.1916
 1227.5000     1.1421     6.1726
 1228.0000     1.1718     6.1535
 1228.5000     1.1041     6.1345
 1229.0000     1.0344     6.1154
 1229.5000     0.9656     6.0964
 1230.0000     0.8971     6.0773
 1230.5000     0.8390     6.0583
 1231.0000     0.8060     6.0392
 1231.5000     0.7729     6.0202
 1232.0000     0.7398     6.0011
 1232.5000     0.7067     5.9821
 1233.0000     0.6736     5.9630
 1233.5000     0.6405     5.9440
 1234.0000     0.6069     5.9250
 1234.5000     0.5778     5.9059
 1235.0000     0.5493     5.8869
 1235.5000     0.5211     5.8678
 1236.0000     0.4924     5.8488
 1236.5000     0.4636     5.8298
 1237.0000     0.4338     5.8106
 1237.5000     0.4046     5.7914
 1238.0000     0.3884     5.7459
 1238.5000     0.4088     5.6741
 1239.0000     0.4282     5.6023
 1239.5000     0.4476     5.5302
 1240.0000     0.4671     5.4581
 1240.5000     0.4833     5.3868
 1241.0000     0.4642     5.3152
 1241.5000     0.4455     5.3567
 1242.0000     0.4263     5.5048
 1242.5000     0.4231     5.6526
 1243.0000     0.4251     5.7822
 1243.5000     0.4274     5.8056
 1244.0000     0.4297     5.8299
 1244.5000     0.4319     5.8547
 1245.0000     0.4340     5.8795
 1245.5000     0.4424     5.9043
 1246.0000     0.4519     5.9290
 1246.5000     0.4613     5.9538
 1247.0000     0.4715     5.9786
 1247.5000     0.4974     6.0033
 1248.0000     0.5262     6.0281
 1248.5000     0.5653     6.0529
 1249.0000     0.6085     6.0776
 1249.5000     0.6410     6.1024
 1250.0000     0.6063     6.1272
 1250.5000     0.5484     6.1519
 1251.0000     0.4972     6.1767
 1251.5000     0.4968     6.2015
 1252.0000     0.5156     6.2263
 1252.5000     0.5366     6.2510
 1253.0000     0.5576     6.2765
 1253.5000     0.5798     6.2566
 1254.0000     0.5640     6.2126
 1254.5000     0.5347     6.1683
 1255.0000     0.5046     6.1240
 1255.5000     0.4736     6.0796
 1256.0000     0.4708     6.0353
 1256.5000     0.4960     5.9910
 1257.0000     0.5306     5.9466
 1257.5000     0.5653     5.9023
 1258.0000     0.6001     5.8579
 1258.5000     0.6352     5.8138
 1259.0000     0.6714     5.7813
 1259.5000     0.6733     5.7821
 1260.0000     0.6730     5.7821
 1260.5000     0.6730     5.7821
 1261.0000     0.6729     5.7821
 1261.5000     0.6728     5.7821
 1262.0000     0.6732     5.7821
 1262.5000     0.6896     5.7821
 1263.0000     0.7625     5.7821
 1263.5000     0.7736     5.7821
 1264.0000     0.7693     5.7821
 1264.5000     0.7472     5.7821
 1265.0000     0.7254     5.7821
 1265.5000     0.7038     5.7821
 1266.0000     0.6821     5.7821
 1266.5000     0.6731     5.7821
 1267.0000     0.6729     5.7821
 1267.5000     0.6727     5.7821
 1268.0000     0.6510     5.7821
 1268.5000     0.6119     5.7821
 1269.0000     0.5841     5.7821
 1269.5000     0.5715     5.7821
 1270.0000     0.5217     5.7822
 1270.5000     0.4736     5.7821
 1271.0000     0.4256     5.7822
 1271.5000     0.3750     5.7847
 1272.0000     0.3590     5.6931
 1272.5000     0.3636     5.5758
 1273.0000     0.3872     5.4580
 1273.5000     0.4101     5.3404
 1274.0000     0.4328     5.2798
 1274.5000     0.4481     5.2796
 1275.0000     0.4523     5.2792
 1275.5000     0.4567     5.2793
 1276.0000     0.4681     5.2793
 1276.5000     0.4920     5.2793
 1277.0000     0.5157     5.2793
 1277.5000     0.5396     5.2793
 1278.0000     0.5594     5.2793
 1278.5000     0.5339     5.2793
 1279.0000     0.5061     5.2793
 1279.5000     0.4785     5.2793
 1280.0000     0.4587     5.2793
 1280.5000     0.4591     5.2793
 1281.0000     0.4591     5.2793
 1281.5000     0.4590     5.2793
 1282.0000     0.4594     5.2793
 1282.5000     0.4700     5.2793
 1283.0000     0.5094     5.2785
 1283.5000     0.5473     5.3063
 1284.0000     0.5852     5.3414
 1284.5000     0.6100     5.3767
 1285.0000     0.5783     5.4120
 1285.5000     0.5443     5.4473
 1286.0000     0.5106     5.4825
 1286.5000     0.5091     5.5178
 1287.0000     0.5092     5.5531
 1287.5000     0.5102     5.5883
 1288.0000     0.5449     5.6236
 1288.5000     0.5818     5.6589
 1289.0000     0.6182     5.6942
 1289.5000     0.6488     5.7293
 1290.0000     0.6437     5.7645
 1290.5000     0.6211     5.7820
 1291.0000     0.5987     5.7821
 1291.5000     0.5762     5.7822
 1292.0000     0.5723     5.7821
 1292.5000     0.5723     5.7821
