~VERSION INFORMATION
 VERS.                2.0:   CWLS LOG ASCII STANDARD - VERSION 2.0
 WRAP.                 NO:   ONE LINE PER DEPTH STEP
~WELL INFORMATION
#MNEM.UNIT      DATA TYPE    INFORMATION
#----------   ------------   ------------------------------
 STRT.F           33.5000:   START DEPTH
 STOP.F          692.0000:   STOP DEPTH
 STEP.F            0.5000:   STEP LENGTH
 NULL.          -999.2500:   NO VALUE
 COMP. FENIX & SCISSON INC:   COMPANY
 WELL.       NPR-3 #65-34:   WELL
 FLD .  TEAPOT DOME NPR-3:   FIELD
 LOC .      S34 T39N R78W:   LOCATION
 CNTY.            NATRONA:   COUNTY
 STAT.            WYOMING:   STATE
 CTRY. UNITED STATES OF AMERICA:   COUNTRY
 SRVC.           BIRDWELL:   SERVICE COMPANY
 DATE.        14-AUG-1978:   LOGDATE
 API .       490251070400:   API NUMBER
~CURVE INFORMATION
#MNEM.UNIT       API CODE    CURVE DESCRIPTION
#----------   ------------   ------------------------------
 DEPT.F                  :   
 CALD.IN     45 280 60 00:   CALIPER
 GRD .GAPI   45 310 01 00:   GAMMA RAY FROM DENSITY LOG
 RHOB.G/C3   45 350 01 00:   BULK DENSITY
 CORR.G/C3   45 356 01 00:   DENSITY CORRECTION
 DPHI.DEC    45 890 12 00:   DENSITY POROSITY SANDSTONE
 SPR .MV     05 010 01 00:   SPONTANEOUS POTENTIAL
 SN  .OHMM   05 040 16 00:   SHORT NORMAL 16'
 ILD .OHMM   05 120 46 00:   INDUCTION LOG DEEP RESISTIVITY
~PARAMETER INFORMATION
#MNEM.UNIT          VALUE    DESCRIPTION
#----------   ------------   ------------------------------
 PD  .                 GL:   PERMANENT DATUM
 EPD .F              5083:   ELEVATION PERMANENT DATUM
 LMF .                 KB:   LOG MEASURED FROM
 DAPD.F                 4:   FEET ABOVE PERMANENT DATUM
 DMF .                 KB:   DRILLING MEASURED FROM
 EKB .F              5087:   KELLING BUSHING
 EGL .F              5083:   GROUND LEVEL
 DATE.            8-14-78:   RUN DATE
 RUN .                  1:   RUN NUMBER
 DD  .F               675:   DEPTH DRILLER
 DL  .F               682:   DEPTH LOGGER
 BLI .F               676:   BOTTOM LOG INTERVAL
 TLI .F                50:   TOP LOG INTERVAL
 CS  .IN            8.625:   CASING SIZE
 CBD .F                40:   CASING BOTTOM DRILLER
 BS  .IN            7.875:   BIT SIZE
 BSD .F               675:   BIT SIZE AT DEPTH
 DFT .                KCL:   DRILLING FLUID TYPE
 DFD .                8.7:   DRILLING FLUID DENSITY
 DFV .                 31:   DRILLING FLUID VISCOSITY
 DFPH.                  9:   DRILLING FLUID PH
 TCS .HRS               2:   TIME CURCULATED STOPPED
 LUN .               3006:   LOGGING UNIT NUMBER
 LUL .               CASP:   LOGGING UNIT LOCATION
 ENGI.             MILLER:   RECORDING ENGINEER
 WITN.           MCGINLEY:   WITNESSED BY
 CLNT.            A2DTECH:   CLIENT CODE
 ORIG.           5" PRINT:   ORIGIN OF DATA
 UWI .       490251070400:   UNIQUE WELL ID
 DICO. A2D Technologies, Inc.:   DIGITIZING COMPANY
~OTHER INFORMATION
~A   DEPT     CALD         GRD      RHOB       CORR       DPHI        SPR         SN        ILD   
# ...
  560.0000     8.0337    68.0938     2.4774     0.2138     0.1150   -12.0759     8.9584    11.0868
  560.5000     8.0344    67.1653     2.4866     0.2103     0.1141   -12.2941     8.9242    11.0860
  561.0000     8.0348    65.8520     2.4866     0.2023     0.1140   -12.5136     8.8902    11.0860
  561.5000     8.0281    64.5056     2.4866     0.1933     0.1162   -12.6199     8.8563    11.0860
  562.0000     7.9499    63.5092     2.4768     0.1607     0.1308   -12.6551     8.8225    10.9764
  562.5000     7.8169    65.7544     2.4393     0.1263     0.1534   -12.6887     8.7889    10.8171
  563.0000     7.6853    68.0209     2.4055     0.0906     0.1665   -12.7223     8.7554    10.6601
  563.5000     7.5320    69.6112     2.3944     0.0719     0.1736   -12.7564     8.7231    10.5053
  564.0000     7.3686    68.5854     2.3777     0.0579     0.1848   -12.7891     8.7625    10.3930
  564.5000     7.2372    67.5765     2.3620     0.0479     0.1888   -12.9059     8.8008    10.4000
  565.0000     7.2063    67.4928     2.3610     0.0495     0.1881   -13.0658     8.8394    10.4054
  565.5000     7.1951    66.1166     2.3651     0.0526     0.1849   -13.2274     8.8780    10.4110
  566.0000     7.0426    63.6650     2.3736     0.0563     0.1814   -13.3886     8.9169    10.4165
  566.5000     6.9014    61.1967     2.3794     0.0592     0.1781   -13.5513     8.9663    10.4220
  567.0000     6.9583    61.3364     2.3810     0.0616     0.1761   -13.6082     8.9569    10.4275
  567.5000     7.0104    62.2028     2.3843     0.0639     0.1744   -13.6092     8.9412    10.4331
  568.0000     7.0629    65.2473     2.3898     0.0676     0.1709   -13.6086     8.9256    10.4385
  568.5000     7.1147    67.0096     2.4025     0.0794     0.1614   -13.6093     8.9100    10.4441
  569.0000     7.1911    67.1654     2.4158     0.0912     0.1485   -13.6055     8.8944    10.4496
  569.5000     7.2773    67.0243     2.4292     0.1016     0.1445   -13.8781     8.8789    10.4551
  570.0000     7.3644    65.9754     2.4355     0.1001     0.1452   -14.2934     8.8634    10.4606
  570.5000     7.4514    64.9270     2.4356     0.0983     0.1459   -14.7240     8.8479    10.4661
  571.0000     7.5384    63.8761     2.4343     0.0969     0.1464   -14.9577     8.8325    10.4717
  571.5000     7.6254    63.0961     2.4327     0.1041     0.1414   -15.1431     8.8171    10.4773
  572.0000     7.7124    62.5372     2.4546     0.1225     0.1224   -15.3274     8.7919    10.4827
  572.5000     7.7995    62.9570     2.4757     0.1407     0.1130   -15.5124     8.7078    10.4905
  573.0000     7.8866    63.2584     2.4946     0.1590     0.1122   -15.6978     8.6246    10.4538
  573.5000     7.9733    61.0505     2.4978     0.1773     0.1114   -15.8827     8.5421    10.3946
  574.0000     8.0391    58.7780     2.5086     0.1948     0.1021   -16.0319     8.4871    10.3360
  574.5000     8.0517    57.6707     2.5173     0.2060     0.0943   -16.0285     8.5103    10.2778
  575.0000     8.0651    57.6420     2.5175     0.2173     0.0918   -16.0283     8.5298    10.2198
  575.5000     8.0786    58.3854     2.5204     0.2232     0.0897   -16.0282     8.5497    10.1622
  576.0000     8.0920    59.9346     2.5295     0.2254     0.0847   -16.0282     8.5797    10.1050
  576.5000     8.1058    60.4976     2.5384     0.2227     0.0791   -16.0282     8.6388    10.0480
  577.0000     8.1292    61.5728     2.5459     0.2190     0.0774   -16.0282     8.6983     9.9914
  577.5000     8.1113    65.6634     2.5400     0.1922     0.0840   -16.0282     8.7582     9.9351
  578.0000     8.0492    68.9660     2.5398     0.1641     0.0887   -16.0282     8.8039     9.9202
  578.5000     7.9845    69.6240     2.5357     0.1361     0.1077   -16.0282     8.7563     9.9145
  579.0000     7.9199    68.5426     2.4957     0.1082     0.1258   -16.0282     8.7176     9.9087
  579.5000     7.8533    66.8280     2.4555     0.0802     0.1422   -16.0282     8.6758     9.9030
  580.0000     7.7446    65.1066     2.4354     0.0538     0.1573   -16.0282     8.6343     9.8973
  580.5000     7.6326    64.2157     2.4193     0.0427     0.1621   -16.0282     8.5930     9.8915
  581.0000     7.5201    65.0008     2.4044     0.0339     0.1676   -16.0282     8.5641     9.8858
  581.5000     7.3896    66.8789     2.3985     0.0361     0.1721   -16.0282     8.6459     9.8801
  582.0000     7.2632    67.1687     2.3936     0.0379     0.1719   -16.0282     8.7231     9.8744
  582.5000     7.1368    65.7809     2.3937     0.0369     0.1713   -16.0282     8.7116     9.8687
  583.0000     7.0726    63.8583     2.3937     0.0358     0.1710   -16.0282     8.6972     9.8630
  583.5000     7.0510    61.9221     2.3936     0.0346     0.1724   -16.0282     8.6828     9.8572
  584.0000     7.0522    59.9367     2.3908     0.0354     0.1760   -16.0282     8.6684     9.8515
  584.5000     7.0521    59.1658     2.3917     0.0391     0.1688   -16.0282     8.6540     9.8458
  585.0000     7.0519    59.7776     2.4009     0.0427     0.1633   -16.0282     8.6419     9.8401
  585.5000     7.0702    61.9078     2.4098     0.0463     0.1626   -16.0282     8.5650     9.8338
  586.0000     7.0971    64.0036     2.4187     0.0499     0.1541   -16.0282     8.4851     9.8533
  586.5000     7.1244    63.9491     2.4247     0.0536     0.1487   -16.0282     8.4851     9.8755
  587.0000     7.1516    63.9656     2.4253     0.0572     0.1413   -16.0282     8.4850     9.8977
  587.5000     7.1758    65.0406     2.4461     0.0608     0.1413   -16.0282     8.4851     9.9200
  588.0000     7.1902    67.7134     2.4469     0.0644     0.1399   -16.0282     8.4851     9.9423
  588.5000     7.2046    68.5996     2.4485     0.0739     0.1381   -16.0282     8.4851     9.9646
  589.0000     7.2189    68.3028     2.4506     0.0869     0.1365   -16.0282     8.4849     9.9870
  589.5000     7.2337    65.9810     2.4557     0.1071     0.1255   -16.0282     8.4829    10.0094
  590.0000     7.2463    64.4005     2.4780     0.1435     0.1104   -16.0282     8.5656    10.0319
  590.5000     7.3661    66.7588     2.5063     0.1797     0.0953   -16.0282     8.6641    10.0545
  591.0000     7.5304    69.2768     2.5308     0.2054     0.0862   -16.0282     8.7638    10.0771
  591.5000     7.6970    69.8816     2.5361     0.2182     0.0832   -16.0282     8.8646    10.0997
  592.0000     7.8635    69.1635     2.5384     0.2310     0.0806   -16.0285     8.8854    10.1224
  592.5000     8.0314    68.4799     2.5407     0.2432     0.0819   -16.0282     8.8854    10.1452
  593.0000     8.1713    67.8140     2.5425     0.2428     0.0817   -16.0295     8.8854    10.1679
  593.5000     8.2203    67.5273     2.5424     0.2420     0.0798   -15.8322     8.8854    10.1908
  594.0000     8.2749    69.2239     2.5405     0.2361     0.0838   -15.4844     8.8849    10.2137
  594.5000     8.2633    71.4221     2.5278     0.2237     0.1033   -15.1383     8.9405    10.2367
  595.0000     8.2350    71.3359     2.5027     0.2020     0.1174   -14.7967     9.0095    10.2597
  595.5000     8.2072    70.0295     2.4738     0.1803     0.1230   -14.2482     9.0790    10.2827
  596.0000     8.1794    68.2177     2.4712     0.1486     0.1535   -13.3967     9.1490    10.4683
  596.5000     8.1513    65.4466     2.4208     0.1066     0.2013   -11.6887     9.2192    10.9725
  597.0000     8.1246    62.5513     2.3555     0.0670     0.2275   -11.4864     9.3595    11.5008
  597.5000     8.0239    58.9847     2.2894     0.0382     0.2549   -10.0630     9.5011    12.0547
  598.0000     7.8906    56.1777     2.2194     0.0369     0.2717    -8.1519     9.6530    12.6352
  598.5000     7.7557    55.1707     2.2137     0.0390     0.2770    -6.5010     9.9497    13.2437
  599.0000     7.6210    54.1240     2.2106     0.0434     0.2797    -6.4870    10.0707    13.8814
  599.5000     7.4860    53.0873     2.2062     0.0494     0.2823    -6.4381    10.1399    14.5499
  600.0000     7.3503    52.0520     2.2020     0.0554     0.2842    -6.3863    10.2096    15.2506
