~VERSION INFORMATION
 VERS.                2.0:   CWLS LOG ASCII STANDARD - VERSION 2.0
 WRAP.                 NO:   ONE LINE PER DEPTH STEP
~WELL INFORMATION
#MNEM.UNIT      DATA TYPE    INFORMATION
#----------   ------------   ------------------------------
 STRT.F            0.0000:   START DEPTH
 STOP.F          479.0000:   STOP DEPTH
 STEP.F            0.5000:   STEP LENGTH
 NULL.          -999.2500:   NO VALUE
 COMP. BROWN JOHN E&C INC:   COMPANY
 WELL.  63-3 SX-10 #63-10:   WELL
 FLD .             TEAPOT:   FIELD
 LOC .      S10 T38N R78W:   LOCATION
 CNTY.            NATRONA:   COUNTY
 STAT.            WYOMING:   STATE
 CTRY. UNITED STATES OF AMERICA:   COUNTRY
 SRVC.     Atlas Wireline:   SERVICE COMPANY
 DATE.        25-APR-1992:   LOGDATE
 API .       490252252900:   API NUMBER
~CURVE INFORMATION
#MNEM.UNIT       API CODE    CURVE DESCRIPTION
#----------   ------------   ------------------------------
 DEPT.F                  :   
 GRR .GAPI   07 310 01 00:   GAMMA RAY
 SPR .MV     07 010 01 00:   SPONTANEOUS POTENTIAL
 RILD.OHMM   07 120 46 00:   INDUCTION LOG DEEP RESISTIVITY
 RILM.OHMM   07 120 44 00:   INDUCTION LOG MEDIUM RESISTIVITY
 RFOC.OHMM   07 220 04 00:   RESISTIVITY FOCUSED LOG
 PORD.DEC    45 890 12 00:   POROSITY DENSITY SANDSTONE
 CNC .DEC    42 890 03 00:   NEUTRON POROSITY SANDSTONE
 CALD.IN     45 280 60 00:   CALIPER FROM DENSITY
 CORR.G/C3   45 356 01 00:   DENSITY CORRECTION
 DEN .G/C3   45 350 01 00:   COMPENSATED BULK DENSTIY
~PARAMETER INFORMATION
#MNEM.UNIT          VALUE    DESCRIPTION
#----------   ------------   ------------------------------
 PD  .                 GL:   PERMANENT DATUM
 EPD .F              5189:   ELEVATION PERMANENT DATUM
 LMF .                 KB:   LOG MEASURED FROM
 DAPD.F                10:   FEET ABOVE PERMANENT DATUM
 DMF .                 KB:   DRILLING MEASURED FROM
 EKB .F              5199:   KELLING BUSHING
 EGL .F              5189:   GROUND LEVEL
 DATE.        25-APR-1992:   RUN DATE
 RUN .                  1:   RUN NUMBER
 DD  .F               480:   DEPTH DRILLER
 DL  .F               482:   DEPTH LOGGER
 BLI .F               480:   BOTTOM LOG INTERVAL
 CS  .IN            8.625:   CASING SIZE
 CBD .F               130:   CASING BOTTOM DRILLER
 CBL .F               143:   CASING BOTTOM LOGGER
 BS  .IN            7.875:   BIT SIZE
 BSD .F               480:   BIT SIZE AT DEPTH
 DFT .     DISP. WEIGHTED:   DRILLING FLUID TYPE
 DFD .               15.1:   DRILLING FLUID DENSITY
 DFV .                 44:   DRILLING FLUID VISCOSITY
 DFPH.                8.4:   DRILLING FLUID PH
 DFL .                  7:   DRILLING FLUID LOSS
 MSS .           FLOWLINE:   MUD SAMPLE SOURCE
 TCS .HRS            0230:   TIME CURCULATED STOPPED
 LUN .           HL- 6272:   LOGGING UNIT NUMBER
 LUL .             CASPER:   LOGGING UNIT LOCATION
 ENGI.       P. RASMUSSEN:   RECORDING ENGINEER
 WITN.          G. STRONG:   WITNESSED BY
 CLNT.            A2DTECH:   CLIENT CODE
 ORIG.           5" PRINT:   ORIGIN OF DATA
 UWI .       490252252900:   UNIQUE WELL ID
 DICO. A2D Technologies, Inc.:   DIGITIZING COMPANY
~OTHER INFORMATION
~A    DEPT      GRR       SPR       RILD       RILM       RFOC       PORD        CNC       CALD       CORR        DEN   
# ...
  435.5000    84.6793   -56.3228    10.5357    10.3671    10.4108     0.0700     0.2962     7.6197     0.0111     2.5339
  436.0000    82.5522   -56.3259    10.3899    10.2227    10.3378     0.0694     0.3019     7.6194     0.0126     2.5338
  436.5000    83.7535   -56.1780    10.2462    10.2218    10.2653     0.0709     0.3036     7.6191     0.0125     2.5316
  437.0000    85.2573   -56.0302    10.1044    10.1500    10.1934     0.0715     0.3080     7.6188     0.0125     2.5323
  437.5000    85.2483   -55.8824    10.0342    10.0787    10.1219     0.0703     0.3074     7.6185     0.0140     2.5346
  438.0000    84.9367   -55.7305    10.0342    10.0778    10.0509     0.0694     0.3065     7.6182     0.0170     2.5353
  438.5000    85.8354   -55.4279    10.0342    10.0071    10.0502     0.0685     0.3057     7.6179     0.0200     2.5361
  439.0000    87.4334   -55.1372    10.0342     9.9368     9.9798     0.0688     0.3093     7.6176     0.0199     2.5346
  439.5000    88.5420   -55.1242    10.0342     9.8670     9.9791     0.0691     0.3150     7.6173     0.0199     2.5346
  440.0000    87.3204   -54.9924    10.0342     9.8661     9.9091     0.0700     0.3172     7.6170     0.0184     2.5315
  440.5000    89.7320   -54.8445    10.0342     9.8653     9.8396     0.0712     0.3184     7.6319     0.0153     2.5285
  441.0000    93.6564   -54.6967    10.0342     9.9336     9.8390     0.0737     0.3163     7.6316     0.0107     2.5255
  441.5000    95.7676   -54.5489     9.9646     9.9325     9.9072     0.0760     0.3151     7.6313     0.0077     2.5247
  442.0000    96.0612   -54.5526    10.0342    10.0709     9.9758     0.0736     0.3151     7.6309     0.0062     2.5292
  442.5000    94.5370   -54.5556    10.0342    10.0700    10.0449     0.0700     0.3148     7.6459     0.0076     2.5345
  443.0000    91.8056   -54.8603    10.0342    10.0691    10.2561     0.0697     0.3148     7.6608     0.0106     2.5345
  443.5000    90.8889   -54.8633    10.0342     9.9984    10.2554     0.0751     0.3145     7.6604     0.0121     2.5307
  444.0000    90.2747   -54.5638     9.9646     9.8593     9.9729     0.0775     0.3142     7.6601     0.0121     2.5254
  444.5000    89.6605   -53.9643     9.8267     9.6547     9.8342     0.0745     0.3148     7.6598     0.0105     2.5246
  445.0000    89.0464   -53.5148     9.4903     9.3888     9.6301     0.0724     0.3160     7.6443     0.0105     2.5307
  445.5000    88.4322   -53.3662     9.2940     9.2581     9.4301     0.0733     0.3221     7.6440     0.0120     2.5314
  446.0000    88.1206   -53.5208     9.1654     9.1293     9.2346     0.0778     0.3236     7.6285     0.0165     2.5224
  446.5000    87.8090   -54.2779     9.0385     9.0023     9.1649     0.0766     0.3212     7.6282     0.0225     2.5228
  447.0000    87.8000   -55.3367     8.9135     8.9391     8.9796     0.0745     0.3191     7.6279     0.0270     2.5284
  447.5000    88.3961   -55.7922     8.9135     8.9363     8.8547     0.0736     0.3179     7.6276     0.0285     2.5291
  448.0000    88.9922   -55.7952     8.9135     8.8756     8.7926     0.0778     0.3203     7.6273     0.0270     2.5231
  448.5000    89.5885   -55.6466     8.8516     8.8748     8.7918     0.0793     0.3234     7.6270     0.0179     2.5225
  449.0000    90.4870   -55.1979     8.6685     8.6057     8.7912     0.0784     0.3252     7.6267     0.0163     2.5228
  449.5000    91.9909   -54.5976     8.1978     8.0300     8.7906     0.0775     0.3285     7.6264     0.0163     2.5269
  450.0000    93.1921   -54.0278     7.7465     7.5071     8.8531     0.0766     0.3318     7.6261     0.0163     2.5283
  450.5000    94.4004   -53.3061     7.3293     7.0999     8.8713     0.0775     0.3370     7.6258     0.0162     2.5230
  451.0000    95.5947   -52.5844     6.9300     6.7616     8.8895     0.0823     0.3473     7.6103     0.0147     2.5048
  451.5000    96.5143   -51.8954     6.9362     6.6675     8.9102     0.0938     0.3628     7.6100     0.0100     2.4905
  452.0000    97.4482   -51.2787     7.0335     6.6669     7.4851     0.1044     0.3715     7.6097     0.0055     2.4772
  452.5000    98.6283   -50.8670     7.0335     6.8071     6.4656     0.1065     0.3633     7.5942     0.0055     2.4737
  453.0000    98.8869   -51.0256     7.0335     7.1963     6.2003     0.0953     0.3488     7.5939     0.0055     2.4995
  453.5000    96.7100   -51.6658     7.0827     7.8226     7.3277     0.0838     0.3373     7.5936     0.0055     2.5197
  454.0000    94.8221   -52.3996     7.3850     8.3277     9.0932     0.0739     0.3298     7.5933     0.0071     2.5272
  454.5000    92.8061   -53.0105     7.9732     8.7428     9.2842     0.0721     0.3274     7.5930     0.0101     2.5309
  455.0000    91.5868   -53.4704     8.7291     8.6212     9.3483     0.0706     0.3220     7.5775     0.0114     2.5324
  455.5000    91.8803   -53.9304     9.6234     8.8639     9.4781     0.0694     0.3165     7.5772     0.0096     2.5346
  456.0000    92.7790   -54.2396    10.1044     9.3058     9.6100     0.0682     0.3135     7.5617     0.0068     2.5391
  456.5000    94.2828   -54.3979    10.2462     9.6348     9.6760     0.0666     0.3120     7.5614     0.0068     2.5420
  457.0000    95.7867   -54.5562    10.2462     9.9060     9.8793     0.0660     0.3105     7.5610     0.0068     2.5443
  457.5000    96.9879   -54.7145    10.3178    10.0440    10.0868     0.0636     0.3087     7.5607     0.0113     2.5465
  458.0000    96.6763   -54.7220    10.3899    10.1133    10.2271     0.0612     0.3072     7.5604     0.0127     2.5479
  458.5000    94.5493   -54.5768    10.3899    10.1829    10.4419     0.0612     0.3069     7.5601     0.0157     2.5487
  459.0000    93.3300   -54.5862    10.3899    10.1820    10.5137     0.0618     0.3063     7.5751     0.0172     2.5501
  459.5000    84.3730   -54.5936    10.3834    10.1104    10.5072     0.0618     0.3060     7.5733     0.0172     2.5485
  460.0000     0.4314   -54.4484    10.3510    10.1096    10.4302     0.0630     0.3066     7.5706     0.0172     2.5455
  460.5000  -999.2500   -54.3051    10.3178    10.1793    10.3538     0.0672     0.3052     7.5678     0.0171     2.5394
  461.0000  -999.2500   -54.1636    10.3178    10.1784    10.2914     0.0718     0.2994     7.5650     0.0156     2.5318
  461.5000  -999.2500   -54.1711    10.2462    10.1776    10.2186     0.0751  -999.2500     7.5622     0.0125     2.5245
  462.0000  -999.2500   -53.8751    10.2462    10.1634    10.2174     0.0793  -999.2500     7.5595     0.0095     2.5180
  462.5000  -999.2500   -53.5809    10.2462    10.1367    10.2163     0.0799  -999.2500     7.5577     0.0064     2.5180
  463.0000  -999.2500   -53.1359    10.2534    10.1099    10.2151     0.0787  -999.2500     7.5574     0.0064     2.5195
  463.5000  -999.2500   -52.6928    10.3178    10.0334    10.2139     0.0772  -999.2500     7.5571     0.0064     2.5232
  464.0000  -999.2500   -52.3967    10.3178    10.0323    10.2127     0.0748  -999.2500     7.5568     0.0078     2.5284
  464.5000  -999.2500   -51.9536    10.3178     9.9618    10.2829     0.0718  -999.2500     7.5718     0.0108     2.5314
  465.0000  -999.2500   -51.6594    10.3178     9.9610    10.2104     0.0712  -999.2500     7.5714     0.0108     2.5329
  465.5000  -999.2500   -51.2144    10.2462     9.8910     9.9980     0.0712  -999.2500     7.5711     0.0123     2.5306
  466.0000  -999.2500   -51.0709    10.2462     9.8902     9.9275     0.0712  -999.2500     7.5708     0.0153     2.5328
  466.5000  -999.2500   -50.6259    10.0342     9.8207     9.8574     0.0703  -999.2500     7.5705     0.0152     2.5365
  467.0000  -999.2500   -50.3319     0.2000     9.6841     9.7879     0.0685  -999.2500     7.5550     0.0152     2.5387
  467.5000  -999.2500   -50.0377  -999.2500     9.4173     9.6513     0.0669  -999.2500     7.5547     0.0167     2.5394
  468.0000  -999.2500   -49.8944  -999.2500     9.0944     9.3850     0.0669  -999.2500     7.5544     0.0167     2.5379
  468.5000  -999.2500   -49.6003  -999.2500     8.6611     8.8752     0.0682  -999.2500     7.5693     0.0182     2.5348
