~VERSION INFORMATION
 VERS.                2.0:   CWLS LOG ASCII STANDARD - VERSION 2.0
 WRAP.                 NO:   ONE LINE PER DEPTH STEP
~WELL INFORMATION
#MNEM.UNIT      DATA TYPE    INFORMATION
#----------   ------------   ------------------------------
 STRT.F            1.0000:   START DEPTH
 STOP.F          755.5000:   STOP DEPTH
 STEP.F            0.5000:   STEP LENGTH
 NULL.          -999.2500:   NO VALUE
 COMP. FENIX & SCISSON INC:   COMPANY
 WELL.       25-SX #25-14:   WELL
 FLD .        TEAPOT DOME:   FIELD
 LOC .      S14 T38N R78W:   LOCATION
 CNTY.            NATRONA:   COUNTY
 STAT.            WYOMING:   STATE
 CTRY. UNITED STATES OF AMERICA:   COUNTRY
 SRVC.           BIRDWELL:   SERVICE COMPANY
 DATE.        29-DEC-1978:   LOGDATE
 API .       490251076000:   API NUMBER
~CURVE INFORMATION
#MNEM.UNIT       API CODE    CURVE DESCRIPTION
#----------   ------------   ------------------------------
 DEPT.F                  :   
 SPR .MV     05 010 01 00:   SPONTANEOUS POTENTIAL FROM RES.
 SN  .OHMM   05 040 16 00:   SHORT NORMAL 16"
 IL  .OHMM   05 120 00 00:   INDUCTION LOG
 CALD.IN     45 280 60 00:   CALIPER
 GRD .GAPI   45 310 01 00:   GAMMA RAY FROM DENSITY LOG
 CORR.G/C3   45 356 01 00:   DENSITY CORRECTION
 DPHI.DEC    45 890 12 00:   DENSITY POROSITY SANDSTONE
 RHOB.G/C3   45 350 01 00:   BULK DENSITY
~PARAMETER INFORMATION
#MNEM.UNIT          VALUE    DESCRIPTION
#----------   ------------   ------------------------------
 PD  .                 GL:   PERMANENT DATUM
 EPD .F              5214:   ELEVATION PERMANENT DATUM
 LMF .                 KB:   LOG MEASURED FROM
 DAPD.F                 4:   FEET ABOVE PERMANENT DATUM
 DMF .                 KB:   DRILLING MEASURED FROM
 EKB .F              5218:   KELLING BUSHING
 EGL .F              5214:   GROUND LEVEL
 DATE.           12-29-79:   RUN DATE
 RUN .                  1:   RUN NUMBER
 DD  .F               765:   DEPTH DRILLER
 DL  .F               747:   DEPTH LOGGER
 BLI .F               740:   BOTTOM LOG INTERVAL
 TLI .F                40:   TOP LOG INTERVAL
 CS  .IN            8.625:   CASING SIZE
 CBD .F                40:   CASING BOTTOM DRILLER
 CBL .F                40:   CASING BOTTOM LOGGER
 BS  .IN            7.875:   BIT SIZE
 BSD .F               765:   BIT SIZE AT DEPTH
 DFT .                KCL:   DRILLING FLUID TYPE
 DFD .                8.8:   DRILLING FLUID DENSITY
 DFV .                 48:   DRILLING FLUID VISCOSITY
 DFPH.                9.2:   DRILLING FLUID PH
 MSS .           FLOWLINE:   MUD SAMPLE SOURCE
 RMS .OHMM            .17:   RESISTIVITY MUD SAMPLE
 MST .F                56:   MUD SAMPLE TEMPERATURE
 RMF .OHMM            .15:   RESISTIVITY MUD FILTRATE SAMPLE
 MFST.F                56:   MUD FILTRATE SAMPLE TEMPERATURE
 RMC .OHMM            .23:   RESISTIVITY MUD CAKE
 MCST.F                64:   MUD CAKE SAMPLE TEMPERATURE
 MFSS.           MEASURED:   MUD FILTRATE SAMPLE SOURCE
 MCSS.           MEASURED:   MUD CAKE SAMPLE SOURCE
 RMB .OHMM            .16:   RESISTIVITY MUD AT BHT
 BHT .F                59:   BOTTOM HOLE TEMPERATURE
 TCS .HRS              12:   TIME CURCULATED STOPPED
 MRT .F                59:   MAXIMUM RECORDED TEMPERATURE
 LUN .               2958:   LOGGING UNIT NUMBER
 LUL .             CASPER:   LOGGING UNIT LOCATION
 ENGI.            ROLLINS:   RECORDING ENGINEER
 WITN.         RICHARDSON:   WITNESSED BY
 CLNT.            A2DTECH:   CLIENT CODE
 ORIG.           5" PRINT:   ORIGIN OF DATA
 UWI .       490251076000:   UNIQUE WELL ID
 DICO. A2D Technologies, Inc.:   DIGITIZING COMPANY
~OTHER INFORMATION
~A    DEPT     SPR         SN         IL       CALD         GRD      CORR       DPHI       RHOB   
# ...
  284.5000   -59.6450     6.0570     4.9410     7.4740   112.5310     0.0310     0.1180     2.4850
  285.0000   -59.6400     6.0630     4.9500     7.4730   112.5360     0.0330     0.1190     2.4820
  285.5000   -59.6340     6.0690     4.9590     7.4680   112.5360     0.0350     0.1200     2.4800
  286.0000   -59.6290     6.0750     4.9680     7.4630   112.5350     0.0350     0.1190     2.4770
  286.5000   -59.6240     6.0810     4.9960     7.4580   112.5350     0.0350     0.1170     2.4770
  287.0000   -59.6190     6.0860     5.0340     7.4540   112.5350     0.0350     0.1150     2.4770
  287.5000   -59.6180     6.0920     5.0730     7.4490   112.5350     0.0350     0.1130     2.4810
  288.0000   -59.6180     6.0990     5.1110     7.4440   112.5320     0.0350     0.1120     2.4860
  288.5000   -59.5080     6.1190     5.1490     7.4390   112.4710     0.0360     0.1130     2.4910
  289.0000   -59.2890     6.1560     5.1880     7.4080   112.1730     0.0370     0.1140     2.4910
  289.5000   -59.0710     6.1940     5.2260     7.3910   111.8740     0.0380     0.1140     2.4870
  290.0000   -58.8520     6.2960     5.2640     7.3850   111.5550     0.0390     0.1140     2.4860
  290.5000   -58.6330     6.4770     5.2900     7.3790   112.3510     0.0380     0.1140     2.4850
  291.0000   -58.4140     6.4720     5.3080     7.3730   113.1640     0.0380     0.1140     2.4860
  291.5000   -58.2200     6.4650     5.3270     7.3670   113.1430     0.0380     0.1140     2.4880
  292.0000   -58.2230     6.4580     5.3450     7.3610   113.1340     0.0370     0.1140     2.4890
  292.5000   -58.2300     6.4510     5.3640     7.3540   113.5740     0.0370     0.1140     2.4910
  293.0000   -58.2370     6.4440     5.3820     7.3410   115.0930     0.0360     0.1140     2.4910
  293.5000   -58.2430     6.4370     5.4010     7.3280   114.4880     0.0360     0.1130     2.4890
  294.0000   -58.2500     6.4300     5.4330     7.3150   111.5440     0.0350     0.1120     2.4890
  294.5000   -58.2560     6.4230     5.5010     7.3020   109.0110     0.0360     0.1120     2.4900
  295.0000   -58.2630     6.5050     5.5690     7.3100   110.1760     0.0390     0.1130     2.4900
  295.5000   -58.2690     6.5980     5.6370     7.3370   111.2840     0.0390     0.1140     2.4900
  296.0000   -58.2760     6.6920     5.6990     7.3880   112.3750     0.0390     0.1150     2.4900
  296.5000   -58.2820     6.7590     5.6990     7.4930   113.4460     0.0390     0.1170     2.4900
  297.0000   -58.2890     6.7530     5.6990     7.5080   116.0900     0.0390     0.1180     2.4860
  297.5000   -58.2950     6.7480     5.6990     7.5170   118.8300     0.0390     0.1190     2.4830
  298.0000   -58.3020     6.7430     5.8030     7.5160   118.3150     0.0390     0.1190     2.4810
  298.5000   -58.3080     6.7370     5.9200     7.5150   117.5600     0.0390     0.1180     2.4800
  299.0000   -58.3150     6.7320     6.0500     7.5140   117.5600     0.0390     0.1180     2.4760
  299.5000   -58.3210     6.7270     6.0310     7.5130   117.5660     0.0400     0.1170     2.4740
  300.0000   -58.3280     6.7220     6.0110     7.5120   117.5650     0.0400     0.1170     2.4780
  300.5000   -58.3350     6.7170     5.9900     7.5110   117.5630     0.0410     0.1150     2.4810
  301.0000   -58.3410     6.7120     5.9700     7.5100   117.5660     0.0420     0.1130     2.4790
  301.5000   -58.3480     6.7060     5.9470     7.5090   117.5440     0.0420     0.1100     2.4760
  302.0000   -58.3540     6.6980     5.9440     7.5080   116.1740     0.0430     0.1080     2.4870
  302.5000   -58.3610     6.6660     5.9410     7.5070   114.4430     0.0430     0.1060     2.5040
  303.0000   -58.3670     6.6330     5.9370     7.5050   114.4710     0.0440     0.1070     2.5070
  303.5000   -58.3740     6.6010     5.9340     7.5040   114.9700     0.0450     0.1110     2.5030
  304.0000   -58.3800     6.5690     5.9310     7.5030   115.4530     0.0450     0.1130     2.4980
  304.5000   -58.3870     6.5360     5.9270     7.5020   115.9320     0.0470     0.1140     2.4920
  305.0000   -58.3930     6.5040     5.9240     7.5010   116.4230     0.0480     0.1160     2.4870
  305.5000   -58.4000     6.4770     5.9210     7.5000   116.5460     0.0500     0.1170     2.4820
  306.0000   -58.4080     6.4840     5.9170     7.4990   116.0440     0.0510     0.1190     2.4780
  306.5000   -58.4160     6.4910     5.9140     7.4980   114.9980     0.0500     0.1180     2.4760
  307.0000   -58.5500     6.4970     5.9110     7.4970   114.5580     0.0480     0.1170     2.4780
  307.5000   -58.9050     6.5040     5.9070     7.4980   114.3340     0.0470     0.1160     2.4800
  308.0000   -59.2550     6.5100     5.9040     7.5000   114.8210     0.0460     0.1150     2.4840
  308.5000   -59.6050     6.5160     5.9010     7.5010   115.1500     0.0450     0.1140     2.4870
  309.0000   -59.8410     6.5230     5.8970     7.5020   115.1480     0.0450     0.1130     2.4910
  309.5000   -59.8960     6.5320     5.8580     7.5040   115.1490     0.0460     0.1130     2.4950
  310.0000   -59.9540     6.5290     5.8100     7.5050   115.1500     0.0460     0.1140     2.4940
  310.5000   -60.0100     6.5200     5.7630     7.5070   115.1480     0.0460     0.1150     2.4870
  311.0000   -60.0410     6.5110     5.7150     7.5080   115.1190     0.0470     0.1160     2.4830
  311.5000   -60.0740     6.5010     5.6670     7.5090   114.5140     0.0470     0.1180     2.4800
  312.0000   -60.1070     6.4920     5.6190     7.5110   112.8670     0.0430     0.1180     2.4820
  312.5000   -60.1400     6.4830     5.5710     7.5120   111.5810     0.0430     0.1170     2.4870
  313.0000   -60.1730     6.4740     5.5480     7.5140   111.1300     0.0440     0.1170     2.4880
  313.5000   -60.2060     6.4650     5.5370     7.5150   110.6570     0.0440     0.1170     2.4870
  314.0000   -60.2390     6.4560     5.5260     7.5160   110.6690     0.0450     0.1180     2.4840
  314.5000   -60.2720     6.4470     5.5160     7.5120   111.5450     0.0450     0.1180     2.4830
  315.0000   -60.3050     6.4380     5.5050     7.5020   114.6380     0.0460     0.1190     2.4830
  315.5000   -60.3390     6.4290     5.4940     7.4930   117.3620     0.0460     0.1190     2.4820
  316.0000   -60.3720     6.4120     5.4830     7.4830   117.9590     0.0470     0.1170     2.4780
  316.5000   -60.4050     6.3780     5.4730     7.4730   117.9410     0.0470     0.1150     2.4750
  317.0000   -60.5180     6.3440     5.4610     7.4640   117.9180     0.0460     0.1140     2.4790
  317.5000   -60.7100     6.3100     5.4340     7.4590   117.8980     0.0450     0.1150     2.4840
  318.0000   -60.9010     6.2760     5.4050     7.4700   117.8760     0.0440     0.1150     2.4890
  318.5000   -61.0930     6.2420     5.3760     7.4840   117.8540     0.0440     0.1180     2.4900
  319.0000   -61.2490     6.2080     5.3100     7.5120   117.8320     0.0430     0.1200     2.4880
  319.5000   -61.3340     6.1740     5.2000     7.5380   117.8130     0.0430     0.1230     2.4850
  320.0000   -61.4180     6.1400     5.0890     7.5550   117.7980     0.0440     0.1240     2.4790
  320.5000   -61.5030     6.1060     4.9290     7.5430   117.7970     0.0440     0.1240     2.4760
  321.0000   -61.5870     6.0720     4.9340     7.5320   119.2330     0.0450     0.1240     2.4750
  321.5000   -61.8130     6.0500     4.9420     7.5200   121.7470     0.0450     0.1240     2.4750
  322.0000   -62.1520     6.0730     4.9500     7.5180   123.9660     0.0450     0.1240     2.4750
  322.5000   -62.2220     6.0910     4.9580     7.5200   123.7250     0.0460     0.1240     2.4750
  323.0000   -62.2240     6.1080     4.9660     7.5210   122.2710     0.0460     0.1250     2.4740
  323.5000   -62.2240     6.1260     4.9820     7.5230   122.2330     0.0470     0.1270     2.4710
  324.0000   -62.2240     6.1430     5.0390     7.5240   123.1430     0.0470     0.1290     2.4680
  324.5000   -62.2240     6.1720     5.0960     7.5260   123.5730     0.0470     0.1310     2.4650
