~VERSION INFORMATION
 VERS.                2.0:   CWLS LOG ASCII STANDARD - VERSION 2.0
 WRAP.                 NO:   ONE LINE PER DEPTH STEP
~WELL INFORMATION
#MNEM.UNIT      DATA TYPE    INFORMATION
#----------   ------------   ------------------------------
 STRT.F           33.0000:   START DEPTH
 STOP.F          694.0000:   STOP DEPTH
 STEP.F            0.5000:   STEP LENGTH
 NULL.          -999.2500:   NO VALUE
 COMP. FENIX & SCISSON INC:   COMPANY
 WELL.  NPR 3 #64 S 34-34:   WELL
 FLD .             TEAPOT:   FIELD
 LOC .      S34 T39N R78W:   LOCATION
 CNTY.            NATRONA:   COUNTY
 STAT.            WYOMING:   STATE
 CTRY. UNITED STATES OF AMERICA:   COUNTRY
 SRVC.              Welex:   SERVICE COMPANY
 DATE.        28-APR-1977:   LOGDATE
 API .       490251034600:   API NUMBER
~CURVE INFORMATION
#MNEM.UNIT       API CODE    CURVE DESCRIPTION
#----------   ------------   ------------------------------
 DEPT.F                  :   
 CALD.IN     45 280 60 00:   CALIPER FROM DENSITY LOG
 GRD .GAPI   45 310 01 00:   GAMMA RAY FROM DENSITY LOG
 CORR.G/C3   45 356 01 00:   DENSITY CORRECTION
 DPHI.DEC    45 890 12 00:   DENSITY POROSITY SANDSTONE
 RHOB.G/C3   45 350 01 00:   BULK DENSITY
 SPR .MV     07 010 01 00:   SPONTANEOUS POTENTIAL
 ILD .OHMM   07 120 46 00:   INDUCTION LOG DEEP
 ILM .OHMM   07 120 44 00:   INDUCTION LOG MEDIUM
 SGRD.OHMM   07 221 05 00:   SHALLOW SHORT GUARD RESISTIVITY
~PARAMETER INFORMATION
#MNEM.UNIT          VALUE    DESCRIPTION
#----------   ------------   ------------------------------
 PD  .                 GL:   PERMANENT DATUM
 EPD .F              5079:   ELEVATION PERMANENT DATUM
 LMF .                 GL:   LOG MEASURED FROM
 DMF .                 GL:   DRILLING MEASURED FROM
 EGL .F              5079:   GROUND LEVEL
 DATE.        28-APR-1977:   RUN DATE
 RUN .                  1:   RUN NUMBER
 DD  .F               735:   DEPTH DRILLER
 DL  .F               697:   DEPTH LOGGER
 BLI .F               695:   BOTTOM LOG INTERVAL
 TLI .F                32:   TOP LOG INTERVAL
 CS  .IN            8.625:   CASING SIZE
 BS  .IN               12:   BIT SIZE
 BSD .F               735:   BIT SIZE AT DEPTH
 DFT .            KCL MUD:   DRILLING FLUID TYPE
 DFD .                9.0:   DRILLING FLUID DENSITY
 BHT .F                74:   BOTTOM HOLE TEMPERATURE
 TCS .HRS            0100:   TIME CURCULATED STOPPED
 MRT .F                74:   MAXIMUM RECORDED TEMPERATURE
 ENGI.            C. DOAK:   RECORDING ENGINEER
 WITN.           ROB LYON:   WITNESSED BY
 CLNT.            A2DTECH:   CLIENT CODE
 ORIG.           5" PRINT:   ORIGIN OF DATA
 UWI .       490251034600:   UNIQUE WELL ID
 DICO. A2D Technologies, Inc.:   DIGITIZING COMPANY
~OTHER INFORMATION
~A   DEPT     CALD        GRD       CORR       DPHI       RHOB        SPR        ILD        ILM       SGRD   
# ...
  434.5000     7.8566   109.2998     0.0290     0.1076     2.4981   -40.0691     7.6492     7.9415     9.7935
  435.0000     7.8563   107.5402     0.0230     0.1204     2.4862   -40.0703     7.6540     8.0017     9.7872
  435.5000     7.8560   106.5225     0.0171     0.1285     2.4705   -40.0715     7.7120     8.0067     9.8041
  436.0000     7.8557   104.4662     0.0141     0.1350     2.4563   -40.0727     7.7168     8.0117     9.9460
  436.5000     7.8554   106.5642     0.0111     0.1326     2.4519   -40.0739     7.7216     8.0158    10.2305
  437.0000     7.8551   106.7282     0.0112     0.1295     2.4587   -40.0751     7.7273     8.0216     9.9983
  437.5000     7.8842   106.4523     0.0143     0.1262     2.4663   -40.0763     7.6788     7.9699     9.4805
  438.0000     7.8839   107.5169     0.0159     0.1229     2.4679   -40.0776     7.5778     7.9198     9.2972
  438.5000     7.8836   109.0214     0.0174     0.1193     2.4717   -40.0788     7.4771     7.8700     9.3034
  439.0000     7.8833   110.6743     0.0190     0.1157     2.4800   -40.0800     7.3290     7.8205     9.1816
  439.5000     7.8830   113.6625     0.0205     0.1144     2.4853   -40.0812     7.1827     7.7188     9.0605
  440.0000     7.8827   115.6121     0.0221     0.1165     2.4830   -40.0824     7.0394     7.6702     8.9429
  440.5000     7.8824   113.1107     0.0222     0.1189     2.4786   -40.0836     6.8989     7.5693     8.9488
  441.0000     7.8821   111.2028     0.0222     0.1224     2.4740   -40.0848     6.8083     7.5206     8.9547
  441.5000     7.8818   109.4432     0.0223     0.1260     2.4681   -40.0860     6.7644     7.1205     8.8376
  442.0000     7.8815   107.3869     0.0239     0.1298     2.4615   -40.0873     6.4941     6.6941     8.5429
  442.5000     7.8812   106.6607     0.0239     0.1333     2.4518   -40.0885     6.2770     6.5604     8.1446
  443.0000     7.8809   106.8309     0.0240     0.1378     2.4443   -40.0897     6.0253     6.5645     7.9827
  443.5000     7.8806   106.6776     0.0240     0.1437     2.4395   -40.0909     5.7836     6.1714     7.7700
  444.0000     7.8804   105.9347     0.0271     0.1504     2.4332   -40.0921     5.5517     5.6042     7.3567
  444.5000     7.8801   104.4540     0.0242     0.1597     2.4142   -40.0933     5.2194     5.2322     6.7287
  445.0000     7.8798   100.4156     0.0182     0.1772     2.3828   -40.0945     4.8244     4.9875     6.3708
  445.5000     7.8795    98.0148     0.0183     0.1914     2.3576   -40.0958     4.3524     4.5924     5.9904
  446.0000     7.8792    97.9045     0.0198     0.2004     2.3361   -40.0970     3.8805     4.0283     5.5939
  446.5000     7.8789   100.3753     0.0199     0.2120     2.3214   -40.0982     3.4059     3.6581     4.8746
  447.0000     7.8786   103.6281     0.0169     0.2217     2.3102   -40.0994     3.1146     3.4629     4.2185
  447.5000     7.8783   106.8810     0.0125     0.2255     2.2991   -40.1006     2.8680     3.1666     3.6006
  448.0000     7.8487   110.7510     0.0110     0.2263     2.2926   -40.1018     2.8303     2.9157     2.9688
  448.5000     7.8484   110.4699     0.0081     0.2187     2.3056   -40.1030     2.8517     2.8574     2.5515
  449.0000     7.8481   112.5731     0.0066     0.2052     2.3318   -40.1043     2.8933     2.9193     2.4832
  449.5000     7.8478   114.6711     0.0052     0.1875     2.3603   -40.1055     2.9971     3.3093     2.9953
  450.0000     7.8395   116.6496     0.0071     0.1616     2.4015   -40.1067     3.3272     3.7775     3.8980
  450.5000     7.8862   118.8321     0.0115     0.1556     2.4188   -40.1079     3.6098     4.1939     5.4359
  451.0000     7.9177   121.1148     0.0116     0.1504     2.4256   -40.1091     3.9372     4.6242     5.0411
  451.5000     7.9343   122.3240     0.0133     0.1432     2.4347   -40.1092     4.4129     5.0283     6.3374
  452.0000     7.9509   121.1594     0.0164     0.1384     2.4423   -40.1084     4.8885     5.3183     7.6433
  452.5000     7.9675   119.6981     0.0181     0.1369     2.4476   -40.1077     5.3637     5.7036     7.9174
  453.0000     7.9693   119.2753     0.0182     0.1356     2.4499   -40.1069     5.6650     5.8676     7.8667
  453.5000     7.9711   119.1437     0.0168     0.1347     2.4515   -40.1061     5.9022     6.1632     7.6584
  454.0000     7.9729   120.2102     0.0155     0.1341     2.4509   -40.1054     5.9891     6.3845     7.5062
  454.5000     7.9747   121.4194     0.0141     0.1371     2.4457   -40.1046     6.0773     6.5227     7.4080
  455.0000     7.9765   120.6999     0.0143     0.1382     2.4426   -40.1039     6.1242     6.6263     7.3605
  455.5000     7.9782   119.9804     0.0144     0.1388     2.4421   -40.1031     6.1715     6.6744     7.2154
  456.0000     7.9800   119.7004     0.0148     0.1376     2.4488   -40.1024     6.2192     6.7178     7.0707
  456.5000     7.9820   121.9539     0.0209     0.1317     2.4589   -40.1016     6.2672     6.7220     6.9782
  457.0000     7.9836   122.4213     0.0239     0.1284     2.4626   -40.1008     6.2721     6.6798     7.2297
  457.5000     7.9854   121.8502     0.0256     0.1257     2.4657   -40.1001     6.2324     6.6378     7.5409
  458.0000     7.9872   121.5702     0.0212     0.1248     2.4639   -40.0993     6.1941     6.4157     7.9201
  458.5000     7.9889   125.0105     0.0198     0.1285     2.4527   -40.0986     5.9891     6.4198     8.0914
  459.0000     7.9907   126.9617     0.0245     0.1379     2.4393   -40.0978     5.6707     6.2483     8.2082
  459.5000     7.9925   128.9128     0.0217     0.1460     2.4238   -40.0971     5.4065     5.5960     7.8811
  460.0000     7.9790   129.9681     0.0188     0.1540     2.4143   -40.0963     5.1190     5.4843     7.5137
  460.5000     7.9813   125.3966     0.0159     0.1575     2.4107   -40.0955     4.8806     5.3009     5.7813
  461.0000     7.9385   123.0450     0.0146     0.1542     2.4184   -40.0948     4.6211     4.9149     4.2972
  461.5000     7.9255   121.1386     0.0132     0.1517     2.4251   -40.0940     4.4673     4.7828     3.8757
  462.0000     7.9120   119.6772     0.0134     0.1508     2.4222   -40.0933     4.3788     4.8198     5.8734
  462.5000     7.9142   119.1005     0.0150     0.1513     2.4208   -40.0925     4.3511     4.8902     6.4747
  463.0000     7.9160   120.6121     0.0152     0.1471     2.4291   -40.0918     4.4160     4.9961     6.6137
  463.5000     7.9029   123.4534     0.0138     0.1411     2.4397   -40.0910     4.5751     5.1398     4.0793
  464.0000     7.9047   124.8111     0.0155     0.1360     2.4473   -40.0902     4.7399     5.5504     6.5796
  464.5000     7.9065   125.4269     0.0171     0.1306     2.4593   -40.0895     4.8878     6.1198     7.0525
  465.0000     7.8930   125.3008     0.0188     0.1275     2.4594   -40.0887     5.1317     6.5631     6.8411
  465.5000     7.8952   124.1362     0.0220     0.1266     2.4670   -40.0880     5.4251     6.6578     5.9409
  466.0000     7.8970   123.5651     0.0221     0.1206     2.4790   -40.0872     5.7353     6.5249     6.4591
  466.5000     7.8988   123.7302     0.0207     0.1143     2.4836   -40.0864     6.0214     6.8124     7.8441
  467.0000     7.9154   122.4228     0.0179     0.1139     2.4837   -40.0857     6.2805     7.0587     8.2957
  467.5000     7.9321   120.0669     0.0165     0.1157     2.4808   -40.0849     6.4619     7.2552     8.5932
  468.0000     7.9487   116.6865     0.0137     0.1192     2.4719   -40.0842     6.6485     7.4105     8.8400
  468.5000     7.9505   114.6929     0.0108     0.1255     2.4577   -40.0834     6.8405     7.6236     8.9691
  469.0000     7.9370   113.9012     0.0035     0.1344     2.4421   -40.0827     6.9895     7.6871     8.9131
  469.5000     7.9392   115.6217    -0.0009     0.1391     2.4392   -40.0819     6.9948     7.5804     8.8561
  470.0000     7.9257   117.0623    -0.0023     0.1403     2.4393   -40.0812     7.0489     7.5853     8.5622
  470.5000     7.9126   116.9355     0.0069     0.1379     2.4438   -40.0804     7.0056     7.5365     8.1068
