~VERSION INFORMATION
 VERS.                2.0:   CWLS LOG ASCII STANDARD - VERSION 2.0
 WRAP.                 NO:   ONE LINE PER DEPTH STEP
~WELL INFORMATION
#MNEM.UNIT      DATA TYPE    INFORMATION
#----------   ------------   ------------------------------
 STRT.F            2.0000:   START DEPTH
 STOP.F          500.0000:   STOP DEPTH
 STEP.F            0.1000:   STEP LENGTH
 NULL.          -999.2500:   NO VALUE
 COMP.   FLUOR DANIEL INC:   COMPANY
 WELL.   73-5 X 10 #73-10:   WELL
 FLD .             TEAPOT:   FIELD
 LOC .      S10 T38N R78W:   LOCATION
 CNTY.            NATRONA:   COUNTY
 STAT.            WYOMING:   STATE
 CTRY. UNITED STATES OF AMERICA:   COUNTRY
 SRVC.      Western Atlas:   SERVICE COMPANY
 DATE.        07-JUN-1995:   LOGDATE
 API .       490252271400:   API NUMBER
~CURVE INFORMATION
#MNEM.UNIT       API CODE    CURVE DESCRIPTION
#----------   ------------   ------------------------------
 DEPT.F                  :   
 GRR .GAPI   07 310 01 00:   GAMMA RAY
 RILD.OHMM   07 120 46 00:   INDUCTION LOG DEEP RESISTIVITY
 RILM.OHMM   07 120 44 00:   RESITIVITY LONG MEDIUM
~PARAMETER INFORMATION
#MNEM.UNIT          VALUE    DESCRIPTION
#----------   ------------   ------------------------------
 PD  .                 GL:   PERMANENT DATUM
 EPD .F              5175:   ELEVATION PERMANENT DATUM
 LMF .                 KB:   LOG MEASURED FROM
 DAPD.F                10:   FEET ABOVE PERMANENT DATUM
 DMF .                 KB:   DRILLING MEASURED FROM
 EKB .F              5185:   KELLING BUSHING
 EDF .F              5184:   DRILLING FLOOR
 EGL .F              5175:   GROUND LEVEL
 DATE.        07-JUN-1995:   RUN DATE
 RUN .                  1:   RUN NUMBER
 DD  .F               511:   DEPTH DRILLER
 DL  .F               508:   DEPTH LOGGER
 BLI .F               500:   BOTTOM LOG INTERVAL
 TLI .F                96:   TOP LOG INTERVAL
 CS  .IN            9.625:   CASING SIZE
 CBD .F                96:   CASING BOTTOM DRILLER
 CBL .F                96:   CASING BOTTOM LOGGER
 BS  .IN             8.75:   BIT SIZE
 BSD .F               511:   BIT SIZE AT DEPTH
 DFT .                AIR:   DRILLING FLUID TYPE
 MRT .F               116:   MAXIMUM RECORDED TEMPERATURE
 LUN .            HL 6530:   LOGGING UNIT NUMBER
 LUL .             CASPER:   LOGGING UNIT LOCATION
 ENGI.        VERN RAUTIO:   RECORDING ENGINEER
 WITN.        GARY STRONG:   WITNESSED BY
 CLNT.            A2DTECH:   CLIENT CODE
 ORIG.           5" PRINT:   ORIGIN OF DATA
 UWI .       490252271400:   UNIQUE WELL ID
 DICO. A2D Technologies, Inc.:   DIGITIZING COMPANY
~OTHER INFORMATION
~A    DEPT       GRR     RILD       RILM   
# ...
  220.4000   133.7260     7.5750     7.7653
  220.5000   133.7281     7.5751     7.7357
  220.6000   133.8961     7.5752     7.7308
  220.7000   134.0350     7.5516     7.6830
  220.8000   134.0971     7.5086     7.6434
  220.9000   134.3420     7.4713     7.6001
  221.0000   134.3449     7.4714     7.5783
  221.1000   134.3468     7.4323     7.5664
  221.2000   134.4991     7.3899     7.5235
  221.3000   134.7507     7.3478     7.4751
  221.4000   135.0022     7.3180     7.4385
  221.5000   135.2629     7.3148     7.4242
  221.6000   135.5053     7.2677     7.4055
  221.7000   135.9440     7.2317     7.3736
  221.8000   136.5788     7.1905     7.3726
  221.9000   137.4910     7.1680     7.3234
  222.0000   138.7392     7.1582     7.3236
  222.1000   140.1114     7.1173     7.2983
  222.2000   142.1330     7.0696     7.2569
  222.3000   144.2063     7.0365     7.2158
  222.4000   145.8465     7.0210     7.1744
  222.5000   147.0291     7.0049     7.1747
  222.6000   147.9783     6.9650     7.1114
  222.7000   147.9811     6.9246     7.0536
  222.8000   147.7744     6.9247     7.0281
  222.9000   147.6834     6.8638     7.0223
  223.0000   147.5831     6.8296     6.9802
  223.1000   147.3364     6.8158     6.9056
  223.2000   147.0864     6.7770     6.8560
  223.3000   147.0888     6.7358     6.8171
  223.4000   146.8983     6.7000     6.7785
  223.5000   146.6516     6.6618     6.7401
  223.6000   146.4918     6.6434     6.6981
  223.7000   146.4602     6.6319     6.6639
  223.8000   146.1947     6.5941     6.6261
  223.9000   145.7366     6.5522     6.5886
  224.0000   145.5952     6.5191     6.5410
  224.1000   145.4733     6.4820     6.4692
  224.2000   145.2266     6.4450     6.4273
  224.3000   144.9798     6.4083     6.3961
  224.4000   144.6988     6.3700     6.3364
  224.5000   144.2719     6.2859     6.2802
  224.6000   143.2914     6.2260     6.2283
  224.7000   141.9397     6.1552     6.1238
  224.8000   140.7251     6.0851     6.0826
  224.9000   140.4783     6.0158     6.0266
  225.0000   140.2316     5.9473     5.9583
  225.1000   139.9849     5.8797     5.8907
  225.2000   139.8840     5.8128     5.8176
  225.3000   139.8864     5.7467     5.7165
  225.4000   139.8490     5.6694     5.6217
  225.5000   139.5892     5.5778     5.5505
  225.6000   139.5915     5.5112     5.4702
  225.7000   139.5939     5.4516     5.3879
  225.8000   139.5964     5.3669     5.3267
  225.9000   139.5988     5.3075     5.2623
  226.0000   139.6012     5.2676     5.2345
  226.1000   139.6039     5.2076     5.1833
  226.2000   139.6060     5.1426     5.1548
  226.3000   139.7758     5.0898     5.1460
  226.4000   140.0274     5.0519     5.1168
  226.5000   140.2789     5.0093     5.0847
  226.6000   140.5305     4.9678     5.0848
  226.7000   140.8270     4.9660     5.0851
  226.8000   141.4429     4.9336     5.0715
  226.9000   141.8894     4.9096     5.0504
  227.0000   142.3384     4.8996     5.0506
  227.1000   142.9968     4.8997     5.0509
  227.2000   143.2557     4.8998     5.0510
  227.3000   143.4999     4.8998     5.0698
  227.4000   143.7514     4.8999     5.0865
  227.5000   143.8671     4.9227     5.0867
  227.6000   143.7865     4.9341     5.0873
  227.7000   143.5695     4.9452     5.1225
  227.8000   143.5724     4.9736     5.1464
  227.9000   143.3484     5.0032     5.1585
  228.0000   143.2749     5.0033     5.1702
  228.1000   143.0368     5.0251     5.2000
  228.2000   142.5410     5.0541     5.2310
  228.3000   142.0023     5.0832     5.2604
  228.4000   140.5659     5.1125     5.2678
  228.5000   139.5156     5.1443     5.2847
  228.6000   138.5873     5.1715     5.3153
  228.7000   138.0514     5.2013     5.3502
  228.8000   137.8562     5.2313     5.4165
  228.9000   137.8586     5.2614     5.4456
  229.0000   137.8610     5.2917     5.4771
  229.1000   138.0582     5.3261     5.5087
  229.2000   138.3098     5.3528     5.5502
  229.3000   138.5613     5.3837     5.6113
  229.4000   138.8487     5.4147     5.6476
  229.5000   139.3839     5.4535     5.7343
  229.6000   140.3142     5.5163     5.8113
  229.7000   141.3131     5.5913     5.8785
  229.8000   142.3121     5.6178     5.9552
  229.9000   143.4575     5.6702     6.0568
  230.0000   144.8943     5.7222     6.1381
  230.1000   145.7429     5.7681     6.1679
  230.2000   145.7450     5.8696     6.2261
  230.3000   145.7474     5.9364     6.2981
  230.4000   145.6395     6.0049     6.3708
  230.5000   145.3353     6.0940     6.4443
  230.6000   144.8350     6.2125     6.5189
  230.7000   143.9449     6.3510     6.5943
  230.8000   143.1444     6.4682     6.6705
  230.9000   142.1503     6.5734     6.7624
  231.0000   141.4401     6.6875     6.8729
  231.1000   141.1934     6.8036     6.9555
  231.2000   140.9355     6.9092     7.0717
  231.3000   140.9378     6.9889     7.1635
  231.4000   140.9402     7.0786     7.2237
  231.5000   140.9426     7.1512     7.2655
  231.6000   141.1030     7.2056     7.3075
  231.7000   141.6555     7.2471     7.3532
  231.8000   142.7628     7.2780     7.3922
  231.9000   143.2092     7.2801     7.4350
  232.0000   143.8791     7.3288     7.4780
  232.1000   144.3966     7.3289     7.5212
  232.2000   144.5849     7.3555     7.5611
  232.3000   144.5873     7.3801     7.5615
  232.4000   144.5901     7.3802     7.5997
  232.5000   144.7986     7.3803     7.6146
  232.6000   144.8967     7.4228     7.6149
  232.7000   144.9996     7.4318     7.6260
  232.8000   145.2036     7.4567     7.6684
  232.9000   145.2061     7.4837     7.6688
  233.0000   145.4522     7.4838     7.6690
  233.1000   145.5130     7.4839     7.6967
  233.2000   145.5154     7.5250     7.7229
  233.3000   145.6026     7.5683     7.7233
  233.4000   145.8224     7.5887     7.7236
  233.5000   145.8250     7.6029     7.7681
  233.6000   145.8272     7.6417     7.7779
  233.7000   145.8296     7.6418     7.8040
  233.8000   145.8320     7.6816     7.8325
  233.9000   145.8344     7.6951     7.8328
  234.0000   145.8369     7.7166     7.8332
  234.1000   145.8396     7.7489     7.8763
  234.2000   145.8417     7.7490     7.8882
  234.3000   145.8441     7.7491     7.8885
  234.4000   145.8465     7.7492     7.8889
  234.5000   145.8490     7.7493     7.8892
  234.6000   145.8514     7.7688     7.8896
  234.7000   145.8538     7.8034     7.8899
  234.8000   145.8562     7.8035     7.8902
  234.9000   145.8586     7.8036     7.8905
  235.0000   145.8610     7.8037     7.9036
  235.1000   145.8258     7.8038     7.9460
  235.2000   145.5639     7.8039     7.9463
  235.3000   145.5662     7.8040     7.9466
  235.4000   145.5686     7.8042     7.9470
  235.5000   145.5710     7.8043     7.9473
  235.6000   145.5734     7.8044     7.9476
  235.7000   145.5978     7.8045     7.9479
  235.8000   145.8807     7.8046     7.9483
  235.9000   146.5372     7.8047     7.9486
  236.0000   146.9567     7.8048     7.9489
  236.1000   147.4326     7.8049     7.9310
  236.2000   148.2417     7.8050     7.8947
  236.3000   149.2533     7.8051     7.8951
  236.4000   151.0313     7.8052     7.8954
  236.5000   152.0453     7.8053     7.8958
  236.6000   152.8451     7.8055     7.8961
  236.7000   153.2493     7.8056     7.8964
  236.8000   153.5009     7.7762     7.8899
  236.9000   153.7620     7.7519     7.8426
  237.0000   153.7643     7.7520     7.8429
  237.1000   153.5801     7.7521     7.8433
  237.2000   153.4671     7.7522     7.8436
  237.3000   153.3887     7.7523     7.8297
  237.4000   153.1420     7.7524     7.7901
  237.5000   152.8703     7.7525     7.7905
  237.6000   152.2007     7.7526     7.7508
  237.7000   151.2846     7.7527     7.7374
  237.8000   150.4084     7.7528     7.7377
  237.9000   149.7935     7.7529     7.7502
  238.0000   149.5588     7.7281     7.7921
  238.1000   149.5617     7.6996     7.7925
  238.2000   149.3555     7.6997     7.8310
  238.3000   149.1088     7.6998     7.8472
  238.4000   148.8620     7.6999     7.8475
  238.5000   148.5660     7.7000     7.8478
