~VERSION INFORMATION
 VERS.                2.0:   CWLS LOG ASCII STANDARD - VERSION 2.0
 WRAP.                 NO:   ONE LINE PER DEPTH STEP
~WELL INFORMATION
#MNEM.UNIT      DATA TYPE    INFORMATION
#----------   ------------   ------------------------------
 STRT.F          436.0000:   START DEPTH
 STOP.F         2160.0000:   STOP DEPTH
 STEP.F            0.5000:   STEP LENGTH
 NULL.          -999.2500:   NO VALUE
 COMP.   FLUOR DANIEL INC:   COMPANY
 WELL. NAVAL PETROLEUM RESERVE 3 X-29 #31-29:   WELL
 FLD .            WILDCAT:   FIELD
 LOC .      S29 T39N R78W:   LOCATION
 CNTY.            NATRONA:   COUNTY
 STAT.            WYOMING:   STATE
 CTRY. UNITED STATES OF AMERICA:   COUNTRY
 SRVC.            Unknown:   SERVICE COMPANY
 DATE.        25-JUN-1995:   LOGDATE
 API .       490252272300:   API NUMBER
~CURVE INFORMATION
#MNEM.UNIT       API CODE    CURVE DESCRIPTION
#----------   ------------   ------------------------------
 DEPT.F                  :   
 ROP .FT/HR  91 810 01 00:   RAT OF DRILLING PENETRATION
 TGAS.TC/CC  91 830 01 00:   TOTAL GAS UNIT
~PARAMETER INFORMATION
#MNEM.UNIT          VALUE    DESCRIPTION
#----------   ------------   ------------------------------
 EPD .F              5058:   ELEVATION PERMANENT DATUM
 EKB .F              5068:   KELLING BUSHING
 EGL .F              5058:   GROUND LEVEL
 DATE.        25-JUN-1995:   RUN DATE
 RUN .                  1:   RUN NUMBER
 ENGI.     C.TOWER/R.HUSK:   RECORDING ENGINEER
 CLNT.            A2DTECH:   CLIENT CODE
 ORIG.           5" PRINT:   ORIGIN OF DATA
 UWI .       490252272300:   UNIQUE WELL ID
 DICO. A2D Technologies, Inc.:   DIGITIZING COMPANY
~OTHER INFORMATION
~A   DEPT        ROP     TGAS   
# ...
 1772.5000     0.3402     2.3825
 1773.0000     0.3493     2.1985
 1773.5000     0.3488     2.2031
 1774.0000     0.3485     2.2077
 1774.5000     0.3481     2.2123
 1775.0000     0.3477     2.2170
 1775.5000     0.3380     2.4113
 1776.0000     0.3470     2.4159
 1776.5000     1.5308     2.4205
 1777.0000     1.5211     2.4251
 1777.5000     1.5301     2.6184
 1778.0000     0.5052     2.8117
 1778.5000     0.5048     2.8163
 1779.0000     0.5045     2.8209
 1779.5000     0.5041     2.8255
 1780.0000     0.5132     2.8302
 1780.5000     0.5034     2.8349
 1781.0000     0.5030     2.6518
 1781.5000     0.5120     2.4666
 1782.0000     0.5117     2.4723
 1782.5000     0.5019     2.4769
 1783.0000     0.5015     2.6702
 1783.5000     0.5011     2.6748
 1784.0000     0.5102     2.4906
 1784.5000     0.5097     2.4953
 1785.0000     0.5094     2.5000
 1785.5000     0.5090     2.5047
 1786.0000     0.5086     2.3205
 1786.5000     0.5082     2.3262
 1787.0000     0.5173     2.3302
 1787.5000     0.5263     2.3354
 1788.0000     0.5353     2.5287
 1788.5000     0.5350     2.5333
 1789.0000     0.5346     2.7266
 1789.5000     0.5341     2.9199
 1790.0000     0.5338     2.9245
 1790.5000     0.5240     2.9292
 1791.0000     0.5253     2.9348
 1791.5000     0.5327     2.9395
 1792.0000     0.5323     2.9441
 1792.5000     0.5320     2.9481
 1793.0000     0.5316     2.9533
 1793.5000     0.5304     2.9579
 1794.0000     0.5308     2.9625
 1794.5000     0.5305     2.9671
 1795.0000     0.5301     2.9717
 1795.5000     0.5296     2.5989
 1796.0000     0.5293     2.6047
 1796.5000     0.5289     2.6093
 1797.0000     0.5285     2.4241
 1797.5000     0.5376     2.4298
 1798.0000     0.5372     2.2453
 1798.5000     0.5368     2.4390
 1799.0000     0.5365     2.6323
 1799.5000     0.5361     2.6369
 1800.0000     0.5357     2.6415
 1800.5000     0.5354     3.0226
 1801.0000     0.5351     3.0272
 1801.5000     0.5348     2.8412
 1802.0000     0.5346     2.6562
 1802.5000     0.5343     2.6608
 1803.0000     0.5340     2.6645
 1803.5000     0.5243     2.8569
 1804.0000     0.5280     2.8606
 1804.5000     0.5332     2.8643
 1805.0000     0.5329     2.6792
 1805.5000     0.5326     2.6830
 1806.0000     0.5323     2.6868
 1806.5000     0.5320     2.6912
 1807.0000     0.5318     2.6949
 1807.5000     0.5314     2.6981
 1808.0000     0.4372     2.7023
 1808.5000     0.4087     2.7060
 1809.0000     0.3990     2.7096
 1809.5000     0.3987     2.7133
 1810.0000     0.3985     2.7170
 1810.5000     0.3888     3.0981
 1811.0000     0.3885     3.2906
 1811.5000     0.3882     3.2950
 1812.0000     0.3880     3.2987
 1812.5000     0.3971     3.3024
 1813.0000     0.3968     3.3061
 1813.5000     0.4059     3.3098
 1814.0000     0.4151     3.1248
 1814.5000     0.4147     3.1283
 1815.0000     0.4144     3.1321
 1815.5000     0.4142     3.1358
 1816.0000     0.4045     3.1396
 1816.5000     0.4042     3.1441
 1817.0000     0.4039     3.1478
 1817.5000     0.4037     3.1515
 1818.0000     0.4128     3.1551
 1818.5000     0.4125     3.1588
 1819.0000     0.4122     3.1625
 1819.5000     0.4119     3.1662
 1820.0000     0.4116     3.1699
 1820.5000     0.4113     3.5509
 1821.0000     0.4111     3.9566
 1821.5000     0.4108     4.5026
 1822.0000     0.4105     4.6950
 1822.5000     0.4102     4.6986
 1823.0000     0.4100     4.5136
 1823.5000     0.4097     4.5173
 1824.0000     0.5128     4.7097
 1824.5000     0.6253     4.7134
 1825.0000     0.6250     4.7171
 1825.5000     0.6247     4.7208
 1826.0000     0.6244     4.7245
 1826.5000     0.6241     4.7290
 1827.0000     0.6238     4.7321
 1827.5000     0.6330     4.7364
 1828.0000     0.6327     4.7401
 1828.5000     0.3880     4.7438
 1829.0000     0.3768     4.7474
 1829.5000     0.3781     4.7511
 1830.0000     0.3778     4.7548
 1830.5000     0.3775     4.7585
 1831.0000     0.3788     4.7623
 1831.5000     0.3864     4.7668
 1832.0000     0.3860     4.7705
 1832.5000     0.6677     4.7736
 1833.0000     0.6580     4.7778
 1833.5000     0.6578     4.7815
 1834.0000     0.6293     4.7849
 1834.5000     0.5162     4.7889
 1835.0000     0.5160     4.7926
 1835.5000     0.5157     4.7962
 1836.0000     0.5248     4.8000
 1836.5000     0.5245     4.8038
 1837.0000     0.5148     4.8082
 1837.5000     0.5145     4.8113
 1838.0000     0.5330     4.8449
 1838.5000     0.7584     5.0079
 1839.0000     0.7674     5.0116
 1839.5000     0.7672     4.8257
 1840.0000     0.5507     4.8302
 1840.5000     0.4941     4.8340
 1841.0000     0.4938     4.7375
 1841.5000     0.5029     4.6528
 1842.0000     0.5120     4.6573
 1842.5000     0.5117     4.6610
 1843.0000     0.5115     4.6647
 1843.5000     0.5111     4.6679
 1844.0000     0.5109     4.6717
 1844.5000     0.5106     4.6757
 1845.0000     0.5103     4.6792
 1845.5000     0.5100     4.8717
 1846.0000     0.5098     4.8755
 1846.5000     0.5095     4.8792
 1847.0000     0.5186     5.0724
 1847.5000     0.5183     5.0761
 1848.0000     0.5180     5.0798
 1848.5000     0.5178     5.0834
 1849.0000     0.5175     5.2758
 1849.5000     0.5359     5.2795
 1850.0000     0.5451     5.4719
 1850.5000     0.5389     5.4755
 1851.0000     0.5350     5.4792
 1851.5000     0.5347     5.4830
 1852.0000     0.6566     5.6762
 1852.5000     0.6752     5.8685
 1853.0000     0.6748     5.8722
 1853.5000     0.6745     6.0646
 1854.0000     0.6742     6.0683
 1854.5000     0.6739     6.2606
 1855.0000     0.6736     6.2643
 1855.5000     0.6732     6.4567
 1856.0000     0.6635     6.4604
 1856.5000     0.6538     6.2754
 1857.0000     0.6535     6.2800
 1857.5000     0.6532     6.0950
 1858.0000     0.6528     6.0987
 1858.5000     0.6525     6.1023
 1859.0000     0.6522     6.1060
 1859.5000     0.6519     6.1097
 1860.0000     0.6516     6.1134
 1860.5000     0.6701     6.1171
 1861.0000     0.6604     6.1208
 1861.5000     0.6507     6.3132
 1862.0000     0.6504     6.5064
 1862.5000     0.7911     6.5101
 1863.0000     0.7813     6.3242
 1863.5000     0.7810     6.5175
 1864.0000     0.7807     6.5211
 1864.5000     0.7803     6.5248
 1865.0000     0.7895     6.5285
 1865.5000     0.7891     6.5322
 1866.0000     0.7983     6.5359
 1866.5000     0.7979     6.5396
 1867.0000     0.7882     6.5434
 1867.5000     0.7879     6.5478
 1868.0000     0.7876     6.5515
 1868.5000     0.7873     6.5552
 1869.0000     0.7870     6.5589
 1869.5000     0.7867     6.5626
 1870.0000     0.5983     6.5663
 1870.5000     0.5510     6.5699
 1871.0000     0.5413     6.5736
 1871.5000     0.5410     6.7660
 1872.0000     0.5407     6.7698
 1872.5000     0.5498     6.7743
 1873.0000     0.5495     6.7780
 1873.5000     0.5492     6.9703
 1874.0000     0.5489     6.9740
 1874.5000     0.5392     6.9777
 1875.0000     0.5482     7.1700
 1875.5000     0.5478     7.1737
 1876.0000     0.5382     7.1774
 1876.5000     0.5379     7.1811
 1877.0000     0.5375     7.1849
 1877.5000     0.5372     7.1894
 1878.0000     0.5464     7.1931
 1878.5000     0.5460     7.1967
 1879.0000     0.5457     7.2004
 1879.5000     0.5360     7.2041
 1880.0000     0.5357     6.8304
 1880.5000     0.5354     6.8341
 1881.0000     0.5351     6.8378
 1881.5000     0.5348     6.8415
 1882.0000     0.5345     6.8215
 1882.5000     0.5340     6.6602
 1883.0000     0.5244     6.6648
 1883.5000     0.5335     6.6685
 1884.0000     0.6365     6.6717
 1884.5000     0.6551     6.7338
 1885.0000     0.6547     6.8682
 1885.5000     0.6450     7.0605
 1886.0000     0.6447     7.0642
 1886.5000     0.6444     7.0679
 1887.0000     0.6536     7.0717
 1887.5000     0.6438     7.0755
 1888.0000     0.6435     7.0799
 1888.5000     0.6432     7.0836
 1889.0000     0.6429     7.0873
 1889.5000     0.6519     7.0906
 1890.0000     0.5451     7.0946
 1890.5000     0.5291     7.0983
 1891.0000     0.5288     7.1020
 1891.5000     0.5285     7.1057
 1892.0000     0.5281     7.1094
 1892.5000     0.5278     7.1140
 1893.0000     0.5275     7.1176
 1893.5000     0.5178     7.1213
