~VERSION INFORMATION
 VERS.                2.0:   CWLS LOG ASCII STANDARD - VERSION 2.0
 WRAP.                 NO:   ONE LINE PER DEPTH STEP
~WELL INFORMATION
#MNEM.UNIT      DATA TYPE    INFORMATION
#----------   ------------   ------------------------------
 STRT.F            4.0000:   START DEPTH
 STOP.F          693.0000:   STOP DEPTH
 STEP.F            0.5000:   STEP LENGTH
 NULL.          -999.2500:   NO VALUE
 COMP.   FLUOR DANIEL INC:   COMPANY
 WELL. NAVAL PETROLEUM RESERVE 3 SX-3 #1-34:   WELL
 FLD .             TEAPOT:   FIELD
 LOC .      S34 T39N R78W:   LOCATION
 CNTY.            NATRONA:   COUNTY
 STAT.            WYOMING:   STATE
 CTRY. UNITED STATES OF AMERICA:   COUNTRY
 SRVC.      Western Atlas:   SERVICE COMPANY
 DATE.        06-FEB-1994:   LOGDATE
 API .       490252269600:   API NUMBER
~CURVE INFORMATION
#MNEM.UNIT       API CODE    CURVE DESCRIPTION
#----------   ------------   ------------------------------
 DEPT.F                  :   
 GRR .GAPI   07 310 01 00:   GAMMA RAY FROM RES. LOG.
 ILD .OHMM   07 120 46 00:   INDUCTION LOG DEEP
 ILM .OHMM   07 120 44 00:   INDUCTION LOG MEDIUM
~PARAMETER INFORMATION
#MNEM.UNIT          VALUE    DESCRIPTION
#----------   ------------   ------------------------------
 PD  .                 GL:   PERMANENT DATUM
 EPD .F              5097:   ELEVATION PERMANENT DATUM
 LMF .                 KB:   LOG MEASURED FROM
 DAPD.F                10:   FEET ABOVE PERMANENT DATUM
 DMF .                 KB:   DRILLING MEASURED FROM
 EKB .F              5107:   KELLING BUSHING
 EDF .F              5106:   DRILLING FLOOR
 EGL .F              5097:   GROUND LEVEL
 DATE.         6-FEB-1994:   RUN DATE
 RUN .                  1:   RUN NUMBER
 DD  .F               700:   DEPTH DRILLER
 DL  .F               701:   DEPTH LOGGER
 BLI .F               693:   BOTTOM LOG INTERVAL
 CS  .IN            9.625:   CASING SIZE
 CBD .F                56:   CASING BOTTOM DRILLER
 CBL .F                56:   CASING BOTTOM LOGGER
 BS  .IN             8.75:   BIT SIZE
 BSD .F               700:   BIT SIZE AT DEPTH
 DFT .                AIR:   DRILLING FLUID TYPE
 MRT .F                89:   MAXIMUM RECORDED TEMPERATURE
 LUN .            HL-6274:   LOGGING UNIT NUMBER
 LUL .             CASPER:   LOGGING UNIT LOCATION
 ENGI.        VERN RAUTIO:   RECORDING ENGINEER
 WITN.        GARY STRONG:   WITNESSED BY
 CLNT.            A2DTECH:   CLIENT CODE
 ORIG.           5" PRINT:   ORIGIN OF DATA
 UWI .       490252269600:   UNIQUE WELL ID
 DICO. A2D Technologies, Inc.:   DIGITIZING COMPANY
~OTHER INFORMATION
~A    DEPT      GRR       ILD        ILM   
# ...
  277.0000   112.8010     7.6350     7.7790
  277.5000   112.8080     7.5580     7.7010
  278.0000   113.0570     7.4810     7.6220
  278.5000   113.7630     7.4040     7.5440
  279.0000   114.4580     7.3270     7.4660
  279.5000   114.8270     7.2680     7.4080
  280.0000   114.0690     7.2590     7.4410
  280.5000   112.4570     7.2510     7.4680
  281.0000   110.1960     7.2420     7.4940
  281.5000   106.8930     7.2330     7.5210
  282.0000   108.6340     7.2250     7.5470
  282.5000   113.5250     7.2160     7.5740
  283.0000   118.3510     7.2030     7.6000
  283.5000   118.6310     7.2210     7.6270
  284.0000   115.9590     7.2550     7.6530
  284.5000   113.2880     7.2900     7.6800
  285.0000   112.5280     7.3250     7.7190
  285.5000   112.9280     7.3590     7.7680
  286.0000   112.9190     7.3940     7.8170
  286.5000   111.5300     7.4290     7.8660
  287.0000   110.3980     7.4640     7.9150
  287.5000   111.7420     7.4990     7.9630
  288.0000   114.6810     7.5340     8.0120
  288.5000   116.4790     7.5910     8.0610
  289.0000   116.4490     7.6650     8.1100
  289.5000   116.7870     7.7380     8.1590
  290.0000   117.9240     7.8110     8.2070
  290.5000   119.1420     7.8840     8.3050
  291.0000   120.3560     7.9570     8.4070
  291.5000   121.3540     8.0310     8.5100
  292.0000   121.2450     8.1240     8.6120
  292.5000   121.1580     8.2300     8.7150
  293.0000   121.0720     8.3370     8.8170
  293.5000   120.9920     8.4440     8.9190
  294.0000   121.2040     8.5500     9.0220
  294.5000   122.5520     8.6570     9.1240
  295.0000   124.8420     8.7630     9.2270
  295.5000   127.0260     8.8700     9.3290
  296.0000   127.3490     8.9760     9.4320
  296.5000   124.9020     9.0830     9.5340
  297.0000   123.8630     9.1900     9.6370
  297.5000   125.0680     9.2960     9.7390
  298.0000   125.7640     9.4030     9.8420
  298.5000   123.8380     9.5090     9.9440
  299.0000   120.8990     9.6160    10.0460
  299.5000   118.9550     9.7230    10.1490
  300.0000   119.9640     9.8290    10.2510
  300.5000   121.2160     9.9360    10.3540
  301.0000   119.0600    10.0420    10.4560
  301.5000   114.4340    10.1490    10.6550
  302.0000   111.5690    10.2970    10.8790
  302.5000   110.4560    10.4700    11.1030
  303.0000   109.3700    10.6420    11.3270
  303.5000   109.1590    10.8140    11.5510
  304.0000   111.5980    10.9800    11.7240
  304.5000   113.5760    10.9800    11.7110
  305.0000   113.3970    10.9800    11.6970
  305.5000   113.4600    10.9800    11.6840
  306.0000   115.4030    10.9800    11.6710
  306.5000   117.1990    10.9800    11.6580
  307.0000   116.3380    10.9800    11.6440
  307.5000   115.6970    10.9800    11.6310
  308.0000   115.9490    10.9800    11.6160
  308.5000   116.6470    10.9800    11.7140
  309.0000   117.7040    10.9790    11.8410
  309.5000   118.7640    11.1110    11.9680
  310.0000   119.8050    11.2370    12.0940
  310.5000   120.2620    11.3620    12.2210
  311.0000   119.2910    11.4870    12.3480
  311.5000   117.2220    11.6120    12.4750
  312.0000   114.5460    11.7240    12.6010
  312.5000   111.5910    11.6600    12.6370
  313.0000   108.6960    11.6020    12.4540
  313.5000   106.3280    11.5440    12.3170
  314.0000   108.9470    11.4850    12.1800
  314.5000   112.6620    11.4270    12.0580
  315.0000   116.1870    11.3690    12.0510
  315.5000   119.2270    11.3110    12.0450
  316.0000   121.7240    11.2520    12.0380
  316.5000   120.9220    11.1940    12.0320
  317.0000   119.2390    11.1560    12.0250
  317.5000   117.7080    11.1210    12.0190
  318.0000   118.3610    11.0860    12.0120
  318.5000   120.4870    11.0510    12.0060
  319.0000   122.9480    11.0160    11.9990
  319.5000   125.7270    10.9810    11.9930
  320.0000   127.3360    10.9460    11.9860
  320.5000   127.6890    10.9100    11.9800
  321.0000   126.3140    10.8750    11.9730
  321.5000   124.9300    10.8400    11.9670
  322.0000   122.8730    10.8050    11.9600
  322.5000   120.5470    10.7760    11.9540
  323.0000   118.0050    10.8090    11.9460
  323.5000   114.9960    10.8360    12.0460
  324.0000   113.9660    10.8650    12.1650
  324.5000   114.2740    11.0040    12.2830
  325.0000   115.6760    11.2410    12.4020
  325.5000   116.2230    11.4780    12.8010
  326.0000   116.7600    11.7150    13.1990
  326.5000   115.1990    11.9520    13.5980
  327.0000   111.9280    12.1880    13.9960
  327.5000   109.0610    12.4020    14.3950
  328.0000   106.8310    12.6140    14.5440
  328.5000   104.6720    12.7300    14.3440
  329.0000   103.9340    12.8460    14.0440
  329.5000   103.8530    12.8760    13.7450
  330.0000   103.2300    12.5910    13.4450
  330.5000   100.7170    12.3810    13.1450
  331.0000   102.3360    12.1720    12.8450
  331.5000   105.3400    11.9620    12.5450
  332.0000   106.6000    11.7530    12.2460
  332.5000   106.3180    11.5430    11.9460
  333.0000   107.1200    11.3340    11.7240
  333.5000   108.0280    11.1830    11.7240
  334.0000   108.6410    11.1690    11.7440
  334.5000   107.8470    11.1550    11.8020
  335.0000   105.5900    11.1400    11.8600
  335.5000   102.5070    11.1260    11.9180
  336.0000    99.4250    11.1120    11.9760
  336.5000    97.5840    11.0980    12.0590
  337.0000    95.8070    11.0830    11.9270
  337.5000    95.8040    10.9160    11.7010
  338.0000    97.6670    10.7500    11.4760
  338.5000    99.7520    10.5840    11.2500
  339.0000   102.1470    10.3940    11.0250
  339.5000   105.4750    10.1610    10.7990
  340.0000   108.5500     9.9290    10.5740
  340.5000   110.9140     9.6970    10.3480
  341.0000   112.8010     9.5750    10.1230
  341.5000   112.9720     9.4980     9.8970
  342.0000   110.6750     9.4200     9.7130
  342.5000   107.2840     9.3540     9.6750
  343.0000   106.1300     9.3180     9.6380
  343.5000   104.5340     9.2820     9.6010
  344.0000   103.1240     9.2460     9.5640
  344.5000   104.0380     9.2100     9.5260
  345.0000   106.4940     9.1750     9.4890
  345.5000   107.1200     9.1390     9.4520
  346.0000   105.2930     9.1030     9.4150
  346.5000   102.0280     9.0670     9.3770
  347.0000    98.9600     9.0310     9.3630
  347.5000   101.3520     8.8760     9.0960
  348.0000   104.1090     8.6610     8.8410
  348.5000   105.9430     8.4450     8.5860
  349.0000   105.9940     8.2300     8.3300
  349.5000   106.0750     8.0140     8.0750
  350.0000   106.1490     7.7980     7.8200
  350.5000   106.2320     7.5830     7.5480
  351.0000   106.2680     7.3670     7.4780
  351.5000   104.8970     7.1520     7.5000
  352.0000   103.4400     7.0690     7.5390
  352.5000   102.8290     7.0950     7.5770
  353.0000   103.7570     7.1530     7.6160
  353.5000   106.5960     7.2100     7.6540
  354.0000   108.5290     7.2680     7.6930
  354.5000   110.2600     7.3260     7.7310
  355.0000   110.8400     7.3830     7.7700
  355.5000   111.3960     7.4410     7.8080
  356.0000   111.9670     7.4980     7.8470
  356.5000   112.2730     7.5570     7.8850
  357.0000   112.1940     7.6240     7.9240
  357.5000   111.4970     7.6900     7.9630
  358.0000   110.2360     7.7560     8.0420
  358.5000   109.6440     7.8230     8.1750
  359.0000   109.8210     7.8890     8.3080
  359.5000   109.1380     7.9550     8.4420
  360.0000   106.6080     7.9850     8.5260
  360.5000   105.0560     7.9000     8.4400
  361.0000   105.6800     7.8740     8.3300
  361.5000   108.1210     7.8490     8.2210
  362.0000   110.7590     7.7860     8.1110
  362.5000   112.7110     7.6850     8.0020
  363.0000   113.7630     7.5850     7.8920
  363.5000   114.0740     7.4840     7.7830
  364.0000   112.4430     7.4050     7.7630
  364.5000   110.5150     7.3920     7.7630
  365.0000   109.6290     7.3780     7.7630
  365.5000   109.7820     7.3650     7.7630
  366.0000   109.9450     7.3520     7.7630
  366.5000   109.1900     7.3390     7.7630
  367.0000   107.2820     7.3260     7.7640
  367.5000   107.1910     7.3130     7.7370
