~VERSION INFORMATION
 VERS.                2.0:   CWLS LOG ASCII STANDARD - VERSION 2.0
 WRAP.                 NO:   ONE LINE PER DEPTH STEP
~WELL INFORMATION
#MNEM.UNIT      DATA TYPE    INFORMATION
#----------   ------------   ------------------------------
 STRT.F            0.0000:   START DEPTH
 STOP.F          523.0000:   STOP DEPTH
 STEP.F            0.1000:   STEP LENGTH
 NULL.          -999.2500:   NO VALUE
 COMP.       F D SERV INC:   COMPANY
 WELL. NAVAL PETROLEUM RESERVE 3 SX-3 #87-3:   WELL
 FLD .             TEAPOT:   FIELD
 LOC .       S3 T38N R78W:   LOCATION
 CNTY.            NATRONA:   COUNTY
 STAT.            WYOMING:   STATE
 CTRY. UNITED STATES OF AMERICA:   COUNTRY
 SRVC.      Western Atlas:   SERVICE COMPANY
 DATE.        22-NOV-1992:   LOGDATE
 API .       490252254300:   API NUMBER
~CURVE INFORMATION
#MNEM.UNIT       API CODE    CURVE DESCRIPTION
#----------   ------------   ------------------------------
 DEPT.F                  :   
 GRR .GAPI   07 310 01 00:   GAMMA RAY
 RILD.OHMM   07 120 46 00:   INDUCTION LOG DEEP RESISTIVITY
 RILM.OHMM   07 120 44 00:   INDUCTION LOG MEDIUM RESISTIVITY
~PARAMETER INFORMATION
#MNEM.UNIT          VALUE    DESCRIPTION
#----------   ------------   ------------------------------
 PD  .                 GL:   PERMANENT DATUM
 EPD .F              5129:   ELEVATION PERMANENT DATUM
 LMF .                 KB:   LOG MEASURED FROM
 DAPD.F                10:   FEET ABOVE PERMANENT DATUM
 DMF .                 KB:   DRILLING MEASURED FROM
 EKB .F              5139:   KELLING BUSHING
 EDF .F              5138:   DRILLING FLOOR
 EGL .F              5129:   GROUND LEVEL
 DATE.        22-NOV-1992:   RUN DATE
 RUN .                  1:   RUN NUMBER
 DD  .F               530:   DEPTH DRILLER
 DL  .F               531:   DEPTH LOGGER
 BLI .F               530:   BOTTOM LOG INTERVAL
 TLI .F                58:   TOP LOG INTERVAL
 CS  .IN            8.625:   CASING SIZE
 CBD .F                58:   CASING BOTTOM DRILLER
 CBL .F                58:   CASING BOTTOM LOGGER
 BS  .IN            7.875:   BIT SIZE
 BSD .F               530:   BIT SIZE AT DEPTH
 DFT .           AIR FOAM:   DRILLING FLUID TYPE
 MRT .F                73:   MAXIMUM RECORDED TEMPERATURE
 LUN .            HL-6274:   LOGGING UNIT NUMBER
 LUL .             CASPER:   LOGGING UNIT LOCATION
 ENGI.       P. RASMUSSEN:   RECORDING ENGINEER
 WITN.          G. STRONG:   WITNESSED BY
 CLNT.            A2DTECH:   CLIENT CODE
 ORIG.           5" PRINT:   ORIGIN OF DATA
 UWI .       490252254300:   UNIQUE WELL ID
 DICO. A2D Technologies, Inc.:   DIGITIZING COMPANY
~OTHER INFORMATION
~A    DEPT      GRR      RILD       RILM   
# ...
  327.6000    74.0987    27.6681    28.7777
  327.7000    74.3648    27.5811    28.7752
  327.8000    74.9323    27.3726    28.7728
  327.9000    75.6692    27.0728    28.7705
  328.0000    76.5142    26.8954    28.7681
  328.1000    77.1422    26.7598    28.7652
  328.2000    78.0313    26.5070    28.7632
  328.3000    78.7249    26.2668    28.7608
  328.4000    79.0488    26.1449    28.7584
  328.5000    79.8365    26.1419    28.7560
  328.6000    80.2930    26.1391    28.7535
  328.7000    80.6114    26.1362    28.5983
  328.8000    80.8561    26.1333    28.3183
  328.9000    81.0420    26.1304    28.0728
  329.0000    81.0409    26.1274    27.9535
  329.1000    81.0397    26.1241    27.9289
  329.2000    81.2297    26.1216    27.3698
  329.3000    81.4744    26.1187    27.2398
  329.4000    81.7191    26.1158    27.1755
  329.5000    82.0060    26.1129    27.1147
  329.6000    82.8488    26.1099    26.9822
  329.7000    83.4790    26.1071    26.9798
  329.8000    84.8306    26.1041    26.8344
  329.9000    86.4535    26.1012    26.6796
  330.0000    87.7659    26.0983    26.5257
  330.1000    88.2892    26.0954    26.4126
  330.2000    88.2881    26.0922    26.3842
  330.3000    88.2868    26.0896    25.6815
  330.4000    88.2856    26.0867    25.4407
  330.5000    88.1655    26.1495    25.3220
  330.6000    87.6727    26.2960    25.3745
  330.7000    87.1794    26.4439    25.4952
  330.8000    86.6862    26.5919    25.4926
  330.9000    85.9224    26.7410    25.6265
  331.0000    85.0951    26.8060    25.6668
  331.1000    84.6021    26.8030    25.6647
  331.2000    84.0398    26.8170    25.7403
  331.3000    83.6164    26.9840    26.0270
  331.4000    83.4323    27.2570    26.2002
  331.5000    83.3333    27.3569    26.3212
  331.6000    83.1274    27.4237    26.3795
  331.7000    83.1261    27.5420    26.4337
  331.8000    83.5856    27.5389    26.6056
  331.9000    84.2500    27.8531    26.9301
  332.0000    84.7524    28.0440    26.9280
  332.1000    84.9971    28.1112    27.0347
  332.2000    85.2381    28.1625    27.1119
  332.3000    85.2369    28.3018    27.1096
  332.4000    85.2357    28.1014    27.1074
  332.5000    85.2345    28.0986    27.1047
  332.6000    85.2333    28.0955    27.2295
  332.7000    85.2321    28.0924    27.2902
  332.8000    85.2307    28.0893    27.3460
  332.9000    85.0176    28.0861    27.4769
  333.0000    84.7705    28.0830    27.4741
  333.1000    84.5236    28.0798    27.4720
  333.2000    84.2765    28.0767    27.4696
  333.3000    84.0145    28.0736    27.4673
  333.4000    83.7821    28.0704    27.4246
  333.5000    83.5350    28.0670    27.2719
  333.6000    83.4057    28.0642    27.2692
  333.7000    83.4045    28.0611    27.2673
  333.8000    83.3989    28.0580    27.2650
  333.9000    83.1517    28.0548    27.2628
  334.0000    83.0983    28.0517    27.2380
  334.1000    82.9602    28.0485    27.0687
  334.2000    82.7933    28.0454    27.0666
  334.3000    82.7449    28.0423    27.0643
  334.4000    82.1856    28.0392    26.9884
  334.5000    81.9718    28.0361    26.8326
  334.6000    81.5687    28.0326    26.6725
  334.7000    81.1751    28.0298    26.3107
  334.8000    80.9707    27.9172    26.3089
  334.9000    80.9694    27.6821    26.1311
  335.0000    80.9683    27.4028    25.8325
  335.1000    80.9670    27.2367    25.5372
  335.2000    80.8472    26.6802    25.2224
  335.3000    80.7239    26.6778    24.9572
  335.4000    80.9634    26.6748    24.7703
  335.5000    80.9622    26.6718    24.4949
  335.6000    81.5441    26.6689    24.1462
  335.7000    82.4184    26.6656    24.0111
  335.8000    83.8066    26.6629    24.0087
  335.9000    85.9445    26.6600    24.0071
  336.0000    87.6125    26.6570    24.0051
  336.1000    89.5339    26.6540    24.0531
  336.2000    91.1182    26.6510    24.1693
  336.3000    92.0457    26.6475    24.1668
  336.4000    92.4492    26.6451    24.1649
  336.5000    92.1452    26.6421    24.3563
  336.6000    91.6784    26.6391    24.5667
  336.7000    91.3615    26.6362    24.7051
  336.8000    90.9950    26.6330    24.8442
  336.9000    90.5021    26.6302    25.0114
  337.0000    90.0150    26.6272    25.2414
  337.1000    89.7680    26.6973    25.4436
  337.2000    89.7162    26.8074    25.5869
  337.3000    89.5765    26.8156    25.7516
  337.4000    89.4112    27.1770    26.0692
  337.5000    89.4100    27.1745    26.2041
  337.6000    89.4086    27.2637    26.4568
  337.7000    89.4075    27.3584    26.6856
  337.8000    89.5640    27.3788    26.8359
  337.9000    89.8088    27.5433    26.9871
  338.0000    90.0534    27.8342    27.1690
  338.1000    90.3104    28.0367    27.4181
  338.2000    90.5428    28.1159    27.6381
  338.3000    91.1412    28.1980    27.7368
  338.4000    91.6373    28.5108    27.8002
  338.5000    91.8819    28.6995    28.3181
  338.6000    92.1268    28.8316    28.4641
  338.7000    92.3714    29.0931    28.5117
  338.8000    92.4199    29.4236    28.6629
  338.9000    92.4188    29.7047    28.9892
  339.0000    92.4176    29.7007    29.3107
  339.1000    92.4164    30.0164    29.3077
  339.2000    92.4150    30.3576    29.5756
  339.3000    92.1987    30.5300    29.9125
  339.4000    92.1101    30.5739    30.1911
  339.5000    92.1089    30.7540    30.4085
  339.6000    92.0625    31.1638    30.9762
  339.7000    91.8039    31.1610    30.9738
  339.8000    91.8027    31.1575    31.0935
  339.9000    91.8015    31.1540    31.1854
  340.0000    91.6793    31.1505    31.1828
  340.1000    91.4965    31.1469    31.1763
  340.2000    91.4876    30.9770    30.9965
  340.3000    91.1913    30.9239    30.9583
  340.4000    91.1903    30.8329    30.8542
  340.5000    91.1891    30.6540    30.5534
  340.6000    91.1043    30.4858    29.9878
  340.7000    90.8304    30.4819    29.0654
  340.8000    90.2776    30.4790    28.6156
  340.9000    88.9804    30.4756    28.3482
  341.0000    87.9817    30.4723    28.2591
  341.1000    87.3455    30.4396    28.2179
  341.2000    86.9447    30.2538    28.0517
  341.3000    86.9434    30.2505    27.7318
  341.4000    86.9422    30.1223    27.6649
  341.5000    86.9410    29.9476    27.6626
  341.6000    87.0617    29.7740    27.6049
  341.7000    87.2412    29.6117    27.4254
  341.8000    87.2483    29.6078    27.0830
  341.9000    87.5411    29.4637    26.9413
  342.0000    87.9354    29.1902    26.8905
  342.1000    88.5668    28.9208    26.8177
  342.2000    89.5563    28.7531    26.6267
  342.3000    91.1405    28.5786    26.3247
  342.4000    93.8891    28.4206    26.1730
  342.5000    94.7551    28.1385    26.1400
  342.6000    95.5775    27.9783    25.9684
  342.7000    96.1071    27.9291    25.6716
  342.8000    96.3052    27.7672    25.3780
  342.9000    96.3037    27.5815    25.0604
  343.0000    96.5385    27.3142    24.9297
  343.1000    96.6039    27.1942    24.7860
  343.2000    96.6027    27.1288    24.7074
  343.3000    96.6015    26.9994    24.7053
  343.4000    96.6003    26.9963    24.7033
  343.5000    96.5989    26.6996    24.7012
  343.6000    96.5979    26.5051    24.6991
  343.7000    96.5967    26.4292    24.6970
  343.8000    96.5955    26.3817    24.6950
  343.9000    96.6228    26.2174    24.6929
  344.0000    96.8955    25.8734    24.6907
  344.1000    96.8944    25.7454    24.6888
  344.2000    96.8932    25.6885    24.6867
  344.3000    96.8920    25.6258    24.6847
  344.4000    96.8908    25.4770    24.6826
  344.5000    96.8895    25.3244    24.6806
  344.6000    96.8883    25.0441    24.6784
  344.7000    96.8871    24.9685    24.5657
  344.8000    96.7625    24.8914    24.5029
  344.9000    96.5822    24.7046    24.4052
  345.0000    96.5809    24.4326    24.1428
  345.1000    96.5795    24.2711    23.9895
  345.2000    96.3792    24.2688    23.8651
  345.3000    96.2747    24.2661    23.8190
  345.4000    96.2735    24.2634    23.6943
  345.5000    96.2724    24.2338    23.4543
  345.6000    96.2710    24.0895    23.3201
  345.7000    96.2699    23.9536    23.3182
