~VERSION INFORMATION
 VERS.                2.0:   CWLS LOG ASCII STANDARD - VERSION 2.0
 WRAP.                 NO:   ONE LINE PER DEPTH STEP
~WELL INFORMATION
#MNEM.UNIT      DATA TYPE    INFORMATION
#----------   ------------   ------------------------------
 STRT.F            8.0000:   START DEPTH
 STOP.F          598.0000:   STOP DEPTH
 STEP.F            0.5000:   STEP LENGTH
 NULL.          -999.2500:   NO VALUE
 COMP. FENIX & SCISSON INC:   COMPANY
 WELL.    16-SX-11 #16-11:   WELL
 FLD .             TEAPOT:   FIELD
 LOC .      S11 T38N R78W:   LOCATION
 CNTY.            NATRONA:   COUNTY
 STAT.            WYOMING:   STATE
 CTRY. UNITED STATES OF AMERICA:   COUNTRY
 SRVC.            Unknown:   SERVICE COMPANY
 DATE.        13-DEC-1978:   LOGDATE
 API .       490251078400:   API NUMBER
~CURVE INFORMATION
#MNEM.UNIT       API CODE    CURVE DESCRIPTION
#----------   ------------   ------------------------------
 DEPT.F                  :   
 RHOB.G/C3   45 350 01 00:   BULK DENSITY
 CORR.G/C3   45 356 01 00:   DENSITY CORRECTION
 SN  .OHMM   05 040 16 00:   SHORT NORMAL 16"
 ILD .OHMM   05 120 46 00:   INDUCTION LOG DEEP
 SPR .MV     05 010 01 00:   SPONTANEOUS POTENTIAL FROM RES.
 DPHI.DEC    45 890 12 00:   DENSITY POROSITY SANDSTONE
 CALD.IN     45 280 60 00:   CALIPER
 GRD .GAPI   45 310 01 00:   GAMMA RAY FROM DENSITY LOG
~PARAMETER INFORMATION
#MNEM.UNIT          VALUE    DESCRIPTION
#----------   ------------   ------------------------------
 PD  .                 GL:   PERMANENT DATUM
 EPD .F              5209:   ELEVATION PERMANENT DATUM
 LMF .                 KB:   LOG MEASURED FROM
 DAPD.F                 4:   FEET ABOVE PERMANENT DATUM
 DMF .                 KB:   DRILLING MEASURED FROM
 EKB .F              5213:   KELLING BUSHING
 EGL .F              5209:   GROUND LEVEL
 DATE.           12-13-78:   RUN DATE
 RUN .                  1:   RUN NUMBER
 DD  .F               590:   DEPTH DRILLER
 DL  .F               598:   DEPTH LOGGER
 BLI .F               591:   BOTTOM LOG INTERVAL
 TLI .F                40:   TOP LOG INTERVAL
 CS  .IN            8.625:   CASING SIZE
 CBD .F                40:   CASING BOTTOM DRILLER
 CBL .F                25:   CASING BOTTOM LOGGER
 BS  .IN            7.875:   BIT SIZE
 BSD .F               590:   BIT SIZE AT DEPTH
 DFT .                KCL:   DRILLING FLUID TYPE
 DFD .                8.8:   DRILLING FLUID DENSITY
 DFV .                 37:   DRILLING FLUID VISCOSITY
 DFPH.                8.9:   DRILLING FLUID PH
 MSS .           FLOWLINE:   MUD SAMPLE SOURCE
 RMS .OHMM             .3:   RESISTIVITY MUD SAMPLE
 MST .F                56:   MUD SAMPLE TEMPERATURE
 RMF .OHMM            .26:   RESISTIVITY MUD FILTRATE SAMPLE
 MFST.F                66:   MUD FILTRATE SAMPLE TEMPERATURE
 RMC .OHMM            .24:   RESISTIVITY MUD CAKE
 MCST.F                66:   MUD CAKE SAMPLE TEMPERATURE
 MFSS.           MEASURED:   MUD FILTRATE SAMPLE SOURCE
 MCSS.           MEASURED:   MUD CAKE SAMPLE SOURCE
 RMB .OHMM            .29:   RESISTIVITY MUD AT BHT
 BHT .F                58:   BOTTOM HOLE TEMPERATURE
 TCS .HRS               3:   TIME CURCULATED STOPPED
 MRT .F                58:   MAXIMUM RECORDED TEMPERATURE
 LUN .               2958:   LOGGING UNIT NUMBER
 LUL .             CASPER:   LOGGING UNIT LOCATION
 ENGI.            ROLLINS:   RECORDING ENGINEER
 WITN.         RICHARDSON:   WITNESSED BY
 CLNT.            A2DTECH:   CLIENT CODE
 ORIG.       2", 5" PRINT:   ORIGIN OF DATA
 UWI .       490251078400:   UNIQUE WELL ID
 DICO. A2D Technologies, Inc.:   DIGITIZING COMPANY
~OTHER INFORMATION
~A    DEPT    RHOB       CORR         SN        ILD        SPR       DPHI       CALD         GRD  
# ...
  453.5000     2.2407     0.0439    14.5448    18.4236   -18.3244     0.2621     7.9633    83.4991
  454.0000     2.2405     0.1096    14.4101    18.2179   -18.5725     0.2782     7.9352    80.2087
  454.5000     2.3121     0.1702    14.2706    18.0145   -18.8199     0.2565     7.9033    76.5191
  455.0000     2.3881     0.1704    14.1735    17.8134   -19.0694     0.1988     7.8319    77.1940
  455.5000     2.4407     0.1544    14.0725    17.6145   -19.1749     0.1489     7.7566    78.7213
  456.0000     2.4427     0.1144    13.9721    17.4569   -19.1768     0.1495     7.7260    80.2686
  456.5000     2.4111     0.0746    13.8725    17.3669   -19.1769     0.1618     7.7047    80.8202
  457.0000     2.3903     0.0455    13.7538    17.2774   -19.1765     0.1743     7.7040    77.8592
  457.5000     2.3792     0.0235    13.7619    17.1698   -19.1765     0.1869     7.7146    73.6970
  458.0000     2.3617     0.0094    13.7736    17.2031   -19.1782     0.1996     7.7280    73.7581
  458.5000     2.3627     0.0084    13.7855    17.2453   -19.2700     0.1996     7.7415    78.1820
  459.0000     2.3616     0.0072    13.7973    17.2875   -19.5100     0.1996     7.7512    82.5928
  459.5000     2.3580     0.0061    13.8092    17.3299   -19.7486     0.2009     7.7601    83.0068
  460.0000     2.3545     0.0049    13.8211    17.3723   -19.9720     0.2069     7.7690    82.7630
  460.5000     2.3540     0.0047    13.8330    17.4149   -19.9209     0.2080     7.7779    81.5780
  461.0000     2.3563     0.0084    13.8450    17.4574   -19.8609     0.2065     7.7868    81.0511
  461.5000     2.3587     0.0121    13.8567    17.4897   -19.7953     0.2031     7.7957    80.6735
  462.0000     2.3610     0.0163    13.8689    17.3445   -20.0915     0.2009     7.8046    79.3795
  462.5000     2.3571     0.0173    13.8795    17.2276   -20.5675     0.2021     7.8136    78.5272
  463.0000     2.3541     0.0141    13.7312    17.1115   -21.0486     0.2051     7.8225    78.6023
  463.5000     2.3544     0.0109    13.5892    16.9961   -21.5312     0.2072     7.8237    79.6657
  464.0000     2.3547     0.0077    13.4495    16.8815   -21.9086     0.2075     7.8237    78.7341
  464.5000     2.3547     0.0062    13.3552    16.7677   -22.1681     0.2078     7.8237    78.4754
  465.0000     2.3541     0.0065    13.3109    16.6546   -22.4275     0.2076     7.8237    79.7397
  465.5000     2.3538     0.0069    13.2659    16.5424   -22.6871     0.2063     7.8237    80.3788
  466.0000     2.3600     0.0072    13.1645    16.4312   -22.9470     0.2040     7.8237    80.3962
  466.5000     2.3686     0.0076    13.0341    16.3199   -23.2058     0.1998     7.8237    82.0622
  467.0000     2.3776     0.0080    12.9062    16.1067   -23.4659     0.1957     7.8237    82.7886
  467.5000     2.3792     0.0065    12.7795    15.6634   -23.5931     0.1912     7.8237    82.7899
  468.0000     2.3767     0.0043    12.6540    15.2323   -23.7252     0.1908     7.8237    83.0563
  468.5000     2.3719     0.0021    12.5297    14.8867   -23.8700     0.1935     7.8237    83.9468
  469.0000     2.3670     0.0038    12.4039    14.7032   -24.0143     0.1964     7.8237    83.8342
  469.5000     2.3655     0.0058    12.2605    14.5220   -24.1586     0.1996     7.8237    82.7570
  470.0000     2.3649     0.0077    12.1188    14.3976   -24.3029     0.1996     7.8237    80.8174
  470.5000     2.3651     0.0097    11.9712    14.3808   -24.4472     0.1990     7.8237    78.2619
  471.0000     2.3797     0.0116    11.9822    14.3641   -24.5915     0.1918     7.8237    75.7060
  471.5000     2.3996     0.0137    11.9938    14.3474   -24.7358     0.1821     7.8237    74.7309
  472.0000     2.4080     0.0125    12.0055    14.3308   -24.8801     0.1719     7.8237    76.8096
  472.5000     2.4062     0.0105    12.0171    14.3142   -25.0243     0.1718     7.8237    79.9852
  473.0000     2.4004     0.0085    12.0287    14.2976   -25.1686     0.1736     7.8237    80.5312
  473.5000     2.3946     0.0064    12.0404    14.2808   -25.3131     0.1774     7.8237    80.0442
  474.0000     2.3910     0.0071    12.0520    14.2025   -25.4822     0.1818     7.8237    79.5751
  474.5000     2.3917     0.0085    12.0638    14.0275   -25.6932     0.1828     7.8237    80.1793
  475.0000     2.3926     0.0098    12.0760    13.8545   -25.9035     0.1812     7.8237    80.4216
  475.5000     2.3931     0.0112    12.0814    13.6838   -26.1143     0.1792     7.8237    81.6096
  476.0000     2.3931     0.0115    11.9516    13.5151   -26.3236     0.1802     7.8237    84.3226
  476.5000     2.3931     0.0085    11.8594    13.3485   -26.6034     0.1804     7.8237    84.0894
  477.0000     2.3909     0.0057    11.7678    13.2407   -26.9225     0.1792     7.8237    83.5988
  477.5000     2.3874     0.0044    11.6769    13.2114   -27.2428     0.1831     7.8237    83.9492
  478.0000     2.3840     0.0053    11.5863    13.1821   -27.5631     0.1869     7.8237    84.6490
  478.5000     2.3807     0.0082    11.5366    13.1530   -27.8834     0.1879     7.8237    82.9793
  479.0000     2.3929     0.0185    11.5569    13.1239   -28.2038     0.1838     7.8237    81.0531
  479.5000     2.4095     0.0285    11.5715    13.0948   -28.5239     0.1744     7.8237    79.2509
  480.0000     2.4250     0.0370    11.5858    13.0659   -28.8441     0.1650     7.8237    77.9582
  480.5000     2.4252     0.0374    11.6002    13.0370   -29.0152     0.1591     7.8237    78.5625
  481.0000     2.4204     0.0360    11.6146    13.0081   -29.1888     0.1629     7.8237    80.7439
  481.5000     2.4157     0.0345    11.6290    12.9793   -29.1821     0.1673     7.8237    83.2427
  482.0000     2.4150     0.0314    11.6434    12.9507   -29.1416     0.1687     7.8237    82.5668
  482.5000     2.4222     0.0230    11.6579    12.9213   -29.1007     0.1644     7.8237    84.6385
  483.0000     2.4312     0.0140    11.6724    12.8881   -29.0590     0.1610     7.8237    83.7636
  483.5000     2.4324     0.0126    11.6869    13.0201   -29.0194     0.1577     7.8237    84.0845
  484.0000     2.4330     0.0114    11.7014    13.2134   -29.2222     0.1555     7.8237    87.2478
  484.5000     2.4280     0.0101    11.7159    13.4994   -29.4523     0.1582     7.8237    87.6224
  485.0000     2.4191     0.0117    11.7304    13.4321   -29.6823     0.1623     7.8237    86.4168
  485.5000     2.4199     0.0136    11.7448    13.2949   -29.9119     0.1630     7.8237    85.2385
  486.0000     2.4195     0.0155    11.7517    13.1612   -30.1415     0.1637     7.8238    85.8790
  486.5000     2.4191     0.0173    11.7519    13.0288   -30.3711     0.1640     7.8236    87.2327
  487.0000     2.4183     0.0192    11.7518    12.8977   -30.6007     0.1641     7.8138    85.6305
  487.5000     2.4184     0.0200    11.7519    12.7679   -30.8276     0.1643     7.8033    83.2906
  488.0000     2.4186     0.0200    11.7519    12.6395   -31.0392     0.1646     7.7927    82.9505
  488.5000     2.4189     0.0200    11.7519    12.5123   -31.5231     0.1652     7.7829    81.0062
  489.0000     2.4191     0.0200    11.7519    12.3857   -32.0479     0.1652     7.7784    80.3279
  489.5000     2.4198     0.0200    11.7519    12.2951   -32.5726     0.1644     7.7738    82.4904
  490.0000     2.4207     0.0196    11.7519    12.2586   -33.0955     0.1636     7.7691    85.2554
  490.5000     2.4236     0.0188    11.7519    12.2234   -33.6231     0.1628     7.7645    86.7505
  491.0000     2.4299     0.0180    11.7519    12.1947   -33.8320     0.1608     7.7598    86.6892
  491.5000     2.4361     0.0173    11.7517    12.2561   -33.8357     0.1567     7.7552    86.7245
  492.0000     2.4378     0.0165    11.7519    12.3602   -33.8357     0.1539     7.7505    87.4761
  492.5000     2.4394     0.0168    11.7519    12.4223   -33.8353     0.1532     7.7459    88.1969
  493.0000     2.4438     0.0189    11.8426    12.5377   -33.8363     0.1513     7.7352    87.5776
  493.5000     2.4474     0.0209    12.0642    13.3762   -33.8434     0.1464     7.7209    86.6981
