~VERSION INFORMATION
 VERS.                2.0:   CWLS LOG ASCII STANDARD - VERSION 2.0
 WRAP.                 NO:   ONE LINE PER DEPTH STEP
~WELL INFORMATION
#MNEM.UNIT      DATA TYPE    INFORMATION
#----------   ------------   ------------------------------
 STRT.F          438.0000:   START DEPTH
 STOP.F         2175.0000:   STOP DEPTH
 STEP.F            0.5000:   STEP LENGTH
 NULL.          -999.2500:   NO VALUE
 COMP.   FLUOR DANIEL INC:   COMPANY
 WELL. NAVAL PETROLEUM RESERVE 3 X29 #74-29:   WELL
 FLD .            WLIDCAT:   FIELD
 LOC .      S29 T39N R78W:   LOCATION
 CNTY.            NATRONA:   COUNTY
 STAT.            WYOMING:   STATE
 CTRY. UNITED STATES OF AMERICA:   COUNTRY
 SRVC.            Unknown:   SERVICE COMPANY
 DATE.        05-JUN-1995:   LOGDATE
 API .       490252272900:   API NUMBER
~CURVE INFORMATION
#MNEM.UNIT       API CODE    CURVE DESCRIPTION
#----------   ------------   ------------------------------
 DEPT.F                  :   
 ROP .FT/HR  91 810 01 00:   RAT OF DRILLING PENETRATION
 TGAS.TC/CC  91 830 01 00:   TOTAL GAS UNIT
~PARAMETER INFORMATION
#MNEM.UNIT          VALUE    DESCRIPTION
#----------   ------------   ------------------------------
 EKB .F              5036:   KELLING BUSHING
 EGL .F              5026:   GROUND LEVEL
 DATE.        05-JUN-1995:   RUN DATE
 RUN .                  1:   RUN NUMBER
 BLI .F              2160:   BOTTOM LOG INTERVAL
 TLI .F               440:   TOP LOG INTERVAL
 ENGI.     R.HUSK/C.TOWER:   RECORDING ENGINEER
 CLNT.            A2DTECH:   CLIENT CODE
 ORIG.           5" PRINT:   ORIGIN OF DATA
 UWI .       490252272900:   UNIQUE WELL ID
 DICO. A2D Technologies, Inc.:   DIGITIZING COMPANY
~OTHER INFORMATION
~A   DEPT        ROP       TGAS 
# ...
 1774.5000     1.0436     5.6677
 1775.0000     1.0240     5.6604
 1775.5000     1.0237     5.4642
 1776.0000     0.9658     5.2665
 1776.5000     0.8020     5.2592
 1777.0000     0.8017     5.2519
 1777.5000     0.8111     5.0559
 1778.0000     0.8107     4.8599
 1778.5000     0.5412     4.4752
 1779.0000     0.5410     4.2792
 1779.5000     0.5406     4.0830
 1780.0000     0.5404     3.6966
 1780.5000     0.5401     3.6906
 1781.0000     0.5398     3.6820
 1781.5000     0.5395     3.6747
 1782.0000     0.5392     3.6673
 1782.5000     0.5389     3.6600
 1783.0000     0.5483     3.6527
 1783.5000     0.5479     3.6453
 1784.0000     0.5477     3.6377
 1784.5000     0.5474     3.6289
 1785.0000     0.5471     3.6215
 1785.5000     0.5468     3.6142
 1786.0000     0.5991     3.9842
 1786.5000     0.6905     4.1656
 1787.0000     0.6998     4.3472
 1787.5000     0.6995     4.3396
 1788.0000     0.6992     4.3321
 1788.5000     0.6989     4.3231
 1789.0000     0.6986     4.3170
 1789.5000     0.6984     4.3085
 1790.0000     0.6917     4.3019
 1790.5000     0.6882     4.1051
 1791.0000     0.6879     4.0981
 1791.5000     0.6876     4.0899
 1792.0000     0.6873     3.9942
 1792.5000     0.6921     3.8859
 1793.0000     0.6964     3.8792
 1793.5000     0.6960     3.8717
 1794.0000     0.7054     3.8642
 1794.5000     0.6955     3.8560
 1795.0000     0.6952     3.8487
 1795.5000     0.6949     3.8415
 1796.0000     0.6965     3.8340
 1796.5000     0.7039     3.8264
 1797.0000     0.6940     3.8175
 1797.5000     0.6937     3.8102
 1798.0000     0.6935     3.8038
 1798.5000     0.6995     3.9861
 1799.0000     0.7025     4.1674
 1799.5000     0.7022     4.1583
 1800.0000     0.7019     4.5283
 1800.5000     0.6920     4.5208
 1801.0000     0.7013     4.7023
 1801.5000     0.7010     4.6932
 1802.0000     0.7008     4.4972
 1802.5000     0.7005     4.4906
 1803.0000     0.7002     4.4825
 1803.5000     0.7150     4.4755
 1804.0000     0.7189     4.4679
 1804.5000     0.7185     4.4604
 1805.0000     0.7182     4.4528
 1805.5000     0.7180     4.4453
 1806.0000     0.7177     4.4367
 1806.5000     0.7174     4.5283
 1807.0000     0.7171     4.6126
 1807.5000     0.6647     4.7921
 1808.0000     0.5723     4.7848
 1808.5000     0.5720     4.7774
 1809.0000     0.5813     4.7698
 1809.5000     0.5810     4.5377
 1810.0000     0.5711     4.3270
 1810.5000     0.5805     4.1415
 1811.0000     0.5802     3.9177
 1811.5000     0.5799     3.7453
 1812.0000     0.5796     3.7347
 1812.5000     0.5793     3.5368
 1813.0000     0.5790     3.3396
 1813.5000     0.5787     3.3297
 1814.0000     0.5784     3.3208
 1814.5000     0.5782     3.3113
 1815.0000     0.5779     3.3019
 1815.5000     0.5759     3.2925
 1816.0000     0.5733     3.4701
 1816.5000     0.5706     3.4913
 1817.0000     0.5704     3.6415
 1817.5000     0.5702     3.6321
 1818.0000     0.5700     3.6212
 1818.5000     0.5698     3.9073
 1819.0000     0.5696     3.9811
 1819.5000     0.5694     3.9717
 1820.0000     0.5692     3.9623
 1820.5000     0.5690     3.9511
 1821.0000     0.5688     4.2425
 1821.5000     0.5686     4.3123
 1822.0000     0.5781     4.6792
 1822.5000     0.5779     4.8600
 1823.0000     0.5769     4.9789
 1823.5000     0.5678     5.0283
 1824.0000     0.5484     5.0189
 1824.5000     0.5482     5.0094
 1825.0000     0.5384     4.9996
 1825.5000     0.5286     4.9906
 1826.0000     0.5284     4.9797
 1826.5000     0.5283     4.9717
 1827.0000     0.5281     4.9621
 1827.5000     0.5279     4.9521
 1828.0000     0.5469     4.9421
 1828.5000     0.5467     4.9340
 1829.0000     0.5465     4.9245
 1829.5000     0.5560     5.1040
 1830.0000     0.5654     5.2812
 1830.5000     0.5652     5.2736
 1831.0000     0.5650     5.2642
 1831.5000     0.5552     5.2536
 1832.0000     0.5550     5.2444
 1832.5000     0.5548     5.2358
 1833.0000     0.5546     5.2260
 1833.5000     0.5544     5.0281
 1834.0000     0.5639     4.8302
 1834.5000     0.5636     4.7142
 1835.0000     0.5634     4.4322
 1835.5000     0.5729     4.3928
 1836.0000     0.5727     4.4161
 1836.5000     0.5821     4.4046
 1837.0000     0.5819     4.3962
 1837.5000     0.5817     4.3862
 1838.0000     0.6007     4.3770
 1838.5000     0.6005     4.3678
 1839.0000     0.5811     4.3585
 1839.5000     0.5617     4.3491
 1840.0000     0.5423     4.1384
 1840.5000     0.5325     3.9528
 1841.0000     0.5227     3.9434
 1841.5000     0.5225     3.7443
 1842.0000     0.5222     3.6878
 1842.5000     0.5114     3.5372
 1843.0000     0.5027     3.5283
 1843.5000     0.5025     3.5189
 1844.0000     0.5023     3.5094
 1844.5000     0.5021     3.5000
 1845.0000     0.5019     3.4906
 1845.5000     0.5017     3.4805
 1846.0000     0.5015     3.4717
 1846.5000     0.5013     3.4623
 1847.0000     0.4915     3.4514
 1847.5000     0.4817     3.4434
 1848.0000     0.4815     3.4340
 1848.5000     0.4813     3.4238
 1849.0000     0.4811     3.4151
 1849.5000     0.4828     3.4039
 1850.0000     0.4904     3.3962
 1850.5000     0.4902     3.3868
 1851.0000     0.4996     3.3763
 1851.5000     0.4994     3.3679
 1852.0000     0.4992     3.5489
 1852.5000     0.4990     3.5366
 1853.0000     0.5085     3.7170
 1853.5000     0.4986     3.7075
 1854.0000     0.4984     3.8997
 1854.5000     0.4983     4.0666
 1855.0000     0.4981     4.2438
 1855.5000     0.4979     4.2346
 1856.0000     0.4977     4.4164
 1856.5000     0.4975     4.4057
 1857.0000     0.5080     4.3962
 1857.5000     0.5355     4.3865
 1858.0000     0.5546     4.5660
 1858.5000     0.5833     4.5566
 1859.0000     0.5734     4.4909
 1859.5000     0.5733     4.3474
 1860.0000     0.5634     4.3396
 1860.5000     0.5536     4.3290
 1861.0000     0.5535     4.3199
 1861.5000     0.5533     4.3107
 1862.0000     0.5531     4.3015
 1862.5000     0.5529     4.2923
 1863.0000     0.5527     4.2830
 1863.5000     0.5525     4.2736
 1864.0000     0.5523     4.2624
 1864.5000     0.5521     4.2532
 1865.0000     0.5519     4.1518
 1865.5000     0.5421     4.0307
 1866.0000     0.5323     3.9761
 1866.5000     0.5321     3.7754
 1867.0000     0.5319     3.7660
 1867.5000     0.5413     3.7547
 1868.0000     0.5411     3.7432
 1868.5000     0.5409     3.7321
 1869.0000     0.5311     3.7202
 1869.5000     0.5310     3.7094
 1870.0000     0.5212     3.6972
 1870.5000     0.5210     3.6868
 1871.0000     0.5208     3.6751
 1871.5000     0.5205     3.6631
 1872.0000     0.5204     3.6528
 1872.5000     0.5202     3.6415
 1873.0000     0.5200     3.6300
 1873.5000     0.5198     3.8067
 1874.0000     0.5196     3.8675
 1874.5000     0.5194     3.9736
 1875.0000     0.5192     3.9604
 1875.5000     0.5190     4.3267
 1876.0000     0.5188     4.3170
 1876.5000     0.5187     4.3057
 1877.0000     0.5184     4.2936
 1877.5000     0.5182     4.2830
 1878.0000     0.5180     4.2717
 1878.5000     0.5179     4.2576
 1879.0000     0.5177     3.8717
 1879.5000     0.5175     3.8604
 1880.0000     0.5173     3.8472
 1880.5000     0.5267     3.6475
 1881.0000     0.5265     3.6364
 1881.5000     0.5263     3.4367
 1882.0000     0.5262     3.4257
 1882.5000     0.5259     3.4146
 1883.0000     0.5258     3.4036
 1883.5000     0.5256     3.3925
 1884.0000     0.5254     3.3811
 1884.5000     0.5252     3.5564
 1885.0000     0.5250     3.5453
 1885.5000     0.5248     3.7257
 1886.0000     0.5246     3.7132
 1886.5000     0.5244     3.7019
 1887.0000     0.5242     3.8813
 1887.5000     0.5240     4.0566
 1888.0000     0.5238     4.0451
 1888.5000     0.5237     4.0340
 1889.0000     0.5330     4.0226
 1889.5000     0.5425     4.0092
 1890.0000     0.5484     3.9982
 1890.5000     0.5518     3.9871
 1891.0000     0.5515     3.9761
 1891.5000     0.5513     4.1565
 1892.0000     0.5512     4.1427
 1892.5000     0.5510     4.1316
 1893.0000     0.5508     4.1197
 1893.5000     0.5506     4.1094
 1894.0000     0.5503     3.9094
 1894.5000     0.5502     3.8960
 1895.0000     0.5500     3.8868
 1895.5000     0.5498     3.8755
