~VERSION INFORMATION
 VERS.                2.0:   CWLS LOG ASCII STANDARD - VERSION 2.0
 WRAP.                 NO:   ONE LINE PER DEPTH STEP
~WELL INFORMATION
#MNEM.UNIT      DATA TYPE    INFORMATION
#----------   ------------   ------------------------------
 STRT.F           40.0000:   START DEPTH
 STOP.F          950.5000:   STOP DEPTH
 STEP.F            0.5000:   STEP LENGTH
 NULL.          -999.2500:   NO VALUE
 COMP. FENIX & SCISSON INC:   COMPANY
 WELL.       NPR 3 #44-14:   WELL
 FLD .             TEAPOT:   FIELD
 LOC .      S14 T38N R78W:   LOCATION
 CNTY.            NATRONA:   COUNTY
 STAT.            WYOMING:   STATE
 CTRY. UNITED STATES OF AMERICA:   COUNTRY
 SRVC.            Unknown:   SERVICE COMPANY
 DATE.        05-JAN-1979:   LOGDATE
 API .       490251076100:   API NUMBER
~CURVE INFORMATION
#MNEM.UNIT       API CODE    CURVE DESCRIPTION
#----------   ------------   ------------------------------
 DEPT.F                  :   
 SPR .MV     05 010 01 00:   SPONTANEOUS POTENTIAL FROM RES.
 SN  .OHMM   05 040 16 00:   SHORT NORMAL 16"
 IL  .OHMM   05 120 00 00:   INDUCTION LOG
 CALD.IN     45 280 60 00:   CALIPER
 GRD .GAPI   45 310 01 00:   GAMMA RAY FROM DENSITY LOG
 RHOB.G/C3   45 350 01 00:   BULK DENSITY
 DPHI.DEC    45 890 12 00:   DENSITY POROSITY SANDSTONE
 CORR.G/C3   45 356 01 00:   DENSITY CORRECTION
~PARAMETER INFORMATION
#MNEM.UNIT          VALUE    DESCRIPTION
#----------   ------------   ------------------------------
 PD  .                 GL:   PERMANENT DATUM
 EPD .F              5266:   ELEVATION PERMANENT DATUM
 LMF .                 KB:   LOG MEASURED FROM
 DAPD.F                 4:   FEET ABOVE PERMANENT DATUM
 DMF .                 KB:   DRILLING MEASURED FROM
 EKB .F              5270:   KELLING BUSHING
 EGL .F              5266:   GROUND LEVEL
 DATE.             1-5-79:   RUN DATE
 RUN .                  1:   RUN NUMBER
 DD  .F               950:   DEPTH DRILLER
 DL  .F               943:   DEPTH LOGGER
 BLI .F               937:   BOTTOM LOG INTERVAL
 TLI .F                40:   TOP LOG INTERVAL
 CS  .IN            8.625:   CASING SIZE
 CBL .F                40:   CASING BOTTOM LOGGER
 BS  .IN            7.875:   BIT SIZE
 BSD .F               950:   BIT SIZE AT DEPTH
 DFT .                KCL:   DRILLING FLUID TYPE
 DFV .                 42:   DRILLING FLUID VISCOSITY
 DFL .               10.5:   DRILLING FLUID LOSS
 MSS .           FLOWLINE:   MUD SAMPLE SOURCE
 RMS .OHMM            .23:   RESISTIVITY MUD SAMPLE
 RMF .OHMM            .23:   RESISTIVITY MUD FILTRATE SAMPLE
 RMC .OHMM             .2:   RESISTIVITY MUD CAKE
 MFSS.           MEASURED:   MUD FILTRATE SAMPLE SOURCE
 MCSS.           MEASURED:   MUD CAKE SAMPLE SOURCE
 RMB .OHMM             .2:   RESISTIVITY MUD AT BHT
 BHT .F                70:   BOTTOM HOLE TEMPERATURE
 TCS .HRS               5:   TIME CURCULATED STOPPED
 MRT .F                70:   MAXIMUM RECORDED TEMPERATURE
 LUL .             CASPER:   LOGGING UNIT LOCATION
 ENGI.             MILLER:   RECORDING ENGINEER
 WITN.           DINSMORE:   WITNESSED BY
 CLNT.            A2DTECH:   CLIENT CODE
 ORIG.           5" PRINT:   ORIGIN OF DATA
 UWI .       490251076100:   UNIQUE WELL ID
 DICO. A2D Technologies, Inc.:   DIGITIZING COMPANY
~OTHER INFORMATION
~A   DEPT      SPR           SN         IL     CALD        GRD       RHOB       DPHI       CORR   
# ...
   80.5000   -38.0980     7.3330     7.6940     8.2080   105.0430     2.3740     0.1920     0.0200
   81.0000   -37.7240     7.3710     7.7280     8.0750   103.2330     2.3710     0.1920     0.0420
   81.5000   -37.1880     7.4090     7.7610     7.9420   104.1670     2.3950     0.1820     0.0870
   82.0000   -37.1800     7.4460     7.7950     7.8210   102.0950     2.4160     0.1670     0.1670
   82.5000   -37.1710     7.4840     7.8290     7.7010   109.8760     2.4690     0.1370     0.2460
   83.0000   -37.6410     7.5220     7.8620     7.5810   113.9560     2.5220     0.1080     0.3110
   83.5000   -38.3380     7.5590     7.8860     7.4920   112.0550     2.5510     0.0910     0.2680
   84.0000   -38.5180     7.5970     7.8860     7.4640   101.2290     2.4930     0.1250     0.1930
   84.5000   -37.9840     7.6280     7.8860     7.4440   102.8460     2.4470     0.1650     0.1160
   85.0000   -37.5370     7.6580     8.0280     7.5180   106.4180     2.4060     0.1790     0.0660
   85.5000   -37.0770     7.6880     8.2350     7.6200   108.0850     2.3880     0.1960     0.0390
   86.0000   -37.1880     7.7180     8.4420     7.7230   103.6820     2.3690     0.1910     0.0260
   86.5000   -37.4480     7.7490     8.6500     7.8260   100.3740     2.3860     0.1850     0.0300
   87.0000   -37.4900     7.7790     8.8570     7.9300   104.5440     2.3990     0.1810     0.0340
   87.5000   -37.3660     7.8090     9.0640     8.0560   109.6600     2.3980     0.1800     0.0320
   88.0000   -36.7560     7.8390     9.2210     8.2040   107.5360     2.3960     0.1790     0.0300
   88.5000   -36.2480     7.8860     9.1170     8.3580   105.4150     2.3950     0.1830     0.0280
   89.0000   -36.1070     7.8270     9.0340     8.3250   104.3160     2.3900     0.1870     0.0260
   89.5000   -36.6070     7.6920     8.9040     8.2230   109.9360     2.3800     0.1960     0.0270
   90.0000   -37.0940     7.5560     8.6140     8.1190   111.3380     2.3700     0.2030     0.0500
   90.5000   -37.5450     7.4210     8.3240     8.0110   100.0850     2.3590     0.2060     0.0820
   91.0000   -37.1520     7.2860     8.0340     7.8930    99.4440     2.3750     0.1930     0.1300
   91.5000   -36.7750     7.2180     7.7440     7.7750   102.4130     2.4060     0.1630     0.2230
   92.0000   -37.2410     7.1670     7.4540     7.6800   105.6560     2.4370     0.1430     0.2670
   92.5000   -37.7410     7.1160     7.3520     7.6820   106.1640     2.4680     0.1310     0.2340
   93.0000   -37.5880     7.0650     7.2990     7.6830   104.4950     2.4510     0.1470     0.1760
   93.5000   -37.9230     7.0130     7.2450     7.6830   102.5550     2.4290     0.1630     0.1100
   94.0000   -38.3030     6.9620     7.1920     7.6620   102.9680     2.4060     0.1740     0.0420
   94.5000   -38.6830     6.9110     7.1390     7.6300    99.8760     2.3970     0.1800     0.0180
   95.0000   -39.0560     6.8600     7.0860     7.5970    95.9830     2.3930     0.1870     0.0120
   95.5000   -39.2750     6.8090     7.0620     7.5650    97.6020     2.3890     0.1840     0.0120
   96.0000   -38.9100     6.7580     6.9970     7.5590    99.8670     2.3960     0.1760     0.0150
   96.5000   -38.5640     6.7450     6.9970     7.6060    94.8580     2.4050     0.1720     0.0180
   97.0000   -38.3870     6.7450     6.9970     7.6510    91.9990     2.4100     0.1720     0.0160
   97.5000   -38.6370     6.7450     6.9970     7.6970    90.7710     2.4080     0.1720     0.0130
   98.0000   -38.9710     6.7450     6.9970     7.7430    92.3150     2.4060     0.1730     0.0170
   98.5000   -39.3110     6.7450     6.9970     7.7970    97.0510     2.4050     0.1730     0.0380
   99.0000   -39.6620     6.7450     6.9970     7.9100   104.4780     2.4090     0.1710     0.0620
   99.5000   -39.5810     6.6820     6.9330     8.0250   104.6350     2.4140     0.1690     0.0860
  100.0000   -39.3690     6.5950     6.8490     8.1390    99.7810     2.4190     0.1720     0.0890
  100.5000   -39.1540     6.5080     6.7280     8.2400   101.0120     2.4000     0.1810     0.0860
  101.0000   -38.9780     6.4200     6.6080     8.3090   103.1020     2.3880     0.1850     0.0640
  101.5000   -39.3850     6.3330     6.4880     8.3780   105.2190     2.3930     0.1830     0.0470
  102.0000   -39.7990     6.2450     6.3670     8.3760   107.3500     2.3970     0.1810     0.0380
  102.5000   -39.8140     6.1580     6.2470     8.2770   109.4920     2.3870     0.1900     0.0390
  103.0000   -39.6240     6.0700     6.1520     8.1620   111.4110     2.3730     0.1980     0.0410
  103.5000   -39.4280     5.9830     6.0360     8.0370   107.4660     2.3510     0.2060     0.0530
  104.0000   -39.6850     5.8960     5.9210     7.9110   104.3030     2.3670     0.1960     0.0900
  104.5000   -40.1550     5.8080     5.8060     7.7930   101.9080     2.4090     0.1690     0.1620
  105.0000   -40.1250     5.7150     5.6910     7.7230    99.5080     2.4520     0.1420     0.2300
  105.5000   -40.6330     5.7150     5.5760     7.6540    97.0350     2.4950     0.1090     0.2780
  106.0000   -40.8650     5.7680     5.4610     7.5830    97.6330     2.5190     0.1190     0.2540
  106.5000   -40.4360     5.8390     5.3100     7.5400    98.7620     2.4770     0.1370     0.1710
  107.0000   -40.6030     5.9170     5.4070     7.5050    99.0370     2.4430     0.1500     0.0870
  107.5000   -40.9000     5.9950     5.5760     7.4710   101.7830     2.4270     0.1590     0.0600
  108.0000   -40.4670     6.0730     5.7460     7.4530   105.7350     2.4150     0.1690     0.0510
  108.5000   -40.0370     6.1520     5.9150     7.5030   106.1050     2.3900     0.1860     0.0370
  109.0000   -39.6120     6.2300     6.0850     7.5530   107.5130     2.3710     0.1990     0.0260
  109.5000   -39.5490     6.3240     6.2240     7.6010   105.7660     2.3590     0.2050     0.0180
  110.0000   -39.5470     6.3190     6.3420     7.6780   103.3860     2.3550     0.2040     0.0230
  110.5000   -39.5470     6.3120     6.4600     7.7850   102.2000     2.3630     0.1960     0.0290
  111.0000   -39.5470     6.3060     6.5610     7.9580   103.0240     2.3690     0.2010     0.0250
  111.5000   -39.5480     6.2990     6.5300     8.1320   101.8210     2.3650     0.1960     0.0210
  112.0000   -39.5500     6.2930     6.5040     8.2730    99.9170     2.3740     0.1890     0.0340
  112.5000   -39.5490     6.2870     6.4770     8.3140   100.3830     2.3850     0.1870     0.0340
  113.0000   -39.8780     6.2800     6.4500     8.3570    94.5210     2.3810     0.1890     0.0330
  113.5000   -40.4770     6.2740     6.4240     8.3980    91.2950     2.3770     0.1920     0.0310
  114.0000   -41.0920     6.2660     6.3970     8.3960    98.8060     2.3740     0.1940     0.0340
  114.5000   -41.0720     6.3300     6.3820     8.2970    97.9750     2.3800     0.1900     0.0420
  115.0000   -40.9650     6.4300     6.4160     8.1930    98.1160     2.3840     0.1860     0.0590
  115.5000   -40.8580     6.5290     6.4700     8.0900    97.7950     2.3970     0.1780     0.1040
  116.0000   -40.7530     6.6290     6.5240     7.9860    91.1540     2.4110     0.1700     0.1460
  116.5000   -40.6470     6.7280     6.5780     7.8830    92.7280     2.4390     0.1550     0.1890
  117.0000   -40.5410     6.8280     6.6320     7.7800   101.0770     2.4950     0.1200     0.2320
  117.5000   -40.4350     6.9330     6.6860     7.6770    97.7960     2.5520     0.0910     0.2650
  118.0000   -40.3290     6.9330     6.7450     7.6340    92.2280     2.5920     0.0730     0.2380
  118.5000   -40.2230     6.9330     6.6540     7.6000    88.1200     2.5390     0.1060     0.1400
  119.0000   -40.1180     6.8980     6.5570     7.5660    96.3880     2.4970     0.1330     0.0870
  119.5000   -40.0170     6.7780     6.4590     7.5320    99.7340     2.4540     0.1560     0.0600
  120.0000   -40.0520     6.6580     6.3620     7.4980   100.7590     2.4120     0.1780     0.0400
  120.5000   -40.4310     6.5380     6.2640     7.5370    99.2910     2.3820     0.1930     0.0200
