~VERSION INFORMATION
 VERS.                2.0:   CWLS LOG ASCII STANDARD - VERSION 2.0
 WRAP.                 NO:   ONE LINE PER DEPTH STEP
~WELL INFORMATION
#MNEM.UNIT      DATA TYPE    INFORMATION
#----------   ------------   ------------------------------
 STRT.F           30.0000:   START DEPTH
 STOP.F          515.0000:   STOP DEPTH
 STEP.F            0.5000:   STEP LENGTH
 NULL.          -999.2500:   NO VALUE
 COMP. FENIX & SCISSON INC:   COMPANY
 WELL.      FP SX-3 #63-3:   WELL
 FLD .              NPR 3:   FIELD
 LOC .       S3 T38N R78W:   LOCATION
 CNTY.            NATRONA:   COUNTY
 STAT.            WYOMING:   STATE
 CTRY. UNITED STATES OF AMERICA:   COUNTRY
 SRVC.              Welex:   SERVICE COMPANY
 DATE.        21-JUN-1980:   LOGDATE
 API .       490251082100:   API NUMBER
~CURVE INFORMATION
#MNEM.UNIT       API CODE    CURVE DESCRIPTION
#----------   ------------   ------------------------------
 DEPT.F                  :   
 SPR .MV     07 010 01 00:   SPONTANEOUS POTENTIAL
 SGRD.OHMM   07 220 05 00:   SHALLOW GUARD RESISTIVITY
 ILD .OHMM   07 120 46 00:   INDUCTION LOG DEEP RESISTIVITY
 ILM .OHMM   07 120 44 00:   INDUCTION LOG MEDIUM
 CALD.IN     45 280 60 00:   CALIPER
 GRD .GAPI   45 310 01 00:   GAMMA RAY FROM DENSITY LOG
 CORR.G/C3   45 356 01 00:   DENSITY CORRECTION
 RHOB.G/C3   45 350 01 00:   BULK DENSITY
 DPHI.DEC    45 890 12 00:   DENSITY POROSITY SANDSTONE
 NPHI.DEC    42 890 03 00:   NEUTRON POROSITY SANDSTONE
~PARAMETER INFORMATION
#MNEM.UNIT          VALUE    DESCRIPTION
#----------   ------------   ------------------------------
 PD  .                 GL:   PERMANENT DATUM
 EPD .F              5160:   ELEVATION PERMANENT DATUM
 LMF .                 KB:   LOG MEASURED FROM
 DAPD.F                 5:   FEET ABOVE PERMANENT DATUM
 DMF .                 KB:   DRILLING MEASURED FROM
 EKB .F              5165:   KELLING BUSHING
 EGL .F              5160:   GROUND LEVEL
 DATE.            6-21-80:   RUN DATE
 RUN .                  1:   RUN NUMBER
 DD  .F               508:   DEPTH DRILLER
 DL  .F               517:   DEPTH LOGGER
 BLI .F               515:   BOTTOM LOG INTERVAL
 TLI .F                35:   TOP LOG INTERVAL
 BS  .IN            9.875:   BIT SIZE
 BSD .F               508:   BIT SIZE AT DEPTH
 DFT .            KCL MUD:   DRILLING FLUID TYPE
 DFD .                9.2:   DRILLING FLUID DENSITY
 DFV .                 50:   DRILLING FLUID VISCOSITY
 DFPH.                8.5:   DRILLING FLUID PH
 DFL .                  8:   DRILLING FLUID LOSS
 MSS .           FLOWLINE:   MUD SAMPLE SOURCE
 RMS .OHMM            .42:   RESISTIVITY MUD SAMPLE
 MST .F                63:   MUD SAMPLE TEMPERATURE
 RMF .OHMM            .34:   RESISTIVITY MUD FILTRATE SAMPLE
 MFST.F                63:   MUD FILTRATE SAMPLE TEMPERATURE
 RMC .OHMM             .5:   RESISTIVITY MUD CAKE
 MCST.F                63:   MUD CAKE SAMPLE TEMPERATURE
 MFSS.           MEASURED:   MUD FILTRATE SAMPLE SOURCE
 MCSS.           MEASURED:   MUD CAKE SAMPLE SOURCE
 RMB .OHMM            .35:   RESISTIVITY MUD AT BHT
 BHT .F                75:   BOTTOM HOLE TEMPERATURE
 TCS .HRS             1.5:   TIME CURCULATED STOPPED
 MRT .F                75:   MAXIMUM RECORDED TEMPERATURE
 LUN .               9685:   LOGGING UNIT NUMBER
 LUL .             CASPER:   LOGGING UNIT LOCATION
 ENGI.            TOTHILL:   RECORDING ENGINEER
 WITN.           DINSMORE:   WITNESSED BY
 CLNT.            A2DTECH:   CLIENT CODE
 ORIG.           5" PRINT:   ORIGIN OF DATA
 UWI .       490251082100:   UNIQUE WELL ID
 DICO. A2D Technologies, Inc.:   DIGITIZING COMPANY
~OTHER INFORMATION
~A   DEPT      SPR       SGRD        ILD        ILM        CALD       GRD         CORR       RHOB       DPHI       NPHI 
   30.0000  -999.2500  -999.2500  -999.2500  -999.2500    10.2986   103.3201     0.1361     2.3614     0.1791     0.3468
   30.5000  -999.2500  -999.2500  -999.2500  -999.2500    10.2755   103.7177     0.1341     2.3551     0.1870     0.3508
   31.0000  -999.2500  -999.2500  -999.2500  -999.2500    10.2662   104.3141     0.1305     2.3531     0.1910     0.3490
   31.5000  -999.2500  -999.2500  -999.2500  -999.2500    10.2589   105.3210     0.1265     2.3559     0.1918     0.3467
   32.0000  -999.2500  -999.2500  -999.2500  -999.2500    10.2496   106.7077     0.1220     2.3507     0.1902     0.3438
   32.5000  -999.2500  -999.2500  -999.2500  -999.2500    10.2403   107.5345     0.1219     2.3542     0.1841     0.3428
   33.0000  -999.2500  -999.2500  -999.2500  -999.2500    10.2310   106.2593     0.1297     2.3621     0.1780     0.3487
   33.5000  -999.2500  -999.2500  -999.2500  -999.2500    10.2217   104.7896     0.1398     2.3755     0.1719     0.3553
   34.0000  -999.2500  -999.2500  -999.2500  -999.2500    10.2125   104.7058     0.1502     2.3860     0.1739     0.3580
   34.5000  -999.2500  -999.2500  -999.2500  -999.2500    10.2032   105.0191     0.1500     2.3733     0.1876     0.3554
   35.0000   -49.0891    80.0237     3.7763     4.1279    10.1939   105.6546     0.1291     2.3566     0.2007     0.3548
   35.5000   -49.0891   281.6210     3.6462     3.9643    10.1846   106.2902     0.1076     2.3398     0.2078     0.3587
   36.0000   -49.1409    72.7871     3.4665     3.8072    10.1753   106.9282     0.0860     2.3237     0.2078     0.3604
   36.5000   -49.1844    47.9968     3.3795     3.7349    10.1661   107.5657     0.0762     2.3239     0.2058     0.3506
   37.0000   -49.2400   443.8751     3.1649     3.5399    10.1568   108.2032     0.0761     2.3263     0.2016     0.3447
   37.5000   -49.2955   157.1936     3.0089     3.3995    10.1475   108.8407     0.0810     2.3288     0.1963     0.3433
   38.0000   -49.5562    46.2417     2.8576     3.2840    10.1382   109.4782     0.0867     2.3366     0.1890     0.3428
   38.5000   -50.1059   146.6851     2.7799     3.1935    10.1289   110.1161     0.0923     2.3499     0.1815     0.3440
   39.0000   -50.6521   546.8740     2.7566     3.1935    10.1195   110.7558     0.0989     2.3629     0.1742     0.3474
   39.5000   -51.1995  1181.7247     2.7331     3.2855    10.1200   111.3937     0.1058     2.3758     0.1679     0.3540
   40.0000   -51.6674   460.3584     2.7006     3.3639    10.1222   111.4816     0.1127     2.3889     0.1689     0.3536
   40.5000   -52.0046    89.5762     2.7304     3.4442    10.1244   111.4518     0.1110     2.3947     0.1703     0.3496
   41.0000   -52.8455   164.1783     2.7776     3.5265    10.1266   109.8967     0.1010     2.3904     0.1643     0.3473
   41.5000   -53.9158   323.8414     2.8282     3.6107    10.1287   108.1945     0.0910     2.3877     0.1556     0.3444
   42.0000   -54.2400   201.1311     2.8586     3.6958    10.1309   106.4944     0.0840     2.4061     0.1469     0.3425
   42.5000   -54.3511   532.9819     2.8826     3.8073    10.1331   104.7968     0.0911     2.4265     0.1386     0.3414
   43.0000   -54.5696  -999.2500     2.9182     3.9413    10.1352   103.0979     0.1002     2.4386     0.1329     0.3394
   43.5000   -54.9134  -999.2500     2.9899     4.0812    10.1374   101.4018     0.1094     2.4511     0.1293     0.3358
   44.0000   -55.1538  -999.2500     3.0633     4.2260    10.1396    99.7295     0.1184     2.4582     0.1297     0.3321
   44.5000   -55.0948  -999.2500     3.1386     4.4241    10.1417    98.4926     0.1223     2.4571     0.1301     0.3243
   45.0000   -55.0423  -999.2500     3.2157     4.3831    10.1439    98.1991     0.1171     2.4542     0.1294     0.3182
   45.5000   -54.9899  -999.2500     3.2947     4.3831    10.1461    99.2554     0.1121     2.4532     0.1265     0.3125
   46.0000   -54.9376  -999.2500     3.3756     4.1858    10.1482   100.3640     0.1068     2.4573     0.1208     0.3124
   46.5000   -54.8852  -999.2500     3.4727     3.9563    10.1504   100.9302     0.1130     2.4674     0.1151     0.3155
   47.0000   -54.8330  -999.2500     3.4952     3.9563    10.1526   100.7370     0.1213     2.4775     0.1102     0.3169
   47.5000   -54.7808  -999.2500     3.5178     4.0307    10.1547    99.9724     0.1295     2.4876     0.1103     0.3166
   48.0000   -54.7753  -999.2500     3.5405     4.0307    10.1569    99.3121     0.1326     2.4891     0.1086     0.3149
   48.5000   -54.8270  1676.8262     3.5634     4.0097    10.1590    99.4161     0.1318     2.4890     0.1047     0.3089
   49.0000   -54.8786  1209.6855     3.6199     3.9951    10.1612   101.7180     0.1399     2.4950     0.0994     0.3026
   49.5000   -54.9303   251.5501     3.6961     3.9933    10.1634   104.1063     0.1478     2.5036     0.0986     0.3075
   50.0000   -54.9819    31.9589     3.7733     4.0243    10.1656   106.4595     0.1501     2.5079     0.1013     0.3171
   50.5000   -55.0336    10.9652     3.8519     4.0452    10.1677   106.7029     0.1448     2.5013     0.1034     0.3173
   51.0000   -55.0860    10.2424     3.9572     4.0680    10.1699   106.1648     0.1374     2.4971     0.0985     0.3095
   51.5000   -55.1418     9.6730     3.9558     4.1557    10.1721   103.9296     0.1319     2.5074     0.0930     0.3046
   52.0000   -55.1532     9.4064     3.9562     4.2540    10.1742   101.7576     0.1371     2.5177     0.0902     0.3046
   52.5000   -54.2349     9.1227     3.9563     4.3546    10.1764   101.0985     0.1421     2.5252     0.0935     0.3122
   53.0000   -53.2165     8.8475     3.9968     4.4655    10.1785   102.4975     0.1373     2.5161     0.1015     0.3133
   53.5000   -52.1979     8.5802     4.0413     4.5126    10.1814   104.0433     0.1211     2.5038     0.1102     0.3042
   54.0000   -51.1843     8.3225     4.0863     4.5920    10.1843   105.5934     0.1053     2.4916     0.1118     0.3038
   54.5000   -50.1629     8.1017     4.1318     4.7159    10.1872   107.1367     0.0918     2.4841     0.1094     0.3008
   55.0000   -49.6835     8.1519     4.1778     4.8526    10.1900   108.6812     0.0955     2.4884     0.1078     0.2995
   55.5000   -49.6103     8.2027     4.2243     4.9944    10.1929   109.4840     0.1000     2.4925     0.1084     0.2996
   56.0000   -49.5465     8.2566     4.2709     5.0888    10.1958   109.2115     0.1021     2.4962     0.1105     0.2997
   56.5000   -49.5131     8.1744     4.3035     5.0796    10.1986   108.0240     0.1001     2.4895     0.1144     0.2998
   57.0000   -49.6604     8.0657     4.3699     5.0644    10.2015   106.8769     0.0978     2.4805     0.1151     0.3031
   57.5000   -49.8062     7.9537     4.4089     5.0496    10.2043   105.7306     0.0956     2.4793     0.1169     0.3078
   58.0000   -49.9518     7.9556     4.4472     5.0402    10.2072   104.5827     0.0932     2.4736     0.1185     0.3151
   58.5000   -50.0946     7.8530     4.4858     5.1615    10.2100   103.5322     0.0924     2.4639     0.1173     0.3201
   59.0000   -50.2442     7.7488     4.5248     5.2682    10.2128   103.5051     0.1023     2.4776     0.1067     0.3165
   59.5000   -50.0197     7.6639     4.5511     5.3797    10.2155   103.5399     0.1131     2.5012     0.1054     0.3177
   60.0000   -50.2607     7.8079     4.5557     5.3797    10.2202   104.6594     0.1133     2.4928     0.1085     0.3148
   60.5000   -50.6083     7.5423     4.5602     5.2535    10.2605   105.7709     0.0986     2.4780     0.1170     0.3157
   61.0000   -49.8133     7.1066     4.5647     5.1638    10.3009   106.8747     0.0838     2.4646     0.1241     0.3140
   61.5000   -49.5999     6.8556     4.5693     5.0758    10.3410   107.6902     0.0728     2.4632     0.1227     0.3139
   62.0000   -49.6165     7.1176     4.5738     5.0393    10.3786   107.1492     0.0746     2.4688     0.1187     0.3161
   62.5000   -49.1392     7.3160     4.5784     5.0734    10.3479   106.6197     0.0771     2.4749     0.1186     0.3149
   63.0000   -50.6573     7.2020     4.5829     5.1014    10.3011   106.0987     0.0684     2.4706     0.1221     0.3182
