~VERSION INFORMATION
 VERS.                2.0:   CWLS LOG ASCII STANDARD - VERSION 2.0
 WRAP.                 NO:   ONE LINE PER DEPTH STEP
~WELL INFORMATION
#MNEM.UNIT      DATA TYPE    INFORMATION
#----------   ------------   ------------------------------
 STRT.F           20.0000:   START DEPTH
 STOP.F          698.0000:   STOP DEPTH
 STEP.F            0.5000:   STEP LENGTH
 NULL.          -999.2500:   NO VALUE
 COMP. FENIX & SCISSON INC:   COMPANY
 WELL.    52 SX 34 #52-34:   WELL
 FLD .             TEAPOT:   FIELD
 LOC .      S34 T39N R78W:   LOCATION
 CNTY.            NATRONA:   COUNTY
 STAT.            WYOMING:   STATE
 CTRY. UNITED STATES OF AMERICA:   COUNTRY
 SRVC.            Unknown:   SERVICE COMPANY
 DATE.        26-JAN-1979:   LOGDATE
 API .       490251077100:   API NUMBER
~CURVE INFORMATION
#MNEM.UNIT       API CODE    CURVE DESCRIPTION
#----------   ------------   ------------------------------
 DEPT.F                  :   
 SPR .MV     05 010 01 00:   SPONTANEOUS POTENTIAL FROM RES.
 CALD.IN     45 280 60 00:   CALIPER
 GRD .GAPI   45 310 01 00:   GAMMA RAY FROM DENSITY LOG
 CORR.G/C3   45 356 01 00:   DENSITY CORRECTION
 RHOB.G/C3   45 350 01 00:   BULK DENSITY
 ILD .OHMM   05 120 46 00:   INDUCTION LOG DEEP
 SN  .OHMM   05 040 16 00:   SHORT NORMAL 16"
 DPHI.DEC    45 890 12 00:   DENSITY POROSITY SANDSTONE
~PARAMETER INFORMATION
#MNEM.UNIT          VALUE    DESCRIPTION
#----------   ------------   ------------------------------
 PD  .                 GL:   PERMANENT DATUM
 EPD .F              5072:   ELEVATION PERMANENT DATUM
 LMF .                 KB:   LOG MEASURED FROM
 DAPD.F                 4:   FEET ABOVE PERMANENT DATUM
 DMF .                 KB:   DRILLING MEASURED FROM
 EKB .F              5076:   KELLING BUSHING
 EGL .F              5072:   GROUND LEVEL
 DATE.            1-26-79:   RUN DATE
 RUN .                  1:   RUN NUMBER
 DD  .F               688:   DEPTH DRILLER
 DL  .F               698:   DEPTH LOGGER
 BLI .F               691:   BOTTOM LOG INTERVAL
 TLI .F                30:   TOP LOG INTERVAL
 CS  .IN            8.625:   CASING SIZE
 CBD .F                40:   CASING BOTTOM DRILLER
 CBL .F                20:   CASING BOTTOM LOGGER
 BS  .IN            7.875:   BIT SIZE
 BSD .F               688:   BIT SIZE AT DEPTH
 DFT .                KCL:   DRILLING FLUID TYPE
 DFD .                8.9:   DRILLING FLUID DENSITY
 DFV .                 39:   DRILLING FLUID VISCOSITY
 DFPH.                 10:   DRILLING FLUID PH
 DFL .                 10:   DRILLING FLUID LOSS
 MSS .           FLOWLINE:   MUD SAMPLE SOURCE
 RMS .OHMM             .3:   RESISTIVITY MUD SAMPLE
 MST .F                60:   MUD SAMPLE TEMPERATURE
 RMF .OHMM            .22:   RESISTIVITY MUD FILTRATE SAMPLE
 MFST.F                66:   MUD FILTRATE SAMPLE TEMPERATURE
 MFSS.           MEASURED:   MUD FILTRATE SAMPLE SOURCE
 MCSS.           MEASURED:   MUD CAKE SAMPLE SOURCE
 RMB .OHMM            .25:   RESISTIVITY MUD AT BHT
 BHT .F                70:   BOTTOM HOLE TEMPERATURE
 TCS .HRS               7:   TIME CURCULATED STOPPED
 MRT .F                70:   MAXIMUM RECORDED TEMPERATURE
 LUN .               3006:   LOGGING UNIT NUMBER
 LUL .             CASPER:   LOGGING UNIT LOCATION
 ENGI.            ROLLINS:   RECORDING ENGINEER
 WITN.              AMEND:   WITNESSED BY
 CLNT.            A2DTECH:   CLIENT CODE
 ORIG.       2", 5" PRINT:   ORIGIN OF DATA
 UWI .       490251077100:   UNIQUE WELL ID
 DICO. A2D Technologies, Inc.:   DIGITIZING COMPANY
~OTHER INFORMATION
~A   DEPT      SPR         CALD       GRD      CORR       RHOB        ILD         SN       DPHI   
# ...
  182.0000   -51.4984     8.1323    93.9865     0.0216     2.4515     7.2531     7.5153     0.1339
  182.5000   -51.4869     8.1324    93.3349     0.0218     2.4505     7.2653     7.5315     0.1335
  183.0000   -51.4753     8.1324    92.8018     0.0221     2.4553     7.2775     7.5481     0.1303
  183.5000   -51.4637     8.1324    94.2206     0.0224     2.4629     7.2919     7.5666     0.1283
  184.0000   -51.4522     8.1324    97.0138     0.0226     2.4625     7.2318     7.5242     0.1303
  184.5000   -51.4406     8.1322    99.6013     0.0228     2.4594     7.1594     7.4717     0.1323
  185.0000   -51.4290     8.1327   101.6512     0.0231     2.4566     7.0879     7.4197     0.1327
  185.5000   -51.4175     8.1357   102.3890     0.0233     2.4569     7.0168     7.3682     0.1296
  186.0000   -51.4059     8.1223   102.6372     0.0226     2.4634     6.9466     7.3170     0.1267
  186.5000   -51.3943     7.9422   103.6072     0.0204     2.4697     6.8772     7.2663     0.1237
  187.0000   -51.3829     8.0268   104.6357     0.0182     2.4758     6.8083     7.2158     0.1211
  187.5000   -51.3712     8.1102   104.1639     0.0160     2.4797     6.7714     7.1658     0.1187
  188.0000   -51.3583     8.1202    98.9501     0.0138     2.4838     6.7714     7.1581     0.1185
  188.5000   -51.3943     8.1271    91.2835     0.0116     2.4832     6.7714     7.1581     0.1181
  189.0000   -51.4380     8.1342    86.1450     0.0120     2.4825     6.7955     7.1845     0.1177
  189.5000   -51.4823     8.1411    87.2958     0.0140     2.4820     6.8573     7.2521     0.1173
  190.0000   -51.5262     8.1482    95.5427     0.0155     2.4854     6.9197     7.3203     0.1171
  190.5000   -51.5537     8.1101   102.2157     0.0151     2.4852     6.9826     7.3892     0.1168
  191.0000   -51.5416     8.0243   100.1607     0.0142     2.4845     7.0461     7.4587     0.1164
  191.5000   -51.5306     8.0839    97.9775     0.0135     2.4854     7.1102     7.5289     0.1144
  192.0000   -51.5196     8.1890    95.7873     0.0135     2.4929     7.1748     7.5820     0.1098
  192.5000   -51.5085     8.1962    94.4305     0.0135     2.5003     7.2401     7.6147     0.1078
  193.0000   -51.4975     8.1996    93.6027     0.0143     2.4984     7.3059     7.6478     0.1094
  193.5000   -51.4865     8.2034    93.5820     0.0168     2.4824     7.3724     7.6810     0.1235
  194.0000   -51.4754     8.2073    95.8135     0.0193     2.4613     7.4281     7.7087     0.1345
  194.5000   -51.4644     8.2113    99.5415     0.0214     2.4504     7.3846     7.7083     0.1359
  195.0000   -51.4533     8.2115   100.6986     0.0212     2.4494     7.3477     7.7083     0.1359
  195.5000   -51.4423     8.2115    96.8750     0.0209     2.4484     7.3107     7.7083     0.1355
  196.0000   -51.4313     8.2115    97.6947     0.0207     2.4491     7.2618     7.6340     0.1334
  196.5000   -51.4202     8.2115    97.7513     0.0204     2.4549     7.2004     7.5670     0.1308
  197.0000   -51.4092     8.2115    99.3925     0.0201     2.4605     7.1396     7.5008     0.1283
  197.5000   -51.3981     8.2114   103.1910     0.0199     2.4645     7.0792     7.4351     0.1258
  198.0000   -51.3871     8.2108   104.1336     0.0196     2.4688     7.0195     7.3698     0.1246
  198.5000   -51.3761     8.2341   103.3642     0.0219     2.4717     6.9601     7.3054     0.1242
  199.0000   -51.3651     8.2635   102.2271     0.0261     2.4709     6.8979     7.2247     0.1238
  199.5000   -51.3575     8.2776   101.5996     0.0304     2.4700     6.8979     7.2732     0.1235
  200.0000   -51.3576     8.2877   101.2361     0.0310     2.4745     6.8979     7.3395     0.1186
  200.5000   -51.3576     8.2711   100.1893     0.0304     2.4817     6.9363     7.4063     0.1123
  201.0000   -51.3576     8.2324    97.5234     0.0298     2.4917     7.0154     7.4738     0.1124
  201.5000   -51.3576     8.2146    94.2031     0.0269     2.4924     7.0954     7.5419     0.1125
  202.0000   -51.3576     8.2206    94.4242     0.0216     2.4917     7.1764     7.6106     0.1126
  202.5000   -51.3576     8.2265    98.0656     0.0176     2.4908     7.2582     7.6799     0.1127
  203.0000   -51.3576     8.2314   105.3654     0.0186     2.4983     7.3180     7.7499     0.1081
  203.5000   -51.3576     8.2333   107.7641     0.0194     2.5069     7.3624     7.8205     0.1008
  204.0000   -51.3575     8.2353   106.6518     0.0165     2.5156     7.4071     7.8917     0.0986
  204.5000   -51.3589     8.2373   101.6040     0.0136     2.5185     7.4794     7.9636     0.0974
  205.0000   -51.3613     8.2393    96.5912     0.0142     2.5130     7.5769     8.0223     0.1036
  205.5000   -51.3267     8.2412    91.5465     0.0150     2.5024     7.6758     8.0680     0.1145
  206.0000   -50.7496     8.2432    88.9528     0.0150     2.4843     7.7759     8.1137     0.1275
  206.5000   -50.1290     8.2452    93.8014     0.0135     2.4690     7.8527     8.1486     0.1275
  207.0000   -49.7389     8.2472    99.2059     0.0135     2.4651     7.8823     8.1589     0.1272
  207.5000   -49.6638     8.2493    99.8740     0.0135     2.4676     7.9181     8.1712     0.1250
  208.0000   -49.5863     8.2507    98.3466     0.0132     2.4713     7.9541     8.1835     0.1228
  208.5000   -49.5112     8.2243    97.1095     0.0108     2.4750     7.9902     8.1957     0.1205
  209.0000   -49.4366     8.1954    97.1206     0.0093     2.4789     8.0265     8.2083     0.1199
  209.5000   -49.3712     8.2073    96.8098     0.0090     2.4799     8.0735     8.2227     0.1195
  210.0000   -49.3706     8.2257    95.5149     0.0086     2.4799     7.9529     8.1232     0.1201
  210.5000   -49.3709     8.2286    94.6055     0.0083     2.4799     7.7872     7.9823     0.1211
  211.0000   -49.3709     8.2234    94.9596     0.0080     2.4792     7.6249     7.8441     0.1233
  211.5000   -49.3709     8.2179    95.2162     0.0076     2.4734     7.4660     7.7087     0.1260
  212.0000   -49.3709     8.2125    97.6537     0.0083     2.4662     7.3105     7.4972     0.1287
  212.5000   -49.3709     8.2071   100.3973     0.0095     2.4641     7.1581     7.5063     0.1288
  213.0000   -49.3709     8.2016   102.5681     0.0089     2.4630     7.1803     7.5285     0.1290
  213.5000   -49.3709     8.1963   100.5439     0.0082     2.4619     7.2025     7.5508     0.1291
  214.0000   -49.3704     8.1936    97.8828     0.0075     2.4611     7.2248     7.5732     0.1256
  214.5000   -49.3702     8.2065    95.9131     0.0085     2.4700     7.2472     7.5956     0.1194
  215.0000   -49.2994     8.2193    96.4682     0.0105     2.4797     7.2697     7.6181     0.1163
  215.5000   -49.1606     8.2320    98.2370     0.0177     2.4861     7.2922     7.6407     0.1141
  216.0000   -49.0157     8.2447    98.1630     0.0252     2.4929     7.3148     7.6633     0.1123
  216.5000   -48.9753     8.2471    99.9806     0.0255     2.4940     7.3374     7.6860     0.1115
  217.0000   -48.9839     8.2396    99.8517     0.0255     2.4940     7.3597     7.7083     0.1115
  217.5000   -48.6536     8.2322    98.9886     0.0253     2.4937     7.4341     7.7571     0.1159
  218.0000   -48.2673     8.2312    99.1700     0.0216     2.4856     7.5078     7.8053     0.1211
  218.5000   -47.8705     8.2312   104.6969     0.0179     2.4773     7.5822     7.8537     0.1214
  219.0000   -47.7455     8.2312   104.5589     0.0143     2.4740     7.6573     7.9024     0.1189
  219.5000   -47.6933     8.2312   103.8827     0.0114     2.4779     7.7083     7.9301     0.1141
  220.0000   -47.6437     8.2277   104.1716     0.0120     2.4966     7.6782     7.9391     0.1094
  220.5000   -47.5940     8.2105   104.4985     0.0126     2.4993     7.6515     7.9482     0.1139
  221.0000   -47.5441     8.1935   101.7374     0.0131     2.4860     7.6248     7.9572     0.1194
  221.5000   -47.4942     8.1765    95.2392     0.0136     2.4754     7.5982     7.9662     0.1243
  222.0000   -47.4442     8.1596    96.2180     0.0142     2.4718     7.5718     7.9752     0.1234
