~VERSION INFORMATION
 VERS.                2.0:   CWLS LOG ASCII STANDARD - VERSION 2.0
 WRAP.                 NO:   ONE LINE PER DEPTH STEP
~WELL INFORMATION
#MNEM.UNIT      DATA TYPE    INFORMATION
#----------   ------------   ------------------------------
 STRT.F            2.0000:   START DEPTH
 STOP.F          592.0000:   STOP DEPTH
 STEP.F            0.1000:   STEP LENGTH
 NULL.          -999.2500:   NO VALUE
 COMP. BROWN JOHN E&C INC:   COMPANY
 WELL. NAVAL PETROLEUM RESERVE 3 SX-3 #73-3:   WELL
 FLD .             TEAPOT:   FIELD
 LOC .       S3 T38N R78W:   LOCATION
 CNTY.            NATRONA:   COUNTY
 STAT.            WYOMING:   STATE
 CTRY. UNITED STATES OF AMERICA:   COUNTRY
 SRVC.     Atlas Wireline:   SERVICE COMPANY
 DATE.        22-APR-1992:   LOGDATE
 API .       490252251000:   API NUMBER
~CURVE INFORMATION
#MNEM.UNIT       API CODE    CURVE DESCRIPTION
#----------   ------------   ------------------------------
 DEPT.F                  :   
 GRR .GAPI   07 310 01 00:   GAMMA RAY
 RILD.OHMM   07 120 46 00:   INDUCTION LOG DEEP RESISTIVITY
 RILM.OHMM   07 120 44 00:   INDUCTION LOG MEDIUM RESISTIVITY
~PARAMETER INFORMATION
#MNEM.UNIT          VALUE    DESCRIPTION
#----------   ------------   ------------------------------
 PD  .                 GL:   PERMANENT DATUM
 EPD .F              5148:   ELEVATION PERMANENT DATUM
 LMF .                 KB:   LOG MEASURED FROM
 DAPD.F                 5:   FEET ABOVE PERMANENT DATUM
 DMF .                 KB:   DRILLING MEASURED FROM
 EKB .F              5153:   KELLING BUSHING
 EDF .F              5152:   DRILLING FLOOR
 EGL .F              5148:   GROUND LEVEL
 DATE.        22-APR-1992:   RUN DATE
 RUN .                  1:   RUN NUMBER
 DD  .F               600:   DEPTH DRILLER
 DL  .F               601:   DEPTH LOGGER
 BLI .F               592:   BOTTOM LOG INTERVAL
 TLI .F                51:   TOP LOG INTERVAL
 CS  .IN            8.625:   CASING SIZE
 CBD .F                48:   CASING BOTTOM DRILLER
 CBL .F                51:   CASING BOTTOM LOGGER
 BS  .IN            7.875:   BIT SIZE
 BSD .F               600:   BIT SIZE AT DEPTH
 DFT .                AIR:   DRILLING FLUID TYPE
 LUN .            HL-5272:   LOGGING UNIT NUMBER
 LUL .             CASPER:   LOGGING UNIT LOCATION
 ENGI.       P. RAGMUSSEN:   RECORDING ENGINEER
 WITN.          G. STRONG:   WITNESSED BY
 CLNT.            A2DTECH:   CLIENT CODE
 ORIG.           5" PRINT:   ORIGIN OF DATA
 UWI .       490252251000:   UNIQUE WELL ID
 DICO. A2D Technologies, Inc.:   DIGITIZING COMPANY
~OTHER INFORMATION
~A    DEPT      GRR      RILD       RILM   
# ...
  293.2000   132.6233     7.8363     7.8910
  293.3000   132.6264     7.8372     7.8919
  293.4000   132.6294     7.8364     7.8929
  293.5000   132.6324     7.7847     7.8523
  293.6000   132.6354     7.7854     7.8398
  293.7000   132.6384     7.7863     7.8407
  293.8000   132.6414     7.7720     7.8416
  293.9000   132.6451     7.7339     7.8424
  294.0000   132.6475     7.7350     7.7983
  294.1000   132.6505     7.7357     7.7897
  294.2000   132.6535     7.7080     7.7660
  294.3000   132.6831     7.6838     7.7375
  294.4000   132.9626     7.6847     7.7339
  294.5000   132.9652     7.6855     7.6856
  294.6000   132.9682     7.6446     7.6863
  294.7000   132.9712     7.6339     7.6592
  294.8000   133.0177     7.6131     7.6347
  294.9000   133.2800     7.5710     7.6195
  295.0000   133.5148     7.5291     7.5309
  295.1000   133.7634     7.4796     7.5317
  295.2000   134.0119     7.4461     7.5015
  295.3000   134.2603     7.3569     7.4599
  295.4000   134.5163     7.2479     7.4186
  295.5000   135.2556     7.1623     7.3774
  295.6000   135.8033     7.0292     7.3291
  295.7000   136.1622     6.9249     7.2959
  295.8000   136.4107     6.8092     7.2315
  295.9000   136.6593     6.6794     7.1652
  296.0000   136.9445     6.5305     7.1203
  296.1000   136.9471     6.3799     7.0331
  296.2000   136.9501     6.3113     6.9979
  296.3000   136.8581     6.2152     6.9328
  296.4000   136.6531     6.1286     6.8726
  296.5000   136.6568     6.0510     6.8097
  296.6000   136.4332     5.9497     6.6557
  296.7000   135.8522     5.8319     6.5291
  296.8000   135.1189     5.7791     6.4011
  296.9000   134.4406     5.7147     6.2730
  297.0000   133.9486     5.6511     6.1450
  297.1000   132.7346     5.5880     6.0170
  297.2000   131.6963     5.5190     5.8890
  297.3000   130.8466     5.4918     5.7609
  297.4000   130.1854     5.4209     5.6329
  297.5000   129.6973     5.3048     5.5049
  297.6000   129.1261     5.1628     5.3769
  297.7000   128.7217     5.0442     5.2488
  297.8000   128.2337     4.9355     5.1208
  297.9000   127.8350     4.8257     4.9928
  298.0000   127.5926     4.6786     4.8661
  298.1000   127.3256     4.5178     4.7400
  298.2000   127.1077     4.4159     4.6518
  298.3000   127.0288     4.2710     4.5174
  298.4000   126.9253     4.1934     4.3667
  298.5000   126.7322     4.1001     4.2172
  298.6000   126.7353     4.0154     4.0409
  298.7000   126.7383     3.9444     3.8769
  298.8000   126.7413     3.8733     3.7200
  298.9000   126.6207     3.8023     3.5665
  299.0000   126.4448     3.7312     3.4262
  299.1000   126.4478     3.6602     3.3493
  299.2000   126.4514     3.5891     3.2381
  299.3000   126.4538     3.5181     3.1579
  299.4000   126.4569     3.4470     3.0780
  299.5000   126.4599     3.3760     2.9976
  299.6000   126.4897     3.3049     2.9306
  299.7000   126.7689     3.2339     2.8566
  299.8000   126.9865     3.1628     2.8152
  299.9000   127.2351     3.0918     2.7582
  300.0000   127.5248     3.0207     2.7054
  300.1000   127.8733     2.9497     2.6664
  300.2000   128.2219     2.8786     2.6274
  300.3000   128.5704     2.8076     2.5883
  300.4000   128.9189     2.7365     2.5493
  300.5000   129.2675     2.6655     2.5103
  300.6000   129.5190     2.5944     2.4713
  300.7000   129.5084     2.5234     2.4322
  300.8000   129.2229     2.4523     2.3932
  300.9000   129.0204     2.3813     2.3645
  301.0000   128.6273     2.3453     2.3536
  301.1000   128.0431     2.3273     2.3539
  301.2000   127.2678     2.3011     2.3416
  301.3000   126.2120     2.2734     2.3286
  301.4000   125.2978     2.2617     2.3220
  301.5000   123.9665     2.2491     2.3257
  301.6000   122.0171     2.2365     2.3391
  301.7000   119.6750     2.2272     2.3553
  301.8000   117.6520     2.2274     2.3663
  301.9000   113.7069     2.2276     2.3877
  302.0000   109.7588     2.2277     2.4104
  302.1000   106.8037     2.2279     2.4243
  302.2000   104.9297     2.2281     2.4399
  302.3000   103.7599     2.2299     2.4525
  302.4000   102.9474     2.2441     2.4666
  302.5000   102.5065     2.2442     2.4809
  302.6000   102.3479     2.2444     2.4981
  302.7000   102.3510     2.2503     2.5276
  302.8000   102.3540     2.2633     2.5418
  302.9000   102.3570     2.2765     2.5673
  303.0000   102.6061     2.2896     2.5892
  303.1000   103.0466     2.3028     2.6085
  303.2000   103.8129     2.3234     2.6402
  303.3000   105.2774     2.3458     2.7114
  303.4000   107.7269     2.3620     2.7634
  303.5000   110.2424     2.4081     2.8270
  303.6000   113.4650     2.4322     2.8983
  303.7000   117.1707     2.4693     2.9818
  303.8000   120.7734     2.5241     3.0749
  303.9000   124.0911     2.5940     3.1400
  304.0000   126.8987     2.6557     3.1997
  304.1000   129.5291     2.7151     3.2548
  304.2000   132.4303     2.8016     3.3287
  304.3000   134.8862     2.8990     3.4630
  304.4000   136.6495     2.9946     3.5430
  304.5000   137.8064     3.0821     3.6408
  304.6000   137.8099     3.2065     3.7458
  304.7000   137.6051     3.3004     3.8466
  304.8000   137.2096     3.4153     3.9350
  304.9000   136.5266     3.5259     4.0384
  305.0000   135.5013     3.6241     4.1186
  305.1000   134.1938     3.7128     4.2135
  305.2000   133.0391     3.7933     4.3004
  305.3000   132.1592     3.8651     4.3745
  305.4000   131.6618     3.9209     4.4539
  305.5000   131.4179     3.9660     4.6006
  305.6000   131.1829     4.0132     4.8404
  305.7000   131.1866     4.1236     5.0647
  305.8000   131.1891     4.2402     5.2242
  305.9000   131.1922     4.4026     5.3413
  306.0000   131.1952     4.5432     5.3782
  306.1000   131.1982     4.6216     5.4032
  306.2000   131.2015     4.7087     5.4344
  306.3000   131.2042     4.7827     5.4766
  306.4000   131.2073     4.8845     5.5396
  306.5000   131.2103     4.9972     5.6103
  306.6000   131.2133     5.1192     5.6392
  306.7000   131.2163     5.2669     5.6718
  306.8000   131.2193     5.4506     5.7186
  306.9000   131.2224     5.5650     5.7843
  307.0000   131.2254     5.6793     5.8524
  307.1000   131.2284     5.7992     5.9182
  307.2000   131.2314     5.8956     5.9862
  307.3000   131.2348     5.9716     6.0550
  307.4000   131.2375     6.0625     6.1144
  307.5000   131.4019     6.1213     6.1498
  307.6000   131.6518     6.1718     6.1913
  307.7000   131.9018     6.2429     6.2507
  307.8000   132.1574     6.3163     6.2792
  307.9000   132.4017     6.3168     6.2932
  308.0000   133.0228     6.3444     6.3296
  308.1000   134.1563     6.3810     6.3692
  308.2000   135.4923     6.4179     6.4031
  308.3000   136.4824     6.4522     6.4401
  308.4000   137.6222     6.4529     6.4603
  308.5000   138.2542     6.4533     6.4525
  308.6000   138.8438     6.4539     6.4168
  308.7000   139.2422     6.4544     6.4174
  308.8000   139.4920     6.4549     6.4180
  308.9000   139.7551     6.4555     6.4187
  309.0000   139.9919     6.4560     6.4193
  309.1000   140.0635     6.4566     6.4199
  309.2000   140.0665     6.4571     6.4206
  309.3000   140.0696     6.4576     6.4212
  309.4000   140.0499     6.4581     6.3988
  309.5000   139.4711     6.4588     6.3778
  309.6000   139.0685     6.4293     6.3721
  309.7000   138.5777     6.4150     6.3349
  309.8000   137.9958     6.4155     6.3354
  309.9000   137.2935     6.4161     6.3103
  310.0000   136.7627     6.4166     6.2752
  310.1000   136.3121     6.3838     6.2497
  310.2000   135.8214     6.3731     6.2503
  310.3000   135.5613     6.3568     6.2076
  310.4000   135.5046     6.3299     6.1799
  310.5000   135.2647     6.3305     6.1456
  310.6000   135.5187     6.2946     6.1114
  310.7000   135.9638     6.2877     6.0733
  310.8000   136.7397     6.2681     5.9981
  310.9000   137.8145     6.2211     5.9384
  311.0000   138.9671     6.1513     5.8502
  311.1000   139.5193     6.0746     5.7522
  311.2000   139.5220     5.9840     5.6623
  311.3000   139.6887     5.8834     5.5975
