~VERSION INFORMATION
 VERS.                2.0:   CWLS LOG ASCII STANDARD - VERSION 2.0
 WRAP.                 NO:   ONE LINE PER DEPTH STEP
~WELL INFORMATION
#MNEM.UNIT      DATA TYPE    INFORMATION
#----------   ------------   ------------------------------
 STRT.F           12.0000:   START DEPTH
 STOP.F          793.0000:   STOP DEPTH
 STEP.F            0.5000:   STEP LENGTH
 NULL.          -999.2500:   NO VALUE
 COMP.   FLUOR DANIEL INC:   COMPANY
 WELL.   35-1-X-10 #35-10:   WELL
 FLD .            WILDCAT:   FIELD
 LOC .      S10 T38N R78W:   LOCATION
 CNTY.            NATRONA:   COUNTY
 STAT.            WYOMING:   STATE
 CTRY. UNITED STATES OF AMERICA:   COUNTRY
 SRVC.      Western Atlas:   SERVICE COMPANY
 DATE.        20-AUG-1996:   LOGDATE
 API .       490252282200:   API NUMBER
~CURVE INFORMATION
#MNEM.UNIT       API CODE    CURVE DESCRIPTION
#----------   ------------   ------------------------------
 DEPT.F                  :   
 RFOC.OHMM   07 220 04 00:   RESISTIVITY FOCUSED LOG
 RILD.OHMM   07 120 46 00:   INDUCTION LOG DEEP RESISTIVITY
 RILM.OHMM   07 120 44 00:   INDUCTION LOG MEDIUM RESISTIVITY
 SPR .MV     07 010 01 00:   SPONTANEOUS POTENTIAL
 CALD.IN     45 280 60 00:   CALIPER FROM DENSITY LOG
 GRD .GAPI   45 310 01 00:   GAMMA RAY FROM DENSITY LOG
 ZCOR.G/C3   45 356 01 00:   DENSITY CORRECTION
 ZDEN.G/C3   45 350 01 00:   BULK DENSITY
 PORZ.DEC    45 890 12 00:   DENSITY POROSITY SANDSTONE
 CNC .DEC    42 890 03 00:   NEUTRON POROSITY SANDSTONE
~PARAMETER INFORMATION
#MNEM.UNIT          VALUE    DESCRIPTION
#----------   ------------   ------------------------------
 PD  .                 GL:   PERMANENT DATUM
 EPD .F              5228:   ELEVATION PERMANENT DATUM
 LMF .                 KB:   LOG MEASURED FROM
 DAPD.F                10:   FEET ABOVE PERMANENT DATUM
 DMF .                 KB:   DRILLING MEASURED FROM
 EKB .F              5238:   KELLING BUSHING
 EGL .F              5228:   GROUND LEVEL
 DATE.        20-AUG-1996:   RUN DATE
 RUN .                  1:   RUN NUMBER
 DD  .F               794:   DEPTH DRILLER
 DL  .F               794:   DEPTH LOGGER
 BLI .F               793:   BOTTOM LOG INTERVAL
 TLI .F                12:   TOP LOG INTERVAL
 CS  .IN           13.375:   CASING SIZE
 CBD .F                58:   CASING BOTTOM DRILLER
 CBL .F                59:   CASING BOTTOM LOGGER
 BS  .IN            12.25:   BIT SIZE
 BSD .F               794:   BIT SIZE AT DEPTH
 DFT .           SPUD MUD:   DRILLING FLUID TYPE
 DFD .                9.2:   DRILLING FLUID DENSITY
 DFV .                 50:   DRILLING FLUID VISCOSITY
 DFPH.                  9:   DRILLING FLUID PH
 DFL .               13.8:   DRILLING FLUID LOSS
 MSS .              CIRC.:   MUD SAMPLE SOURCE
 RMS .OHMM           1.14:   RESISTIVITY MUD SAMPLE
 MST .F                77:   MUD SAMPLE TEMPERATURE
 RMF .OHMM           0.90:   RESISTIVITY MUD FILTRATE SAMPLE
 MFST.F                77:   MUD FILTRATE SAMPLE TEMPERATURE
 RMC .OHMM            1.4:   RESISTIVITY MUD CAKE
 MCST.F                77:   MUD CAKE SAMPLE TEMPERATURE
 MFSS.               CALC:   MUD FILTRATE SAMPLE SOURCE
 MCSS.               CALC:   MUD CAKE SAMPLE SOURCE
 RMB .OHMM            .84:   RESISTIVITY MUD AT BHT
 BHT .F               104:   BOTTOM HOLE TEMPERATURE
 TCS .HRS               3:   TIME CURCULATED STOPPED
 MRT .F               104:   MAXIMUM RECORDED TEMPERATURE
 LUN .            HL-6530:   LOGGING UNIT NUMBER
 LUL .             CASPER:   LOGGING UNIT LOCATION
 ENGI.           BROWNLOW:   RECORDING ENGINEER
 WITN.      SCHULTE/HARDY:   WITNESSED BY
 CLNT.            A2DTECH:   CLIENT CODE
 ORIG.           5" PRINT:   ORIGIN OF DATA
 UWI .       490252282200:   UNIQUE WELL ID
 DICO. A2D Technologies, Inc.:   DIGITIZING COMPANY
~OTHER INFORMATION
~A   DEPT     RFOC       RILD       RILM        SPR       CALD        GRD       ZCOR       ZDEN       PORZ        CNC   
# ...
  615.0000     7.5154     7.5475     7.7712   -24.9167    12.5332    81.3696     0.0474     2.4992     0.0943     0.3516
  615.5000     7.5161     7.2389     7.3754   -24.9152    12.5331    82.5715     0.0504     2.5053     0.0876     0.3558
  616.0000     7.3613     6.8434     6.6705   -25.0651    12.5027    82.8765     0.0520     2.5091     0.0846     0.3597
  616.5000     7.0609     6.5216     6.1374   -25.0635    12.5032    83.1815     0.0459     2.4824     0.0903     0.3642
  617.0000     6.3617     6.4761     6.0524   -25.2134    12.5175    84.0907     0.0430     2.4592     0.1017     0.3727
  617.5000     5.8526     6.4756     5.9274   -25.3628    12.5325    85.3474     0.0445     2.4434     0.1223     0.3947
  618.0000     5.8102     6.5658     5.7649   -25.3614    12.5323    85.0035     0.0446     2.4471     0.1250     0.4007
  618.5000     6.2874     6.7503     6.4858   -25.5116    12.5322    82.5894     0.0431     2.4683     0.1151     0.3890
  619.0000     7.0634     7.0862     7.3106   -25.6614    12.5471    80.7796     0.0416     2.4897     0.1012     0.3742
  619.5000     7.6788     7.5428     7.9847   -25.8109    12.5470    79.5609     0.0356     2.5023     0.0936     0.3657
  620.0000     8.1755     8.0438     8.3814   -25.9607    12.5468    80.1818     0.0326     2.5053     0.0882     0.3606
  620.5000     8.5840     8.4281     8.6765   -25.9592    12.5316    81.9973     0.0326     2.5076     0.0873     0.3554
  621.0000     8.7656     8.7254     8.9200   -25.9574    12.5465    83.2087     0.0295     2.5098     0.0852     0.3503
  621.5000     8.8274     9.0961     9.2341   -25.9559    12.5463    82.9094     0.0236     2.5159     0.0828     0.3457
  622.0000     8.8897     9.3517     9.4276   -25.9544    12.5311    80.4961     0.0221     2.5181     0.0807     0.3427
  622.5000     8.8904     9.4821     9.6252   -25.9530    12.5310    79.8940     0.0221     2.5166     0.0810     0.3433
  623.0000     8.8910     9.5474     9.7590   -25.9515    12.5308    79.5947     0.0237     2.5151     0.0819     0.3409
  623.5000     8.8916     9.5527     9.8262   -25.9501    12.5303    79.5983     0.0267     2.5128     0.0828     0.3297
  624.0000     8.8304     9.6796     9.8940   -25.9486    12.5154    79.2990     0.0283     2.5098     0.0837     0.3270
  624.5000     8.7699     9.8144     9.7569   -26.0984    12.5304    79.3026     0.0329     2.5083     0.0843     0.3387
  625.0000     8.6493     9.8135     9.6218   -26.0966    12.5302    79.0034     0.0344     2.5076     0.0855     0.3421
  625.5000     8.5304     9.7450     9.4886   -26.2468    12.5301    78.7041     0.0374     2.5068     0.0864     0.3354
  626.0000     8.5311     9.6099     9.3573   -26.3966    12.5299    78.7070     0.0329     2.5068     0.0864     0.3258
  626.5000     8.5317     9.4767     9.3523   -26.5464    12.5297    78.7106     0.0330     2.5068     0.0855     0.3233
  627.0000     8.5322     9.4104     9.2912   -26.5446    12.5296    78.7134     0.0330     2.5076     0.0852     0.3286
  627.5000     8.5328     9.4754     9.3554   -26.5431    12.5294    79.0184     0.0330     2.5083     0.0870     0.3387
  628.0000     8.5334     9.5408     9.5513   -26.5416    12.5293    80.5318     0.0300     2.5068     0.0895     0.3393
  628.5000     8.5340     9.6734     9.6842   -26.5398    12.5291    80.1943     0.0270     2.5015     0.0916     0.3399
  629.0000     8.5347     9.7404     9.8188   -26.5384    12.5290    78.4235     0.0256     2.4985     0.0925     0.3411
  629.5000     8.5352     9.8076     9.8180   -26.3856    12.5288    77.5193     0.0241     2.4970     0.0913     0.3444
  630.0000     8.5358     9.8752     9.6152   -26.3841    12.5287    77.8250     0.0257     2.4977     0.0894     0.3480
  630.5000     8.4771     9.8745     9.3428   -26.2314    12.5286    79.3384     0.0272     2.5008     0.0882     0.3426
  631.0000     8.4190     9.8054     9.1582   -26.2299    12.5284    79.6434     0.0242     2.5030     0.0914     0.3344
  631.5000     8.3612     9.6694     9.0314   -26.0671    12.5282    78.7399     0.0227     2.5000     0.0979     0.3311
  632.0000     8.2462     9.4038     8.9684   -25.7728    12.5281    79.0456     0.0227     2.4940     0.0970     0.3365
  632.5000     8.1329     9.2093     8.7831   -25.4687    12.5279    79.6527     0.0228     2.4902     0.0946     0.3461
  633.0000     7.9103     8.7716     8.4832   -25.3160    12.5278    80.2598     0.0259     2.4910     0.0934     0.3528
  633.5000     7.6404     8.2395     8.1935   -24.8607    12.4823    81.1697     0.0274     2.4955     0.0961     0.3621
  634.0000     7.3798     7.6861     7.7975   -24.7079    12.4217    81.7768     0.0259     2.4985     0.0967     0.3654
  634.5000     7.0295     7.1603     7.1808   -24.4039    12.4065    81.7796     0.0259     2.4940     0.0970     0.3688
  635.0000     6.7426     6.5049     6.6070   -24.2511    12.4063    81.1782     0.0289     2.4924     0.0970     0.3709
  635.5000     6.4638     5.8609     6.1212   -24.0782    12.4062    79.3692     0.0320     2.4924     0.0985     0.3708
  636.0000     6.2468     5.2441     5.2912   -23.9453    12.4060    78.1628     0.0320     2.4909     0.1033     0.3696
  636.5000     5.9918     4.3470     4.5422   -23.7925    12.4059    79.3749     0.0305     2.4826     0.1116     0.3726
  637.0000     5.5508     3.6538     3.9811   -23.7911    12.4209    80.8883     0.0306     2.4698     0.1320     0.3847
  637.5000     4.7967     3.3150     3.5381   -23.9412    12.4207    79.6576     0.0368     2.4343     0.1585     0.3977
  638.0000     3.9756     3.2464     2.9134   -24.0911    12.4357    78.4771     0.0473     2.3943     0.1917     0.4329
  638.5000     3.5324     3.2462     3.0581   -24.2405    12.4204    79.6892     0.0609     2.3263     0.2273     0.4474
  639.0000     3.3389     3.3143     3.3003   -24.5517    12.4202    80.5976     0.0836     2.2757     0.2248     0.4347
  639.5000     3.9215     3.4312     3.7389   -24.8427    12.4050    78.1843     0.0972     2.2748     0.1848     0.4148
  640.0000     4.9682     3.5522     4.2358   -25.1438    12.4048    76.0731     0.1018     2.3505     0.1362     0.3792
  640.5000     5.8306     3.7811     4.6351   -25.4450    12.4047    74.8675     0.0777     2.4686     0.1045     0.3521
  641.0000     6.2511     4.1960     5.0721   -25.8970    12.4045    73.6619     0.0490     2.5003     0.0852     0.3349
  641.5000     6.4279     4.8909     5.7569   -26.1981    12.4195    78.1965     0.0369     2.5108     0.0867     0.3385
  642.0000     6.3838     5.9746     6.4199   -26.4992    12.4193    80.0120     0.0324     2.5070     0.0882     0.3457
  642.5000     6.4858     6.7278     6.7388   -26.6490    12.4192    78.2022     0.0324     2.5078     0.0873     0.3442
  643.0000     6.7501     7.0625     6.9762   -26.9501    12.4190    77.6008     0.0355     2.5100     0.0864     0.3395
  643.5000     6.9411     7.2610     7.1720   -27.2509    12.4340    79.4171     0.0400     2.5085     0.0861     0.3360
  644.0000     7.0879     7.4651     7.4245   -27.4007    12.4187    81.5348     0.0491     2.5024     0.0900     0.3460
  644.5000     7.2379     7.6217     7.4757   -27.5509    12.4186    81.8404     0.0673     2.4956     0.0949     0.3517
  645.0000     7.3398     7.6744     7.4752   -27.7007    12.4184    80.6348     0.0825     2.4926     0.0964     0.3514
  645.5000     7.3403     7.7812     7.4746   -27.6989    12.4183    79.4292     0.0855     2.5001     0.0913     0.3444
  646.0000     7.3408     7.8349     7.4224   -27.6974    12.4181    78.5257     0.0629     2.5137     0.0831     0.3381
  646.5000     7.3414     7.8342     7.4219   -27.6959    12.4331    79.7997     0.0431     2.5152     0.0825     0.3390
  647.0000     7.3419     7.7795     7.4214   -27.5428    12.4329    80.6470     0.0388     2.5092     0.0861     0.3426
  647.5000     7.3424     7.7790     7.4209   -27.3901    12.4479    80.6499     0.0357     2.5054     0.0883     0.3520
  648.0000     7.3429     7.7784     7.4721   -27.3886    12.4477    80.6527     0.0358     2.5053     0.0882     0.3550
