~VERSION INFORMATION
 VERS.                2.0:   CWLS LOG ASCII STANDARD - VERSION 2.0
 WRAP.                 NO:   ONE LINE PER DEPTH STEP
~WELL INFORMATION
#MNEM.UNIT      DATA TYPE    INFORMATION
#----------   ------------   ------------------------------
 STRT.F          502.0000:   START DEPTH
 STOP.F         5661.0000:   STOP DEPTH
 STEP.F            0.5000:   STEP LENGTH
 NULL.          -999.2500:   NO VALUE
 COMP. FENIX & SCISSON INC:   COMPANY
 WELL.   NPR 3 #32DX22-22:   WELL
 FLD .             TEAPOT:   FIELD
 LOC .      S22 T38N R78W:   LOCATION
 CNTY.            NATRONA:   COUNTY
 STAT.            WYOMING:   STATE
 CTRY. UNITED STATES OF AMERICA:   COUNTRY
 SRVC.       Schlumberger:   SERVICE COMPANY
 DATE.        29-NOV-1978:   LOGDATE
 API .       490251073100:   API NUMBER
~CURVE INFORMATION
#MNEM.UNIT       API CODE    CURVE DESCRIPTION
#----------   ------------   ------------------------------
 DEPT.F                  :   
 SPR .MV     07 010 01 00:   SPONTANEOUS POTENTIAL
 GRR .GAPI   07 310 01 00:   GAMMA RAY FROM RES. LOG.
 SFL .OHMM   07 220 01 00:   SHALLOW FOCUSED LOG RESISTIVITY
 ILD .OHMM   07 120 46 00:   INDUCTION LOG DEEP
 ILM .OHMM   07 120 44 00:   INDUCTION LOG MEDIUM
 NPHI.DEC    42 890 03 00:   NEUTRON POROSITY SANDSTONE
 DPHI.DEC    45 890 12 00:   DENSITY POROSITY SANDSTONE
 RHOB.G/C3   45 350 01 00:   BULK DENSITY
 CORR.G/C3   45 356 01 00:   DENSITY CORRECTION
 CALD.IN     45 280 60 00:   CALIPER
~PARAMETER INFORMATION
#MNEM.UNIT          VALUE    DESCRIPTION
#----------   ------------   ------------------------------
 PD  .                 GL:   PERMANENT DATUM
 EPD .F              5514:   ELEVATION PERMANENT DATUM
 LMF .                 KB:   LOG MEASURED FROM
 DAPD.F                10:   FEET ABOVE PERMANENT DATUM
 DMF .                 KB:   DRILLING MEASURED FROM
 EKB .F              5524:   KELLING BUSHING
 EGL .F              5514:   GROUND LEVEL
 DATE.           11-29-78:   RUN DATE
 RUN .                  1:   RUN NUMBER
 DD  .F              5680:   DEPTH DRILLER
 DL  .F              5667:   DEPTH LOGGER
 BLI .F              5661:   BOTTOM LOG INTERVAL
 TLI .F               530:   TOP LOG INTERVAL
 CS  .IN            8.625:   CASING SIZE
 CBD .F               513:   CASING BOTTOM DRILLER
 CBL .F               530:   CASING BOTTOM LOGGER
 BS  .IN            7.875:   BIT SIZE
 BSD .F              5680:   BIT SIZE AT DEPTH
 DFT .                FGM:   DRILLING FLUID TYPE
 DFD .                9.2:   DRILLING FLUID DENSITY
 DFV .                 50:   DRILLING FLUID VISCOSITY
 DFPH.               11.5:   DRILLING FLUID PH
 DFL .                6.8:   DRILLING FLUID LOSS
 MSS .               TANK:   MUD SAMPLE SOURCE
 RMS .OHMM           1.45:   RESISTIVITY MUD SAMPLE
 MST .F                56:   MUD SAMPLE TEMPERATURE
 RMF .OHMM           1.16:   RESISTIVITY MUD FILTRATE SAMPLE
 MFST.F                56:   MUD FILTRATE SAMPLE TEMPERATURE
 MFSS.               MEAS:   MUD FILTRATE SAMPLE SOURCE
 RMB .OHMM            .62:   RESISTIVITY MUD AT BHT
 BHT .F               132:   BOTTOM HOLE TEMPERATURE
 TCS .HRS            0700:   TIME CURCULATED STOPPED
 TLAB.HRS            1200:   TIME LOGGER AT BOTTOM
 MRT .F               132:   MAXIMUM RECORDED TEMPERATURE
 LUN .               8039:   LOGGING UNIT NUMBER
 LUL .               CSPR:   LOGGING UNIT LOCATION
 ENGI.           STADULIS:   RECORDING ENGINEER
 WITN.           DINSMORE:   WITNESSED BY
 CLNT.            A2DTECH:   CLIENT CODE
 ORIG.       2", 5" PRINT:   ORIGIN OF DATA
 UWI .       490251073100:   UNIQUE WELL ID
 DICO. A2D Technologies, Inc.:   DIGITIZING COMPANY
~OTHER INFORMATION
~A   DEPT      SPR         GRR       SFL        ILD        ILM       NPHI       DPHI       RHOB       CORR       CALD   
# ...
 3249.0000   -40.0396   127.0411     8.1924     7.4486     7.2576  -999.2500  -999.2500  -999.2500  -999.2500  -999.2500
 3249.5000   -40.9836   125.0154     8.2071     7.4186     7.3084  -999.2500  -999.2500  -999.2500  -999.2500  -999.2500
 3250.0000   -41.2052   123.2038     8.3406     7.4186     7.3596  -999.2500  -999.2500  -999.2500  -999.2500  -999.2500
 3250.5000   -41.3113   123.1332     8.5419     7.4186     7.4111  -999.2500  -999.2500  -999.2500  -999.2500  -999.2500
 3251.0000   -41.3688   120.8745     8.7520     7.4186     7.4629  -999.2500  -999.2500  -999.2500  -999.2500  -999.2500
 3251.5000   -41.4265   118.5218     8.7862     7.4185     7.5152  -999.2500  -999.2500  -999.2500  -999.2500  -999.2500
 3252.0000   -41.4848   120.2743     8.8212     7.4241     7.5681  -999.2500  -999.2500  -999.2500  -999.2500  -999.2500
 3252.5000   -41.5432   126.3112     8.8327     7.4327     7.6264  -999.2500  -999.2500  -999.2500  -999.2500  -999.2500
 3253.0000   -41.6022   128.5495     8.7119     7.4414     7.6255  -999.2500  -999.2500  -999.2500  -999.2500  -999.2500
 3253.5000   -41.6638   126.3237     8.6031     7.4501     7.6121  -999.2500  -999.2500  -999.2500  -999.2500  -999.2500
 3254.0000   -41.7002   125.0389     8.4957     7.4587     7.5976  -999.2500  -999.2500  -999.2500  -999.2500  -999.2500
 3254.5000   -41.2199   127.0617     8.4363     7.4674     7.5831  -999.2500  -999.2500  -999.2500  -999.2500  -999.2500
 3255.0000   -40.7256   129.4211     8.5596     7.4762     7.5687  -999.2500  -999.2500  -999.2500  -999.2500  -999.2500
 3255.5000   -40.2904   130.8720     8.6460     7.4849     7.5565  -999.2500  -999.2500  -999.2500  -999.2500  -999.2500
 3256.0000   -40.3017   130.7586     8.7334     7.5496     7.6027  -999.2500  -999.2500  -999.2500  -999.2500  -999.2500
 3256.5000   -40.3029   129.9072     8.9371     7.6631     7.6441  -999.2500  -999.2500  -999.2500  -999.2500  -999.2500
 3257.0000   -40.3030   129.1451     9.1773     7.7783     7.6857  -999.2500  -999.2500  -999.2500  -999.2500  -999.2500
 3257.5000   -40.3030   126.3990     9.4262     7.8581     7.7276  -999.2500  -999.2500  -999.2500  -999.2500  -999.2500
 3258.0000   -40.3030   123.0967     9.5937     7.8984     7.7696  -999.2500  -999.2500  -999.2500  -999.2500  -999.2500
 3258.5000   -40.3026   118.1954     9.3542     7.9389     7.8120  -999.2500  -999.2500  -999.2500  -999.2500  -999.2500
 3259.0000   -40.2982   114.5166     9.1481     7.9797     7.8548  -999.2500  -999.2500  -999.2500  -999.2500  -999.2500
 3259.5000   -40.4761   112.9892     8.9678     8.0213     7.9104  -999.2500  -999.2500  -999.2500  -999.2500  -999.2500
 3260.0000   -40.6863   112.7489     8.8544     8.0571     7.8252  -999.2500  -999.2500  -999.2500  -999.2500  -999.2500
 3260.5000   -40.8969   113.1961     8.7423     7.9434     7.6962  -999.2500  -999.2500  -999.2500  -999.2500  -999.2500
 3261.0000   -41.1076   115.4920     8.5220     7.8391     7.5705  -999.2500  -999.2500  -999.2500  -999.2500  -999.2500
 3261.5000   -41.3201   118.3171     8.1246     7.7367     7.4468  -999.2500  -999.2500  -999.2500  -999.2500  -999.2500
 3262.0000   -41.5033   121.0884     7.7458     7.6358     7.3252  -999.2500  -999.2500  -999.2500  -999.2500  -999.2500
 3262.5000   -41.2834   123.9809     7.4625     7.5361     7.2170  -999.2500  -999.2500  -999.2500  -999.2500  -999.2500
 3263.0000   -41.0586   129.1952     7.3775     7.4379     7.1853  -999.2500  -999.2500  -999.2500  -999.2500  -999.2500
 3263.5000   -40.8448   134.8126     7.2941     7.3408     7.1567  -999.2500  -999.2500  -999.2500  -999.2500  -999.2500
 3264.0000   -41.0120   139.3244     7.2126     7.2836     7.0216  -999.2500  -999.2500  -999.2500  -999.2500  -999.2500
 3264.5000   -41.7792   137.7534     7.1511     7.3592     7.1577  -999.2500  -999.2500  -999.2500  -999.2500  -999.2500
 3265.0000   -42.3079   134.7094     7.4870     7.4222     7.2841  -999.2500  -999.2500  -999.2500  -999.2500  -999.2500
 3265.5000   -42.1899   134.8977     8.0962     7.4858     7.3383  -999.2500  -999.2500  -999.2500  -999.2500  -999.2500
 3266.0000   -42.0816   135.2599     8.8282     7.5499     7.3885  -999.2500  -999.2500  -999.2500  -999.2500  -999.2500
 3266.5000   -41.8320   134.4184     9.7715     7.6258     7.4186  -999.2500  -999.2500  -999.2500  -999.2500  -999.2500
 3267.0000   -41.5841   134.6939     9.3404     7.5323     7.3333  -999.2500  -999.2500  -999.2500  -999.2500  -999.2500
 3267.5000   -41.3369   134.9354     8.7721     7.4207     7.2458  -999.2500  -999.2500  -999.2500  -999.2500  -999.2500
 3268.0000   -41.0897   133.3524     8.1658     7.3108     7.1163  -999.2500  -999.2500  -999.2500  -999.2500  -999.2500
 3268.5000   -40.8425   130.2437     7.9111     7.1427     6.9890  -999.2500  -999.2500  -999.2500  -999.2500  -999.2500
 3269.0000   -40.5954   128.8040     7.9111     6.9591     6.8641  -999.2500  -999.2500  -999.2500  -999.2500  -999.2500
 3269.5000   -40.3477   130.0547     7.8172     6.8411     6.7414  -999.2500  -999.2500  -999.2500  -999.2500  -999.2500
 3270.0000   -40.0997   131.2688     7.4527     6.7677     6.6209  -999.2500  -999.2500  -999.2500  -999.2500  -999.2500
 3270.5000   -39.8574   132.5607     7.3508     6.6086     6.5025  -999.2500  -999.2500  -999.2500  -999.2500  -999.2500
 3271.0000   -39.8416   135.4120     7.6672     6.4630     6.3863  -999.2500  -999.2500  -999.2500  -999.2500  -999.2500
 3271.5000   -40.2586   139.5138     7.8388     6.4849     6.2309  -999.2500  -999.2500  -999.2500  -999.2500  -999.2500
 3272.0000   -40.6689   143.0514     7.0571     6.5862     6.3260  -999.2500  -999.2500  -999.2500  -999.2500  -999.2500
 3272.5000   -41.0828   141.0652     6.5236     6.8427     6.5687  -999.2500  -999.2500  -999.2500  -999.2500  -999.2500
 3273.0000   -41.5003   137.3417     7.4678     7.1091     6.8354  -999.2500  -999.2500  -999.2500  -999.2500  -999.2500
 3273.5000   -41.6643   134.3972     8.8635     7.3261     6.9567  -999.2500  -999.2500  -999.2500  -999.2500  -999.2500
 3274.0000   -41.8177   135.2785     9.9308     7.4436     7.0922  -999.2500  -999.2500  -999.2500  -999.2500  -999.2500
 3274.5000   -41.9731   139.0990    10.0977     7.6258     7.4391  -999.2500  -999.2500  -999.2500  -999.2500  -999.2500
 3275.0000   -42.1290   142.3446    10.1441     7.6650     7.5314  -999.2500  -999.2500  -999.2500  -999.2500  -999.2500
 3275.5000   -42.2917   142.1214     9.6202     7.7015     7.5829  -999.2500  -999.2500  -999.2500  -999.2500  -999.2500
 3276.0000   -42.2252   134.8887     9.1716     7.7377     7.6258  -999.2500  -999.2500  -999.2500  -999.2500  -999.2500
 3276.5000   -42.0935   130.8955     8.7520     7.7667     7.5721  -999.2500  -999.2500  -999.2500  -999.2500  -999.2500
 3277.0000   -41.9652   128.0356     8.5927     7.5943     7.4816  -999.2500  -999.2500  -999.2500  -999.2500  -999.2500
 3277.5000   -41.6239   128.4593     8.7074     7.4550     7.3502  -999.2500  -999.2500  -999.2500  -999.2500  -999.2500
 3278.0000   -41.1956   128.0981     8.7520     7.3166     7.1415  -999.2500  -999.2500  -999.2500  -999.2500  -999.2500
 3278.5000   -40.7655   127.6980     8.5526     7.2187     7.0105  -999.2500  -999.2500  -999.2500  -999.2500  -999.2500
 3279.0000   -40.5025   129.5174     8.4023     7.1330     6.9920  -999.2500  -999.2500  -999.2500  -999.2500  -999.2500
 3279.5000   -40.5053   132.0032     8.2434     7.0188     6.9734  -999.2500  -999.2500  -999.2500  -999.2500  -999.2500
 3280.0000   -40.5047   130.5036     8.0874     7.1146     6.9567  -999.2500  -999.2500  -999.2500  -999.2500  -999.2500
 3280.5000   -40.5051   128.4320     7.9592     7.3095     7.2398  -999.2500  -999.2500  -999.2500  -999.2500  -999.2500
 3281.0000   -40.5051   127.9707     7.9111     7.5135     7.5080  -999.2500  -999.2500  -999.2500  -999.2500  -999.2500
 3281.5000   -40.5046   126.6408     8.8214     7.6170     7.7862  -999.2500  -999.2500  -999.2500  -999.2500  -999.2500
 3282.0000   -40.5024   119.5334     9.9874     7.6953     8.0578  -999.2500  -999.2500  -999.2500  -999.2500  -999.2500
