~VERSION INFORMATION
 VERS.                2.0:   CWLS LOG ASCII STANDARD - VERSION 2.0
 WRAP.                 NO:   ONE LINE PER DEPTH STEP
~WELL INFORMATION
#MNEM.UNIT      DATA TYPE    INFORMATION
#----------   ------------   ------------------------------
 STRT.F         1378.5000:   START DEPTH
 STOP.F         2344.0000:   STOP DEPTH
 STEP.F            0.5000:   STEP LENGTH
 NULL.          -999.2500:   NO VALUE
 COMP. BROWN JOHN E&C INC:   COMPANY
 WELL. NAVAL PETROLEUM RESERVE 3 STX- #26-10:   WELL
 FLD .             TEAPOT:   FIELD
 LOC .      S10 T38N R78W:   LOCATION
 CNTY.            NATRONA:   COUNTY
 STAT.            WYOMING:   STATE
 CTRY. UNITED STATES OF AMERICA:   COUNTRY
 SRVC.            Unknown:   SERVICE COMPANY
 DATE.        22-MAY-1991:   LOGDATE
 API .       490251107400:   API NUMBER
~CURVE INFORMATION
#MNEM.UNIT       API CODE    CURVE DESCRIPTION
#----------   ------------   ------------------------------
 DEPT.F                  :   
 ROP .MIN/FT 91 810 01 00:   RATE OF DRILLING PENETRATION
 TGAS.UNITS  91 830 01 00:   TOTAL GAS FROM HOTWIRE
~PARAMETER INFORMATION
#MNEM.UNIT          VALUE    DESCRIPTION
#----------   ------------   ------------------------------
 EKB .F              5231:   KELLING BUSHING
 EGL .F              5221:   GROUND LEVEL
 DATE.            5-22-91:   RUN DATE
 DD  .F              2343:   DEPTH DRILLER
 BLI .F              2343:   BOTTOM LOG INTERVAL
 TLI .F              1378:   TOP LOG INTERVAL
 CS  .IN            8.625:   CASING SIZE
 CBD .F               709:   CASING BOTTOM DRILLER
 TCS .HRS            0030:   TIME CURCULATED STOPPED
 TLAB.HRS            0415:   TIME LOGGER AT BOTTOM
 ENGI.              TOWER:   RECORDING ENGINEER
 WITN.               HUSK:   WITNESSED BY
 CLNT.            A2DTECH:   CLIENT CODE
 ORIG.           5" PRINT:   ORIGIN OF DATA
 UWI .       490251107400:   UNIQUE WELL ID
 DICO. A2D Technologies, Inc.:   DIGITIZING COMPANY
~OTHER INFORMATION
~A  DEPT         ROP       TGAS 
# ...
 1864.5000     0.3678     4.0417
 1865.0000     0.3691     3.9885
 1865.5000     0.3486     3.9353
 1866.0000     0.3251     3.8821
 1866.5000     0.3031     3.8289
 1867.0000     0.2811     3.7757
 1867.5000     0.2700     3.7225
 1868.0000     0.2587     3.6693
 1868.5000     0.2477     3.6161
 1869.0000     0.2548     3.5629
 1869.5000     0.2581     3.5097
 1870.0000     0.2684     3.4564
 1870.5000     0.2729     3.4032
 1871.0000     0.2827     3.3500
 1871.5000     0.3002     3.2968
 1872.0000     0.3069     3.2436
 1872.5000     0.3208     3.1904
 1873.0000     0.3206     3.1372
 1873.5000     0.3256     3.0840
 1874.0000     0.3416     3.0308
 1874.5000     0.3845     2.9776
 1875.0000     0.4275     2.9244
 1875.5000     0.4500     2.8712
 1876.0000     0.4917     2.8180
 1876.5000     0.5131     2.7648
 1877.0000     0.4694     3.1714
 1877.5000     0.4258     3.7362
 1878.0000     0.3930     5.0899
 1878.5000     0.3819     6.4435
 1879.0000     0.4249     7.8438
 1879.5000     0.4491    10.2940
 1880.0000     0.4892    12.5444
 1880.5000     0.5321    13.1186
 1881.0000     0.5553    13.8071
 1881.5000     0.5748    14.2252
 1882.0000     0.5854    14.2096
 1882.5000     0.5873    14.7028
 1883.0000     0.5891    15.0444
 1883.5000     0.5909    15.0292
 1884.0000     0.5928    15.1675
 1884.5000     0.5946    15.5975
 1885.0000     0.5965    15.8530
 1885.5000     0.5983    15.8560
 1886.0000     0.6001    15.8719
 1886.5000     0.6020    15.8877
 1887.0000     0.6038    15.9035
 1887.5000     0.6057    15.9194
 1888.0000     0.6075    15.9352
 1888.5000     0.6093    15.9510
 1889.0000     0.6112    15.9669
 1889.5000     0.6129    15.9827
 1890.0000     0.5484    15.9986
 1890.5000     0.4824    16.0144
 1891.0000     0.4857    16.0302
 1891.5000     0.4817    16.0461
 1892.0000     0.4813    16.0619
 1892.5000     0.4702    16.0777
 1893.0000     0.4510    16.0936
 1893.5000     0.4263    16.1094
 1894.0000     0.4043    16.1253
 1894.5000     0.4055    16.1411
 1895.0000     0.4145    16.1569
 1895.5000     0.4141    16.1728
 1896.0000     0.4138    16.1886
 1896.5000     0.4135    16.2044
 1897.0000     0.4131    16.2203
 1897.5000     0.4128    16.2361
 1898.0000     0.4126    16.2519
 1898.5000     0.4122    16.2678
 1899.0000     0.4263    16.2836
 1899.5000     0.4440    16.2995
 1900.0000     0.4703    16.3153
 1900.5000     0.4975    16.3467
 1901.0000     0.4972    16.3854
 1901.5000     0.4969    16.4242
 1902.0000     0.4965    16.4630
 1902.5000     0.4745    16.5017
 1903.0000     0.4525    16.5405
 1903.5000     0.4198    16.5793
 1904.0000     0.3870    16.6180
 1904.5000     0.3867    16.6568
 1905.0000     0.3864    16.6956
 1905.5000     0.3866    16.7343
 1906.0000     0.3883    16.7731
 1906.5000     0.3900    16.8119
 1907.0000     0.3917    16.8506
 1907.5000     0.3934    16.8894
 1908.0000     0.3951    16.9282
 1908.5000     0.3967    16.9669
 1909.0000     0.3984    17.0057
 1909.5000     0.4001    17.0445
 1910.0000     0.4018    17.0832
 1910.5000     0.4035    17.1220
 1911.0000     0.4257    17.1608
 1911.5000     0.4363    17.1995
 1912.0000     0.4468    17.2383
 1912.5000     0.4600    17.2771
 1913.0000     0.4678    17.3158
 1913.5000     0.4782    17.3546
 1914.0000     0.4779    17.3934
 1914.5000     0.4884    17.4322
 1915.0000     0.4881    17.4709
 1915.5000     0.5310    17.5097
 1916.0000     0.5741    17.5485
 1916.5000     0.5737    17.5872
 1917.0000     0.5625    17.6260
 1917.5000     0.5514    17.6648
 1918.0000     0.5186    17.7035
 1918.5000     0.5012    17.7423
 1919.0000     0.4855    17.7811
 1919.5000     0.4852    17.8198
 1920.0000     0.4848    17.8586
 1920.5000     0.4845    17.8974
 1921.0000     0.4842    17.9361
 1921.5000     0.4906    17.9749
 1922.0000     0.4944    18.0137
 1922.5000     0.4830    18.0524
 1923.0000     0.4559    18.0912
 1923.5000     0.4393    18.1300
 1924.0000     0.4389    18.1687
 1924.5000     0.4495    18.2075
 1925.0000     0.4383    18.2463
 1925.5000     0.4489    18.2850
 1926.0000     0.4485    18.3238
 1926.5000     0.4373    18.3626
 1927.0000     0.4370    18.4014
 1927.5000     0.4420    18.4401
 1928.0000     0.4472    18.4789
 1928.5000     0.4468    18.5177
 1929.0000     0.4465    18.5564
 1929.5000     0.4462    18.5952
 1930.0000     0.4350    18.6340
 1930.5000     0.4347    18.6727
 1931.0000     0.4344    18.7115
 1931.5000     0.4558    18.7503
 1932.0000     0.5203    18.7890
 1932.5000     0.5309    18.8278
 1933.0000     0.5197    18.8666
 1933.5000     0.4977    18.9053
 1934.0000     0.4757    18.9441
 1934.5000     0.4533    18.9829
 1935.0000     0.4209    19.0216
 1935.5000     0.4222    19.0604
 1936.0000     0.4238    19.0992
 1936.5000     0.4254    19.1379
 1937.0000     0.4270    19.1767
 1937.5000     0.4286    19.2155
 1938.0000     0.4302    19.2542
 1938.5000     0.4318    19.2930
 1939.0000     0.4333    19.3318
 1939.5000     0.4349    19.3706
 1940.0000     0.4365    19.4093
 1940.5000     0.4381    19.4481
 1941.0000     0.4245    19.4869
 1941.5000     0.3954    19.5256
 1942.0000     0.3732    19.5644
 1942.5000     0.3728    19.6032
 1943.0000     0.3725    19.6419
 1943.5000     0.3722    19.6807
 1944.0000     0.3719    19.7195
 1944.5000     0.3715    19.7582
 1945.0000     0.3712    19.7970
 1945.5000     0.3709    19.8358
 1946.0000     0.3706    19.8745
 1946.5000     0.3702    19.9133
 1947.0000     0.3699    19.9521
 1947.5000     0.3696    19.9908
 1948.0000     0.3693    20.0296
 1948.5000     0.3689    20.0684
 1949.0000     0.3924    20.1071
 1949.5000     0.4278    20.1459
 1950.0000     0.4546    20.1847
 1950.5000     0.4547    19.8533
 1951.0000     0.4547    19.4040
 1951.5000     0.4548    18.9547
 1952.0000     0.4549    18.5054
 1952.5000     0.4549    18.0560
 1953.0000     0.4550    17.6067
 1953.5000     0.4550    17.1574
 1954.0000     0.4551    16.6167
 1954.5000     0.4551    16.5995
 1955.0000     0.4552    16.5792
 1955.5000     0.4552    16.5626
 1956.0000     0.4553    16.5480
 1956.5000     0.4553    16.5296
 1957.0000     0.4554    16.5103
 1957.5000     0.4554    16.7123
 1958.0000     0.4555    17.3364
 1958.5000     0.4556    17.7522
 1959.0000     0.4556    18.2115
 1959.5000     0.4557    19.0038
 1960.0000     0.4557    18.9872
 1960.5000     0.4558    18.9693
 1961.0000     0.4558    18.9528
 1961.5000     0.4559    18.9296
 1962.0000     0.4559    18.9014
 1962.5000     0.4560    18.8732
 1963.0000     0.4560    18.8450
 1963.5000     0.4561    18.8167
 1964.0000     0.4561    18.7885
 1964.5000     0.4268    18.7603
 1965.0000     0.3815    18.7321
 1965.5000     0.3361    18.7039
 1966.0000     0.3070    18.6756
 1966.5000     0.3608    18.6474
 1967.0000     0.4147    18.6192
 1967.5000     0.4444    18.5910
 1968.0000     0.4792    18.5628
 1968.5000     0.4790    18.5346
 1969.0000     0.4788    18.5063
 1969.5000     0.4786    18.4781
 1970.0000     0.4675    18.4499
 1970.5000     0.3915    18.4217
 1971.0000     0.3697    18.3935
 1971.5000     0.3694    18.3652
 1972.0000     0.3693    18.3370
 1972.5000     0.3690    18.3088
 1973.0000     0.3709    18.2806
 1973.5000     0.4365    18.2524
 1974.0000     0.4772    18.2242
 1974.5000     0.4764    18.1959
 1975.0000     0.4654    18.1677
 1975.5000     0.4105    18.1395
 1976.0000     0.3891    18.1113
 1976.5000     0.3889    18.0831
 1977.0000     0.3780    18.0549
 1977.5000     0.3885    18.0266
 1978.0000     0.3883    17.9984
 1978.5000     0.3881    17.9702
 1979.0000     0.3879    17.9420
 1979.5000     0.3876    17.9138
 1980.0000     0.3874    17.8855
 1980.5000     0.3896    17.8573
 1981.0000     0.4087    17.8291
 1981.5000     0.4265    17.8009
 1982.0000     0.4583    17.7727
 1982.5000     0.4836    17.7445
 1983.0000     0.4826    17.7162
 1983.5000     0.4816    17.6880
 1984.0000     0.4807    17.6598
 1984.5000     0.4797    17.6316
 1985.0000     0.4787    17.6034
 1985.5000     0.4778    17.5751
