~VERSION INFORMATION
 VERS.                2.0:   CWLS LOG ASCII STANDARD - VERSION 2.0
 WRAP.                 NO:   ONE LINE PER DEPTH STEP
~WELL INFORMATION
#MNEM.UNIT      DATA TYPE    INFORMATION
#----------   ------------   ------------------------------
 STRT.F           20.0000:   START DEPTH
 STOP.F          508.0000:   STOP DEPTH
 STEP.F            0.5000:   STEP LENGTH
 NULL.          -999.2500:   NO VALUE
 COMP. FENIX & SCISSON INC:   COMPANY
 WELL.      NPR #3 #45-10:   WELL
 FLD .             TEAPOT:   FIELD
 LOC .      S10 T38N R78W:   LOCATION
 CNTY.            NATRONA:   COUNTY
 STAT.            WYOMING:   STATE
 CTRY. UNITED STATES OF AMERICA:   COUNTRY
 SRVC.              Welex:   SERVICE COMPANY
 DATE.        09-MAY-1980:   LOGDATE
 API .       490251081000:   API NUMBER
~CURVE INFORMATION
#MNEM.UNIT       API CODE    CURVE DESCRIPTION
#----------   ------------   ------------------------------
 DEPT.F                  :   
 SPR .MV     07 010 01 00:   SPONTANEOUS POTENTIAL
 SGRD.OHMM   07 220 05 00:   SHALLOW GUARD RESISTIVITY
 ILD .OHMM   07 120 46 00:   INDUCTION LOG DEEP RESISTIVITY
 ILM .OHMM   07 120 44 00:   INDUCTION LOG MEDIUM
 GRD .GAPI   45 310 01 00:   GAMMA RAY FROM DENSITY LOG
 CALD.IN     45 280 60 00:   CALIPER
 CORR.G/C3   45 356 01 00:   DENSITY CORRECTION
 RHOB.G/C3   45 350 01 00:   BULK DENSITY
 DPHI.DEC    45 890 12 00:   DENSITY POROSITY SANDSTONE
~PARAMETER INFORMATION
#MNEM.UNIT          VALUE    DESCRIPTION
#----------   ------------   ------------------------------
 PD  .                 GL:   PERMANENT DATUM
 EPD .F              5228:   ELEVATION PERMANENT DATUM
 LMF .                 KB:   LOG MEASURED FROM
 DAPD.F                 5:   FEET ABOVE PERMANENT DATUM
 DMF .                 KB:   DRILLING MEASURED FROM
 EKB .F              5233:   KELLING BUSHING
 EGL .F              5228:   GROUND LEVEL
 DATE.             5-9-80:   RUN DATE
 RUN .                  1:   RUN NUMBER
 DD  .F               507:   DEPTH DRILLER
 DL  .F               510:   DEPTH LOGGER
 BLI .F               508:   BOTTOM LOG INTERVAL
 TLI .F                20:   TOP LOG INTERVAL
 BS  .IN            7.875:   BIT SIZE
 BSD .F               507:   BIT SIZE AT DEPTH
 DFT .                KCL:   DRILLING FLUID TYPE
 DFD .                8.9:   DRILLING FLUID DENSITY
 DFV .                 42:   DRILLING FLUID VISCOSITY
 MSS .                PIT:   MUD SAMPLE SOURCE
 RMS .OHMM            .36:   RESISTIVITY MUD SAMPLE
 MST .F                75:   MUD SAMPLE TEMPERATURE
 RMF .OHMM            .29:   RESISTIVITY MUD FILTRATE SAMPLE
 MFST.F                75:   MUD FILTRATE SAMPLE TEMPERATURE
 RMC .OHMM            .43:   RESISTIVITY MUD CAKE
 MCST.F                75:   MUD CAKE SAMPLE TEMPERATURE
 MFSS.           MEASURED:   MUD FILTRATE SAMPLE SOURCE
 MCSS.           MEASURED:   MUD CAKE SAMPLE SOURCE
 TCS .HRS               2:   TIME CURCULATED STOPPED
 MRT .F               100:   MAXIMUM RECORDED TEMPERATURE
 LUN .               9685:   LOGGING UNIT NUMBER
 LUL .             CASPER:   LOGGING UNIT LOCATION
 ENGI.            TOTHILL:   RECORDING ENGINEER
 WITN.           DINSMORE:   WITNESSED BY
 CLNT.            A2DTECH:   CLIENT CODE
 ORIG.         2.5" PRINT:   ORIGIN OF DATA
 UWI .       490251081000:   UNIQUE WELL ID
 DICO. A2D Technologies, Inc.:   DIGITIZING COMPANY
~OTHER INFORMATION
~A   DEPT      SPR       SGRD        ILD        ILM         GRD        CALD       CORR       RHOB       DPHI 
# ...
   56.5000   -48.0858    10.4767     7.5451     8.0529   104.9538     7.8424     0.0356     2.4474     0.1378
   57.0000   -48.2983     8.9171     7.5339     7.9769   105.3444     7.8018     0.0275     2.4538     0.1386
   57.5000   -48.4900     8.9598     7.5072     7.9014   105.7155     7.7565     0.0298     2.4533     0.1337
   58.0000   -48.6768     9.1427     7.4806     7.8267   106.1249     7.7777     0.0325     2.4601     0.1296
   58.5000   -48.8721     9.3294     7.4542     7.7529   106.0556     7.8343     0.0381     2.4669     0.1258
   59.0000   -49.0665     9.4281     7.4278     7.6799   105.9706     7.8874     0.0315     2.4564     0.1309
   59.5000   -49.1979     9.0677     7.4016     7.6077   105.8625     7.9372     0.0199     2.4459     0.1386
   60.0000   -49.1959     8.9099     7.3754     7.5363   105.7656     7.9861     0.0248     2.4525     0.1350
   60.5000   -49.1982     8.9531     7.3493     7.4656   105.6730     7.9900     0.0300     2.4617     0.1282
   61.0000   -49.1975     9.0136     7.3234     7.4060   105.5659     7.9935     0.0232     2.4563     0.1310
   61.5000   -49.1971     9.0760     7.2975     7.4206   105.6773     7.9954     0.0119     2.4389     0.1366
   62.0000   -49.1972     8.7369     7.2718     7.4401   105.8798     7.9978     0.0106     2.4421     0.1418
   62.5000   -49.1967     8.2788     7.2461     7.4596   106.0432     8.0003     0.0246     2.4469     0.1384
   63.0000   -49.2008     8.4582     7.2205     7.4791   106.4951     8.0026     0.0351     2.4520     0.1330
   63.5000   -49.2186     8.7628     7.1950     7.4987   107.1604     8.0049     0.0325     2.4467     0.1353
   64.0000   -49.2362     9.2545     7.1696     7.5184   107.7823     8.0073     0.0261     2.4355     0.1420
   64.5000   -49.2542     9.1226     7.1443     7.5382   108.3822     8.0097     0.0196     2.4302     0.1456
   65.0000   -49.2721     8.9403     7.0938     7.5580   108.7879     8.0122     0.0242     2.4396     0.1434
   65.5000   -49.2900     9.0250     7.0313     7.5778   109.4561     8.0146     0.0287     2.4488     0.1381
   66.0000   -49.3079     9.0842     6.9694     7.5977   109.8109     8.0170     0.0337     2.4586     0.1328
   66.5000   -49.3259     8.7765     6.9082     7.6175   109.7747     8.0195     0.0387     2.4688     0.1282
   67.0000   -49.3438     8.4339     6.8471     7.6372   109.7825     8.0218     0.0432     2.4775     0.1137
   67.5000   -49.3617     8.5073     6.7867     7.6563   109.6092     8.0242     0.0466     2.4847     0.1164
   68.0000   -49.3796     8.6421     6.7172     7.6879   109.3404     8.0272     0.0379     2.4662     0.1211
   68.5000   -49.3974     8.7791     6.6325     7.6831   109.0794     8.0215     0.0307     2.4659     0.1266
   69.0000   -49.4154     8.9182     6.5489     7.5826   108.8220     8.0022     0.0227     2.4629     0.1288
   69.5000   -49.4332     9.0842     6.4664     7.4995   108.5620     7.9828     0.0147     2.4542     0.1315
   70.0000   -49.4511     8.7569     6.3848     7.4179   108.2965     7.9649     0.0106     2.4502     0.1342
   70.5000   -49.4691     8.3766     6.3043     7.3370   108.0387     7.9500     0.0106     2.4486     0.1370
   71.0000   -49.4872     8.0129     6.2248     7.2560   107.3542     7.9773    -0.0008     2.4422     0.1331
   71.5000   -49.5055     7.6650     6.1463     7.1759   106.4818     8.0015    -0.0135     2.4357     0.1539
   72.0000   -49.5232     7.3322     6.0687     7.0046   105.5767     8.0282    -0.0254     2.4188     0.1597
   72.5000   -49.5413     7.0138     5.9921     7.0624   104.9211     8.0553    -0.0358     2.3960     0.1660
   73.0000   -49.5607     6.7492     5.9266     7.1152   103.8999     8.0785    -0.0188     2.4112     0.1581
   73.5000   -49.5749     6.7492     5.9711     7.1683   102.6146     8.1051    -0.0027     2.4310     0.1462
   74.0000   -49.5930     6.9846     6.0317     7.2219   101.4029     8.0452     0.0149     2.4485     0.1344
   74.5000   -49.4333     7.4242     6.0930     7.2759   100.1820     8.0677     0.0316     2.4728     0.1225
   75.0000   -49.2116     7.8961     6.1549     7.3303   100.5266     8.2180     0.0487     2.4835     0.1153
   75.5000   -48.9925     8.5896     6.2174     7.3851   100.9121     8.1790     0.0570     2.4778     0.1166
   76.0000   -48.7739     8.4960     6.2869     7.4059   101.3622     8.1224     0.0446     2.4547     0.1260
   76.5000   -48.5514     8.2757     6.3788     7.3816   101.7851     8.0580     0.0292     2.4410     0.1402
   77.0000   -48.3937     8.3644     6.4721     7.3269   102.0513     7.9987     0.0226     2.4455     0.1365
   77.5000   -48.3950     8.8458     6.5667     7.2725   102.2403     7.9496     0.0420     2.4635     0.1275
   78.0000   -48.3923     8.8257     6.6627     7.2185   102.4372     7.9538     0.0691     2.4794     0.1158
   78.5000   -48.3934     8.5189     6.7492     7.1650   102.6674     7.9575     0.0737     2.4945     0.1056
   79.0000   -48.3926     8.2228     6.7307     7.1118   103.2812     7.9627     0.0716     2.4854     0.1137
   79.5000   -48.3961     7.9769     6.7140     7.0591   103.9058     7.9672     0.0720     2.4859     0.1145
   80.0000   -48.3919     8.0578     6.6973     7.0046   104.5351     7.9727     0.0831     2.4929     0.1080
   80.5000   -48.3802     8.1671     6.6807     7.0046   105.3822     7.9765     0.0860     2.4946     0.1059
   81.0000   -48.2038     8.2788     6.6642     7.0768   106.6911     7.9800     0.0856     2.4982     0.1044
   81.5000   -48.0559     8.2270     6.6476     7.1389   107.4225     7.9920     0.0926     2.5128     0.0982
   82.0000   -47.8894     8.1412     6.6311     7.2015   107.3537     7.9299     0.1001     2.5213     0.0919
   82.5000   -47.7389     8.0563     6.6249     7.2647   107.3611     7.8159     0.0918     2.5138     0.0991
   83.0000   -47.5992     7.9769     6.6500     7.3284   107.3694     7.7382     0.0769     2.4931     0.1064
   83.5000   -47.5696     8.2446     6.6800     7.3927   107.3638     7.7205     0.0622     2.4805     0.1127
   84.0000   -47.8156     8.7012     6.7103     7.4575   107.3681     7.7993     0.0508     2.4716     0.1186
   84.5000   -48.3488     9.1831     6.7406     7.5230   107.2541     7.9746     0.0416     2.4629     0.1244
   85.0000   -48.8538     9.4279     6.7707     7.5890   106.7290     7.9830     0.0327     2.4544     0.1303
   85.5000   -49.3836     8.9171     6.8012     7.6555   106.2153     7.9845     0.0236     2.4463     0.1362
   86.0000   -49.6152     8.9171     6.8319     7.8302   105.7050     7.9776     0.0282     2.4514     0.1347
   86.5000   -49.6067     8.9171     6.8758     7.8014   105.1494     7.9753     0.0336     2.4512     0.1338
   87.0000   -49.5971     8.7179     6.8419     7.7634   104.8748     7.9724     0.0345     2.4520     0.1324
   87.5000   -49.5674     8.3819     6.7835     7.7256   104.3180     7.9686     0.0430     2.4701     0.1209
   88.0000   -49.4077     8.1264     6.7256     7.6880   103.8306     7.9653     0.0523     2.4806     0.1160
   88.5000   -48.4883     8.1628     6.6682     7.6506   103.2537     7.9618     0.0617     2.4820     0.1192
   89.0000   -47.7663     8.2488     6.6251     7.6133   103.3852     7.9585     0.0707     2.4883     0.1106
   89.5000   -47.2120     8.3357     6.4953     7.5763   103.8929     7.9551     0.0600     2.4817     0.1138
   90.0000   -47.4587     8.4324     6.5101     7.5393   104.3549     7.9518     0.0492     2.4696     0.1195
   90.5000   -47.6587     8.4004     6.4985     7.5025   104.8037     7.9485     0.0379     2.4590     0.1251
   91.0000   -47.9141     8.3645     6.5036     7.4659   105.2735     7.9508     0.0264     2.4499     0.1346
   91.5000   -48.1408     8.3288     6.5026     7.4295   105.7293     7.9548     0.0291     2.4534     0.1326
   92.0000   -48.3766     8.2931     6.5028     7.3901   106.1392     7.9587     0.0384     2.4651     0.1261
   92.5000   -48.3912     8.2770     6.5032     7.3449   106.2465     7.9626     0.0482     2.4774     0.1169
