~VERSION INFORMATION
 VERS.                2.0:   CWLS LOG ASCII STANDARD - VERSION 2.0
 WRAP.                 NO:   ONE LINE PER DEPTH STEP
~WELL INFORMATION
#MNEM.UNIT      DATA TYPE    INFORMATION
#----------   ------------   ------------------------------
 STRT.F            0.0000:   START DEPTH
 STOP.F          464.0000:   STOP DEPTH
 STEP.F            0.5000:   STEP LENGTH
 NULL.          -999.2500:   NO VALUE
 COMP. BROWN JOHN E&C INC:   COMPANY
 WELL. NPR 3 SX-10 #64-3-10:   WELL
 FLD .             TEAPOT:   FIELD
 LOC .      S10 T38N R78W:   LOCATION
 CNTY.            NATRONA:   COUNTY
 STAT.            WYOMING:   STATE
 CTRY. UNITED STATES OF AMERICA:   COUNTRY
 SRVC.     Atlas Wireline:   SERVICE COMPANY
 DATE.        14-MAY-1991:   LOGDATE
 API .       490251133800:   API NUMBER
~CURVE INFORMATION
#MNEM.UNIT       API CODE    CURVE DESCRIPTION
#----------   ------------   ------------------------------
 DEPT.F                  :   
 RILD.OHMM   07 120 46 00:   INDUCTION LOG DEEP RESISTIVITY
 RILM.OHMM   07 120 44 00:   INDUCTION LOG MEDIUM RESISTIVITY
 GRR .GAPI   07 310 01 00:   GAMMA RAY
~PARAMETER INFORMATION
#MNEM.UNIT          VALUE    DESCRIPTION
#----------   ------------   ------------------------------
 PD  .                 GL:   PERMANENT DATUM
 EPD .F              5182:   ELEVATION PERMANENT DATUM
 LMF .                 KB:   LOG MEASURED FROM
 DAPD.F                 5:   FEET ABOVE PERMANENT DATUM
 DMF .                 KB:   DRILLING MEASURED FROM
 EKB .F              5187:   KELLING BUSHING
 EGL .F              5182:   GROUND LEVEL
 DATE.        01-MAY-1991:   RUN DATE
 RUN .                  1:   RUN NUMBER
 DD  .F               470:   DEPTH DRILLER
 DL  .F               470:   DEPTH LOGGER
 BLI .F               468:   BOTTOM LOG INTERVAL
 CS  .IN            8.625:   CASING SIZE
 CBD .F                45:   CASING BOTTOM DRILLER
 CBL .F                45:   CASING BOTTOM LOGGER
 BS  .IN            7.875:   BIT SIZE
 BSD .F               470:   BIT SIZE AT DEPTH
 DFT .                AIR:   DRILLING FLUID TYPE
 LUN .           HL- 6272:   LOGGING UNIT NUMBER
 LUL .             CASPER:   LOGGING UNIT LOCATION
 ENGI.             KINNET:   RECORDING ENGINEER
 WITN.             STRONG:   WITNESSED BY
 CLNT.            A2DTECH:   CLIENT CODE
 ORIG.           5" PRINT:   ORIGIN OF DATA
 UWI .       490251133800:   UNIQUE WELL ID
 DICO. A2D Technologies, Inc.:   DIGITIZING COMPANY
~OTHER INFORMATION
~A    DEPT    RILD       RILM         GRR  
# ...
   91.0000     8.9862     9.7119   114.3587
   91.5000     8.9869     9.7796   116.6292
   92.0000     8.9252     9.7796   121.6270
   92.5000     8.9259     9.9164   124.1247
   93.0000     8.9888     9.9164   123.4407
   93.5000     8.9894     9.9164   117.5293
   94.0000     9.0527     9.9164   112.5271
   94.5000     9.0560     9.7119   109.5703
   95.0000     9.1170     9.4985   107.9771
   95.5000     8.9296     9.1037   108.8840
   96.0000     8.6857     8.8120   110.0727
   96.5000     8.4483     8.6302   107.7288
   97.0000     8.2173     8.5112   108.8773
   97.5000     7.9927     8.3938   116.2841
   98.0000     7.8830     8.2780   126.3151
   98.5000     7.7209     8.1638   127.7342
   99.0000     7.6679     8.1638   124.0950
   99.5000     7.6153     8.1638   117.5019
  100.0000     7.6160     8.1005   114.7729
  100.5000     7.6166     8.0518   115.0047
  101.0000     7.7236     8.1084   116.6424
  101.5000     7.9418     8.1090   120.0144
  102.0000     7.9423     8.1660   120.4722
  102.5000     7.9428     8.2235   119.1128
  103.0000     7.9435     8.2242   120.2546
  103.5000     7.9440     8.2247   121.8498
  104.0000     7.9445     8.2253   118.9007
  104.5000     7.9450     8.2258   117.9948
  105.0000     8.0065     8.2837   118.9093
  105.5000     8.1135     8.4588   120.0500
  106.0000     8.2849     8.6375   121.6463
  106.5000     8.4014     8.8200   122.5597
  107.0000     8.5195     8.9439   122.7902
  107.5000     8.5200     9.1329   118.2501
  108.0000     8.5207     9.1973   117.1181
  108.5000     8.5807     9.1979   119.8508
  109.0000     8.5812     9.0714   127.3551
  109.5000     8.5818     8.9470   126.2230
  110.0000     8.5825     8.8243   121.0001
  110.5000     8.5237     8.7637   120.7771
  111.0000     8.4652     8.7036   124.1916
  111.5000     8.3490     8.7043   128.0596
  112.0000     8.2344     8.7656   130.5639
  112.5000     8.1779     8.8274   131.0227
  113.0000     8.1786     8.8280   129.4372
  113.5000     8.1791     8.8901   126.4870
  114.0000     8.2367     8.8907   123.3095
  114.5000     8.2998     8.8297   121.4956
  115.0000     8.4114     8.8920   121.0454
  115.5000     8.4119     8.8926   121.9599
  116.0000     8.4125     8.8932   124.6915
  116.5000     8.4130     8.8322   126.5140
  117.0000     8.4055     8.7716   126.9728
  117.5000     8.3559     8.7115   127.4621
  118.0000     8.2986     8.6518   129.2552
  118.5000     8.2417     8.5924   132.8959
  119.0000     8.1287     8.5337   133.8093
  119.5000     7.9616     8.5344   131.7682
  120.0000     7.9070     8.4757   124.9554
  120.5000     7.8528     8.4764   125.1870
  121.0000     7.8534     8.3022   126.5550
  121.5000     7.8539     8.1298   127.4684
  122.0000     7.8002     7.9093   128.1667
  122.5000     7.7466     7.8550   130.8872
  123.0000     7.4828     7.8556   130.4369
  123.5000     7.2279     7.6409   127.4867
  124.0000     6.9333     7.4797   124.9910
  124.5000     6.7909     7.2288   124.0862
  125.0000     6.6975     6.9826   126.1371
  125.5000     6.5598     6.9347   124.7778
  126.0000     6.4699     6.8872   124.0992
  126.5000     6.4703     6.8877   126.6046
  127.0000     6.4708     6.8882   132.9736
  127.5000     6.5164     6.9367   132.0688
  128.0000     6.5622     7.0342   123.4368
  128.5000     6.6544     7.1331   117.5309
  129.0000     6.8902     7.3858   120.0545
  129.5000     7.0848     7.5944   122.3144
  130.0000     7.2344     7.7548   124.8188
  130.5000     7.4387     7.8638   127.3231
  131.0000     7.6488     7.9754   127.5547
  131.5000     7.7564     8.0865   128.9712
  132.0000     7.8655     8.1434   130.7462
  132.5000     7.9208     8.0876   128.4778
  133.0000     7.9213     8.0881   126.6628
  133.5000     7.9219     7.9219   128.0319
  134.0000     7.8677     7.8675   132.5827
  134.5000     7.7596     7.8136   133.2678
  135.0000     7.6531     7.7064   123.9550
  135.5000     7.3924     7.6536   118.9593
  136.0000     7.1843     7.5485   119.2030
  136.5000     6.9453     7.2915   122.8326
  137.0000     6.7088     6.9459   124.8824
  137.5000     6.3466     6.3027   125.3413
  138.0000     5.9211     5.6401   123.5274
  138.5000     5.3357     5.2987   124.5046
  139.0000     5.0828     5.1182   127.8553
  139.5000     5.0479     5.0479   126.9505
  140.0000     5.1189     5.1189   115.8185
  140.5000     5.1912     5.2639   114.0045
  141.0000     5.3375     5.5647   118.1009
  141.5000     5.5650     5.9653   124.9234
  142.0000     5.8834     6.3948   127.6550
  142.5000     6.1770     6.8553   125.1582
  143.0000     6.6272     7.2003   126.0818
  143.5000     6.9522     7.6622   128.1236
  144.0000     7.1983     7.9888   129.7188
  144.5000     7.4532     8.1011   131.3140
  145.0000     7.6107     8.2150   132.4547
  145.5000     7.6642     8.3304   131.9500
  146.0000     7.7721     8.3892   128.6008
  146.5000     7.8813     8.4482   126.3323
  147.0000     7.9921     8.5670   124.2912
  147.5000     8.1044     8.6874   124.0682
  148.0000     8.2185     8.8710   124.9818
  148.5000     8.2190     8.9957   125.8961
  149.0000     8.2196     8.9340   126.8096
  149.5000     8.2201     8.8726   133.4048
  150.0000     8.2205     8.8120   132.7273
  150.5000     8.2207     8.8741   129.5429
  151.0000     8.2780     8.9365   129.3134
  151.5000     8.4523     9.0621   131.8113
  152.0000     8.5112     9.1895   132.2636
  152.5000     8.5765     9.3263   127.4508
  153.0000     8.6302     9.5155   127.2587
  153.5000     8.6302     9.3201   128.6202
  154.0000     8.6302     9.1920   134.5271
  154.5000     8.5112     9.0032   134.9800
  155.0000     8.3938     8.8181   131.5682
  155.5000     8.2780     8.8187   129.8992
  156.0000     8.2207     8.6976   128.1542
  156.5000     8.1638     8.5189   127.2429
  157.0000     8.1638     8.4018   125.1953
  157.5000     8.1638     8.4025   124.5113
  158.0000     8.1638     8.4031   124.2818
  158.5000     8.1638     8.3455   125.7568
  159.0000     8.1072     8.2222   127.4587
  159.5000     7.9954     7.9506   124.9565
  160.0000     7.7225     7.6266   123.8180
  160.5000     7.3560     7.2651   122.9067
  161.0000     6.9584     6.8729   121.7682
  161.5000     6.3576     6.4121   122.2962
  162.0000     5.7264     5.8440   128.1269
  162.5000     5.2463     5.2431   128.8071
  163.0000     4.7161     4.8577   127.2135
  163.5000     4.3996     4.2871   126.3022
  164.0000     3.9919     3.8364   127.2091
  164.5000     3.4742     3.4331   125.3882
  165.0000     3.0236     3.0265   125.1587
  165.5000     2.8173     2.8663   125.1565
  166.0000     2.6682     2.8665   124.2453
  166.5000     2.6314     2.8867   119.4704
  167.0000     2.6314     2.9273   116.0591
  167.5000     2.6682     2.9891   119.0109
  168.0000     2.7817     3.0949   124.0087
  168.5000     3.1746     3.3531   133.5520
  169.0000     3.5102     3.8928   136.5049
  169.5000     4.1044     4.3507   136.7295
  170.0000     4.4303     4.7954   129.6818
  170.5000     4.7161     5.1765   122.6336
  171.0000     5.1977     5.6268   121.7229
  171.5000     5.7285     5.9961   127.4020
  172.0000     6.1083     6.2456   138.7634
  172.5000     6.4019     6.3776   140.2008
  173.0000     6.5367     6.4672   137.1682
  173.5000     6.5823     6.5127   135.5371
  174.0000     6.4465     6.4233   135.1178
  174.5000     6.1406     6.2468   135.1156
  175.0000     5.7685     5.9793   134.8862
  175.5000     5.5213     5.5914   135.1114
  176.0000     5.2704     5.3264   144.6545
  176.5000     5.0553     5.1093   148.0615
  177.0000     4.9855     5.0391   146.9224
  177.5000     4.9855     5.0746   142.6020
  178.0000     5.0553     5.2257   138.7362
  178.5000     5.1312     5.5166   136.4613
  179.0000     5.3071     5.8322   137.3682
  179.5000     5.5330     6.1658   140.3584
  180.0000     5.8087     6.4287   145.5451
  180.5000     6.1406     6.7027   146.2253
  181.0000     6.4465     7.0394   142.5862
  181.5000     6.7209     7.4917   138.0385
