~VERSION INFORMATION
 VERS.                2.0:   CWLS LOG ASCII STANDARD - VERSION 2.0
 WRAP.                 NO:   ONE LINE PER DEPTH STEP
~WELL INFORMATION
#MNEM.UNIT      DATA TYPE    INFORMATION
#----------   ------------   ------------------------------
 STRT.F           19.0000:   START DEPTH
 STOP.F          600.0000:   STOP DEPTH
 STEP.F            0.5000:   STEP LENGTH
 NULL.          -999.2500:   NO VALUE
 COMP. FENIX & SCISSON INC:   COMPANY
 WELL.       NPR-3 #18-34:   WELL
 FLD .             TEAPOT:   FIELD
 LOC .      S34 T39N R78W:   LOCATION
 CNTY.            NATRONA:   COUNTY
 STAT.            WYOMING:   STATE
 CTRY. UNITED STATES OF AMERICA:   COUNTRY
 SRVC.           BIRDWELL:   SERVICE COMPANY
 DATE.        10-AUG-1978:   LOGDATE
 API .       490251068100:   API NUMBER
~CURVE INFORMATION
#MNEM.UNIT       API CODE    CURVE DESCRIPTION
#----------   ------------   ------------------------------
 DEPT.F                  :   
 SPR .MV     05 010 01 00:   SPONTANEOUS POTENTIAL FROM RES.
 SN  .OHMM   05 040 16 00:   SHORT NORMAL 16"
 ILD .OHMM   05 120 46 00:   INDUCTION LOG DEEP
 GRD .GAPI   45 310 01 00:   GAMMA RAY FROM DENSITY LOG
 CALD.IN     45 280 60 00:   CALIPER
 CORR.G/C3   45 356 01 00:   DENSITY CORRECTION
 DPHI.DEC    45 890 12 00:   DENSITY POROSITY SANDSTONE
 DEN .G/C3   45 350 01 00:   COMPENSATED BULK DENSTIY
~PARAMETER INFORMATION
#MNEM.UNIT          VALUE    DESCRIPTION
#----------   ------------   ------------------------------
 PD  .                 GL:   PERMANENT DATUM
 EPD .F              5159:   ELEVATION PERMANENT DATUM
 LMF .                 KB:   LOG MEASURED FROM
 DAPD.F                 4:   FEET ABOVE PERMANENT DATUM
 DMF .                 KB:   DRILLING MEASURED FROM
 EKB .F              5163:   KELLING BUSHING
 EGL .F              5159:   GROUND LEVEL
 DATE.            8-10-78:   RUN DATE
 RUN .                  1:   RUN NUMBER
 DD  .F               605:   DEPTH DRILLER
 DL  .F               606:   DEPTH LOGGER
 BLI .F               600:   BOTTOM LOG INTERVAL
 TLI .F                35:   TOP LOG INTERVAL
 CS  .IN            8.625:   CASING SIZE
 CBD .F                40:   CASING BOTTOM DRILLER
 BS  .IN            7.875:   BIT SIZE
 BSD .F               605:   BIT SIZE AT DEPTH
 DFT .                KCL:   DRILLING FLUID TYPE
 DFD .                8.7:   DRILLING FLUID DENSITY
 DFV .                 33:   DRILLING FLUID VISCOSITY
 DFPH.                  9:   DRILLING FLUID PH
 MSS .          FLOW LINE:   MUD SAMPLE SOURCE
 RMS .OHMM            .14:   RESISTIVITY MUD SAMPLE
 MST .F                88:   MUD SAMPLE TEMPERATURE
 MFSS.               MEAS:   MUD FILTRATE SAMPLE SOURCE
 MCSS.               MEAS:   MUD CAKE SAMPLE SOURCE
 TCS .HRS               1:   TIME CURCULATED STOPPED
 LUN .               3006:   LOGGING UNIT NUMBER
 LUL .               CASP:   LOGGING UNIT LOCATION
 ENGI.             MILLER:   RECORDING ENGINEER
 WITN.           MCGINLEY:   WITNESSED BY
 CLNT.            A2DTECH:   CLIENT CODE
 ORIG.           5" PRINT:   ORIGIN OF DATA
 UWI .       490251068100:   UNIQUE WELL ID
 DICO. A2D Technologies, Inc.:   DIGITIZING COMPANY
~OTHER INFORMATION
~A   DEPT      SPR         SN        ILD         GRD      CALD       CORR       DPHI        DEN   
# ...
   59.5000   -39.4440     5.5444     5.3162   106.4298     8.2604     0.0349     0.1604     2.4167
   60.0000   -39.4096     5.5273     5.3162   104.6142     8.2285     0.0349     0.1512     2.4238
   60.5000   -39.3753     5.5155     5.3157   100.1191     8.1950     0.0349     0.1514     2.4309
   61.0000   -39.3410     5.5447     5.3284    98.3836     8.1620     0.0324     0.1512     2.4308
   61.5000   -39.3066     5.5673     5.3518    97.2440     8.1460     0.0297     0.1476     2.4307
   62.0000   -39.2723     5.5899     5.3758    96.1441     8.1307     0.0289     0.1476     2.4355
   62.5000   -39.2379     5.6127     5.3997    93.4272     8.1154     0.0293     0.1458     2.4387
   63.0000   -39.2036     5.6355     5.4238    89.7218     8.1001     0.0333     0.1430     2.4387
   63.5000   -39.1692     5.6584     5.4488    87.6053     8.0857     0.0367     0.1426     2.4388
   64.0000   -39.1347     5.6701     5.4819    91.2112     8.0278     0.0361     0.1430     2.4388
   64.5000   -39.1008     5.6392     5.5479    94.9130     7.9611     0.0353     0.1432     2.4388
   65.0000   -39.0874     5.6187     5.6092    97.0554     7.8945     0.0346     0.1430     2.4388
   65.5000   -39.0750     5.5983     5.6725    92.9678     7.8414     0.0338     0.1429     2.4387
   66.0000   -39.0624     5.5780     5.7365    92.0612     7.8424     0.0331     0.1442     2.4383
   66.5000   -39.0498     5.5578     5.8012    91.7971     7.8414     0.0338     0.1481     2.4367
   67.0000   -39.0372     5.5376     5.8667    91.6767     7.8823     0.0350     0.1457     2.4352
   67.5000   -39.0246     5.5156     5.9329    91.5327     7.9727     0.0362     0.1464     2.4339
   68.0000   -39.0120     5.4250     5.9998    89.9718     8.0625     0.0375     0.1461     2.4346
   68.5000   -38.9993     5.3162     6.0471    86.5000     8.1527     0.0387     0.1469     2.4343
   69.0000   -38.9867     5.3162     6.0246    83.8746     8.2556     0.0400     0.1474     2.4336
   69.5000   -38.9741     5.3162     6.0073    84.7663     8.3770     0.0435     0.1479     2.4330
   70.0000   -38.9615     5.2494     5.9900    88.6592     8.4979     0.0528     0.1506     2.4322
   70.5000   -38.9489     5.1894     5.9728    93.7177     8.6203     0.0619     0.1532     2.4314
   71.0000   -38.9363     5.1241     5.9557    98.7775     8.6543     0.0731     0.1460     2.4324
   71.5000   -38.9233     5.1507     5.9386    99.4446     8.6432     0.0848     0.1459     2.4369
   72.0000   -38.9106     5.1804     5.9215    94.0653     8.8065     0.1107     0.1369     2.4421
   72.5000   -38.9236     5.2103     5.9045    92.9466     8.9769     0.1444     0.1186     2.4666
   73.0000   -39.1230     5.3135     5.8825    93.9765     8.6465     0.1800     0.1022     2.4916
   73.5000   -39.3228     5.4650     5.9194    93.1697     8.5789     0.1728     0.1135     2.4983
   74.0000   -39.5052     5.4650     5.9726    91.8727     8.4103     0.1455     0.1261     2.4762
   74.5000   -39.5009     5.4650     6.0263    90.6802     8.2192     0.1183     0.1349     2.4536
   75.0000   -39.5000     5.5613     6.0805    91.4377     8.1515     0.1056     0.1393     2.4498
   75.5000   -39.5000     5.6502     6.1351    94.9812     8.0830     0.0906     0.1541     2.4337
   76.0000   -39.4997     5.7405     6.1902    94.5124     7.8802     0.0632     0.1604     2.4179
   76.5000   -39.5003     5.8323     6.2458    91.9702     7.6775     0.0390     0.1602     2.4169
   77.0000   -39.5243     5.9256     6.2738    92.8594     7.6830     0.0367     0.1594     2.4182
   77.5000   -39.6280     6.0083     6.2512    92.0743     7.7361     0.0345     0.1526     2.4193
   78.0000   -39.7279     6.0638     6.2307    89.8929     7.9110     0.0321     0.1465     2.4291
   78.5000   -39.8269     6.1623     6.2164    91.4712     8.0839     0.0296     0.1524     2.4313
   79.0000   -39.8948     6.3640     6.0732    94.1138     8.2579     0.0298     0.1474     2.4318
   79.5000   -39.8630     6.5090     5.9466    97.3296     8.4320     0.0382     0.1422     2.4412
   80.0000   -39.8335     6.4721     5.8641    97.4498     8.4600     0.0468     0.1390     2.4509
   80.5000   -39.8042     6.4438     5.8320    97.2898     8.4840     0.0565     0.1356     2.4550
   81.0000   -39.7749     6.4156     5.7985    96.6020     8.5199     0.0694     0.1321     2.4555
   81.5000   -39.7457     6.3904     5.7653    94.0567     8.5776     0.0977     0.1289     2.4698
   82.0000   -39.7164     6.2986     5.7322    95.7302     8.5723     0.1431     0.1174     2.4884
   82.5000   -39.6871     6.2741     5.7223    95.5724     8.5421     0.1563     0.1057     2.5014
   83.0000   -39.6578     6.2741     5.8067    92.2077     8.4246     0.1411     0.1010     2.4951
   83.5000   -39.6285     6.2410     5.8636    91.5456     8.3046     0.1076     0.1240     2.4761
   84.0000   -39.5992     6.2162     5.9212    96.5813     8.2811     0.0848     0.1332     2.4571
   84.5000   -39.5699     6.2673     5.9793    96.8973     8.2812     0.0729     0.1330     2.4533
   85.0000   -39.5406     6.3067     6.0383    96.6637     8.2779     0.0589     0.1391     2.4546
   85.5000   -39.5113     6.3464     6.1022    96.2749     8.1791     0.0388     0.1574     2.4390
   86.0000   -39.4820     6.3864     6.1307    94.4984     8.0729     0.0301     0.1471     2.4262
   86.5000   -39.4527     6.4265     6.1605    92.7389     7.9674     0.0326     0.1359     2.4458
   87.0000   -39.4234     6.4670     6.1909    92.8426     7.8791     0.0344     0.1277     2.4618
   87.5000   -39.3941     6.5079     6.2215    93.6052     7.8737     0.0300     0.1286     2.4605
   88.0000   -39.3648     6.5486     6.2522    96.6299     7.8664     0.0267     0.1304     2.4594
   88.5000   -39.3354     6.5695     6.2798   102.8915     7.8368     0.0264     0.1323     2.4583
   89.0000   -39.3054     6.5251     6.2998   104.8039     7.7721     0.0260     0.1331     2.4550
   89.5000   -39.3078     6.4956     6.3198   103.3483     7.7073     0.0256     0.1373     2.4454
   90.0000   -39.3175     6.4663     6.3399   102.4015     7.6807     0.0252     0.1528     2.4401
   90.5000   -39.3275     6.4372     6.3600   106.5202     7.6729     0.0249     0.1538     2.4227
   91.0000   -39.3373     6.4083     6.3802   107.8750     7.6672     0.0265     0.1548     2.4214
   91.5000   -39.3472     6.3794     6.4109   102.8918     7.6371     0.0363     0.1576     2.4201
   92.0000   -39.3571     6.3507     6.4522    99.5885     7.6226     0.0494     0.1533     2.4191
   92.5000   -39.3669     6.3221     6.4938    99.6380     7.6358     0.0589     0.1391     2.4353
   93.0000   -39.3768     6.2937     6.5356    99.5582     7.8112     0.0521     0.1358     2.4516
   93.5000   -39.3867     6.2511     6.5777   103.4562     8.0111     0.0362     0.1391     2.4509
   94.0000   -39.3965     6.1759     6.6200   107.9359     8.2122     0.0206     0.1412     2.4430
   94.5000   -39.4064     6.1016     6.6627   110.4156     8.4127     0.0173     0.1448     2.4402
   95.0000   -39.4162     6.0281     6.7058   110.5116     8.4501     0.0192     0.1506     2.4333
   95.5000   -39.4261     5.9917     6.7532   111.8081     8.4641     0.0279     0.1540     2.4285
   96.0000   -39.4360     6.0060     6.7102   112.0874     8.4765     0.0420     0.1480     2.4280
   96.5000   -39.4458     6.0155     6.6629   113.1844     8.5478     0.0569     0.1375     2.4330
   97.0000   -39.4557     6.0251     6.6159   112.8083     8.6185     0.0786     0.1259     2.4669
   97.5000   -39.4655     6.0346     6.5696   111.0887     8.6203     0.1169     0.1196     2.4794
   98.0000   -39.4754     6.0471     6.5218   113.0434     8.6007     0.1365     0.1181     2.4799
   98.5000   -39.4852     6.0228     6.4616   115.7127     8.5726     0.1421     0.1173     2.4788
   99.0000   -39.4952     5.9883     6.3926   111.1700     8.5011     0.1410     0.1201     2.4778
   99.5000   -39.4850     5.9540     6.3318   107.6876     8.3810     0.1298     0.1237     2.4766
