~VERSION INFORMATION
 VERS.                2.0:   CWLS LOG ASCII STANDARD - VERSION 2.0
 WRAP.                 NO:   ONE LINE PER DEPTH STEP
~WELL INFORMATION
#MNEM.UNIT      DATA TYPE    INFORMATION
#----------   ------------   ------------------------------
 STRT.F            2.0000:   START DEPTH
 STOP.F          560.0000:   STOP DEPTH
 STEP.F            0.1000:   STEP LENGTH
 NULL.          -999.2500:   NO VALUE
 COMP.       F D SERV INC:   COMPANY
 WELL. NAVAL PETROLEUM RESERVE 3 SX-3 #88-3:   WELL
 FLD .             NPR #3:   FIELD
 LOC .       S3 T38N R78W:   LOCATION
 CNTY.            NATRONA:   COUNTY
 STAT.            WYOMING:   STATE
 CTRY. UNITED STATES OF AMERICA:   COUNTRY
 SRVC.      Western Atlas:   SERVICE COMPANY
 DATE.        30-OCT-1992:   LOGDATE
 API .       490252254900:   API NUMBER
~CURVE INFORMATION
#MNEM.UNIT       API CODE    CURVE DESCRIPTION
#----------   ------------   ------------------------------
 DEPT.F                  :   
 GRR .GAPI   07 310 01 00:   GAMMA RAY
 RILD.OHMM   07 120 46 00:   INDUCTION LOG DEEP RESISTIVITY
 RILM.OHMM   07 120 44 00:   INDUCTION LOG MEDIUM RESISTIVITY
~PARAMETER INFORMATION
#MNEM.UNIT          VALUE    DESCRIPTION
#----------   ------------   ------------------------------
 PD  .                 GL:   PERMANENT DATUM
 EPD .F              5131:   ELEVATION PERMANENT DATUM
 LMF .                 KB:   LOG MEASURED FROM
 DAPD.F                10:   FEET ABOVE PERMANENT DATUM
 DMF .                 KB:   DRILLING MEASURED FROM
 EKB .F              5141:   KELLING BUSHING
 EDF .F              5140:   DRILLING FLOOR
 EGL .F              5131:   GROUND LEVEL
 DATE.        30-OCT-1992:   RUN DATE
 RUN .                  1:   RUN NUMBER
 DD  .F               568:   DEPTH DRILLER
 DL  .F               568:   DEPTH LOGGER
 BLI .F               560:   BOTTOM LOG INTERVAL
 CS  .IN            8.625:   CASING SIZE
 CBD .F                73:   CASING BOTTOM DRILLER
 CBL .F                73:   CASING BOTTOM LOGGER
 BS  .IN            7.875:   BIT SIZE
 BSD .F               568:   BIT SIZE AT DEPTH
 DFT .           AIR FOAM:   DRILLING FLUID TYPE
 BHT .F                63:   BOTTOM HOLE TEMPERATURE
 TCS .HRS               2:   TIME CURCULATED STOPPED
 MRT .F                63:   MAXIMUM RECORDED TEMPERATURE
 LUN .            HL-6274:   LOGGING UNIT NUMBER
 LUL .             CASPER:   LOGGING UNIT LOCATION
 ENGI.             RAUTIO:   RECORDING ENGINEER
 WITN.          BOB SYLAR:   WITNESSED BY
 CLNT.            A2DTECH:   CLIENT CODE
 ORIG.           5" PRINT:   ORIGIN OF DATA
 UWI .       490252254900:   UNIQUE WELL ID
 DICO. A2D Technologies, Inc.:   DIGITIZING COMPANY
~OTHER INFORMATION
~A    DEPT      GRR      RILD       RILM   
# ...
  511.6000   117.1994    12.5101    12.1881
  511.7000   117.1930    12.5106    12.1888
  511.8000   116.8950    12.4250    12.1895
  511.9000   116.6777    12.4254    12.1589
  512.0000   116.2497    12.3779    12.1068
  512.1000   115.7344    12.3407    12.1074
  512.2000   115.1423    12.3412    12.1082
  512.3000   114.3694    12.3312    12.1088
  512.4000   113.5464    12.2572    12.0556
  512.5000   112.8233    12.2578    12.0266
  512.6000   112.4389    12.2582    12.0273
  512.7000   112.1813    12.2128    12.0279
  512.8000   112.0244    12.1747    12.0286
  512.9000   112.0244    12.1752    12.0293
  513.0000   112.0244    12.1757    12.0299
  513.1000   112.0244    12.1762    12.0306
  513.2000   112.0244    12.1082    11.9913
  513.3000   111.8532    12.0373    11.9490
  513.4000   111.5955    12.0103    11.9496
  513.5000   111.4155    11.9793    11.9465
  513.6000   111.3846    11.9285    11.8686
  513.7000   111.1111    11.9216    11.8073
  513.8000   110.8694    11.8472    11.7383
  513.9000   110.6118    11.8477    11.6698
  514.0000   110.3542    11.7948    11.6273
  514.1000   110.1979    11.7670    11.6279
  514.2000   110.1979    11.7380    11.6262
  514.3000   110.1979    11.6868    11.5491
  514.4000   110.1979    11.6815    11.5496
  514.5000   110.4166    11.6072    11.5030
  514.6000   110.6742    11.6077    11.4713
  514.7000   110.9318    11.6081    11.4719
  514.8000   111.2678    11.5694    11.4601
  514.9000   111.7830    11.5290    11.3940
  515.0000   112.3288    11.5136    11.3948
  515.1000   112.8135    11.4505    11.3386
  515.2000   113.5243    11.4510    11.3174
  515.3000   114.4463    11.3911    11.2844
  515.4000   115.4771    11.3729    11.2184
  515.5000   116.6736    11.3363    11.1529
  515.6000   118.4940    11.2699    11.0873
  515.7000   121.1568    11.2180    11.0116
  515.8000   122.4730    11.2156    11.0121
  515.9000   123.5010    11.1417    10.9703
  516.0000   124.0223    11.0847    10.9062
  516.1000   124.2009    11.0657    10.8625
  516.2000   124.2009    11.0314    10.8539
  516.3000   124.2009    10.9903    10.7888
  516.4000   124.2009    10.9782    10.7895
  516.5000   124.0045    10.9154    10.7389
  516.6000   123.7469    10.9159    10.7162
  516.7000   123.4893    10.8069    10.6875
  516.8000   123.2317    10.7667    10.6435
  516.9000   122.9556    10.7346    10.6440
  517.0000   122.0700    10.6934    10.6447
  517.1000   121.6299    10.6829    10.5854
  517.2000   120.5950    10.6205    10.5724
  517.3000   119.9391    10.6210    10.5730
  517.4000   119.9391    10.6214    10.5460
  517.5000   119.9391    10.6218    10.4843
  517.6000   119.9391    10.5914    10.4293
  517.7000   119.9391    10.5294    10.4300
  517.8000   119.9391    10.4771    10.3732
  517.9000   119.9391    10.4776    10.3592
  518.0000   119.9391    10.4781    10.3598
  518.1000   119.9391    10.4283    10.3603
  518.2000   119.9391    10.4066    10.3455
  518.3000   119.9391    10.3781    10.2850
  518.4000   119.9391    10.3357    10.2197
  518.5000   119.7651    10.3361    10.1652
  518.6000   119.6347    10.3366    10.1058
  518.7000   119.4738    10.2784    10.0809
  518.8000   118.9585    10.2182    10.0814
  518.9000   118.4170    10.1958    10.0820
  519.0000   117.6835    10.1690    10.0825
  519.1000   117.1084    10.1263    10.0831
  519.2000   116.5930    10.1267    10.0836
  519.3000   116.1819    10.1272    10.0413
  519.4000   115.9242    10.0713     9.9502
  519.5000   115.6773    10.0581     9.8558
  519.6000   115.9817    10.0945     9.8105
  519.7000   116.6463    10.1030     9.8086
  519.8000   117.2444    10.0594     9.7440
  519.9000   117.7597    10.0544     9.7445
  520.0000   118.1938     9.9909     9.7450
  520.1000   118.5201     9.9370     9.7150
  520.2000   119.3303     9.9228     9.6789
  520.3000   120.3115     9.8892     9.6794
  520.4000   121.3421     9.8552     9.6787
  520.5000   122.0691     9.8415     9.6138
  520.6000   123.0041     9.7880     9.6143
  520.7000   124.2591     9.7885     9.6148
  520.8000   124.5280     9.7888     9.6154
  520.9000   125.1142     9.7892     9.6159
  521.0000   125.3363     9.7896     9.6164
  521.1000   125.4186     9.7901     9.6170
  521.2000   125.5472     9.7905     9.6176
  521.3000   125.7230     9.7909     9.6180
  521.4000   125.6878     9.7913     9.6186
  521.5000   125.4186     9.7917     9.5912
  521.6000   125.4186     9.7921     9.5533
  521.7000   125.4186     9.7613     9.5538
  521.8000   125.2662     9.7254     9.5543
  521.9000   125.1142     9.7258     9.5550
  522.0000   125.0554     9.7262     9.5554
  522.1000   124.8097     9.7266     9.5559
  522.2000   124.8097     9.7270     9.5299
  522.3000   124.8097     9.7274     9.4911
  522.4000   124.8097     9.7278     9.4842
  522.5000   124.8097     9.7282     9.4267
  522.6000   124.8924     9.7286     9.4272
  522.7000   125.1142     9.7290     9.4277
  522.8000   125.1142     9.7295     9.3937
  522.9000   125.3608     9.7298     9.3637
  523.0000   125.4186     9.7302     9.3643
  523.1000   125.4186     9.7019     9.3648
  523.2000   125.5249     9.6639     9.3653
  523.3000   125.7826     9.6643     9.3658
  523.4000   126.0402     9.6647     9.3663
  523.5000   126.3318     9.6652     9.3668
  523.6000   126.5555     9.6655     9.3674
  523.7000   126.8131     9.6659     9.3535
  523.8000   127.3308     9.6663     9.3038
  523.9000   127.9372     9.6667     9.3044
  524.0000   128.1583     9.6591     9.3048
  524.1000   128.1583     9.6009     9.3053
  524.2000   128.1583     9.6013     9.3059
  524.3000   128.1583     9.6017     9.3064
  524.4000   128.0044     9.5664     9.3069
  524.5000   127.8539     9.5362     9.3074
  524.6000   127.7333     9.5366     9.3080
  524.7000   127.2181     9.5370     9.3084
  524.8000   126.6362     9.5374     9.2689
  524.9000   126.1876     9.5378     9.2453
  525.0000   125.6724     9.5382     9.2245
  525.1000   125.0262     9.5043     9.1706
  525.2000   124.2531     9.4732     9.1197
  525.3000   123.5175     9.4586     9.1203
  525.4000   122.9833     9.4031     9.0734
  525.5000   122.2389     9.3442     9.0583
  525.6000   121.8687     9.3446     9.0300
  525.7000   121.6111     9.3031     8.9969
  525.8000   121.3534     9.2809     8.9974
  525.9000   121.1568     9.2583     8.9963
  526.0000   121.1709     9.2177     8.9364
  526.1000   121.4612     9.2137     8.8915
  526.2000   121.4612     9.1549     8.8757
  526.3000   121.6395     9.1552     8.8761
  526.4000   121.8971     9.1157     8.8584
  526.5000   122.1548     9.0929     8.8158
  526.6000   122.4503     9.0718     8.8164
  526.7000   122.9833     9.0309     8.8170
  526.8000   123.2320     9.0281     8.7738
  526.9000   123.8936     8.9694     8.7571
  527.0000   124.5113     8.9227     8.7575
  527.1000   125.0266     8.9083     8.7410
  527.2000   125.6656     8.8798     8.6900
  527.3000   126.6901     8.8476     8.6386
  527.4000   127.6174     8.8370     8.6392
  527.5000   128.5083     8.7853     8.5979
  527.6000   129.0715     8.7271     8.5805
  527.7000   130.2397     8.6827     8.5809
  527.8000   132.0890     8.6676     8.5658
  527.9000   134.1505     8.6409     8.5226
  528.0000   135.8378     8.6085     8.5232
  528.1000   136.7751     8.5993     8.4750
  528.2000   137.2907     8.5499     8.4653
  528.3000   137.8995     8.5503     8.4658
  528.4000   138.3208     8.5078     8.4434
  528.5000   138.8361     8.4920     8.4084
  528.6000   139.3513     8.4669     8.4029
  528.7000   139.7963     8.4341     8.3513
  528.8000   140.0304     8.4345     8.3051
  528.9000   140.0304     8.4348     8.2946
  529.0000   140.0304     8.3771     8.2654
  529.1000   140.0304     8.3773     8.2171
  529.2000   139.8896     8.3452     8.1820
  529.3000   139.6320     8.3203     8.1777
  529.4000   139.3743     8.3206     8.1265
  529.5000   139.1163     8.3210     8.1269
  529.6000   138.5084     8.3213     8.1274
  529.7000   138.0858     8.3217     8.0996
