~VERSION INFORMATION
 VERS.                2.0:   CWLS LOG ASCII STANDARD - VERSION 2.0
 WRAP.                 NO:   ONE LINE PER DEPTH STEP
~WELL INFORMATION
#MNEM.UNIT      DATA TYPE    INFORMATION
#----------   ------------   ------------------------------
 STRT.F            5.0000:   START DEPTH
 STOP.F          610.0000:   STOP DEPTH
 STEP.F            0.5000:   STEP LENGTH
 NULL.          -999.2500:   NO VALUE
 COMP. FENIX & SCISSON INC:   COMPANY
 WELL.        NPR 3 #25-3:   WELL
 FLD .        TEAPOT DOME:   FIELD
 LOC .       S3 T38N R78W:   LOCATION
 CNTY.            NATRONA:   COUNTY
 STAT.            WYOMING:   STATE
 CTRY. UNITED STATES OF AMERICA:   COUNTRY
 SRVC.           BIRDWELL:   SERVICE COMPANY
 DATE.        28-SEP-1978:   LOGDATE
 API .       490251068900:   API NUMBER
~CURVE INFORMATION
#MNEM.UNIT       API CODE    CURVE DESCRIPTION
#----------   ------------   ------------------------------
 DEPT.F                  :   
 SPR .MV     05 010 01 00:   SPONTANEOUS POTENTIAL FROM RES.
 IL  .OHMM   05 120 00 00:   INDUCTION LOG
 SN  .OHMM   05 040 16 00:   SHORT NORMAL 16"
 CALD.IN     45 280 60 00:   CALIPER
 GRD .GAPI   45 310 01 00:   GAMMA RAY FROM DENSITY LOG
 CORR.G/C3   45 356 01 00:   DENSITY CORRECTION
 DEN .G/C3   45 350 01 00:   COMPENSATED BULK DENSTIY
 DPHI.DEC    45 890 12 00:   DENSITY POROSITY SANDSTONE
~PARAMETER INFORMATION
#MNEM.UNIT          VALUE    DESCRIPTION
#----------   ------------   ------------------------------
 PD  .                 GL:   PERMANENT DATUM
 EPD .F              5249:   ELEVATION PERMANENT DATUM
 LMF .                 KB:   LOG MEASURED FROM
 DAPD.F                 4:   FEET ABOVE PERMANENT DATUM
 DMF .                 KB:   DRILLING MEASURED FROM
 EKB .F              5253:   KELLING BUSHING
 EGL .F              5249:   GROUND LEVEL
 DATE.            9-28-78:   RUN DATE
 RUN .                  1:   RUN NUMBER
 DD  .F               616:   DEPTH DRILLER
 DL  .F               613:   DEPTH LOGGER
 BLI .F               607:   BOTTOM LOG INTERVAL
 TLI .F                40:   TOP LOG INTERVAL
 BS  .IN            7.875:   BIT SIZE
 BSD .F               616:   BIT SIZE AT DEPTH
 DFT .                KCL:   DRILLING FLUID TYPE
 DFD .                8.7:   DRILLING FLUID DENSITY
 DFV .                 33:   DRILLING FLUID VISCOSITY
 DFPH.                  9:   DRILLING FLUID PH
 DFL .                  5:   DRILLING FLUID LOSS
 MSS .            MUD PIT:   MUD SAMPLE SOURCE
 RMS .OHMM            .14:   RESISTIVITY MUD SAMPLE
 MST .F                65:   MUD SAMPLE TEMPERATURE
 RMF .OHMM            2.1:   RESISTIVITY MUD FILTRATE SAMPLE
 MFST.F                65:   MUD FILTRATE SAMPLE TEMPERATURE
 RMC .OHMM            .32:   RESISTIVITY MUD CAKE
 MCST.F                65:   MUD CAKE SAMPLE TEMPERATURE
 MFSS.               MEAS:   MUD FILTRATE SAMPLE SOURCE
 TCS .HRS               2:   TIME CURCULATED STOPPED
 LUN .               2958:   LOGGING UNIT NUMBER
 LUL .               CASP:   LOGGING UNIT LOCATION
 ENGI.            ROLLINS:   RECORDING ENGINEER
 WITN.              AMEND:   WITNESSED BY
 CLNT.            A2DTECH:   CLIENT CODE
 ORIG.           5" PRINT:   ORIGIN OF DATA
 UWI .       490251068900:   UNIQUE WELL ID
 DICO. A2D Technologies, Inc.:   DIGITIZING COMPANY
~OTHER INFORMATION
~A    DEPT     SPR         IL         SN         CALD       GRD      CORR        DEN       DPHI   
# ...
  531.5000    -6.8489    11.1307     9.9992     8.0182    91.1402     0.0047     2.5066     0.1057
  532.0000    -6.9325    11.1154     9.9713     8.0236    91.0286     0.0074     2.5055     0.1037
  532.5000    -7.0160    11.0983     9.9435     8.0289    90.9471     0.0102     2.5077     0.1002
  533.0000    -7.0995    10.9161     9.8964     8.0343    91.0519     0.0129     2.5150     0.0966
  533.5000    -7.1830    10.7414     9.8295     8.0396    91.4269     0.0117     2.5222     0.0969
  534.0000    -7.2664    10.5695     9.7631     8.0450    91.7981     0.0103     2.5219     0.0976
  534.5000    -7.3498    10.4067     9.6972     8.0503    92.1686     0.0089     2.5195     0.0984
  535.0000    -7.4342    10.3241     9.6316     8.0557    92.7510     0.0075     2.5178     0.0992
  535.5000    -7.5739    10.2450     9.5666     8.0610    93.5451     0.0061     2.5160     0.1000
  536.0000    -7.8113    10.1666     9.5019     8.0664    94.3378     0.0047     2.5144     0.1006
  536.5000    -8.0482    10.0888     9.3839     8.0717    95.1177     0.0033     2.5121     0.1002
  537.0000    -8.2762    10.0116     9.2575     8.0771    96.7665     0.0019     2.5095     0.0997
  537.5000    -8.2849     9.9350     9.1328     8.0824   100.3684     0.0011     2.5148     0.0996
  538.0000    -8.2837     9.8589     8.9714     8.0878   101.9692     0.0015     2.5194     0.1000
  538.5000    -8.2834     9.7837     8.7673     8.0931   103.2559     0.0018     2.5128     0.1005
  539.0000    -8.2834     9.7093     8.5673     8.0985   104.5399     0.0021     2.5126     0.1006
  539.5000    -8.2834     9.6343     8.3720     8.1039   105.8278     0.0025     2.5131     0.1012
  540.0000    -8.2834     9.4281     8.1813     8.1086   107.1143     0.0028     2.5136     0.1019
  540.5000    -8.2834     8.8998     7.9952     8.1087   108.2412     0.0032     2.5115     0.1026
  541.0000    -8.2834     7.9230     7.8110     8.1087   109.3595     0.0035     2.5088     0.1032
  541.5000    -8.2834     7.1014     7.5778     8.1087   109.6556     0.0038     2.5064     0.1039
  542.0000    -8.2835     6.3650     7.1994     8.1086   109.7149     0.0042     2.5065     0.1057
  542.5000    -8.2838     5.5665     7.0062     8.1086   109.7685     0.0045     2.5062     0.1126
  543.0000    -8.2833     5.5665     6.9393     8.1083   109.8306     0.0048     2.4998     0.1237
  543.5000    -8.2565     5.6579     6.9397     8.1273   110.5863     0.0121     2.4735     0.1472
  544.0000    -8.1275     5.7206     7.0038     8.1537   115.7495     0.0254     2.4371     0.1648
  544.5000    -8.0022     5.7843     7.1351     8.1806   120.9579     0.0361     2.4000     0.1685
  545.0000    -7.8805     5.8421     7.7760     8.2061   124.1293     0.0251     2.3995     0.1352
  545.5000    -7.7524     6.2696     8.2780     8.1287   122.5765     0.0230     2.4468     0.1067
  546.0000    -7.7015     7.0758     8.7204     8.0301   117.7719     0.0230     2.4904     0.0902
  546.5000    -7.7392     8.0767     8.9501     7.9882   113.0168     0.0179     2.5292     0.0829
  547.0000    -7.7761     8.8824     9.1835     7.9955   108.2398     0.0080     2.5395     0.0875
  547.5000    -7.8133     9.1063     9.4233     8.0026   105.7939     0.0010     2.5341     0.0934
  548.0000    -7.8507     9.3353     9.6698     8.0097   105.3059     0.0010     2.5232     0.0955
  548.5000    -7.8854     9.4784     9.8635     8.0167   104.8319     0.0010     2.5222     0.0959
  549.0000    -7.8361     9.5855     9.9171     8.0238   104.3571     0.0010     2.5218     0.0963
  549.5000    -7.7815     9.6937     9.9710     8.0308   103.9186     0.0010     2.5213     0.0966
  550.0000    -7.7268     9.8032    10.0307     8.0378   103.9797     0.0010     2.5208     0.0955
  550.5000    -7.6723     9.9139    10.1791     8.0448   104.5309     0.0010     2.5215     0.0934
  551.0000    -7.6178    10.0259    10.3466     8.0476   105.1019     0.0010     2.5251     0.0910
  551.5000    -7.5634    10.1391    10.5169     8.0456   105.1259     0.0010     2.5296     0.0875
  552.0000    -7.5089    10.2537    10.6901     8.0436   104.3949     0.0010     2.5361     0.0838
  552.5000    -7.4544    10.4067    10.8656     8.0416   101.2880     0.0010     2.5427     0.0798
  553.0000    -7.3998    10.5756    11.1012     8.0396   100.9795     0.0010     2.5494     0.0798
  553.5000    -7.3446    10.7666    11.0979     8.0375   100.6190     0.0010     2.5491     0.0851
  554.0000    -7.2865    10.9609    11.0990     8.0355   100.6484     0.0010     2.5420     0.0907
  554.5000    -7.3489    11.1588    11.0990     8.0335   100.9917     0.0010     2.5349     0.0890
  555.0000    -7.4205    11.3603    11.0990     8.0315   101.3586     0.0010     2.5343     0.0874
  555.5000    -7.4921    11.5648    11.0990     8.0294   100.4966     0.0010     2.5400     0.0783
  556.0000    -7.5634    11.8400    11.0990     8.0282    99.3009     0.0010     2.5519     0.0734
  556.5000    -7.6347    11.8361    11.0990     8.0313    98.7870     0.0010     2.5562     0.0833
  557.0000    -7.7060    11.8371    11.0990     8.0346   100.3892     0.0010     2.5407     0.0931
  557.5000    -7.7773    11.8376    11.0993     8.0379   103.1223     0.0009     2.5274     0.0950
  558.0000    -7.8486    11.8374    11.0867     8.0411   104.5899     0.0004     2.5214     0.0942
  558.5000    -7.9199    11.8374    11.0697     8.0444   103.8920     0.0000     2.5243     0.0942
  559.0000    -7.9912    11.8374    11.0524     8.0478   102.9704    -0.0005     2.5274     0.0960
  559.5000    -8.0625    11.8374    11.0352     8.0482   102.3742    -0.0011     2.5260     0.0977
  560.0000    -8.1337    11.8374    11.0180     8.0442   102.1965     0.0054     2.5226     0.0990
  560.5000    -8.2050    11.8374    11.0008     8.0401   102.0601     0.0111     2.5196     0.0961
  561.0000    -8.2763    11.8374    10.9837     8.0361   100.3470     0.0098     2.5266     0.0926
  561.5000    -8.3476    11.8374    10.9666     8.0320    99.1677     0.0083     2.5338     0.0886
  562.0000    -8.4181    11.8374    10.9495     8.0282    99.0531     0.0070     2.5376     0.0873
  562.5000    -8.4919    11.8374    10.9325     8.0281    98.6907     0.0080     2.5327     0.0974
  563.0000    -8.6229    11.8374    10.9151     8.0273    98.0182     0.0094     2.5258     0.0973
  563.5000    -8.7516    11.8375    10.8984     8.0233    97.5731     0.0109     2.5235     0.0956
  564.0000    -8.8797    11.8372    10.7788     8.0194    98.4044     0.0123     2.5268     0.0938
  564.5000    -9.0076    11.8370    10.6512     8.0155    99.7649     0.0138     2.5333     0.0922
  565.0000    -9.1355    11.8402    10.5239     8.0116   101.1327     0.0152     2.5303     0.0932
  565.5000    -9.2630    11.6967    10.3984     8.0077   102.9004     0.0167     2.5259     0.0949
  566.0000    -9.3906    11.5896    10.2743     8.0038   105.1557     0.0150     2.5214     0.0966
  566.5000    -9.5487    11.4834    10.1518     7.9999   106.3235     0.0091     2.5205     0.0982
  567.0000    -9.8170    11.3312    10.0307     7.9960   106.5909     0.0033     2.5201     0.0983
  567.5000   -10.0762    11.0736     9.9110     7.9921   107.0327    -0.0026     2.5195     0.0979
  568.0000   -10.3350    10.7969     9.7928     7.9882   108.6465    -0.0049     2.5189     0.0987
  568.5000   -10.5945    10.1910     9.7303     7.9932   110.2786    -0.0036     2.5181     0.0999
  569.0000   -10.8546    10.0987     9.6914     7.9990   111.2850    -0.0021     2.5159     0.1011
  569.5000   -11.2009    10.0119     9.6527     8.0048   111.4354    -0.0006     2.5137     0.1025
  570.0000   -11.5550     9.9247     9.6142     8.0106   111.1517     0.0009     2.5106     0.1043
  570.5000   -11.8918     9.8378     9.5758     8.0164   110.5697     0.0023     2.5062     0.1034
  571.0000   -11.9988     9.7516     9.5376     8.0221   109.9886     0.0038     2.5070     0.1006
  571.5000   -12.1091     9.6662     9.4995     8.0279   109.0142     0.0053     2.5142     0.0990
