~VERSION INFORMATION
 VERS.                2.0:   CWLS LOG ASCII STANDARD - VERSION 2.0
 WRAP.                 NO:   ONE LINE PER DEPTH STEP
~WELL INFORMATION
#MNEM.UNIT      DATA TYPE    INFORMATION
#----------   ------------   ------------------------------
 STRT.F          390.0000:   START DEPTH
 STOP.F         2628.0000:   STOP DEPTH
 STEP.F            0.5000:   STEP LENGTH
 NULL.          -999.2500:   NO VALUE
 COMP. FENIX & SCISSON INC:   COMPANY
 WELL.    25 SHX 11 #3-11:   WELL
 FLD .             TEAPOT:   FIELD
 LOC .      S11 T38N R78W:   LOCATION
 CNTY.            NATRONA:   COUNTY
 STAT.            WYOMING:   STATE
 CTRY. UNITED STATES OF AMERICA:   COUNTRY
 SRVC.              Welex:   SERVICE COMPANY
 DATE.        15-MAY-1980:   LOGDATE
 API .       490251081900:   API NUMBER
~CURVE INFORMATION
#MNEM.UNIT       API CODE    CURVE DESCRIPTION
#----------   ------------   ------------------------------
 DEPT.F                  :   
 CALD.IN     45 280 60 00:   CALIPER
 GRD .GAPI   45 310 01 00:   GAMMA RAY FROM DENSITY LOG
 RHOB.G/C3   45 350 01 00:   BULK DENSITY
 DPHI.DEC    45 890 12 00:   DENSITY POROSITY SANDSTONE
 CORR.G/C3   45 356 01 00:   DENSITY CORRECTION
~PARAMETER INFORMATION
#MNEM.UNIT          VALUE    DESCRIPTION
#----------   ------------   ------------------------------
 PD  .                 GL:   PERMANENT DATUM
 EPD .F              5163:   ELEVATION PERMANENT DATUM
 LMF .                 KB:   LOG MEASURED FROM
 DAPD.F                10:   FEET ABOVE PERMANENT DATUM
 DMF .                 KB:   DRILLING MEASURED FROM
 EKB .F              5173:   KELLING BUSHING
 EGL .F              5163:   GROUND LEVEL
 DATE.            5-15-80:   RUN DATE
 RUN .                  1:   RUN NUMBER
 DD  .F              2625:   DEPTH DRILLER
 DL  .F              2630:   DEPTH LOGGER
 BLI .F              2628:   BOTTOM LOG INTERVAL
 TLI .F               400:   TOP LOG INTERVAL
 CS  .IN            9.625:   CASING SIZE
 CBD .F               645:   CASING BOTTOM DRILLER
 BS  .IN             8.75:   BIT SIZE
 BSD .F              2625:   BIT SIZE AT DEPTH
 DFT .        AIR DRILLED:   DRILLING FLUID TYPE
 TCS .HRS               2:   TIME CURCULATED STOPPED
 MRT .F               116:   MAXIMUM RECORDED TEMPERATURE
 ENGI.            BENTSEN:   RECORDING ENGINEER
 WITN.           DINSMORE:   WITNESSED BY
 CLNT.            A2DTECH:   CLIENT CODE
 ORIG.           5" PRINT:   ORIGIN OF DATA
 UWI .       490251081900:   UNIQUE WELL ID
 DICO. A2D Technologies, Inc.:   DIGITIZING COMPANY
~OTHER INFORMATION
~A   DEPT     CALD         GRD      RHOB       DPHI       CORR   
# ...
 2586.0000     8.7096   102.5673     2.5702    -0.0204     0.1406
 2586.5000     8.6590   101.9231     2.5422     0.0141     0.1088
 2587.0000     8.7046   102.7801     2.5177     0.0196     0.0816
 2587.5000     8.6694   103.4019     2.5296     0.0131     0.0763
 2588.0000     8.6675   103.1862     2.5321     0.0123     0.0782
 2588.5000     8.7712   103.0801     2.5196     0.0215     0.0666
 2589.0000     8.7893   102.3789     2.5019     0.0252     0.0500
 2589.5000     8.7606   101.6124     2.4790     0.0458     0.0363
 2590.0000     8.7323   102.1172     2.4922     0.0397     0.0488
 2590.5000     8.7028   103.8137     2.5079     0.0196     0.0697
 2591.0000     8.7123   105.2075     2.5222     0.0196     0.0775
 2591.5000     8.7331   104.8848     2.5273     0.0151     0.0759
 2592.0000     8.7256   104.5928     2.5229     0.0144     0.0754
 2592.5000     8.7235   104.3119     2.5045     0.0298     0.0548
 2593.0000     8.7609   104.2978     2.5006     0.0244     0.0510
 2593.5000     8.7969   104.3150     2.5126     0.0212     0.0535
 2594.0000     8.7917   103.5465     2.5056     0.0292     0.0480
 2594.5000     8.7809   102.4339     2.4968     0.0284     0.0538
 2595.0000     8.7700   101.8110     2.4940     0.0345     0.0476
 2595.5000     8.7585   100.5525     2.5111     0.0292     0.0532
 2596.0000     8.7892    99.2584     2.4994     0.0256     0.0548
 2596.5000     8.8191    97.9608     2.4928     0.0360     0.0422
 2597.0000     8.8049    96.6593     2.4983     0.0334     0.0403
 2597.5000     8.7891    95.3666     2.5041     0.0290     0.0521
 2598.0000     8.7801    95.4161     2.5098     0.0285     0.0498
 2598.5000     8.8168    96.4428     2.5087     0.0357     0.0408
 2599.0000     8.7793    97.4402     2.5045     0.0297     0.0441
 2599.5000     8.7417    98.4208     2.5015     0.0267     0.0504
 2600.0000     8.7055    98.3832     2.5073     0.0188     0.0568
 2600.5000     8.7798    98.0688     2.5159     0.0225     0.0594
 2601.0000     8.8024    97.9383     2.5125     0.0250     0.0557
 2601.5000     8.8108    98.6940     2.5160     0.0224     0.0569
 2602.0000     8.8395    99.5208     2.5225     0.0196     0.0661
 2602.5000     8.7972   100.0413     2.5160     0.0222     0.0657
 2603.0000     8.7978    99.3761     2.4971     0.0291     0.0489
 2603.5000     8.7998    98.6875     2.4784     0.0469     0.0293
 2604.0000     8.8102    98.6642     2.4676     0.0482     0.0266
 2604.5000     8.8184    98.8601     2.4771     0.0514     0.0228
 2605.0000     8.8182    98.5020     2.4694     0.0494     0.0212
 2605.5000     8.8182    99.3145     2.4747     0.0502     0.0210
 2606.0000     8.8182   100.4815     2.5066     0.0303     0.0410
 2606.5000     8.8182   101.5968     2.5389     0.0072     0.0690
 2607.0000     8.8185   102.4028     2.5466     0.0018     0.0942
 2607.5000     8.8000   103.1763     2.5388     0.0078     0.0859
 2608.0000     8.7749   103.9455     2.5257     0.0153     0.0741
 2608.5000     8.7604   104.6385     2.5196     0.0192     0.0635
 2609.0000     8.7701   104.7269     2.5278     0.0134     0.0726
 2609.5000     8.7742   104.8156     2.5387     0.0080     0.0842
 2610.0000     8.7497   104.7054     2.5499    -0.0022     0.0959
 2610.5000     8.7254   104.1001     2.5505     0.0023     0.0937
 2611.0000     8.7002   103.0922     2.5381     0.0079     0.0819
 2611.5000     8.7251   101.6109     2.5372     0.0083     0.0821
 2612.0000     8.7371  -999.2500     2.5276     0.0121     0.0769
 2612.5000     8.7374  -999.2500     2.5166     0.0173     0.0648
 2613.0000     8.7374  -999.2500     2.5106     0.0260     0.0537
 2613.5000     8.7374  -999.2500     2.5153     0.0225     0.0641
 2614.0000     8.7374  -999.2500     2.5240     0.0174     0.0760
 2614.5000     8.7374  -999.2500     2.5331     0.0119     0.0879
 2615.0000     8.7376  -999.2500     2.5424     0.0058     0.0998
 2615.5000     8.7368  -999.2500     2.5407     0.0053     0.1116
 2616.0000     8.7022  -999.2500     2.5382     0.0079     0.1168
 2616.5000     8.6640  -999.2500     2.5500     0.0004     0.1294
 2617.0000     8.6652  -999.2500     2.5617    -0.0075     0.1357
 2617.5000     8.7169  -999.2500     2.5657    -0.0107     0.1242
 2618.0000     8.7585  -999.2500     2.5492     0.0010     0.1040
 2618.5000     8.7623  -999.2500     2.5351     0.0086     0.0877
 2619.0000     8.7695  -999.2500     2.5337     0.0107     0.0885
 2619.5000     8.7771  -999.2500     2.5452     0.0039     0.0977
 2620.0000     8.7668  -999.2500     2.5433    -0.0002     0.1057
 2620.5000     8.7540  -999.2500     2.5323     0.0091     0.0954
 2621.0000     8.7403  -999.2500     2.5213     0.0171     0.0851
 2621.5000     8.7500  -999.2500     2.5213     0.0184     0.0745
 2622.0000     8.7677  -999.2500     2.5152     0.0212     0.0666
 2622.5000     8.7856  -999.2500     2.4941     0.0343     0.0483
 2623.0000     8.8036  -999.2500     2.4704     0.0484     0.0268
 2623.5000     8.8195  -999.2500     2.4766     0.0518     0.0178
 2624.0000     8.7765  -999.2500     2.4661     0.0518     0.0214
 2624.5000     8.7525  -999.2500     2.4846     0.0419     0.0394
 2625.0000     8.7268  -999.2500     2.4815     0.0446     0.0405
 2625.5000     8.7004  -999.2500     2.4919     0.0401     0.0523
 2626.0000     8.7156  -999.2500     2.4816     0.0393     0.0520
 2626.5000     8.7414  -999.2500     2.4743     0.0468     0.0497
 2627.0000     8.7254  -999.2500     2.4822     0.0507     0.0488
 2627.5000     8.6573  -999.2500     2.4616     0.0605     0.0443
 2628.0000     8.5999  -999.2500     2.4378     0.0696     0.0438
