~VERSION INFORMATION
 VERS.                2.0:   CWLS LOG ASCII STANDARD - VERSION 2.0
 WRAP.                 NO:   ONE LINE PER DEPTH STEP
~WELL INFORMATION
#MNEM.UNIT      DATA TYPE    INFORMATION
#----------   ------------   ------------------------------
 STRT.F           29.0000:   START DEPTH
 STOP.F          435.0000:   STOP DEPTH
 STEP.F            0.5000:   STEP LENGTH
 NULL.          -999.2500:   NO VALUE
 COMP. FENIX & SCISSON INC:   COMPANY
 WELL.    525 X 10 #52-10:   WELL
 FLD .             TEAPOT:   FIELD
 LOC .      S10 T38N R78W:   LOCATION
 CNTY.            NATRONA:   COUNTY
 STAT.            WYOMING:   STATE
 CTRY. UNITED STATES OF AMERICA:   COUNTRY
 SRVC.       Schlumberger:   SERVICE COMPANY
 DATE.        18-NOV-1978:   LOGDATE
 API .       490251077700:   API NUMBER
~CURVE INFORMATION
#MNEM.UNIT       API CODE    CURVE DESCRIPTION
#----------   ------------   ------------------------------
 DEPT.F                  :   
 NEUT.NAPI   35 330 01 00:   NEUTRON
 SPR .MV     07 010 01 00:   SPONTANEOUS POTENTIAL
 SFL .OHMM   07 220 01 00:   SHALLOW FOCUSED LOG RESISTIVITY
 ILD .OHMM   07 120 46 00:   INDUCTION LOG DEEP RESISTIVITY
 ILM .OHMM   07 120 44 00:   INDUCTION LOG MEDIUM
 CORR.G/C3   45 356 01 00:   DENSITY CORRECTION
 RHOB.G/C3   45 350 01 00:   BULK DENSITY
 DPHI.DEC    45 890 12 00:   DENSITY POROSITY SANDSTONE
 CALD.IN     45 280 60 00:   CALIPER
 GRD .GAPI   45 310 01 00:   GAMMA RAY FROM DENSITY LOG
~PARAMETER INFORMATION
#MNEM.UNIT          VALUE    DESCRIPTION
#----------   ------------   ------------------------------
 PD  .                 GL:   PERMANENT DATUM
 EPD .F              5176:   ELEVATION PERMANENT DATUM
 LMF .                 KB:   LOG MEASURED FROM
 DAPD.F                 4:   FEET ABOVE PERMANENT DATUM
 DMF .                 KB:   DRILLING MEASURED FROM
 EKB .F              5180:   KELLING BUSHING
 EGL .F              5176:   GROUND LEVEL
 DATE.           11-18-78:   RUN DATE
 RUN .                  1:   RUN NUMBER
 DD  .F               433:   DEPTH DRILLER
 DL  .F               435:   DEPTH LOGGER
 BLI .F               429:   BOTTOM LOG INTERVAL
 TLI .F                48:   TOP LOG INTERVAL
 CS  .IN            8.625:   CASING SIZE
 CBD .F                40:   CASING BOTTOM DRILLER
 CBL .F                48:   CASING BOTTOM LOGGER
 BS  .IN            7.875:   BIT SIZE
 BSD .F               433:   BIT SIZE AT DEPTH
 DFT .            KCL MUD:   DRILLING FLUID TYPE
 DFD .                8.5:   DRILLING FLUID DENSITY
 DFV .                 30:   DRILLING FLUID VISCOSITY
 DFPH.                9.6:   DRILLING FLUID PH
 DFL .                 16:   DRILLING FLUID LOSS
 MSS .             MUDPIT:   MUD SAMPLE SOURCE
 RMS .OHMM            .45:   RESISTIVITY MUD SAMPLE
 MST .F                50:   MUD SAMPLE TEMPERATURE
 RMF .OHMM            .37:   RESISTIVITY MUD FILTRATE SAMPLE
 MFST.F                50:   MUD FILTRATE SAMPLE TEMPERATURE
 RMC .OHMM            .43:   RESISTIVITY MUD CAKE
 MCST.F                50:   MUD CAKE SAMPLE TEMPERATURE
 MFSS.                  M:   MUD FILTRATE SAMPLE SOURCE
 MCSS.                  C:   MUD CAKE SAMPLE SOURCE
 RMB .OHMM            .42:   RESISTIVITY MUD AT BHT
 BHT .F                63:   BOTTOM HOLE TEMPERATURE
 TCS .HRS            2400:   TIME CURCULATED STOPPED
 TLAB.HRS            1300:   TIME LOGGER AT BOTTOM
 MRT .F                63:   MAXIMUM RECORDED TEMPERATURE
 LUN .               7663:   LOGGING UNIT NUMBER
 LUL .                GLT:   LOGGING UNIT LOCATION
 ENGI.        SATTERFIELD:   RECORDING ENGINEER
 WITN.              AMEND:   WITNESSED BY
 CLNT.            A2DTECH:   CLIENT CODE
 ORIG.     1", 2.5" PRINT:   ORIGIN OF DATA
 UWI .       490251077700:   UNIQUE WELL ID
 DICO. A2D Technologies, Inc.:   DIGITIZING COMPANY
~OTHER INFORMATION
~A   DEPT     NEUT        SPR        SFL        ILD        ILM       CORR       RHOB       DPHI       CALD         GRD  
# ...
  364.0000   287.3393   -21.6598    22.7499    21.8471    21.8923     0.0053     2.4705     0.1238     8.2154    81.9702
  364.5000   287.3393   -21.6600    23.1493    22.1842    22.0654     0.0006     2.4911     0.1061     8.2150    82.9248
  365.0000   287.3385   -21.6593    26.4414    22.3041    22.3114     0.0011     2.5129     0.1009     8.2075    84.9855
  365.5000   287.3172   -21.6605    29.0132    21.7390    22.3041     0.0027     2.5242     0.0931     8.2003    86.9683
  366.0000   287.6478   -21.6588    30.0536    21.0834    22.3041     0.0068     2.4759     0.1139     8.1927    88.5498
  366.5000   294.6234   -21.6590    24.9116    20.7052    21.4858     0.0114     2.4225     0.1341     8.1853    89.9480
  367.0000   286.2587   -21.6645    21.6917    19.8811    20.5212     0.0120     2.4068     0.1544     8.1779    91.1411
  367.5000   472.3047   -21.6451    20.0895    19.1638    19.6000     0.0048     2.3952     0.1696     8.1704    91.2189
  368.0000   230.9871   -21.8167    18.8526    18.4724    18.7200     0.0056     2.3903     0.1757     8.1629    90.2383
  368.5000   277.2107   -22.2555    18.3542    17.8059    18.1780     0.0164     2.4023     0.1675     8.1557    89.3767
  369.0000   396.1424   -22.5218    18.1666    17.3785    17.9468     0.0265     2.4090     0.1628     8.1479    88.5011
  369.5000   271.8773   -22.5831    17.9528    17.1347    17.7080     0.0347     2.4170     0.1579     8.1408    87.6153
  370.0000   272.9362   -22.6753    17.7586    16.8942    17.4723     0.0253     2.4260     0.1532     8.1355    86.6822
  370.5000   274.2042   -22.7609    17.5664    16.6571    17.2398     0.0157     2.4269     0.1498     8.1506    85.8501
  371.0000   275.2386   -22.8442    17.3764    16.4233    17.0103     0.0065     2.4192     0.1546     8.1643    85.2680
  371.5000   272.4252   -22.9311    17.1883    16.1929    16.7840    -0.0005     2.4095     0.1598     8.1790    84.5323
  372.0000   269.5580   -23.0159    17.0024    15.9656    16.5606    -0.0040     2.4045     0.1651     8.1931    84.5026
  372.5000   269.7975   -23.1013    16.8184    15.7415    16.3402    -0.0016     2.4090     0.1676     8.2083    84.5127
  373.0000   269.9962   -23.1866    16.6364    15.5206    16.1228     0.0017     2.4166     0.1555     8.2161    85.3422
  373.5000   270.2078   -23.2721    16.4564    15.3028    15.9382     0.0049     2.4241     0.1534     8.2153    86.3788
  374.0000   270.4161   -23.3579    16.2784    15.0932    15.8506     0.0068     2.4268     0.1514     8.2155    87.7543
  374.5000   270.5246   -23.4419    16.1022    15.0099    15.7635     0.0056     2.4239     0.1532     8.2155    90.0050
  375.0000   270.5242   -23.5296    15.9280    14.9290    15.6768     0.0042     2.4219     0.1549     8.2154    90.1971
  375.5000   270.5244   -23.6135    15.7557    14.8486    15.5906     0.0078     2.4257     0.1563     8.2155    90.3466
  376.0000   270.5242   -23.6754    15.5852    14.7685    15.5049     0.0144     2.4351     0.1482     8.2155    91.6588
  376.5000   270.5242   -23.5912    15.3765    14.6889    15.4197     0.0136     2.4326     0.1501     8.2155    92.6751
  377.0000   270.5242   -23.5214    15.3898    14.6098    15.3350     0.0118     2.4252     0.1530     8.2155    91.9271
  377.5000   270.5242   -23.4364    15.4262    14.5427    15.2446     0.0097     2.4370     0.1483     8.2155    89.9458
  378.0000   270.5242   -23.3691    15.4636    14.5426    15.1525     0.0084     2.4421     0.1425     8.2155    87.8889
  378.5000   270.5242   -23.2945    15.5011    14.5420    15.0741     0.0094     2.4358     0.1482     8.2155    87.7779
  379.0000   270.5242   -23.5366    15.5388    14.5417    14.7829     0.0112     2.4355     0.1464     8.2155    88.0474
  379.5000   270.5242   -23.8239  -999.2500  -999.2500  -999.2500     0.0128     2.4457     0.1409     8.2155    88.3052
  380.0000   270.5239   -24.1194  -999.2500  -999.2500  -999.2500     0.0143     2.4546     0.1354     8.2155    90.0269
  380.5000   270.5243   -24.4072  -999.2500  -999.2500  -999.2500     0.0168     2.4625     0.1297     8.2155    92.4244
  381.0000   270.5505   -24.6987  -999.2500  -999.2500  -999.2500     0.0104     2.4537     0.1342     8.2155    94.9065
  381.5000   270.6793   -24.9902  -999.2500  -999.2500  -999.2500     0.0038     2.4491     0.1409     8.2155    94.8322
  382.0000   270.8046   -25.2781  -999.2500  -999.2500  -999.2500     0.0078     2.4618     0.1312     8.2155    94.5973
  382.5000   270.9298   -25.5733  -999.2500  -999.2500  -999.2500     0.0260     2.4761     0.1150     8.2155    94.2955
  383.0000   271.0549   -25.8614  -999.2500  -999.2500  -999.2500     0.0219     2.4856     0.1177     8.2155    95.3689
  383.5000   271.1792   -26.0998  -999.2500  -999.2500  -999.2500     0.0165     2.4783     0.1221     8.2155    96.9371
  384.0000   271.3031   -26.0316  -999.2500  -999.2500  -999.2500     0.0216     2.4825     0.1247     8.2155    96.8672
  384.5000   271.4343   -25.9711  -999.2500  -999.2500  -999.2500     0.0265     2.4906     0.1164     8.2155    97.0720
  385.0000   271.9802   -25.8973  -999.2500  -999.2500  -999.2500     0.0270     2.4886     0.1142     8.2155    97.1977
  385.5000   273.4210   -25.8302  -999.2500  -999.2500  -999.2500     0.0288     2.4893     0.1182     8.2155    97.3164
  386.0000   274.8628   -25.7616  -999.2500  -999.2500  -999.2500     0.0233     2.4990     0.1146     8.2155    97.4833
  386.5000   275.1414   -25.6924  -999.2500  -999.2500  -999.2500     0.0179     2.5061     0.1093     8.2155    97.4707
  387.0000   274.5978   -25.6238  -999.2500  -999.2500  -999.2500     0.0124     2.4826     0.1163     8.2155    97.2231
  387.5000   274.0350   -25.5554  -999.2500  -999.2500  -999.2500     0.0089     2.4806     0.1213     8.2155    96.9544
  388.0000   273.4732   -25.4862  -999.2500  -999.2500  -999.2500     0.0084     2.4698     0.1231     8.2155    96.6718
  388.5000   274.7435   -25.4176  -999.2500  -999.2500  -999.2500     0.0102     2.4597     0.1344     8.2155    95.6208
  389.0000   276.2796   -25.3500  -999.2500  -999.2500  -999.2500     0.0125     2.4568     0.1344     8.2155    94.6417
  389.5000   277.4747   -25.2181  -999.2500  -999.2500  -999.2500     0.0127     2.4666     0.1255     8.2155    94.2844
  390.0000   277.4498   -24.9670  -999.2500  -999.2500  -999.2500     0.0124     2.4844     0.1181     8.2155    95.2358
  390.5000   277.4482   -24.7215  -999.2500  -999.2500  -999.2500     0.0143     2.4901     0.1138     8.2155    96.3553
  391.0000   277.4569   -24.4739  -999.2500  -999.2500  -999.2500     0.0150     2.4880     0.1158     8.2155    97.4871
  391.5000   277.9390   -24.2094  -999.2500  -999.2500  -999.2500     0.0155     2.4885     0.1125     8.2155    98.3718
  392.0000   278.9409   -24.0784  -999.2500  -999.2500  -999.2500     0.0158     2.4931     0.1125     8.2155    98.2970
  392.5000   279.9385   -24.0906  -999.2500  -999.2500  -999.2500     0.0166     2.4871     0.1189     8.2155    98.9968
  393.0000   280.2065   -24.0850  -999.2500  -999.2500  -999.2500     0.0143     2.4731     0.1255     8.2155   100.3564
  393.5000   279.4674   -24.1548  -999.2500  -999.2500  -999.2500     0.0075     2.4587     0.1328     8.2155   100.6046
  394.0000   279.7573   -24.4543  -999.2500  -999.2500  -999.2500     0.0010     2.4543     0.1376     8.2155   100.0129
  394.5000   281.0309   -24.7471  -999.2500  -999.2500  -999.2500     0.0012     2.4660     0.1288     8.2155    99.5035
  395.0000   386.4433   -25.0489  -999.2500  -999.2500  -999.2500     0.0085     2.4766     0.1195     8.2155    98.9183
  395.5000   269.5918   -25.3479  -999.2500  -999.2500  -999.2500     0.0143     2.4856     0.1142     8.2155    98.1861
  396.0000   278.1411   -25.6448  -999.2500  -999.2500  -999.2500     0.0182     2.4932     0.1053     8.2155    97.4096
  396.5000   280.6299   -25.9474  -999.2500  -999.2500  -999.2500     0.0223     2.5004     0.1084     8.2155    96.7719
  397.0000   280.8520   -26.2437  -999.2500  -999.2500  -999.2500     0.0238     2.4961     0.1149     8.2155    96.8682
