~VERSION INFORMATION
 VERS.                2.0:   CWLS LOG ASCII STANDARD - VERSION 2.0
 WRAP.                 NO:   ONE LINE PER DEPTH STEP
~WELL INFORMATION
#MNEM.UNIT      DATA TYPE    INFORMATION
#----------   ------------   ------------------------------
 STRT.F           18.0000:   START DEPTH
 STOP.F          647.0000:   STOP DEPTH
 STEP.F            0.5000:   STEP LENGTH
 NULL.          -999.2500:   NO VALUE
 COMP. FENIX & SCISSON INC:   COMPANY
 WELL. NAVAL PETROLEUM RESERVE 3 SX-1 #82-15:   WELL
 FLD .        TEAPOT DOME:   FIELD
 LOC .      S15 T38N R78W:   LOCATION
 CNTY.            NATRONA:   COUNTY
 STAT.            WYOMING:   STATE
 CTRY. UNITED STATES OF AMERICA:   COUNTRY
 SRVC.            Unknown:   SERVICE COMPANY
 DATE.        15-MAR-1979:   LOGDATE
 API .       490251076500:   API NUMBER
~CURVE INFORMATION
#MNEM.UNIT       API CODE    CURVE DESCRIPTION
#----------   ------------   ------------------------------
 DEPT.F                  :   
 SPR .MV     05 010 01 00:   SPONTANEOUS POTENTIAL FROM RES.
 SN  .OHMM   05 040 16 00:   SHORT NORMAL 16"
 IL  .OHMM   05 120 00 00:   INDUCTION LOG
 CALD.IN     45 280 60 00:   CALIPER
 GRD .GAPI   45 310 01 00:   GAMMA RAY FROM DENSITY LOG
 RHOB.G/C3   45 350 01 00:   BULK DENSITY
 DPHI.DEC    45 890 12 00:   DENSITY POROSITY SANDSTONE
 CORR.G/C3   45 356 01 00:   DENSITY CORRECTION
~PARAMETER INFORMATION
#MNEM.UNIT          VALUE    DESCRIPTION
#----------   ------------   ------------------------------
 PD  .                 GL:   PERMANENT DATUM
 EPD .F              5249:   ELEVATION PERMANENT DATUM
 LMF .                 KB:   LOG MEASURED FROM
 DAPD.F                 4:   FEET ABOVE PERMANENT DATUM
 DMF .                 KB:   DRILLING MEASURED FROM
 EKB .F              5253:   KELLING BUSHING
 EGL .F              5249:   GROUND LEVEL
 DATE.            1-15-79:   RUN DATE
 RUN .                  1:   RUN NUMBER
 DD  .F               670:   DEPTH DRILLER
 DL  .F               647:   DEPTH LOGGER
 BLI .F               640:   BOTTOM LOG INTERVAL
 TLI .F                30:   TOP LOG INTERVAL
 CS  .IN            8.625:   CASING SIZE
 CBD .F                40:   CASING BOTTOM DRILLER
 CBL .F                34:   CASING BOTTOM LOGGER
 BS  .IN            7.875:   BIT SIZE
 BSD .F               670:   BIT SIZE AT DEPTH
 DFT .                KCL:   DRILLING FLUID TYPE
 DFD .                8.9:   DRILLING FLUID DENSITY
 DFV .                 44:   DRILLING FLUID VISCOSITY
 DFPH.                8.5:   DRILLING FLUID PH
 DFL .               14.8:   DRILLING FLUID LOSS
 MSS .           FLOWLINE:   MUD SAMPLE SOURCE
 RMS .OHMM            .26:   RESISTIVITY MUD SAMPLE
 MST .F                61:   MUD SAMPLE TEMPERATURE
 RMF .OHMM            .25:   RESISTIVITY MUD FILTRATE SAMPLE
 MFST.F                60:   MUD FILTRATE SAMPLE TEMPERATURE
 RMC .OHMM             .2:   RESISTIVITY MUD CAKE
 MCST.F                60:   MUD CAKE SAMPLE TEMPERATURE
 MFSS.           MEASURED:   MUD FILTRATE SAMPLE SOURCE
 MCSS.           MEASURED:   MUD CAKE SAMPLE SOURCE
 RMB .OHMM            .27:   RESISTIVITY MUD AT BHT
 BHT .F                58:   BOTTOM HOLE TEMPERATURE
 TCS .HRS               5:   TIME CURCULATED STOPPED
 MRT .F                58:   MAXIMUM RECORDED TEMPERATURE
 LUN .               3006:   LOGGING UNIT NUMBER
 LUL .             CASPER:   LOGGING UNIT LOCATION
 ENGI.            ROLLINS:   RECORDING ENGINEER
 WITN.              AMEND:   WITNESSED BY
 CLNT.            A2DTECH:   CLIENT CODE
 ORIG.         2.5" PRINT:   ORIGIN OF DATA
 UWI .       490251076500:   UNIQUE WELL ID
 DICO. A2D Technologies, Inc.:   DIGITIZING COMPANY
~OTHER INFORMATION
~A   DEPT      SPR         SN         IL       CALD         GRD      RHOB       DPHI       CORR   
# ...
  261.0000   -67.3640     7.7680     7.6340     8.2400   105.7930     2.5060     0.1140     0.0460
  261.5000   -67.3430     7.7780     7.6430     8.2400   103.9960     2.5060     0.1200     0.0420
  262.0000   -67.3210     7.7880     7.6520     8.2400   100.6850     2.5000     0.1260     0.0430
  262.5000   -67.3000     7.7990     7.6620     8.2400   102.6240     2.4900     0.1320     0.0430
  263.0000   -67.2790     7.8090     7.6710     8.2400   107.9350     2.4800     0.1330     0.0440
  263.5000   -67.2570     7.8190     7.6800     8.2400   112.6800     2.4710     0.1320     0.0440
  264.0000   -67.2360     7.8290     7.6890     8.2400   112.3800     2.4710     0.1310     0.0450
  264.5000   -67.2150     7.8390     7.6980     8.2400   112.3920     2.4710     0.1330     0.0450
  265.0000   -67.1930     7.8500     7.7070     8.2400   112.3650     2.4710     0.1350     0.0460
  265.5000   -67.1720     7.8600     7.7170     8.2400   111.6120     2.4710     0.1380     0.0460
  266.0000   -67.1510     7.8700     7.7260     8.2400   110.8600     2.4680     0.1380     0.0460
  266.5000   -67.1290     7.8800     7.7350     8.2400   110.3290     2.4670     0.1360     0.0460
  267.0000   -67.1080     7.8910     7.7440     8.2400   111.6200     2.4680     0.1330     0.0430
  267.5000   -67.0870     7.9010     7.7530     8.2400   112.5830     2.4680     0.1320     0.0410
  268.0000   -67.0650     7.9110     7.7620     8.2400   113.0860     2.4690     0.1350     0.0380
  268.5000   -67.0440     7.9210     7.7710     8.2400   113.4760     2.4680     0.1370     0.0350
  269.0000   -67.0230     7.9310     7.7810     8.2400   113.8610     2.4650     0.1370     0.0320
  269.5000   -67.0010     7.9420     7.7900     8.2400   114.5050     2.4630     0.1380     0.0300
  270.0000   -66.9800     7.9910     7.7990     8.2400   115.8630     2.4600     0.1400     0.0290
  270.5000   -66.9590     8.0920     7.8680     8.2400   117.1410     2.4570     0.1410     0.0280
  271.0000   -66.9370     8.1940     7.9700     8.2400   118.6560     2.4550     0.1420     0.0270
  271.5000   -66.9160     8.2960     8.0710     8.2400   117.9580     2.4550     0.1430     0.0260
  272.0000   -66.8950     8.3980     8.1730     8.2400   115.2360     2.4550     0.1440     0.0290
  272.5000   -66.8730     8.5000     8.2740     8.2400   112.7000     2.4550     0.1450     0.0350
  273.0000   -66.8520     8.6010     8.3750     8.2400   110.1010     2.4550     0.1400     0.0380
  273.5000   -66.8310     8.7030     8.4770     8.2400   107.6200     2.4610     0.1330     0.0390
  274.0000   -66.8100     8.8050     8.5780     8.2400   107.6000     2.4700     0.1280     0.0400
  274.5000   -66.7880     8.9070     8.6800     8.2400   109.6690     2.4770     0.1280     0.0410
  275.0000   -66.7670     9.0080     8.7810     8.2400   109.2540     2.4770     0.1310     0.0420
  275.5000   -66.7460     9.1100     8.8830     8.2400   108.8740     2.4770     0.1340     0.0460
  276.0000   -66.7240     9.2120     8.9840     8.2400   108.1530     2.4770     0.1310     0.0490
  276.5000   -66.7030     9.3140     9.0860     8.2400   108.8810     2.4790     0.1250     0.0530
  277.0000   -66.6820     9.4150     9.1870     8.2400   110.6230     2.4850     0.1210     0.0570
  277.5000   -66.6600     9.5170     9.2630     8.2400   111.2410     2.4890     0.1260     0.0620
  278.0000   -66.6390     9.5910     9.3310     8.2400   108.4260     2.4840     0.1310     0.0760
  278.5000   -66.6180     9.6450     9.3980     8.2400   105.8400     2.4780     0.1270     0.0910
  279.0000   -66.5960     9.6990     9.4660     8.2400   104.3990     2.4750     0.1190     0.0980
  279.5000   -66.5750     9.7530     9.5340     8.2400   104.4790     2.4840     0.1100     0.0890
  280.0000   -66.5540     9.8080     9.6020     8.2400   105.1670     2.4970     0.1160     0.0770
  280.5000   -66.5320     9.8620     9.6690     8.2400   105.7130     2.5030     0.1210     0.0650
  281.0000   -66.5110     9.9160     9.7370     8.2400   106.3850     2.4950     0.1270     0.0530
  281.5000   -66.4900     9.9700     9.8050     8.2400   106.3810     2.4880     0.1300     0.0420
  282.0000   -66.4680    10.0240     9.9180     8.2400   105.2170     2.4800     0.1320     0.0400
  282.5000   -66.4470    10.1030     9.8870     8.2400   102.6640     2.4730     0.1340     0.0380
  283.0000   -66.4260    10.0400     9.7910     8.2400   100.2640     2.4680     0.1370     0.0370
  283.5000   -66.4040     9.9270     9.6960     8.2400    99.1070     2.4640     0.1390     0.0350
  284.0000   -66.3830     9.8140     9.6010     8.2400   100.2850     2.4590     0.1400     0.0330
  284.5000   -66.3610     9.7010     9.5050     8.2400   101.7130     2.4570     0.1400     0.0310
  285.0000   -66.3420     9.5870     9.4100     8.2400   100.2670     2.4570     0.1440     0.0310
  285.5000   -66.3100     9.4740     9.3150     8.2400    97.7870     2.4540     0.1460     0.0350
  286.0000   -66.2670     9.3610     9.2200     8.2400    95.9190     2.4510     0.1490     0.0380
  286.5000   -66.2270     9.2480     9.1240     8.2400    95.7740     2.4470     0.1500     0.0410
  287.0000   -66.1860     9.1350     9.0290     8.2400    97.8750     2.4480     0.1490     0.0450
  287.5000   -66.1450     9.0220     8.9340     8.2400   101.1720     2.4490     0.1490     0.0450
  288.0000   -66.1040     8.9090     8.8380     8.2370   104.5920     2.4500     0.1480     0.0420
  288.5000   -66.0630     8.7960     8.7430     8.2350   105.8580     2.4510     0.1470     0.0400
  289.0000   -66.0220     8.6830     8.6480     8.2320   104.3500     2.4520     0.1460     0.0380
  289.5000   -65.9810     8.5700     8.5560     8.2290   103.7580     2.4520     0.1410     0.0380
  290.0000   -65.9400     8.4570     8.5630     8.2270   104.1160     2.4570     0.1360     0.0380
  290.5000   -65.8990     8.4000     8.5690     8.2240   102.4010     2.4660     0.1300     0.0380
  291.0000   -65.8580     8.4000     8.5750     8.2210   100.3810     2.4730     0.1250     0.0380
  291.5000   -65.8170     8.4000     8.5810     8.2190    98.9290     2.4800     0.1300     0.0380
  292.0000   -65.7760     8.4000     8.5870     8.2160    99.7380     2.4770     0.1340     0.0380
  292.5000   -65.7360     8.4000     8.5930     8.2130   101.4640     2.4730     0.1310     0.0380
  293.0000   -65.6940     8.4000     8.5990     8.2110   102.9950     2.4700     0.1330     0.0380
  293.5000   -65.6550     8.4000     8.6050     8.2070   104.8260     2.4670     0.1380     0.0390
  294.0000   -65.6120     8.4000     8.6110     8.2060   104.9080     2.4610     0.1420     0.0410
  294.5000   -65.5740     8.4000     8.6170     8.2020   104.8420     2.4560     0.1460     0.0430
  295.0000   -65.5310     8.4000     8.6230     8.1960   104.6790     2.4530     0.1450     0.0440
  295.5000   -65.5860     8.4000     8.6300     8.1470   104.5820     2.4530     0.1450     0.0460
  296.0000   -65.6590     8.4000     8.6360     8.0960   103.3950     2.4530     0.1450     0.0480
  296.5000   -65.7330     8.4000     8.6420     8.0790   102.0150     2.4530     0.1450     0.0510
  297.0000   -65.8040     8.4000     8.6480     8.0800   100.7250     2.4530     0.1450     0.0540
  297.5000   -65.8780     8.4000     8.6540     8.0770   100.5500     2.4530     0.1460     0.0570
  298.0000   -65.9500     8.4000     8.6600     8.0190   101.3910     2.4530     0.1440     0.0600
  298.5000   -66.0230     8.4000     8.6660     7.9480   103.1660     2.4540     0.1400     0.0620
  299.0000   -66.0960     8.4000     8.6720     7.9220   104.7780     2.4550     0.1400     0.0620
  299.5000   -66.1690     8.4000     8.6780     7.9360   106.4310     2.4550     0.1410     0.0620
  300.0000   -66.2410     8.4000     8.6840     7.9440   108.0760     2.4550     0.1430     0.0620
  300.5000   -66.3140     8.4000     8.6900     7.9530   109.7780     2.4550     0.1440     0.0670
  301.0000   -66.3870     8.4000     8.6950     7.9630   110.9310     2.4550     0.1440     0.0810
