~VERSION INFORMATION
 VERS.                2.0:   CWLS LOG ASCII STANDARD - VERSION 2.0
 WRAP.                 NO:   ONE LINE PER DEPTH STEP
~WELL INFORMATION
#MNEM.UNIT      DATA TYPE    INFORMATION
#----------   ------------   ------------------------------
 STRT.F           10.0000:   START DEPTH
 STOP.F          580.0000:   STOP DEPTH
 STEP.F            0.5000:   STEP LENGTH
 NULL.          -999.2500:   NO VALUE
 COMP. FENIX & SCISSON INC:   COMPANY
 WELL.     NPR 3 #28-S-34:   WELL
 FLD .        TEAPOT DOME:   FIELD
 LOC .      S34 T39N R78W:   LOCATION
 CNTY.            NATRONA:   COUNTY
 STAT.            WYOMING:   STATE
 CTRY. UNITED STATES OF AMERICA:   COUNTRY
 SRVC.           BIRDWELL:   SERVICE COMPANY
 DATE.        05-AUG-1978:   LOGDATE
 API .       490251068200:   API NUMBER
~CURVE INFORMATION
#MNEM.UNIT       API CODE    CURVE DESCRIPTION
#----------   ------------   ------------------------------
 DEPT.F                  :   
 SPR .MV     05 010 01 00:   SPONTANEOUS POTENTIAL FROM RES.
 IL  .OHMM   05 120 00 00:   INDUCTION LOG
 SN  .OHMM   05 040 16 00:   SHORT NORMAL 16"
 GRD .GAPI   45 310 01 00:   GAMMA RAY FROM DENSITY LOG
 CALD.IN     45 280 60 00:   CALIPER
 RHOB.G/C3   45 350 01 00:   BULK DENSITY
 DPHI.DEC    45 890 12 00:   DENSITY POROSITY SANDSTONE
 CORR.G/C3   45 356 01 00:   DENSITY CORRECTION
~PARAMETER INFORMATION
#MNEM.UNIT          VALUE    DESCRIPTION
#----------   ------------   ------------------------------
 PD  .                 GL:   PERMANENT DATUM
 EPD .F              5191:   ELEVATION PERMANENT DATUM
 LMF .                 KB:   LOG MEASURED FROM
 DAPD.F                 4:   FEET ABOVE PERMANENT DATUM
 DMF .                 KB:   DRILLING MEASURED FROM
 EKB .F              5195:   KELLING BUSHING
 EGL .F              5191:   GROUND LEVEL
 DATE.             8-5-78:   RUN DATE
 RUN .                  1:   RUN NUMBER
 DD  .F               570:   DEPTH DRILLER
 DL  .F               586:   DEPTH LOGGER
 BLI .F               580:   BOTTOM LOG INTERVAL
 TLI .F                30:   TOP LOG INTERVAL
 CS  .IN            8.625:   CASING SIZE
 BS  .IN            7.875:   BIT SIZE
 BSD .F               570:   BIT SIZE AT DEPTH
 DFT .                KCL:   DRILLING FLUID TYPE
 DFD .                8.6:   DRILLING FLUID DENSITY
 DFV .                 32:   DRILLING FLUID VISCOSITY
 DFPH.                9.5:   DRILLING FLUID PH
 MSS .          FLOW LINE:   MUD SAMPLE SOURCE
 RMS .OHMM             .9:   RESISTIVITY MUD SAMPLE
 MST .F                74:   MUD SAMPLE TEMPERATURE
 RMF .OHMM            .17:   RESISTIVITY MUD FILTRATE SAMPLE
 MFST.F                79:   MUD FILTRATE SAMPLE TEMPERATURE
 RMC .OHMM            .42:   RESISTIVITY MUD CAKE
 MCST.F                80:   MUD CAKE SAMPLE TEMPERATURE
 MFSS.               MEAS:   MUD FILTRATE SAMPLE SOURCE
 TCS .HRS               3:   TIME CURCULATED STOPPED
 LUN .               3006:   LOGGING UNIT NUMBER
 LUL .               CASP:   LOGGING UNIT LOCATION
 ENGI.             MILLER:   RECORDING ENGINEER
 WITN.           MCGINLEY:   WITNESSED BY
 CLNT.            A2DTECH:   CLIENT CODE
 ORIG.           5" PRINT:   ORIGIN OF DATA
 UWI .       490251068200:   UNIQUE WELL ID
 DICO. A2D Technologies, Inc.:   DIGITIZING COMPANY
~OTHER INFORMATION
~A   DEPT      SPR         IL         SN         GRD      CALD       RHOB       DPHI       CORR   
# ...
  172.0000   -14.9000     7.1110     6.2630    90.4400     7.4330     2.4770     0.1200     0.0050
  172.5000   -14.9000     7.1110     6.3680    89.7350     7.4480     2.4740     0.1280     0.0050
  173.0000   -14.9000     7.1770     6.3680    90.0530     7.4560     2.4690     0.1280     0.0040
  173.5000   -14.9000     7.1770     6.3680    90.4090     7.4620     2.4650     0.1280     0.0040
  174.0000   -14.9000     7.1770     6.3680    90.7210     7.5120     2.4640     0.1270     0.0030
  174.5000   -14.9000     7.1770     6.3680    89.9910     7.5690     2.4660     0.1250     0.0020
  175.0000   -14.9000     7.1770     6.3680    89.3440     7.6270     2.4700     0.1240     0.0020
  175.5000   -14.9000     7.1770     6.3680    89.5330     7.6250     2.4750     0.1230     0.0010
  176.0000   -14.9000     7.1770     6.3680    90.0910     7.6250     2.4760     0.1230     0.0010
  176.5000   -14.9000     7.1770     6.3680    89.7100     7.6460     2.4770     0.1220     0.0000
  177.0000   -14.9000     7.1770     6.3680    89.3300     7.7000     2.4770     0.1220     0.0000
  177.5000   -14.9000     7.1770     6.3720    90.2610     7.7540     2.4760     0.1210    -0.0010
  178.0000   -14.9000     7.1770     6.3810    93.1580     7.7640     2.4770     0.1190     0.0000
  178.5000   -14.9000     7.1770     6.3900    94.5310     7.7640     2.4820     0.1160     0.0050
  179.0000   -14.9000     7.1770     6.3990    93.3630     7.7640     2.4890     0.1140     0.0100
  179.5000   -14.9000     7.1740     6.4080    93.9960     7.7640     2.4950     0.1110     0.0160
  180.0000   -14.9000     7.1700     6.4170    93.4590     7.7640     2.5000     0.1100     0.0150
  180.5000   -14.9000     7.1670     6.4260    91.9450     7.7640     2.4930     0.1130     0.0100
  181.0000   -14.9000     7.1640     6.3970    92.7800     7.7640     2.4870     0.1180     0.0060
  181.5000   -14.9000     7.1600     6.3610    91.5720     7.7640     2.4860     0.1220     0.0020
  182.0000   -14.9000     7.1570     6.3250    89.5030     7.7640     2.4740     0.1270    -0.0030
  182.5000   -14.9000     7.1540     6.2880    90.5000     7.7640     2.4580     0.1310    -0.0050
  183.0000   -14.9000     7.1500     6.2520    93.1560     7.7640     2.4660     0.1290    -0.0050
  183.5000   -14.9000     7.1470     6.1950    95.7710     7.7640     2.4640     0.1270    -0.0050
  184.0000   -14.9000     7.1430     6.1970    98.3990     7.7640     2.4600     0.1310    -0.0050
  184.5000   -14.9060     7.1400     6.2010    99.4980     7.7640     2.4570     0.1320    -0.0040
  185.0000   -14.9130     7.1370     6.2060    98.4740     7.7640     2.4560     0.1320    -0.0020
  185.5000   -14.9210     7.1330     6.2100    97.3330     7.7640     2.4610     0.1270     0.0040
  186.0000   -14.9290     7.1300     6.2150    96.2900     7.7640     2.4720     0.1210     0.0110
  186.5000   -14.9360     7.1260     6.2190    97.2790     7.7640     2.4840     0.1130     0.0180
  187.0000   -14.9440     7.1230     6.2230    98.4930     7.7640     2.4870     0.1150     0.0170
  187.5000   -14.9520     7.1200     6.2280    97.6510     7.7640     2.4820     0.1200     0.0100
  188.0000   -14.9590     7.1160     6.2320    96.0680     7.7640     2.4770     0.1230     0.0030
  188.5000   -14.9670     7.1130     6.2370    94.4880     7.7640     2.4810     0.1210    -0.0010
  189.0000   -14.9740     7.0960     6.2410    94.9250     7.7640     2.4830     0.1200    -0.0010
  189.5000   -14.9820     7.0620     6.2450    94.8150     7.7640     2.4810     0.1220    -0.0020
  190.0000   -14.9900     7.0290     6.2500    93.9470     7.7640     2.4800     0.1210    -0.0020
  190.5000   -14.9970     6.9960     6.2530    95.2270     7.7640     2.4790     0.1170    -0.0020
  191.0000   -15.0050     6.9620     6.2390    94.3860     7.7640     2.4870     0.1150    -0.0020
  191.5000   -15.0120     6.9290     6.2260    92.9340     7.7650     2.4920     0.1260    -0.0030
  192.0000   -15.0200     6.9180     6.2130    96.3340     7.7720     2.4710     0.1260    -0.0030
  192.5000   -15.0280     6.9630     6.2000    95.4030     7.7790     2.4750     0.1210     0.0010
  193.0000   -15.0350     7.0600     6.1870    94.4590     7.7870     2.4820     0.1160     0.0040
  193.5000   -15.0430     7.1110     6.1740    98.9590     7.7950     2.4880     0.1130     0.0070
  194.0000   -15.0510     7.0810     6.1610   100.4100     7.8020     2.4950     0.1120     0.0070
  194.5000   -15.0580     7.0460     6.1470    93.3980     7.8100     2.4960     0.1130     0.0040
  195.0000   -15.0660     7.0110     6.1390    89.4000     7.8180     2.4910     0.1150     0.0020
  195.5000   -15.0730     6.9760     6.1930    93.2600     7.8250     2.4860     0.1170    -0.0010
  196.0000   -15.0810     6.9420     6.1940    98.9070     7.8330     2.4810     0.1200    -0.0030
  196.5000   -15.0880     6.9070     6.1950   101.1950     7.8410     2.4780     0.1220    -0.0060
  197.0000   -15.0960     6.8720     6.1950   103.2150     7.8550     2.4760     0.1230    -0.0080
  197.5000   -15.0690     6.7920     6.1950    98.9300     7.8750     2.4740     0.1240    -0.0110
  198.0000   -15.0080     6.8390     6.1950    92.0920     7.8940     2.4720     0.1250    -0.0130
  198.5000   -14.9480     6.9070     6.1950    94.6090     7.9240     2.4710     0.1260    -0.0150
  199.0000   -14.8880     6.9760     6.1950    99.1180     7.9630     2.4700     0.1260    -0.0100
  199.5000   -14.8270     7.0440     6.1960   101.2640     8.0010     2.4690     0.1240    -0.0050
  200.0000   -14.7660     7.1130     6.1940    96.3590     8.0420     2.4740     0.1220     0.0000
  200.5000   -14.7050     7.1810     6.2720    90.8730     8.0220     2.4800     0.1200     0.0050
  201.0000   -14.7820     7.2430     6.3580    88.2730     7.9790     2.4840     0.1180     0.0040
  201.5000   -14.8720     7.2350     6.4440    91.3870     7.9360     2.4840     0.1190     0.0010
  202.0000   -14.9630     7.2190     6.4860    93.5520     7.8930     2.4820     0.1200    -0.0010
  202.5000   -15.0530     7.2030     6.4520    93.6820     7.8500     2.4810     0.1210    -0.0030
  203.0000   -15.1440     7.1870     6.4200    94.1250     7.8070     2.4790     0.1220    -0.0010
  203.5000   -15.2320     7.1700     6.3880    96.5330     7.7630     2.4780     0.1230     0.0030
  204.0000   -15.2670     7.1540     6.3570    99.0350     7.7450     2.4760     0.1220     0.0070
  204.5000   -15.1310     7.1380     6.3250   101.2570     7.7440     2.4770     0.1200     0.0110
  205.0000   -14.9980     7.1220     6.2930    99.5210     7.7430     2.4800     0.1190     0.0100
  205.5000   -14.8670     7.1010     6.2520    97.2110     7.7410     2.4730     0.1290     0.0030
  206.0000   -14.7350     7.0680     6.2570    94.8800     7.7400     2.4620     0.1280    -0.0040
  206.5000   -14.6030     7.0350     6.2660    93.6660     7.7380     2.4630     0.1250    -0.0110
  207.0000   -14.4720     7.0020     6.2760    93.2080     7.7370     2.4740     0.1240    -0.0090
  207.5000   -14.3400     6.9690     6.2850    93.1760     7.7360     2.4740     0.1250    -0.0050
  208.0000   -14.2080     6.9370     6.2940    93.3910     7.7340     2.4710     0.1250    -0.0010
  208.5000   -14.0760     6.9040     6.3040    95.0400     7.7330     2.4710     0.1190     0.0020
  209.0000   -13.9400     6.8710     6.3100    98.0580     7.7320     2.4860     0.1150     0.0050
  209.5000   -13.8530     6.8540     6.1950   101.0650     7.7300     2.4910     0.1180     0.0030
  210.0000   -13.7800     6.8540     6.1060   102.6570     7.7290     2.4860     0.1210     0.0020
  210.5000   -13.7070     6.8540     6.0270    99.4880     7.7270     2.4800     0.1220     0.0000
  211.0000   -13.6340     6.8540     6.0350    94.5350     7.7260     2.4790     0.1210    -0.0010
  211.5000   -13.5620     6.8540     6.0470    92.5980     7.7250     2.4810     0.1200    -0.0020
  212.0000   -13.4890     6.8540     6.0590    92.2840     7.7080     2.4840     0.1180    -0.0040
