~VERSION INFORMATION
 VERS.                2.0:   CWLS LOG ASCII STANDARD - VERSION 2.0
 WRAP.                 NO:   ONE LINE PER DEPTH STEP
~WELL INFORMATION
#MNEM.UNIT      DATA TYPE    INFORMATION
#----------   ------------   ------------------------------
 STRT.F            3.0000:   START DEPTH
 STOP.F          515.0000:   STOP DEPTH
 STEP.F            0.5000:   STEP LENGTH
 NULL.          -999.2500:   NO VALUE
 COMP. LAWRENCE/ALLISON INC:   COMPANY
 WELL.      77-35 SX #3-3:   WELL
 FLD .             TEAPOT:   FIELD
 LOC .       S3 T38N R78W:   LOCATION
 CNTY.            NATRONA:   COUNTY
 STAT.            WYOMING:   STATE
 CTRY. UNITED STATES OF AMERICA:   COUNTRY
 SRVC.           Gearhart:   SERVICE COMPANY
 DATE.        24-JUN-1988:   LOGDATE
 API .       490251123200:   API NUMBER
~CURVE INFORMATION
#MNEM.UNIT       API CODE    CURVE DESCRIPTION
#----------   ------------   ------------------------------
 DEPT.F                  :   
 GRR .GAPI   07 310 01 00:   GAMMA RAY
 RILD.OHMM   07 120 46 00:   INDUCTION LOG DEEP RESISTIVITY
 RILM.OHMM   07 120 44 00:   INDUCTION LOG MEDIUM RESISTIVITY
~PARAMETER INFORMATION
#MNEM.UNIT          VALUE    DESCRIPTION
#----------   ------------   ------------------------------
 PD  .                 GL:   PERMANENT DATUM
 EPD .F              5154:   ELEVATION PERMANENT DATUM
 LMF .                 KB:   LOG MEASURED FROM
 DAPD.F                10:   FEET ABOVE PERMANENT DATUM
 DMF .                 KB:   DRILLING MEASURED FROM
 EKB .F              5164:   KELLING BUSHING
 EGL .F              5154:   GROUND LEVEL
 DATE.        24-JUN-1988:   RUN DATE
 RUN .                  1:   RUN NUMBER
 DD  .F               520:   DEPTH DRILLER
 DL  .F               523:   DEPTH LOGGER
 BLI .F             514.5:   BOTTOM LOG INTERVAL
 TLI .F                50:   TOP LOG INTERVAL
 CS  .IN            9.625:   CASING SIZE
 CBD .F                50:   CASING BOTTOM DRILLER
 CBL .F                50:   CASING BOTTOM LOGGER
 BS  .IN             8.75:   BIT SIZE
 BSD .F               520:   BIT SIZE AT DEPTH
 DFT .                AIR:   DRILLING FLUID TYPE
 TLAB.HRS            0645:   TIME LOGGER AT BOTTOM
 MRT .F                70:   MAXIMUM RECORDED TEMPERATURE
 LUN .               7597:   LOGGING UNIT NUMBER
 LUL .           GILLETTE:   LOGGING UNIT LOCATION
 ENGI.          HUCKFELDT:   RECORDING ENGINEER
 WITN.             STRONG:   WITNESSED BY
 CLNT.            A2DTECH:   CLIENT CODE
 ORIG.           5" PRINT:   ORIGIN OF DATA
 UWI .       490251123200:   UNIQUE WELL ID
 DICO. A2D Technologies, Inc.:   DIGITIZING COMPANY
~OTHER INFORMATION
~A    DEPT      GRR      RILD       RILM   
# ...
  367.0000   116.4085    14.1216    13.9676
  367.5000   121.4829    13.9248    13.5945
  368.0000   125.1625    13.7307    13.0341
  368.5000   125.4831    13.5394    12.6728
  369.0000   120.3265    13.5359    12.4080
  369.5000   120.0375    13.4433    12.1487
  370.0000   120.6735    13.4424    11.9783
  370.5000   121.3044    13.5356    11.8103
  371.0000   121.0205    13.6295    11.8087
  371.5000   121.0416    13.9169    11.8903
  372.0000   124.1114    14.3101    12.1408
  372.5000   127.4862    14.7144    12.5706
  373.0000   127.8121    15.5587    13.1995
  373.5000   126.0039    16.9174    14.2530
  374.0000   120.5371    18.9159    15.7303
  374.5000   110.1924    21.4478    18.0544
  375.0000   100.1524    25.3592    21.4285
  375.5000    93.6899    27.9616    26.9178
  376.0000    89.7640    31.0471    32.2810
  376.5000    87.0580    33.9950    38.9844
  377.0000    84.0834    35.9456    41.8026
  377.5000    82.2752    36.7041    42.6845
  378.0000    81.0715    36.9587    42.6772
  378.5000    89.3295    36.6888    39.5118
  379.0000    95.7530    35.9123    36.8379
  379.5000   102.7863    34.6648    35.3193
  380.0000   106.1610    33.0421    34.1009
  380.5000   107.4016    32.3549    33.1556
  381.0000   105.2885    32.1276    32.9200
  381.5000    99.2120    32.1253    32.2321
  382.0000    96.7940    32.1231    31.7682
  382.5000    97.1200    31.2362    30.8739
  383.0000    98.3605    29.5370    29.7955
  383.5000   102.9548    28.5216    28.8031
  384.0000   105.7197    27.7341    27.6157
  384.5000   107.8750    27.1573    26.6631
  385.0000   109.1159    26.7788    25.7433
  385.5000   107.9170    26.4056    25.0297
  386.0000   106.0040    26.2200    24.6787
  386.5000   108.5742    25.6747    24.3326
  387.0000   110.7294    25.6729    23.9913
  387.5000   111.3602    25.6712    23.8208
  388.0000   110.4666    26.2128    24.3225
  388.5000   108.9633    26.3947    25.0092
  389.0000   108.3693    25.9978    25.7150
  389.5000   108.3957    25.8435    25.7114
  390.0000   109.0265    25.8417    24.9986
  390.5000   110.5719    26.2033    24.3057
  391.0000   111.2028    26.7562    24.1322
  391.5000   111.2238    27.1311    24.2991
  392.0000   110.6351    27.5103    24.8100
  392.5000   108.5220    27.5084    25.3325
  393.0000   105.7992    27.5065    26.2304
  393.5000   103.0764    27.1231    26.5971
  394.0000   100.3373    26.9325    26.5925
  394.5000    98.5453    26.3724    25.8554
  395.0000    98.6076    25.6442    25.1387
  395.5000   100.5315    24.9361    24.2715
  396.0000   105.0162    24.2476    23.4342
  396.5000   107.4763    23.5781    22.6258
  397.0000   105.9730    23.0856    21.9986
  397.5000   104.4696    22.7553    21.3863
  398.0000   106.0151    22.2924    20.9301
  398.5000   109.6947    21.9552    20.5042
  399.0000   112.4596    21.5242    20.0751
  399.5000   111.8709    21.0765    19.6556
  400.0000   110.4507    21.0490    19.2305
  400.5000   109.4704    20.7272    19.0457
  401.0000   110.1063    20.4053    18.9724
  401.5000   111.9565    20.0835    19.1036
  402.0000   114.1116    19.7800    19.3700
  402.5000   113.5175    19.5030    19.3667
  403.0000   113.8485    19.3647    19.2291
  403.5000   114.4792    19.2273    18.9594
  404.0000   119.3782    18.8261    18.6900
  404.5000   122.4479    18.6925    18.3028
  405.0000   118.6893    18.3025    17.7950
  405.5000   114.2633    17.9206    17.0614
  406.0000   112.4497    17.5467    16.4728
  406.5000   114.9149    17.3009    16.0162
  407.0000   116.4602    16.8221    15.5723
  407.5000   116.1710    16.5865    15.1406
  408.0000   115.8923    16.2404    14.8242
  408.5000   114.9933    15.8993    14.6163
  409.0000   115.3244    15.4614    14.6143
  409.5000   115.0404    15.3516    14.6123
  410.0000   114.4516    15.2423    14.6103
  410.5000   108.9769    15.0288    14.5064
  411.0000   107.1484    14.7152    14.1039
  411.5000   107.2510    14.5092    13.8092
  412.0000   110.2722    14.4062    13.5207
  412.5000   110.2931    14.2045    13.2382
  413.0000   110.3140    14.1037    13.0525
  413.5000   110.9447    13.9062    13.0507
  414.0000   114.6242    13.8075    12.9580
  414.5000   117.3890    13.7095    12.8659
  415.0000   116.4901    13.7077    12.8642
  415.5000   115.9012    13.7058    12.7728
  416.0000   115.9274    13.7039    12.7710
  416.5000   116.8629    13.7020    12.7688
  417.0000   118.1199    13.7039    12.7671
  417.5000   119.4256    13.7942    12.8554
  418.0000   120.8944    13.7922    13.0346
  418.5000   121.8299    13.7900    13.1243
  419.0000   122.7655    13.7881    13.3074
  419.5000   122.7864    13.8832    13.3989
  420.0000   122.5024    13.9786    13.4911
  420.5000   121.6087    14.0741    13.4888
  421.0000   120.1053    13.9743    13.3929
  421.5000   119.2063    13.9723    13.0109
  422.0000   120.7569    13.8732    12.6607
  422.5000   124.1314    13.6789    12.3958
  423.0000   127.2091    13.4874    12.3077
  423.5000   128.7754    13.2985    12.1351
  424.0000   129.0723    13.0210    12.0489
  424.5000   126.9643    12.9286    11.9633
  425.0000   127.2901    12.6589    11.7955
  425.5000   130.6646    12.5690    11.6301
  426.0000   133.1246    12.4694    11.6285
  426.5000   134.0602    12.3912    11.5459
  427.0000   133.1664    12.3030    11.4638
  427.5000   129.8337    12.3013    11.4623
  428.0000   126.8059    12.2996    11.5411
  428.5000   124.6926    12.2123    11.6205
  429.0000   122.8843    12.1257    11.6185
  429.5000   122.9055    12.1240    11.6169
  430.0000   123.9226    12.1223    11.6153
  430.5000   128.1352    12.1207    11.5328
  431.0000   131.8147    12.1190    11.5312
  431.5000   133.9697    12.1173    11.5297
  432.0000   136.1248    12.2007    11.5281
  432.5000   135.2311    12.2844    11.5265
  433.0000   133.1179    12.2827    11.5249
  433.5000   131.0047    12.2810    11.4430
  434.0000   129.5012    12.1939    11.4411
  434.5000   128.3026    12.1072    11.4395
  435.0000   128.6301    11.9374    11.3582
  435.5000   130.4803    11.7702    11.2775
  436.0000   132.0257    11.6054    11.1974
  436.5000   130.8271    11.5230    10.9634
  437.0000   130.8480    11.2826    10.8855
  437.5000   132.0884    11.1246    10.8082
  438.0000   134.5488    10.9688    10.6566
  438.5000   134.5214    10.8152    10.6552
  439.0000   131.5467    10.6637    10.5726
  439.5000   128.5188    10.5144    10.4179
  440.0000   127.3202    10.3671    10.2128
  440.5000   128.5607    10.1508     9.9994
  441.0000   131.6304     9.8699     9.7904
  441.5000   133.4805     9.5967     9.4527
  442.0000   134.7210     9.2635     8.8130
  442.5000   137.7907     8.8724     8.2166
  443.0000   142.0799     8.3729     7.7143
  443.5000   145.7594     7.4592     7.2428
  444.0000   146.4024     6.7165     6.6588
  444.5000   146.7530     6.1758     5.9872
  445.0000   152.5347     5.9216     5.4150
  445.5000   158.0434     5.8796     4.8588
  446.0000   169.0399     5.8788     4.7241
  446.5000   173.6340     5.9194     5.1012
  447.0000   172.7403     6.1286     5.6646
  447.5000   158.1271     6.4347     6.2029
  448.0000   147.0837     6.9962     6.7923
  448.5000   136.1568     7.6600     7.4900
  449.0000   133.4592     8.5046     8.0314
  449.5000   133.8290     9.0550     8.4924
  450.0000   136.2830     9.5739     9.0429
  450.5000   138.1272     9.8220     9.2597
  451.0000   139.9713    10.0702     9.4765
  451.5000   140.5960    10.3183     9.8928
  452.0000   140.6109    10.4808    10.2422
  452.5000   140.6258    10.6275    10.2379
  453.0000   140.6407    10.7762    10.2344
  453.5000   140.3506    10.8510    10.2309
  454.0000   142.5324    10.9261    10.2274
  454.5000   144.6930    11.1567    10.2956
  455.0000   145.8870    11.2341    10.6574
  455.5000   145.9019    11.3913    11.1103
  456.0000   142.5632    11.5507    11.4216
  456.5000   138.9195    11.8769    11.6598
  457.0000   137.1052    12.2125    11.8210
  457.5000   136.2017    12.3836    11.8989
