~VERSION INFORMATION
 VERS.                2.0:   CWLS LOG ASCII STANDARD - VERSION 2.0
 WRAP.                 NO:   ONE LINE PER DEPTH STEP
~WELL INFORMATION
#MNEM.UNIT      DATA TYPE    INFORMATION
#----------   ------------   ------------------------------
 STRT.F           12.0000:   START DEPTH
 STOP.F          549.0000:   STOP DEPTH
 STEP.F            0.5000:   STEP LENGTH
 NULL.          -999.2500:   NO VALUE
 COMP. LAWRENCE/ALLISON INC:   COMPANY
 WELL.  58-64-1 SX 3 #3-3:   WELL
 FLD .             TEAPOT:   FIELD
 LOC .       S3 T38N R78W:   LOCATION
 CNTY.            NATRONA:   COUNTY
 STAT.            WYOMING:   STATE
 CTRY. UNITED STATES OF AMERICA:   COUNTRY
 SRVC.      Dresser Atlas:   SERVICE COMPANY
 DATE.        05-DEC-1984:   LOGDATE
 API .       490251117800:   API NUMBER
~CURVE INFORMATION
#MNEM.UNIT       API CODE    CURVE DESCRIPTION
#----------   ------------   ------------------------------
 DEPT.F                  :   
 RFOC.OHMM   07 220 04 00:   RESISTIVITY FOCUSED LOG
 RILD.OHMM   07 120 46 00:   INDUCTION LOG DEEP RESISTIVITY
 RILM.OHMM   07 120 44 00:   INDUCTION LOG MEDIUM RESISTIVITY
 SPR .MV     07 010 01 00:   SPONTANEOUS POTENTIAL
 CALD.IN     45 280 60 00:   CALIPER FROM DENSITY LOG
 CNC .DEC    42 890 03 00:   NEUTRON POROSITY SANDSTONE
 CORR.G/C3   45 356 01 00:   DENSITY CORRECTION
 DEN .G/C3   45 350 01 00:   COMPENSATED BULK DENSTIY
 GRD .GAPI   45 310 01 00:   GAMMA RAY FROM DENSITY LOG
 PORD.DEC    45 890 12 00:   POROSITY DENSITY SANDSTONE
 DT  .US/F   60 520 00 00:   INTERVAL TRANSIT TIME
~PARAMETER INFORMATION
#MNEM.UNIT          VALUE    DESCRIPTION
#----------   ------------   ------------------------------
 PD  .                 GL:   PERMANENT DATUM
 EPD .F              5188:   ELEVATION PERMANENT DATUM
 LMF .                 KB:   LOG MEASURED FROM
 DMF .                 KB:   DRILLING MEASURED FROM
 EGL .F              5188:   GROUND LEVEL
 DATE.         5-DEC-1984:   RUN DATE
 RUN .                  1:   RUN NUMBER
 DD  .F               556:   DEPTH DRILLER
 DL  .F               551:   DEPTH LOGGER
 BLI .F               549:   BOTTOM LOG INTERVAL
 CS  .IN            8.625:   CASING SIZE
 CBD .F                20:   CASING BOTTOM DRILLER
 CBL .F                20:   CASING BOTTOM LOGGER
 BS  .IN            7.875:   BIT SIZE
 BSD .F               556:   BIT SIZE AT DEPTH
 DFT .          KCL WATER:   DRILLING FLUID TYPE
 MSS .           FLOWLINE:   MUD SAMPLE SOURCE
 RMS .OHMM            .36:   RESISTIVITY MUD SAMPLE
 MST .F                70:   MUD SAMPLE TEMPERATURE
 RMF .OHMM            .26:   RESISTIVITY MUD FILTRATE SAMPLE
 MFST.F                70:   MUD FILTRATE SAMPLE TEMPERATURE
 RMC .OHMM            .46:   RESISTIVITY MUD CAKE
 MCST.F                70:   MUD CAKE SAMPLE TEMPERATURE
 MFSS.               CALC:   MUD FILTRATE SAMPLE SOURCE
 MCSS.               CALC:   MUD CAKE SAMPLE SOURCE
 RMB .OHMM            .29:   RESISTIVITY MUD AT BHT
 BHT .F                85:   BOTTOM HOLE TEMPERATURE
 TCS .HRS               3:   TIME CURCULATED STOPPED
 MRT .F               100:   MAXIMUM RECORDED TEMPERATURE
 LUN .               6274:   LOGGING UNIT NUMBER
 LUL .               GLTE:   LOGGING UNIT LOCATION
 ENGI.             RAUTIO:   RECORDING ENGINEER
 WITN.       GROOMS/LUERS:   WITNESSED BY
 CLNT.            A2DTECH:   CLIENT CODE
 ORIG.         2.5" PRINT:   ORIGIN OF DATA
 UWI .       490251117800:   UNIQUE WELL ID
 DICO. A2D Technologies, Inc.:   DIGITIZING COMPANY
~OTHER INFORMATION
~A   DEPT     RFOC       RILD       RILM        SPR       CALD        CNC       CORR        DEN         GRD      PORD         DT   
# ...
   73.0000     8.7761     8.6673     8.5510   -61.6535     8.0789     0.3077     0.0319     2.4691   119.3128     0.1204   107.3802
   73.5000     8.7721     8.6653     8.5468   -61.3638     8.0784     0.3065     0.0258     2.4659   118.7019     0.1237   107.6826
   74.0000     8.8913     8.6633     8.5425   -61.3757     8.0779     0.3007     0.0258     2.4633   118.0910     0.1256   107.5325
   74.5000     9.0113     8.6613     8.5383   -61.0821     8.0774     0.2929     0.0198     2.4624   118.6960     0.1274   107.3824
   75.0000     9.1334     8.6593     8.5340   -60.7903     8.0770     0.2924     0.0137     2.4640   119.3009     0.1280   107.0815
   75.5000     9.2574     8.6573     8.6485   -60.4998     8.0765     0.2894     0.0106     2.4710   118.6332     0.1250   106.6298
   76.0000     9.5140     8.6553     8.7653   -60.8157     8.0761     0.2840     0.0137     2.4822   115.4204     0.1202   106.0272
   76.5000     9.6429     8.6654     8.8838   -61.4356     8.0756     0.2799     0.0139     2.4883   110.6109     0.1160   105.2738
   77.0000     9.7736     8.8956     8.8794   -61.4475     8.0752     0.2774     0.0198     2.4928   109.5626     0.1118   104.6712
   77.5000     9.9059     9.0390     9.0001   -61.4595     8.0748     0.2794     0.0233     2.4928   111.5248     0.1087   104.0687
   78.0000     9.9013     9.2962     9.1216   -61.1672     8.1045     0.2841     0.0258     2.4883   110.8693     0.1132   103.7678
   78.5000    10.0355     9.4598     9.2443   -60.8754     8.1041     0.2829     0.0228     2.4853   107.1337     0.1155   103.4668
   79.0000    10.0432     9.8329     9.5005   -60.5836     8.1036     0.2792     0.0198     2.4853   104.6875     0.1155   103.4676
   79.5000    10.1834    10.0153     9.6289   -60.5955     8.1032     0.2751     0.0259     2.4868   106.4103     0.1154   103.4683
   80.0000    10.4489    10.5461     9.8957   -60.3036     8.1027     0.2747     0.0380     2.4883   107.6798     0.1135   102.8658
   80.5000    10.6431    10.8462    10.1700   -60.0116     8.1325     0.2764     0.0373     2.4914   109.2452     0.1125   101.9540
   81.0000    10.9154    11.0932    10.4518   -59.7196     8.1389     0.2770     0.0253     2.4914   106.9605     0.1123   101.0272
   81.5000    11.2605    11.3138    10.8919   -59.7325     8.1618     0.2764     0.0228     2.4914   104.6712     0.1117    99.7836
   82.0000    11.6578    11.5602    11.1938   -59.4396     8.1613     0.2746     0.0220     2.4938   107.7077     0.1096    98.4495
   82.5000    11.8157    11.7194    11.5040   -59.4529     8.1609     0.2722     0.0118     2.5013   109.5289     0.1034    97.7036
   83.0000    12.0295    11.9696    11.6595   -59.4650     8.1604     0.2704     0.0054     2.5044   105.8780     0.0999    97.1387
   83.5000    12.1975    12.1401    11.6537   -59.1715     8.1600     0.2686     0.0015     2.5081   102.2277     0.1042    96.9623
   84.0000    12.3024    12.2104    11.8112   -59.1854     8.1595     0.2680     0.0043     2.5045   101.6168     0.1044    96.6576
   84.5000    12.1258    12.2071    11.8051   -58.8915     8.1591     0.2681     0.0106     2.5051   103.4375     0.1024    96.1682
   85.0000    12.1201    12.2043    11.7992   -58.7893     8.1585     0.2668     0.0090     2.5058   102.2188     0.1018    95.7466
   85.5000    12.1145    12.2015    11.7934   -58.9179     8.1581     0.2653     0.0046     2.5002    98.5684     0.1073    95.3325
   86.0000    12.0246    12.1987    11.7875   -58.7619     8.1576     0.2624     0.0015     2.4884    96.1337     0.1158    95.8160
   86.5000    11.9361    12.1959    11.7817   -59.0876     8.1572     0.2605     0.0076     2.4702    95.5229     0.1237    96.6388
   87.0000    11.9305    12.0247    11.6131   -59.2584     8.1567     0.2595     0.0137     2.4581    96.2006     0.1291    97.2504
   87.5000    11.8274    12.0219    11.6073   -59.2705     8.1563     0.2585     0.0228     2.4550    97.5431     0.1316    97.6546
   88.0000    11.7538    11.8531    11.4413   -59.4569     8.1559     0.2568     0.0380     2.4596   100.5471     0.1303    98.0513
   88.5000    11.7484    11.6867    11.2242   -59.6011     8.1554     0.2571     0.0441     2.4642   104.9453     0.1278    98.2670
   89.0000    11.5808    11.5226    10.7557   -59.6131     8.1550     0.2593     0.0502     2.4672   106.4503     0.1254    98.7240
   89.5000    11.1023    11.3608    10.4512   -59.6251     8.1545     0.2586     0.0471     2.4703   106.4468     0.1229    99.1018
   90.0000    10.9439    11.0465    10.2976   -59.3331     8.1541     0.2562     0.0255     2.4672   107.5380     0.1244    99.7134
   90.5000    10.6387    10.7409    10.2107   -59.3451     8.1536     0.2532     0.0069     2.4596   106.5056     0.1293   100.3250
   91.0000    10.6338    10.4437    10.2057   -59.3570     8.1532     0.2526    -0.0046     2.4566   104.0142     0.1325   100.7029
   91.5000    10.6290    10.4559    10.2741   -59.3690     8.1527     0.2563    -0.0035     2.4581   102.4590     0.1336   101.1599
   92.0000    10.6241    10.7336    10.3384   -59.3810     8.1523     0.2611     0.0104     2.4575   101.5684     0.1312   101.3757
   92.5000    10.7680    10.7560    10.4780   -59.3929     8.1518     0.2599     0.0375     2.4513   102.7806     0.1322   101.0748
   93.0000    10.7631    11.0621    10.7673   -59.7089     8.1514     0.2545     0.0502     2.4471   104.6013     0.1355   100.4722
   93.5000    11.0618    11.2197    11.0657   -60.3287     8.1509     0.2503     0.0285     2.4455   105.8146     0.1379    98.6630
   94.0000    11.5280    11.4963    11.0602   -60.3407     8.1505     0.2466     0.0086     2.4473   102.1638     0.1355    96.5521
   94.5000    12.8820    11.4933    11.0548   -60.3527     8.1500     0.2427    -0.0090     2.4646    97.2976     0.1295    94.1396
   95.0000    13.6171    11.4907    11.0494   -60.3647     8.1495     0.2367    -0.0014     2.4855    93.6472     0.1234    92.1796
   95.5000    13.7945    11.4298    11.0440   -60.0727     8.1491     0.2317     0.0076     2.5134    92.4284     0.1065    90.5212
   96.0000    12.3030    11.2641    11.0386   -60.0851     8.1486     0.2287     0.0137     2.5310    94.2492     0.0883    90.2202
   96.5000    11.6422    11.0133    10.7304   -60.0633     8.1481     0.2350     0.0258     2.5204    98.5178     0.0956    95.1984
   97.0000    11.1328    10.7886    10.4308   -59.8046     8.1477     0.2476     0.0471     2.4931   102.2107     0.1073    99.5732
   97.5000    10.3714    10.4852    10.1396   -59.8176     8.1472     0.2597     0.0593     2.4734   104.0274     0.1220   101.2331
   98.0000    10.1035    10.0496     9.8565   -59.8926     8.1468     0.2682     0.0441     2.4613   104.7497     0.1286   102.1388
   98.5000    10.1295     9.8441     9.7156   -60.1459     8.1463     0.2646     0.0167     2.4552   105.7845     0.1316   102.8937
   99.0000    10.2667     9.9792     9.7108   -60.4620     8.1459     0.2562    -0.0106     2.4492   103.5198     0.1342   101.9895
   99.5000    10.4058    10.1172     9.7061   -60.7781     8.1455     0.2445    -0.0167     2.4492   100.2178     0.1373   101.3869
  100.0000    10.5952    10.2565     9.7013   -60.8916     8.1752     0.2488    -0.0046     2.4522    96.6565     0.1382   100.7843
  100.5000    10.6896    10.3978     9.8363   -61.4144     8.1723     0.2548     0.0121     2.4585    99.7457     0.1324   100.6341
  101.0000    10.5361    10.3951     9.9653   -62.0289     8.1693     0.2663     0.0272     2.4662   102.2270     0.1275   101.1398
  101.5000    10.4608    10.3927     9.9602   -63.2552     8.1663     0.2699     0.0393     2.4739   104.0122     0.1228   101.4965
  102.0000    10.3554    10.3033     9.9553   -62.6578     8.1634     0.2711     0.0484     2.4820   104.5237     0.1185   102.1026
  102.5000    10.2500    10.2022     9.9502   -62.0605     8.1604     0.2760     0.0509     2.4841   104.2199     0.1166   102.5025
  103.0000    10.1446    10.0890     9.9454   -61.1591     8.1574     0.2772     0.0302     2.4756   101.2888     0.1219   102.5988
