~VERSION INFORMATION
 VERS.                2.0:   CWLS LOG ASCII STANDARD - VERSION 2.0
 WRAP.                 NO:   ONE LINE PER DEPTH STEP
~WELL INFORMATION
#MNEM.UNIT      DATA TYPE    INFORMATION
#----------   ------------   ------------------------------
 STRT.F           38.0000:   START DEPTH
 STOP.F          483.5000:   STOP DEPTH
 STEP.F            0.5000:   STEP LENGTH
 NULL.          -999.2500:   NO VALUE
 COMP. FENIX & SCISSON INC:   COMPANY
 WELL.    43 SX 10 #43-10:   WELL
 FLD .             TEAPOT:   FIELD
 LOC .      S10 T38N R78W:   LOCATION
 CNTY.            NATRONA:   COUNTY
 STAT.            WYOMING:   STATE
 CTRY. UNITED STATES OF AMERICA:   COUNTRY
 SRVC.            Unknown:   SERVICE COMPANY
 DATE.        12-NOV-1978:   LOGDATE
 API .       490251072700:   API NUMBER
~CURVE INFORMATION
#MNEM.UNIT       API CODE    CURVE DESCRIPTION
#----------   ------------   ------------------------------
 DEPT.F                  :   
 SPR .MV     05 010 01 00:   SPONTANEOUS POTENTIAL FROM RES.
 SN  .OHMM   05 040 16 00:   SHORT NORMAL 16"
 IL  .OHMM   05 120 00 00:   INDUCTION LOG
 GRD .GAPI   45 310 01 00:   GAMMA RAY FROM DENSITY LOG
 CALD.IN     45 280 60 00:   CALIPER
 DEN .G/C3   45 350 01 00:   COMPENSATED BULK DENSTIY
 DPHI.DEC    45 890 12 00:   DENSITY POROSITY SANDSTONE
 CORR.G/C3   45 356 01 00:   DENSITY CORRECTION
~PARAMETER INFORMATION
#MNEM.UNIT          VALUE    DESCRIPTION
#----------   ------------   ------------------------------
 PD  .                 GL:   PERMANENT DATUM
 EPD .F              5193:   ELEVATION PERMANENT DATUM
 LMF .                 KB:   LOG MEASURED FROM
 DAPD.F                 4:   FEET ABOVE PERMANENT DATUM
 DMF .                 KB:   DRILLING MEASURED FROM
 EKB .F              5197:   KELLING BUSHING
 EGL .F              5193:   GROUND LEVEL
 DATE.           11-12-78:   RUN DATE
 RUN .                  1:   RUN NUMBER
 DD  .F               480:   DEPTH DRILLER
 DL  .F               485:   DEPTH LOGGER
 BLI .F               479:   BOTTOM LOG INTERVAL
 TLI .F                50:   TOP LOG INTERVAL
 CS  .IN            8.625:   CASING SIZE
 CBD .F                40:   CASING BOTTOM DRILLER
 CBL .F                45:   CASING BOTTOM LOGGER
 BS  .IN            7.875:   BIT SIZE
 BSD .F               480:   BIT SIZE AT DEPTH
 DFT .            SEA MUD:   DRILLING FLUID TYPE
 DFD .                8.7:   DRILLING FLUID DENSITY
 DFV .                 36:   DRILLING FLUID VISCOSITY
 DFPH.               10.5:   DRILLING FLUID PH
 MSS .            MUD PIT:   MUD SAMPLE SOURCE
 RMS .OHMM            .42:   RESISTIVITY MUD SAMPLE
 MST .F                52:   MUD SAMPLE TEMPERATURE
 RMF .OHMM            .42:   RESISTIVITY MUD FILTRATE SAMPLE
 MFST.F                52:   MUD FILTRATE SAMPLE TEMPERATURE
 RMC .OHMM            .48:   RESISTIVITY MUD CAKE
 MCST.F                54:   MUD CAKE SAMPLE TEMPERATURE
 MFSS.               MEAS:   MUD FILTRATE SAMPLE SOURCE
 MCSS.               MEAS:   MUD CAKE SAMPLE SOURCE
 RMB .OHMM            .34:   RESISTIVITY MUD AT BHT
 BHT .F                71:   BOTTOM HOLE TEMPERATURE
 TCS .HRS               3:   TIME CURCULATED STOPPED
 MRT .F                71:   MAXIMUM RECORDED TEMPERATURE
 LUN .               3006:   LOGGING UNIT NUMBER
 LUL .               CASP:   LOGGING UNIT LOCATION
 ENGI.             MILLER:   RECORDING ENGINEER
 WITN.           DINSMORE:   WITNESSED BY
 CLNT.            A2DTECH:   CLIENT CODE
 ORIG.       2", 5" PRINT:   ORIGIN OF DATA
 UWI .       490251072700:   UNIQUE WELL ID
 DICO. A2D Technologies, Inc.:   DIGITIZING COMPANY
~OTHER INFORMATION
~A   DEPT      SPR         SN         IL         GRD      CALD        DEN       DPHI       CORR   
# ...
  200.0000   -31.2184     7.1512     6.2593   102.4207     8.3346     2.4796     0.1186     0.0721
  200.5000   -30.9955     7.1686     6.1957   100.3521     8.3058     2.4599     0.1304     0.0727
  201.0000   -30.7725     7.1876     6.0715   102.8419     8.2172     2.4401     0.1423     0.0746
  201.5000   -30.5495     7.1469     5.9498   104.6947     8.1060     2.4205     0.1541     0.0847
  202.0000   -30.3292     7.1028     5.8305   104.4652     7.9949     2.4063     0.1665     0.0956
  202.5000   -30.1768     7.0563     5.7136   103.5871     7.8828     2.4267     0.1566     0.1030
  203.0000   -30.1796     6.8196     5.5989   101.6684     7.8765     2.4467     0.1436     0.1037
  203.5000   -30.1792     6.5259     5.4868    99.8076     7.9348     2.4667     0.1307     0.1048
  204.0000   -30.1793     6.2449     5.3502    95.6465     8.0685     2.4865     0.1177     0.0932
  204.5000   -30.1791     5.9759     5.3516    94.7031     8.2510     2.5012     0.1076     0.0790
  205.0000   -30.1796     5.8142     5.3504    95.0054     8.4333     2.4945     0.1110     0.0647
  205.5000   -30.1793     5.8686     5.3500    95.8001     8.5765     2.4882     0.1150     0.0625
  206.0000   -30.4021     6.1690     5.4932    96.9348     8.5674     2.4820     0.1191     0.0625
  206.5000   -31.3426     6.4846     5.7051    99.4877     8.5612     2.4830     0.1212     0.0626
  207.0000   -32.1494     6.8165     5.9660   101.1240     8.5552     2.4892     0.1136     0.0626
  207.5000   -32.2842     7.1653     6.2392    99.9364     8.5493     2.4901     0.1143     0.0626
  208.0000   -32.3887     7.5320     6.5248    98.8212     8.5435     2.4871     0.1150     0.0624
  208.5000   -32.4953     7.7185     6.8233    97.7075     8.5375     2.4889     0.1147     0.0621
  209.0000   -32.6029     7.8684     7.1217    96.3938     8.5407     2.4911     0.1140     0.0618
  209.5000   -32.7106     8.0211     7.1563    97.1147     8.5525     2.4909     0.1132     0.0615
  210.0000   -32.7910     8.1769     7.1876    98.2570     8.5643     2.4867     0.1155     0.0612
  210.5000   -32.8386     8.3356     7.3003    99.4020     8.5737     2.4822     0.1185     0.0609
  211.0000   -32.8867     8.4851     7.4082   101.2048     8.5677     2.4777     0.1215     0.0606
  211.5000   -32.9353     8.4675     7.5177    98.0847     8.5619     2.4744     0.1233     0.0601
  212.0000   -32.9611     8.4511     7.5964    96.1423     8.5562     2.4719     0.1249     0.0597
  212.5000   -32.8072     8.4347     7.5181    95.1970     8.5505     2.4693     0.1264     0.0593
  213.0000   -32.6572     8.4184     7.4312    95.2491     8.5447     2.4698     0.1259     0.0589
  213.5000   -32.5083     8.3754     7.3454    95.2798     8.5391     2.4709     0.1252     0.0583
  214.0000   -32.3594     8.2745     7.2606    95.8991     8.5373     2.4696     0.1256     0.0571
  214.5000   -32.2054     8.1748     7.1767    97.3702     8.5512     2.4680     0.1272     0.0560
  215.0000   -32.1715     8.0763     7.0938    98.1396     8.5645     2.4664     0.1288     0.0549
  215.5000   -32.1709     7.9790     7.0119    98.0863     8.5713     2.4642     0.1304     0.0537
  216.0000   -32.1712     7.8174     6.9309    98.9489     8.5570     2.4580     0.1320     0.0526
  216.5000   -32.1713     7.6379     6.8638   100.8591     8.5436     2.4435     0.1426     0.0535
  217.0000   -32.1715     7.4625     6.5641    99.7980     8.5314     2.4227     0.1537     0.0547
  217.5000   -32.1727     7.2911     6.2653    98.5893     8.5111     2.4018     0.1648     0.0611
  218.0000   -32.1713     7.1236     5.9804    98.2402     8.0713     2.3772     0.1759     0.0680
  218.5000   -32.0731     6.8525     5.7091    98.1407     8.2700     2.3916     0.1833     0.0742
  219.0000   -31.5096     6.5212     5.4499    98.0310     8.4846     2.4154     0.1617     0.0681
  219.5000   -31.1724     6.2058     5.3513    97.9241     8.5065     2.4395     0.1509     0.0615
  220.0000   -31.1783     5.8330     5.3513    97.6914     8.5401     2.4618     0.1348     0.0589
  220.5000   -31.1619     5.6037     5.4384    95.1203     8.1398     2.4666     0.1282     0.0570
  221.0000   -30.8084     5.7866     5.6491    92.8120     7.9595     2.4655     0.1280     0.0551
  221.5000   -30.4491     6.0558     5.8880    95.8298     8.2474     2.4613     0.1306     0.0556
  222.0000   -30.1884     6.5046     6.2138    97.7493     8.4243     2.4569     0.1332     0.0570
  222.5000   -30.2666     6.9866     6.5544   100.5707     8.1967     2.4590     0.1317     0.0585
  223.0000   -30.3377     7.5043     6.9141   101.0662     8.0701     2.4631     0.1302     0.0573
  223.5000   -30.4083     8.0604     7.1876   101.7711     8.1426     2.4653     0.1292     0.0559
  224.0000   -30.4787     8.4855     7.4536   103.5675     8.2565     2.4659     0.1292     0.0545
  224.5000   -30.5492     8.4081     7.7378    99.8928     8.4261     2.4645     0.1295     0.0531
  225.0000   -30.6196     8.3307     7.7268    98.0313     8.4853     2.4630     0.1299     0.0533
  225.5000   -30.6901     8.3846     7.7146    97.9597     8.5009     2.4653     0.1278     0.0546
  226.0000   -30.7605     8.5707     7.7023    98.1586     8.5158     2.4727     0.1241     0.0558
  226.5000   -30.8311     8.8062     7.6901    98.7157     8.5313     2.4799     0.1204     0.0571
  227.0000   -30.9022     8.9677     7.6779    97.9799     8.5346     2.4819     0.1184     0.0584
  227.5000   -30.9727     8.9677     7.6657    95.9716     8.5347     2.4789     0.1193     0.0596
  228.0000   -30.9531     8.9677     7.6535    95.4443     8.5347     2.4754     0.1202     0.0606
  228.5000   -30.9275     8.9677     7.6414    95.0208     8.5346     2.4773     0.1202     0.0606
  229.0000   -30.9023     8.9677     7.6293    96.1972     8.5346     2.4820     0.1179     0.0606
  229.5000   -30.8772     8.9690     7.6171    97.1668     8.5346     2.4869     0.1158     0.0596
  230.0000   -30.8521     8.8509     7.6051    96.9551     8.5346     2.4892     0.1139     0.0583
  230.5000   -30.8270     8.7600     7.5930    96.7643     8.5347     2.4910     0.1121     0.0570
  231.0000   -30.8019     8.6700     7.5809    96.5766     8.5349     2.4942     0.1110     0.0557
  231.5000   -30.7768     8.5809     7.5689    96.3900     8.5346     2.4976     0.1102     0.0544
  232.0000   -30.7517     8.5332     7.5569    96.1637     8.5147     2.4966     0.1102     0.0531
  232.5000   -30.7266     8.4956     7.5449    95.5483     8.4239     2.4890     0.1135     0.0524
  233.0000   -30.7015     8.4580     7.5329    94.7759     8.3360     2.4833     0.1168     0.0521
  233.5000   -30.6764     8.4207     7.5209   101.5033     8.2482     2.4784     0.1200     0.0518
  234.0000   -30.6513     8.3957     7.5090   102.6067     8.1601     2.4774     0.1211     0.0515
  234.5000   -30.6255     8.3482     7.4971   103.0988     8.1434     2.4784     0.1207     0.0512
  235.0000   -30.5979     8.3011     7.4853   102.7995     8.3348     2.4793     0.1202     0.0509
  235.5000   -30.5965     8.2542     7.4733   102.5133     8.5324     2.4784     0.1200     0.0505
  236.0000   -31.0036     8.2076     7.4615   102.3954     8.5882     2.4698     0.1269     0.0520
  236.5000   -31.4091     8.1612     7.3515   102.6867     8.4320     2.4514     0.1369     0.0536
  237.0000   -31.7704     8.1151     7.2016   103.1045     8.3459     2.4322     0.1468     0.0552
  237.5000   -31.7748     8.0692     6.9128   102.9681     8.5062     2.4240     0.1553     0.0565
  238.0000   -31.7732     7.9886     6.5163   102.4913     8.5345     2.4363     0.1435     0.0561
  238.5000   -31.7727     7.5964     6.2427   100.4659     8.5351     2.4527     0.1332     0.0557
  239.0000   -31.7718     7.2515     6.1902    96.4122     8.5347     2.4691     0.1229     0.0553
  239.5000   -31.7764     6.7971     6.1381    95.7251     8.5346     2.4792     0.1192     0.0549
  240.0000   -32.0035     6.7988     6.0865    95.2205     8.5346     2.4725     0.1217     0.0553
