~VERSION INFORMATION
 VERS.                2.0:   CWLS LOG ASCII STANDARD - VERSION 2.0
 WRAP.                 NO:   ONE LINE PER DEPTH STEP
~WELL INFORMATION
#MNEM.UNIT      DATA TYPE    INFORMATION
#----------   ------------   ------------------------------
 STRT.F           17.0000:   START DEPTH
 STOP.F          634.0000:   STOP DEPTH
 STEP.F            0.5000:   STEP LENGTH
 NULL.          -999.2500:   NO VALUE
 COMP. FENIX & SCISSON INC:   COMPANY
 WELL.        NPR 3 #72-3:   WELL
 FLD .             TEAPOT:   FIELD
 LOC .       S3 T38N R78W:   LOCATION
 CNTY.            NATRONA:   COUNTY
 STAT.            WYOMING:   STATE
 CTRY. UNITED STATES OF AMERICA:   COUNTRY
 SRVC.           BIRDWELL:   SERVICE COMPANY
 DATE.        24-SEP-1978:   LOGDATE
 API .       490251069100:   API NUMBER
~CURVE INFORMATION
#MNEM.UNIT       API CODE    CURVE DESCRIPTION
#----------   ------------   ------------------------------
 DEPT.F                  :   
 SPR .MV     05 010 01 00:   SPONTANEOUS POTENTIAL FROM RES.
 SN  .OHMM   05 040 16 00:   SHORT NORMAL 16"
 ILD .OHMM   05 120 46 00:   INDUCTION LOG DEEP
 GRD .GAPI   45 310 01 00:   GAMMA RAY FROM DENSITY LOG
 CALD.IN     45 280 60 00:   CALIPER
 DEN .G/C3   45 350 01 00:   COMPENSATED BULK DENSTIY
 DPHI.DEC    45 890 12 00:   DENSITY POROSITY SANDSTONE
 CORR.G/C3   45 356 01 00:   DENSITY CORRECTION
~PARAMETER INFORMATION
#MNEM.UNIT          VALUE    DESCRIPTION
#----------   ------------   ------------------------------
 PD  .                 GL:   PERMANENT DATUM
 EPD .F              5155:   ELEVATION PERMANENT DATUM
 LMF .                 KB:   LOG MEASURED FROM
 DAPD.F                 4:   FEET ABOVE PERMANENT DATUM
 DMF .                 KB:   DRILLING MEASURED FROM
 EKB .F              5159:   KELLING BUSHING
 EGL .F              5155:   GROUND LEVEL
 DATE.            9-24-78:   RUN DATE
 RUN .                  1:   RUN NUMBER
 DD  .F               635:   DEPTH DRILLER
 DL  .F               634:   DEPTH LOGGER
 BLI .F               627:   BOTTOM LOG INTERVAL
 TLI .F                30:   TOP LOG INTERVAL
 CS  .IN            8.625:   CASING SIZE
 CBD .F                34:   CASING BOTTOM DRILLER
 CBL .F                34:   CASING BOTTOM LOGGER
 BS  .IN            7.875:   BIT SIZE
 BSD .F               635:   BIT SIZE AT DEPTH
 DFT .                KCL:   DRILLING FLUID TYPE
 DFD .                8.7:   DRILLING FLUID DENSITY
 DFV .                 36:   DRILLING FLUID VISCOSITY
 DFPH.                9.5:   DRILLING FLUID PH
 DFL .                8.2:   DRILLING FLUID LOSS
 MSS .          FLOW LINE:   MUD SAMPLE SOURCE
 RMS .OHMM             .2:   RESISTIVITY MUD SAMPLE
 MST .F                68:   MUD SAMPLE TEMPERATURE
 RMF .OHMM            .18:   RESISTIVITY MUD FILTRATE SAMPLE
 MFST.F                76:   MUD FILTRATE SAMPLE TEMPERATURE
 RMC .OHMM            .32:   RESISTIVITY MUD CAKE
 MCST.F                76:   MUD CAKE SAMPLE TEMPERATURE
 MFSS.               MEAS:   MUD FILTRATE SAMPLE SOURCE
 RMB .OHMM             .2:   RESISTIVITY MUD AT BHT
 BHT .F                70:   BOTTOM HOLE TEMPERATURE
 TCS .HRS               3:   TIME CURCULATED STOPPED
 MRT .F                70:   MAXIMUM RECORDED TEMPERATURE
 LUN .               2958:   LOGGING UNIT NUMBER
 LUL .               CASP:   LOGGING UNIT LOCATION
 ENGI.           REYNOLDS:   RECORDING ENGINEER
 WITN.              AMEND:   WITNESSED BY
 CLNT.            A2DTECH:   CLIENT CODE
 ORIG.           5" PRINT:   ORIGIN OF DATA
 UWI .       490251069100:   UNIQUE WELL ID
 DICO. A2D Technologies, Inc.:   DIGITIZING COMPANY
~OTHER INFORMATION
~A   DEPT      SPR         SN        ILD         GRD      CALD        DEN       DPHI       CORR   
# ...
  381.5000   -60.0287     6.8396     5.8932   147.7737     7.6991     2.5162     0.1004     0.0286
  382.0000   -59.9371     6.7399     5.3337   150.4977     7.7117     2.5096     0.1016     0.0334
  382.5000   -59.8456     6.4795     5.3337   151.4743     7.7351     2.4944     0.1217     0.0421
  383.0000   -59.7525     6.2292     5.3332   152.3741     7.7576     2.4640     0.1431     0.0360
  383.5000   -59.7866     5.9886     5.3337   156.9278     7.7378     2.4284     0.1521     0.0166
  384.0000   -59.8603     5.7907     5.3336   157.5102     7.7152     2.4295     0.1465     0.0087
  384.5000   -59.9352     5.7666     5.3341   156.2363     7.6930     2.4544     0.1368     0.0092
  385.0000   -60.0102     5.7416     5.3587   156.1127     7.6851     2.4723     0.1271     0.0109
  385.5000   -60.0840     5.8266     5.3846   150.1019     7.7009     2.4904     0.1174     0.0127
  386.0000   -60.1098     5.9166     5.4106   147.5523     7.7164     2.4990     0.1077     0.0144
  386.5000   -59.9533     6.0079     5.4328   150.2572     7.7319     2.4963     0.1056     0.0162
  387.0000   -59.8018     6.0678     5.4229   151.0901     7.7473     2.4822     0.1197     0.0179
  387.5000   -59.6513     6.0099     5.4144   144.1425     7.7571     2.4683     0.1282     0.0170
  388.0000   -59.5287     5.9336     5.4058   143.3934     7.7461     2.4478     0.1404     0.0159
  388.5000   -59.4986     5.8583     5.3973   146.4920     7.7273     2.4271     0.1525     0.0152
  389.0000   -59.4673     5.7947     5.3889   148.1521     7.7278     2.4203     0.1569     0.0145
  389.5000   -59.4359     5.7947     5.3830   147.2564     7.7660     2.4576     0.1407     0.0140
  390.0000   -59.4045     5.7947     5.4367   145.8610     7.7985     2.4915     0.1223     0.0136
  390.5000   -59.3727     5.8928     5.4946   141.3450     7.7732     2.5092     0.1052     0.0132
  391.0000   -59.3399     6.0808     5.6202   137.3690     7.7443     2.5122     0.1017     0.0127
  391.5000   -59.3932     6.2748     5.8845   137.5889     7.7154     2.5129     0.1003     0.0141
  392.0000   -59.4581     6.4735     6.1613   142.2731     7.6860     2.5129     0.1035     0.0170
  392.5000   -59.5232     6.6555     6.4501   142.0702     7.6627     2.5076     0.1083     0.0200
  393.0000   -59.5882     6.6550     6.7133   139.1843     7.6402     2.4933     0.1114     0.0228
  393.5000   -59.6528     6.6535     6.3360   131.7422     7.6179     2.4916     0.1125     0.0242
  394.0000   -59.7206     6.5821     6.0180   130.3384     7.5991     2.4909     0.1128     0.0256
  394.5000   -59.6323     6.5288     5.7161   134.5567     7.5996     2.4863     0.1172     0.0266
  395.0000   -59.4798     6.4725     5.4293   134.5720     7.5995     2.4758     0.1264     0.0315
  395.5000   -59.3248     6.3813     5.1884   134.6617     7.6119     2.4624     0.1392     0.0483
  396.0000   -59.1702     6.2843     5.1408   134.8721     7.6318     2.4345     0.1512     0.0557
  396.5000   -59.0150     6.0845     5.1408   138.9454     7.6520     2.4197     0.1581     0.0578
  397.0000   -58.9131     5.7890     5.1403   144.9339     7.6721     2.4339     0.1546     0.0562
  397.5000   -58.8181     5.4832     5.1877   140.4218     7.6926     2.4570     0.1398     0.0449
  398.0000   -58.7263     5.4832     5.2356   134.3938     7.6987     2.4804     0.1251     0.0346
  398.5000   -58.6339     5.7701     5.4893   133.8485     7.6843     2.5018     0.1103     0.0327
  399.0000   -58.5389     6.0419     5.7821   132.3622     7.5851     2.5051     0.1085     0.0311
  399.5000   -58.7023     6.3264     6.0905   129.5249     7.4767     2.5095     0.1058     0.0273
  400.0000   -58.8914     6.6244     6.4154   128.2734     7.3827     2.5200     0.1006     0.0226
  400.5000   -59.0886     6.9364     6.7576   128.0965     7.4510     2.5249     0.0954     0.0177
  401.0000   -59.1658     7.2632     7.1181   128.3510     7.5484     2.5232     0.0935     0.0154
  401.5000   -59.2087     7.3776     7.2282   131.2354     7.5595     2.5212     0.0958     0.0137
  402.0000   -59.2503     7.3989     7.2277   135.0417     7.5559     2.5192     0.0984     0.0123
  402.5000   -59.2925     7.4202     7.2283   135.5099     7.6968     2.5196     0.0978     0.0115
  403.0000   -59.3353     7.4954     7.2280   135.5189     7.7757     2.5286     0.0925     0.0107
  403.5000   -59.3377     7.6240     7.2793   135.0966     7.7693     2.5349     0.0868     0.0105
  404.0000   -59.3374     7.7545     7.3516   134.6413     7.7631     2.5333     0.0874     0.0105
  404.5000   -59.3373     7.9256     7.4307   134.4606     7.7566     2.5261     0.0936     0.0105
  405.0000   -59.3369     7.8943     7.4401   135.2188     7.7502     2.5168     0.0989     0.0105
  405.5000   -59.3370     7.8511     7.4522   135.8760     7.7439     2.5075     0.1024     0.0133
  406.0000   -59.3638     7.8081     7.4647   135.2038     7.7424     2.5122     0.1014     0.0188
  406.5000   -59.5537     7.7653     7.4772   133.6449     7.7589     2.5151     0.1004     0.0243
  407.0000   -59.7446     7.7228     7.4898   132.8853     7.7748     2.5156     0.1004     0.0241
  407.5000   -59.9321     7.6805     7.5023   133.7339     7.7907     2.5159     0.0997     0.0235
  408.0000   -59.9406     7.6383     7.5149   134.7126     7.8065     2.5206     0.0984     0.0229
  408.5000   -59.9422     7.5958     7.5276   134.5422     7.8168     2.5262     0.0971     0.0224
  409.0000   -60.0962     7.5690     7.5402   134.5694     7.8052     2.5255     0.0958     0.0218
  409.5000   -60.5316     7.7098     7.5529   136.4268     7.7941     2.5252     0.0944     0.0213
  410.0000   -60.9668     7.8176     7.5660   137.1716     7.7829     2.5320     0.0893     0.0208
  410.5000   -61.1385     7.9280     7.5693   128.4132     7.7837     2.5370     0.0867     0.0210
  411.0000   -61.0230     7.9989     7.5689   123.1504     7.7912     2.5365     0.0865     0.0219
  411.5000   -60.9480     7.8030     7.5689   121.6783     7.7989     2.5359     0.0862     0.0227
  412.0000   -60.7559     7.6603     7.2966   121.8970     7.8065     2.5347     0.0871     0.0235
  412.5000   -60.5195     7.5219     6.5662   123.0454     7.8141     2.5285     0.0950     0.0248
  413.0000   -60.2849     7.3526     5.9089   125.2047     7.8218     2.5120     0.1032     0.0422
  413.5000   -60.0557     7.2958     5.6368   129.0694     7.8295     2.4901     0.1301     0.0494
  414.0000   -59.6363     6.9298     5.8520   132.9265     7.8376     2.4388     0.1582     0.0429
  414.5000   -58.3112     6.5666     5.9570   140.0674     7.8213     2.3834     0.1820     0.0451
  415.0000   -58.2266     6.2225     5.9570   149.7855     7.7992     2.4033     0.1694     0.0477
  415.5000   -57.9119     6.0121     5.9593   145.3652     7.7771     2.4578     0.1474     0.0499
  416.0000   -56.7834     6.0121     5.9514   136.0455     7.7589     2.5114     0.1214     0.0521
  416.5000   -55.7451     6.3170     6.6052   126.4872     7.7791     2.5576     0.0953     0.0522
  417.0000   -55.7238     6.8167     7.5279   124.2878     7.8002     2.5523     0.0813     0.0518
  417.5000   -55.9174     7.3560     9.0925   123.2783     7.8215     2.5436     0.0843     0.0514
  418.0000   -56.1088     7.9379     9.4256   121.7444     7.8378     2.5348     0.0873     0.0509
  418.5000   -56.2862     8.4534     9.7627   122.0371     7.7733     2.5339     0.0892     0.0496
  419.0000   -55.6512     8.7105     9.9777   124.4824     7.7050     2.5392     0.0872     0.0435
  419.5000   -54.1278     8.9483     9.8592   126.9941     7.6550     2.5446     0.0852     0.0375
  420.0000   -53.1610     9.0310     9.7087   126.7732     7.6445     2.5480     0.0844     0.0326
  420.5000   -53.0292     9.1141     9.6168   123.6004     7.6514     2.5409     0.0871     0.0341
  421.0000   -52.9493     9.1851     9.8221   123.9064     7.6733     2.5339     0.0905     0.0355
  421.5000   -52.3181     9.4186    10.4806   128.1819     7.6954     2.5269     0.0949     0.0369
