~VERSION INFORMATION
 VERS.                2.0:   CWLS LOG ASCII STANDARD - VERSION 2.0
 WRAP.                 NO:   ONE LINE PER DEPTH STEP
~WELL INFORMATION
#MNEM.UNIT      DATA TYPE    INFORMATION
#----------   ------------   ------------------------------
 STRT.F           11.0000:   START DEPTH
 STOP.F          804.0000:   STOP DEPTH
 STEP.F            0.1000:   STEP LENGTH
 NULL.          -999.2500:   NO VALUE
 COMP. BROWN JOHN E&C INC:   COMPANY
 WELL. 72-1 STX-34 #72-34:   WELL
 FLD .             TEAPOT:   FIELD
 LOC .      S34 T39N R78W:   LOCATION
 CNTY.            NATRONA:   COUNTY
 STAT.            WYOMING:   STATE
 CTRY. UNITED STATES OF AMERICA:   COUNTRY
 SRVC.     Atlas Wireline:   SERVICE COMPANY
 DATE.        31-JAN-1992:   LOGDATE
 API .       490252250200:   API NUMBER
~CURVE INFORMATION
#MNEM.UNIT       API CODE    CURVE DESCRIPTION
#----------   ------------   ------------------------------
 DEPT.F                  :   
 GRR .GAPI   07 310 01 00:   GAMMA RAY
 RILD.OHMM   07 120 46 00:   INDUCTION LOG DEEP RESISTIVITY
 RILM.OHMM   07 120 44 00:   INDUCTION LOG MEDIUM RESISTIVITY
~PARAMETER INFORMATION
#MNEM.UNIT          VALUE    DESCRIPTION
#----------   ------------   ------------------------------
 PD  .                 GL:   PERMANENT DATUM
 EPD .F              5069:   ELEVATION PERMANENT DATUM
 LMF .                 KB:   LOG MEASURED FROM
 DAPD.F                10:   FEET ABOVE PERMANENT DATUM
 DMF .                 KB:   DRILLING MEASURED FROM
 EKB .F              5079:   KELLING BUSHING
 EDF .F              5078:   DRILLING FLOOR
 EGL .F              5069:   GROUND LEVEL
 DATE.        31-JAN-1992:   RUN DATE
 RUN .                  1:   RUN NUMBER
 DD  .F               814:   DEPTH DRILLER
 DL  .F               813:   DEPTH LOGGER
 BLI .F               804:   BOTTOM LOG INTERVAL
 CS  .IN            9.625:   CASING SIZE
 CBD .F               100:   CASING BOTTOM DRILLER
 CBL .F               104:   CASING BOTTOM LOGGER
 BS  .IN             8.75:   BIT SIZE
 BSD .F               814:   BIT SIZE AT DEPTH
 DFT .                AIR:   DRILLING FLUID TYPE
 MRT .F                90:   MAXIMUM RECORDED TEMPERATURE
 LUN .           HL- 6274:   LOGGING UNIT NUMBER
 LUL .             CASPER:   LOGGING UNIT LOCATION
 ENGI.             RAUTIO:   RECORDING ENGINEER
 WITN.        GARY STRONG:   WITNESSED BY
 CLNT.            A2DTECH:   CLIENT CODE
 ORIG.           5" PRINT:   ORIGIN OF DATA
 UWI .       490252250200:   UNIQUE WELL ID
 DICO. A2D Technologies, Inc.:   DIGITIZING COMPANY
~OTHER INFORMATION
~A   DEPT       GRR      RILD       RILM   
# ...
  739.0000    87.3640    17.2914    17.1133
  739.1000    88.3424    17.2907    17.1125
  739.2000    89.1271    17.2674    17.1118
  739.3000    89.3854    17.1689    17.1111
  739.4000    90.1191    17.1682    17.1104
  739.5000    90.8531    17.1675    17.1097
  739.6000    91.4542    17.1668    17.1090
  739.7000    92.0190    17.1378    17.1083
  739.8000    92.7205    17.0459    17.1074
  739.9000    93.0091    17.0451    17.1068
  740.0000    93.0106    17.0445    17.1061
  740.1000    92.8691    16.9872    17.1054
  740.2000    92.4573    16.9244    17.0946
  740.3000    91.6210    16.9237    16.9849
  740.4000    89.6898    16.9229    16.9015
  740.5000    88.8440    16.8379    16.8058
  740.6000    88.3295    16.8038    16.7105
  740.7000    88.0872    16.7638    16.6304
  740.8000    87.8811    16.6856    16.6297
  740.9000    87.8834    16.6848    16.6290
  741.0000    87.8850    16.5951    16.6283
  741.1000    87.8868    16.5673    16.6276
  741.2000    87.8887    16.5667    16.6269
  741.3000    87.9368    16.5659    16.6262
  741.4000    88.1949    16.5653    16.6255
  741.5000    88.1967    16.5646    16.6248
  741.6000    88.1985    16.4916    16.6241
  741.7000    88.2003    16.4479    16.5987
  741.8000    88.2021    16.4472    16.5072
  741.9000    88.2039    16.4465    16.5065
  742.0000    88.2057    16.4457    16.5058
  742.1000    88.2076    16.4452    16.5051
  742.2000    88.2094    16.4445    16.4749
  742.3000    88.0114    16.4438    16.3889
  742.4000    87.2893    16.4309    16.3882
  742.5000    86.8027    16.3279    16.3098
  742.6000    86.1232    16.2448    16.2173
  742.7000    85.6629    16.1525    16.1253
  742.8000    85.3440    16.0607    16.0339
  742.9000    84.8757    15.9869    15.9338
  743.0000    84.5933    15.9861    15.8527
  743.1000    84.5948    15.8992    15.8218
  743.2000    84.4515    15.8736    15.8211
  743.3000    84.2959    15.8729    15.8204
  743.4000    84.3260    15.8722    15.8197
  743.5000    84.6023    15.8716    15.8191
  743.6000    84.6039    15.8709    15.8184
  743.7000    84.7610    15.9411    15.8178
  743.8000    85.1039    15.9808    15.8388
  743.9000    85.5555    15.9801    15.9272
  744.0000    85.8216    15.9869    15.9265
  744.1000    86.2709    16.0907    15.9258
  744.2000    86.5955    16.0901    15.9252
  744.3000    86.7346    16.0894    15.9245
  744.4000    86.7365    16.1233    15.9293
  744.5000    86.7383    16.2009    16.0346
  744.6000    86.7401    16.2001    16.0340
  744.7000    86.5665    16.1994    16.0333
  744.8000    86.3241    16.2608    16.0644
  744.9000    86.1404    16.3116    16.1443
  745.0000    86.1422    16.3109    16.1435
  745.1000    86.1441    16.3102    16.1429
  745.2000    86.3314    16.3096    16.1422
  745.3000    86.5773    16.3089    16.1784
  745.4000    86.9604    16.3546    16.2540
  745.5000    87.6941    16.4217    16.2532
  745.6000    88.5740    16.4211    16.3381
  745.7000    89.3584    16.4203    16.3397
  745.8000    90.1995    16.4197    16.2512
  745.9000    90.9334    16.4190    16.2504
  746.0000    91.6266    16.4183    16.2498
  746.1000    91.9113    16.4176    16.2491
  746.2000    92.3242    16.4168    16.2485
  746.3000    92.6671    16.4162    16.2477
  746.4000    92.9130    16.4155    16.2470
  746.5000    93.1286    16.4148    16.2464
  746.6000    93.1306    16.4287    16.2457
  746.7000    93.1322    16.5285    16.2450
  746.8000    92.9766    16.5278    16.2444
  746.9000    92.6356    16.4632    16.2436
  747.0000    92.1495    16.4115    16.2430
  747.1000    91.6268    16.4108    16.3047
  747.2000    90.7246    16.4101    16.3554
  747.3000    89.9178    16.5010    16.3737
  747.4000    89.1874    16.5237    16.4685
  747.5000    88.5577    16.5230    16.4678
  747.6000    88.3075    16.5223    16.5354
  747.7000    88.3092    16.5216    16.5817
  747.8000    88.1335    16.5208    16.5810
  747.9000    88.0103    16.4448    16.5804
  748.0000    88.0121    16.4046    16.5797
  748.1000    88.0159    16.4039    16.5789
  748.2000    88.2619    16.4032    16.5270
  748.3000    88.3201    16.4024    16.4623
  748.4000    88.3219    16.3211    16.4546
  748.5000    88.3237    16.2870    16.3464
  748.6000    88.3256    16.2493    16.2687
  748.7000    88.3277    16.1570    16.1765
  748.8000    87.7363    16.0591    16.1179
  748.9000    87.1450    16.0584    16.1055
  749.0000    86.5778    15.9945    16.0044
  749.1000    85.9139    15.9454    15.9234
  749.2000    85.9162    15.9239    15.8919
  749.3000    85.9177    15.8331    15.8538
  749.4000    85.9195    15.8325    15.7639
  749.5000    86.1938    15.8317    15.6697
  749.6000    86.8958    15.7841    15.6690
  749.7000    87.4380    15.6944    15.6058
  749.8000    88.0930    15.6053    15.5174
  749.9000    88.9865    15.5008    15.4294
  750.0000    89.7558    15.5003    15.3419
  750.1000    90.2285    15.4996    15.3215
  750.2000    90.7012    15.4681    15.3011
  750.3000    91.1739    15.3802    15.2807
  750.4000    91.6466    15.2827    15.2602
  750.5000    92.1193    15.2821    15.2398
  750.6000    92.5920    15.2255    15.2339
  750.7000    93.0647    15.1745    15.1901
  750.8000    93.2260    15.1584    15.1276
  750.9000    93.2303    15.0676    15.1274
  751.0000    93.2345    15.0671    15.1271
  751.1000    93.2387    15.0664    15.1270
  751.2000    93.2429    15.0658    15.0726
  751.3000    93.2472    15.0651    15.0213
  751.4000    93.1147    15.0645    15.0212
  751.5000    92.8713    15.0638    15.0209
  751.6000    92.6280    15.0633    15.0207
  751.7000    92.3569    15.0627    15.0205
  751.8000    92.1415    15.0620    15.0203
  751.9000    92.0623    15.0614    15.0201
  752.0000    92.0666    15.0606    15.0199
  752.1000    92.0708    15.0601    15.0196
  752.2000    92.0751    15.0595    15.0195
  752.3000    92.0793    15.0901    15.0192
  752.4000    92.0835    15.1638    15.0190
  752.5000    92.0877    15.1630    15.0188
  752.6000    92.0920    15.1624    15.0186
  752.7000    92.0962    15.1560    15.0184
  752.8000    92.1009    15.1465    15.0182
  752.9000    92.1047    15.1371    15.0180
  753.0000    92.1089    15.1277    15.0178
  753.1000    92.1132    15.1183    15.0176
  753.2000    92.1174    15.1088    15.0173
  753.3000    92.1217    15.0994    15.0171
  753.4000    92.1258    15.0900    15.0169
  753.5000    92.1301    15.0806    15.0577
  753.6000    92.2699    15.0733    15.1217
  753.7000    92.6022    15.0733    15.1215
  753.8000    93.0761    15.0733    15.1212
  753.9000    93.3578    15.0733    15.1211
  754.0000    93.3615    15.0733    15.1209
  754.1000    93.3658    15.0733    15.1206
  754.2000    93.3701    15.0733    15.1204
  754.3000    93.3743    15.0733    15.1202
  754.4000    93.3786    15.0733    15.2021
  754.5000    93.3827    15.0733    15.2256
  754.6000    93.3870    15.0733    15.2254
  754.7000    93.3912    15.0733    15.2252
  754.8000    93.3955    15.0733    15.2250
  754.9000    93.3750    15.0733    15.2248
  755.0000    93.1019    15.0733    15.2246
  755.1000    92.8885    15.0733    15.2243
  755.2000    92.4830    15.0733    15.2241
  755.3000    92.2063    15.0733    15.2068
  755.4000    92.1587    15.0733    15.1179
  755.5000    91.9123    15.0733    15.1177
  755.6000    91.4275    15.0733    15.1175
  755.7000    91.1261    15.0307    15.1173
  755.8000    90.8829    14.9685    15.1170
  755.9000    90.6397    14.9636    15.1078
  756.0000    90.3963    14.8643    15.0115
  756.1000    90.1228    14.8643    14.9353
  756.2000    89.9098    14.8119    14.8499
  756.3000    89.6664    14.7609    14.8028
  756.4000    89.5298    14.7609    14.7832
  756.5000    89.4825    14.7609    14.6985
  756.6000    89.2358    14.6801    14.6144
  756.7000    88.9960    14.6582    14.5308
  756.8000    88.9416    14.6582    14.4952
  756.9000    89.2133    14.6582    14.4655
  757.0000    89.6339    14.6514    14.3940
  757.1000    89.9090    14.5562    14.3938
