~VERSION INFORMATION
 VERS.                2.0:   CWLS LOG ASCII STANDARD - VERSION 2.0
 WRAP.                 NO:   ONE LINE PER DEPTH STEP
~WELL INFORMATION
#MNEM.UNIT      DATA TYPE    INFORMATION
#----------   ------------   ------------------------------
 STRT.F           32.0000:   START DEPTH
 STOP.F          738.0000:   STOP DEPTH
 STEP.F            0.5000:   STEP LENGTH
 NULL.          -999.2500:   NO VALUE
 COMP. FENIX & SCISSON INC:   COMPANY
 WELL.       NPR-3 #43-34:   WELL
 FLD .             TEAPOT:   FIELD
 LOC .      S34 T39N R78W:   LOCATION
 CNTY.            NATRONA:   COUNTY
 STAT.            WYOMING:   STATE
 CTRY. UNITED STATES OF AMERICA:   COUNTRY
 SRVC.            Unknown:   SERVICE COMPANY
 DATE.        26-AUG-1978:   LOGDATE
 API .       490251069900:   API NUMBER
~CURVE INFORMATION
#MNEM.UNIT       API CODE    CURVE DESCRIPTION
#----------   ------------   ------------------------------
 DEPT.F                  :   
 GRD .GAPI   45 310 01 00:   GAMMA RAY FROM DENSITY LOG
 CALD.IN     45 280 60 00:   CALIPER
 RHOB.G/C3   45 350 01 00:   BULK DENSITY
 DPHI.DEC    45 890 12 00:   DENSITY POROSITY SANDSTONE
 CORR.G/C3   45 356 01 00:   DENSITY CORRECTION
 SPR .MV     05 010 01 00:   SPONTANEOUS POTENTIAL FROM RES.
 SN  .OHMM   05 040 16 00:   SHORT NORMAL 16"
 ILD .OHMM   05 120 46 00:   INDUCTION LOG DEEP
~PARAMETER INFORMATION
#MNEM.UNIT          VALUE    DESCRIPTION
#----------   ------------   ------------------------------
 PD  .                 GL:   PERMANENT DATUM
 EPD .F              5110:   ELEVATION PERMANENT DATUM
 LMF .                 KB:   LOG MEASURED FROM
 DAPD.F                 4:   FEET ABOVE PERMANENT DATUM
 DMF .                 KB:   DRILLING MEASURED FROM
 EKB .F              5114:   KELLING BUSHING
 EGL .F              5110:   GROUND LEVEL
 DATE.            8-26-78:   RUN DATE
 RUN .                  1:   RUN NUMBER
 DD  .F               748:   DEPTH DRILLER
 DL  .F               738:   DEPTH LOGGER
 BLI .F               732:   BOTTOM LOG INTERVAL
 TLI .F                40:   TOP LOG INTERVAL
 CS  .IN            8.625:   CASING SIZE
 CBD .F                40:   CASING BOTTOM DRILLER
 CBL .F                40:   CASING BOTTOM LOGGER
 BS  .IN            7.875:   BIT SIZE
 BSD .F               748:   BIT SIZE AT DEPTH
 DFT .                KCL:   DRILLING FLUID TYPE
 DFD .                8.7:   DRILLING FLUID DENSITY
 DFV .                 33:   DRILLING FLUID VISCOSITY
 DFPH.                  9:   DRILLING FLUID PH
 DFL .                 10:   DRILLING FLUID LOSS
 MSS .          FLOW LINE:   MUD SAMPLE SOURCE
 RMS .OHMM            .36:   RESISTIVITY MUD SAMPLE
 MST .F                80:   MUD SAMPLE TEMPERATURE
 RMF .OHMM             .3:   RESISTIVITY MUD FILTRATE SAMPLE
 MFST.F                80:   MUD FILTRATE SAMPLE TEMPERATURE
 RMC .OHMM            .48:   RESISTIVITY MUD CAKE
 MCST.F                82:   MUD CAKE SAMPLE TEMPERATURE
 MFSS.               MEAS:   MUD FILTRATE SAMPLE SOURCE
 MCSS.               MEAS:   MUD CAKE SAMPLE SOURCE
 TCS .HRS               2:   TIME CURCULATED STOPPED
 LUN .               2958:   LOGGING UNIT NUMBER
 LUL .               CASP:   LOGGING UNIT LOCATION
 ENGI.             MILLER:   RECORDING ENGINEER
 WITN.              AMEND:   WITNESSED BY
 CLNT.            A2DTECH:   CLIENT CODE
 ORIG.           5" PRINT:   ORIGIN OF DATA
 UWI .       490251069900:   UNIQUE WELL ID
 DICO. A2D Technologies, Inc.:   DIGITIZING COMPANY
~OTHER INFORMATION
~A   DEPT       GRD      CALD       RHOB       DPHI       CORR        SPR         SN        ILD   
   32.0000    57.9482  -999.2500  -999.2500  -999.2500  -999.2500  -999.2500  -999.2500  -999.2500
   32.5000    57.9482  -999.2500  -999.2500  -999.2500  -999.2500  -999.2500  -999.2500  -999.2500
   33.0000    57.9482  -999.2500  -999.2500  -999.2500  -999.2500  -999.2500  -999.2500  -999.2500
   33.5000    58.3207  -999.2500  -999.2500  -999.2500  -999.2500  -999.2500  -999.2500  -999.2500
   34.0000    60.0488  -999.2500  -999.2500  -999.2500  -999.2500  -999.2500  -999.2500  -999.2500
   34.5000    60.9228  -999.2500  -999.2500  -999.2500  -999.2500  -999.2500  -999.2500  -999.2500
   35.0000    60.9998  -999.2500  -999.2500  -999.2500  -999.2500  -999.2500  -999.2500  -999.2500
   35.5000    57.7719  -999.2500  -999.2500  -999.2500  -999.2500  -999.2500  -999.2500  -999.2500
   36.0000    53.6068  -999.2500  -999.2500  -999.2500  -999.2500  -999.2500  -999.2500  -999.2500
   36.5000    53.8587  -999.2500  -999.2500  -999.2500  -999.2500  -999.2500  -999.2500  -999.2500
   37.0000    56.1594  -999.2500  -999.2500  -999.2500  -999.2500  -999.2500  -999.2500  -999.2500
   37.5000    57.3555  -999.2500  -999.2500  -999.2500  -999.2500  -999.2500  -999.2500  -999.2500
   38.0000    56.2169  -999.2500  -999.2500  -999.2500  -999.2500  -999.2500  -999.2500  -999.2500
   38.5000    54.1657  -999.2500  -999.2500  -999.2500  -999.2500  -999.2500  -999.2500  -999.2500
   39.0000    53.7662  -999.2500  -999.2500  -999.2500  -999.2500  -999.2500  -999.2500  -999.2500
   39.5000    54.9475  -999.2500  -999.2500  -999.2500  -999.2500  -999.2500  -999.2500  -999.2500
   40.0000    57.5460     7.7976  -999.2500  -999.2500  -999.2500  -999.2500  -999.2500  -999.2500
   40.5000    59.3505     7.8284  -999.2500  -999.2500  -999.2500  -999.2500  -999.2500  -999.2500
   41.0000    59.8290     7.8838  -999.2500  -999.2500  -999.2500  -999.2500  -999.2500  -999.2500
   41.5000    60.3402     7.9281  -999.2500  -999.2500  -999.2500  -999.2500  -999.2500  -999.2500
   42.0000    61.5453     7.9839     2.1514     0.3110    -0.1155  -999.2500  -999.2500  -999.2500
   42.5000    65.6380     8.0363     2.1517     0.3119    -0.0844  -999.2500  -999.2500  -999.2500
   43.0000    66.4396     8.0390     2.1521     0.2882    -0.0233  -999.2500  -999.2500  -999.2500
   43.5000    68.2993     8.0462     2.1707     0.2689     0.0056  -999.2500  -999.2500  -999.2500
   44.0000    76.7692     8.5776     2.2840     0.2425     0.0198  -999.2500  -999.2500  -999.2500
   44.5000    83.8467     7.4104     2.3604     0.2151     0.0211  -999.2500  -999.2500  -999.2500
   45.0000    81.9994     7.4538     2.3487     0.2151     0.0224  -999.2500  -999.2500  -999.2500
   45.5000    81.0621     7.4396     2.3266     0.2219     0.0213  -999.2500  -999.2500  -999.2500
   46.0000    80.8353     7.4340     2.3044     0.2384     0.0278   -36.1386     2.4036     0.8632
   46.5000    79.1432     7.4259     2.2822     0.2620     0.0394   -36.8339     2.4708     0.9412
   47.0000    78.2105     7.4179     2.2598     0.2706     0.0472   -37.7228     3.5941     0.8534
   47.5000    80.0560     7.4167     2.2376     0.2758     0.0538   -37.9359     3.6270     0.8352
   48.0000    84.1769     7.4206     2.2229     0.2604     0.0763   -37.9262     3.6686     0.8745
   48.5000    87.8152     7.4250     2.2724     0.2076     0.0998   -37.9219     3.7190     0.8989
   49.0000    87.9014     7.4296     2.3689     0.1587     0.0999   -37.9271     3.8355     0.8989
   49.5000    80.9918     7.4338     2.4195     0.1620     0.0651   -37.8936     3.9566     0.8989
   50.0000    73.1617     7.4418     2.4148     0.1624     0.0313   -36.8784     4.0173     0.9412
   50.5000    71.5881     7.2134     2.4101     0.1616     0.0234   -36.1261     4.1325     1.0318
   51.0000    76.7846     7.0332     2.4114     0.1609     0.0256   -36.1497     4.9538     1.1861
   51.5000    80.0499     6.9481     2.4136     0.1601     0.0254   -36.2455     5.3972     1.6890
   52.0000    82.3714     6.8664     2.4159     0.1599     0.0236   -36.4548     5.5120     2.5919
   52.5000    84.7823     6.8464     2.4150     0.1632     0.0216   -37.4368     5.5993     2.5868
   53.0000    87.1951     6.8361     2.4107     0.1662     0.0197   -38.2785     5.6165     2.6372
   53.5000    89.5752     6.8253     2.4065     0.1693     0.0178   -38.3163     5.7578     2.6040
   54.0000    90.9801     6.8179     2.4022     0.1723     0.0180   -38.3248     5.9019     2.5718
   54.5000    87.5968     6.8790     2.3980     0.1751     0.0205   -38.8199     5.9712     2.5634
   55.0000    86.8135     6.9419     2.3937     0.1795     0.0221   -39.3818     6.0276     2.5634
   55.5000    87.3816     6.9980     2.3878     0.1847     0.0236   -39.5517     5.9486     2.5634
   56.0000    91.0372     7.0262     2.3721     0.1943     0.0252   -39.8871     5.8452     2.5634
   56.5000    90.5678     7.0582     2.3550     0.2107     0.0255   -40.3111     5.7435     2.3632
   57.0000    90.0955     7.0903     2.3312     0.2271     0.0253   -40.3092     5.6430     1.9750
   57.5000    89.9019     7.1225     2.3078     0.2436     0.0250   -40.7690     5.4355     1.6506
   58.0000    90.8378     7.1533     2.2843     0.2561     0.0248   -41.2719     5.1537     1.3795
   58.5000    92.3797     7.2310     2.2608     0.2598     0.0245   -41.4780     4.8781     1.2747
   59.0000    93.9535     7.3298     2.2503     0.2440     0.0242   -41.3121     4.7893     1.2287
   59.5000    94.5932     7.4292     2.2733     0.2245     0.0240   -41.1337     4.7455     1.2175
   60.0000    94.6553     7.5327     2.3084     0.2050     0.0236   -40.7385     4.7998     1.2175
   60.5000    87.6681     7.5599     2.3442     0.1851     0.0240   -40.2841     4.8275     1.2285
   61.0000    80.9122     7.5690     2.3735     0.1843     0.0264   -40.1007     4.8555     1.2401
   61.5000    76.8192     7.5774     2.3748     0.1789     0.0288   -40.0927     4.8781     1.2860
   62.0000    77.8992     7.5860     2.3862     0.1697     0.0311   -40.1608     4.7170     1.4365
   62.5000    83.0641     7.5950     2.4025     0.1615     0.0334   -40.1048     4.5859     1.7718
   63.0000    88.0233     7.5951     2.4163     0.1610     0.0335   -40.1893     4.4584     2.0941
   63.5000    88.2599     7.5886     2.4125     0.1621     0.0325   -40.2488     4.4090     2.1134
   64.0000    88.2987     7.5820     2.4091     0.1627     0.0309   -40.3006     4.4240     2.1172
   64.5000    89.4220     7.5771     2.4128     0.1576     0.0298   -40.1794     4.4423     2.1218
   65.0000    90.6254     7.5812     2.4223     0.1559     0.0335   -40.1140     4.4507     2.1265
   65.5000    90.7151     7.5898     2.4208     0.1659     0.0336   -40.5657     4.3335     2.1329
   66.0000    90.4079     7.5982     2.4098     0.1655     0.0339   -41.0295     4.2409     2.1138
   66.5000    89.2419     7.6068     2.4099     0.1726     0.0342   -41.4986     4.1493     2.0835
   67.0000    88.6426     7.6153     2.3925     0.1795     0.0345   -41.5737     4.0299     2.0537
   67.5000    91.1433     7.6238     2.3884     0.1811     0.0348   -41.6733     3.8704     2.0371
   68.0000    93.0890     7.6323     2.3814     0.1846     0.0351   -41.7764     3.7157     1.9108
   68.5000    90.4950     7.6408     2.3799     0.1923     0.0353   -41.8794     3.6028     1.7082
   69.0000    87.8850     7.6494     2.3677     0.2001     0.0377   -41.9826     3.5054     1.5530
   69.5000    85.9530     7.6576     2.3525     0.2083     0.0416   -42.0777     3.3749     1.4161
   70.0000    84.1162     7.6454     2.3371     0.2198     0.0454   -42.0798     3.2338     1.3509
   70.5000    84.0299     7.6316     2.3215     0.2172     0.0492   -42.0793     3.1001     1.3225
   71.0000    89.0850     7.6169     2.3215     0.2043     0.0530   -42.0792     3.0221     1.3184
   71.5000    89.9440     7.5822     2.3407     0.1907     0.0490   -42.0792     2.9577     1.3124
   72.0000    89.6777     7.5463     2.3565     0.1907     0.0427   -42.0792     2.8947     1.2654
