~VERSION INFORMATION
 VERS.                2.0:   CWLS LOG ASCII STANDARD - VERSION 2.0
 WRAP.                 NO:   ONE LINE PER DEPTH STEP
~WELL INFORMATION
#MNEM.UNIT      DATA TYPE    INFORMATION
#----------   ------------   ------------------------------
 STRT.F          438.0000:   START DEPTH
 STOP.F         2175.0000:   STOP DEPTH
 STEP.F            0.5000:   STEP LENGTH
 NULL.          -999.2500:   NO VALUE
 COMP.   FLUOR DANIEL INC:   COMPANY
 WELL. NAVAL PETROLEUM RESERVE 3 X29 #74-29:   WELL
 FLD .            WLIDCAT:   FIELD
 LOC .      S29 T39N R78W:   LOCATION
 CNTY.            NATRONA:   COUNTY
 STAT.            WYOMING:   STATE
 CTRY. UNITED STATES OF AMERICA:   COUNTRY
 SRVC.            Unknown:   SERVICE COMPANY
 DATE.        05-JUN-1995:   LOGDATE
 API .       490252272900:   API NUMBER
~CURVE INFORMATION
#MNEM.UNIT       API CODE    CURVE DESCRIPTION
#----------   ------------   ------------------------------
 DEPT.F                  :   
 ROP .FT/HR  91 810 01 00:   RAT OF DRILLING PENETRATION
 TGAS.TC/CC  91 830 01 00:   TOTAL GAS UNIT
~PARAMETER INFORMATION
#MNEM.UNIT          VALUE    DESCRIPTION
#----------   ------------   ------------------------------
 EKB .F              5036:   KELLING BUSHING
 EGL .F              5026:   GROUND LEVEL
 DATE.        05-JUN-1995:   RUN DATE
 RUN .                  1:   RUN NUMBER
 BLI .F              2160:   BOTTOM LOG INTERVAL
 TLI .F               440:   TOP LOG INTERVAL
 ENGI.     R.HUSK/C.TOWER:   RECORDING ENGINEER
 CLNT.            A2DTECH:   CLIENT CODE
 ORIG.           5" PRINT:   ORIGIN OF DATA
 UWI .       490252272900:   UNIQUE WELL ID
 DICO. A2D Technologies, Inc.:   DIGITIZING COMPANY
~OTHER INFORMATION
~A   DEPT        ROP       TGAS 
# ...
  802.5000     0.6341     2.9623
  803.0000     0.6256     2.9509
  803.5000     0.6257     2.9396
  804.0000     0.6354     2.9262
  804.5000     0.6451     2.9257
  805.0000     0.6452     2.9299
  805.5000     0.6453     2.9347
  806.0000     0.6646     2.9283
  806.5000     0.7320     2.9208
  807.0000     0.7610     2.9119
  807.5000     0.7611     3.0147
  808.0000     0.7612     3.0868
  808.5000     0.7612     3.0791
  809.0000     0.7614     3.2604
  809.5000     0.7615     3.2528
  810.0000     0.7616     3.2453
  810.5000     0.7616     3.2377
  811.0000     0.7617     3.2291
  811.5000     0.7618     3.2217
  812.0000     0.7042     3.0264
  812.5000     0.5793     3.0189
  813.0000     0.5890     3.0109
  813.5000     0.5891     3.0038
  814.0000     0.5892     3.1848
  814.5000     0.5893     3.1774
  815.0000     0.5894     3.1698
  815.5000     0.5895     3.1608
  816.0000     0.5896     3.1547
  816.5000     0.5883     3.1461
  817.0000     0.5865     3.1396
  817.5000     0.5865     3.1313
  818.0000     0.5865     3.1240
  818.5000     0.5865     3.1166
  819.0000     0.5865     3.1092
  819.5000     0.5865     3.1019
  820.0000     0.5865     3.0943
  820.5000     0.5769     3.0868
  821.0000     0.5865     3.0779
  821.5000     0.5865     3.2610
  822.0000     0.5865     3.2518
  822.5000     0.5865     3.2444
  823.0000     0.5769     3.2370
  823.5000     0.5769     3.4202
  824.0000     0.5769     3.4110
  824.5000     0.5769     3.4036
  825.0000     0.5865     3.3962
  825.5000     0.5865     3.0113
  826.0000     0.5865     2.6249
  826.5000     0.5865     2.6189
  827.0000     0.5769     2.6113
  827.5000     0.5769     2.6028
  828.0000     0.5673     2.5954
  828.5000     0.5577     2.5887
  829.0000     0.5481     2.5811
  829.5000     0.5288     2.5733
  830.0000     0.5192     2.5660
  830.5000     0.5288     2.7484
  831.0000     0.5288     2.7386
  831.5000     0.5288     2.9208
  832.0000     0.5385     2.9119
  832.5000     0.5385     2.8805
  833.0000     0.5385     2.7085
  833.5000     0.5481     2.7019
  834.0000     0.5481     2.5057
  834.5000     0.5481     2.4977
  835.0000     0.5577     2.4903
  835.5000     0.5673     2.4830
  836.0000     0.5673     2.4755
  836.5000     0.5673     2.4679
  837.0000     0.5673     2.4590
  837.5000     0.5673     2.4516
  838.0000     0.5769     2.4453
  838.5000     0.5865     2.4704
  839.0000     0.5865     2.6189
  839.5000     0.5865     2.6113
  840.0000     0.5865     2.6038
  840.5000     0.5865     2.5960
  841.0000     0.5865     2.5887
  841.5000     0.5769     2.5811
  842.0000     0.5288     2.7623
  842.5000     0.5000     2.7534
  843.0000     0.5096     2.7460
  843.5000     0.5096     2.7386
  844.0000     0.5096     2.7321
  844.5000     0.5096     2.7239
  845.0000     0.5096     2.7165
  845.5000     0.5096     2.7091
  846.0000     0.5096     2.7017
  846.5000     0.5096     2.6943
  847.0000     0.5096     2.8757
  847.5000     0.5096     3.0570
  848.0000     0.5096     3.0478
  848.5000     0.5192     3.0404
  849.0000     0.5181     3.4122
  849.5000     0.5096     3.4038
  850.0000     0.5096     3.3950
  850.5000     0.5096     3.3802
  851.0000     0.5096     3.3654
  851.5000     0.5192     3.3507
  852.0000     0.5096     3.3358
  852.5000     0.5097     3.3208
  853.0000     0.5099     3.3063
  853.5000     0.5101     3.4803
  854.0000     0.5103     3.6505
  854.5000     0.5105     3.6377
  855.0000     0.5107     3.6226
  855.5000     0.5109     3.6061
  856.0000     0.5111     3.7800
  856.5000     0.5112     3.7660
  857.0000     0.5114     3.7505
  857.5000     0.5116     3.7357
  858.0000     0.5118     3.7208
  858.5000     0.5120     3.7057
  859.0000     0.5122     3.8801
  859.5000     0.5124     3.6729
  860.0000     0.5126     3.8491
  860.5000     0.5128     3.7880
  861.0000     0.5130     3.4399
  861.5000     0.5132     3.4252
  862.0000     0.5134     3.4104
  862.5000     0.5136     3.3956
  863.0000     0.5138     3.1922
  863.5000     0.5229     3.1774
  864.0000     0.5240     3.3513
  864.5000     0.5410     3.3358
  865.0000     0.5403     3.3180
  865.5000     0.5301     3.3033
  866.0000     0.5199     3.2885
  866.5000     0.5194     3.2755
  867.0000     0.5188     3.2589
  867.5000     0.4990     3.2442
  868.0000     0.5081     3.2294
  868.5000     0.5074     3.0259
  869.0000     0.5166     3.0112
  869.5000     0.5159     2.9962
  870.0000     0.5153     2.7925
  870.5000     0.5245     2.7745
  871.0000     0.5238     2.5710
  871.5000     0.5233     2.3676
  872.0000     0.5227     2.3528
  872.5000     0.5221     2.3380
  873.0000     0.5118     2.5119
  873.5000     0.5016     2.4972
  874.0000     0.4915     2.6717
  874.5000     0.4813     2.6563
  875.0000     0.4711     2.6415
  875.5000     0.4705     2.8154
  876.0000     0.4700     2.8000
  876.5000     0.4694     2.9745
  877.0000     0.4688     2.9598
  877.5000     0.4682     3.1337
  878.0000     0.4676     3.3063
  878.5000     0.4863     3.2891
  879.0000     0.4857     3.6517
  879.5000     0.5044     3.6369
  880.0000     0.4942     3.6221
  880.5000     0.4840     3.6074
  881.0000     0.4736     3.5925
  881.5000     0.4444     3.3887
  882.0000     0.4245     3.3707
  882.5000     0.4047     3.1698
  883.0000     0.4042     3.1525
  883.5000     0.4036     3.1377
  884.0000     0.4030     2.9342
  884.5000     0.4025     2.9195
  885.0000     0.4019     2.9047
  885.5000     0.4110     3.0792
  886.0000     0.4200     3.0638
  886.5000     0.4193     3.0490
  887.0000     0.4284     3.0340
  887.5000     0.4374     3.0189
  888.0000     0.4369     3.0010
  888.5000     0.4363     2.9862
  889.0000     0.4357     2.9715
  889.5000     0.4352     2.9567
  890.0000     0.4340     2.9419
  890.5000     0.4243     3.1158
  891.0000     0.4141     3.1011
  891.5000     0.4136     3.0863
  892.0000     0.4130     3.2604
  892.5000     0.4028     3.2390
  893.0000     0.4023     3.0415
  893.5000     0.4017     3.0235
  894.0000     0.4012     3.0087
  894.5000     0.4006     2.8053
  895.0000     0.3999     2.9792
  895.5000     0.3993     3.1568
  896.0000     0.3892     3.1383
  896.5000     0.3886     3.3818
  897.0000     0.3880     3.4898
  897.5000     0.3875     3.4713
  898.0000     0.3869     3.4566
  898.5000     0.3863     3.4415
  899.0000     0.3858     3.4264
  899.5000     0.3851     3.2199
  900.0000     0.3845     3.0189
  900.5000     0.3840     2.8151
  901.0000     0.3834     2.6084
  901.5000     0.3926     2.4050
  902.0000     0.3919     2.2016
  902.5000     0.3913     2.1868
  903.0000     0.4004     1.9834
  903.5000     0.3998     1.7811
  904.0000     0.4568     1.7660
  904.5000     0.5525     1.7506
  905.0000     0.5518     1.7358
  905.5000     0.5513     1.7199
  906.0000     0.5507     1.7057
  906.5000     0.5502     1.8803
  907.0000     0.5592     1.8619
  907.5000     0.5587     1.8472
  908.0000     0.5581     1.8325
  908.5000     0.5574     1.8178
  909.0000     0.5568     1.7283
  909.5000     0.5563     1.5996
  910.0000     0.5559     1.5849
  910.5000     0.5600     1.5698
  911.0000     0.5636     1.5518
  911.5000     0.5672     1.7257
  912.0000     0.5708     1.7110
  912.5000     0.5744     1.8850
  913.0000     0.5673     1.8702
  913.5000     0.5577     1.8555
  914.0000     0.5577     2.0295
  914.5000     0.5481     2.2038
  915.0000     0.5385     2.1887
  915.5000     0.5385     2.3626
  916.0000     0.5385     2.5366
  916.5000     0.5385     2.5182
  917.0000     0.5385     2.5035
  917.5000     0.5385     2.6811
  918.0000     0.5385     2.8550
  918.5000     0.5385     2.8366
  919.0000     0.5577     3.0143
  919.5000     0.5577     2.9959
  920.0000     0.5769     2.9811
  920.5000     0.5769     3.1551
  921.0000     0.5769     3.1367
  921.5000     0.5769     2.9333
  922.0000     0.5865     2.7299
  922.5000     0.5962     2.7151
  923.0000     0.5865     2.3231
  923.5000     0.5865     2.1208
