~VERSION INFORMATION
 VERS.                2.0:   CWLS LOG ASCII STANDARD - VERSION 2.0
 WRAP.                 NO:   ONE LINE PER DEPTH STEP
~WELL INFORMATION
#MNEM.UNIT      DATA TYPE    INFORMATION
#----------   ------------   ------------------------------
 STRT.F          276.0000:   START DEPTH
 STOP.F         2768.0000:   STOP DEPTH
 STEP.F            0.5000:   STEP LENGTH
 NULL.          -999.2500:   NO VALUE
 COMP.       TESORD PETRO:   COMPANY
 WELL. AX-20 NPR #3 #83-20:   WELL
 FLD .            WILDCAT:   FIELD
 LOC .      S20 T39N R78W:   LOCATION
 CNTY.            NATRONA:   COUNTY
 STAT.            WYOMING:   STATE
 CTRY. UNITED STATES OF AMERICA:   COUNTRY
 SRVC.       Schlumberger:   SERVICE COMPANY
 DATE.        20-JUL-1971:   LOGDATE
 API .       490251022000:   API NUMBER
~CURVE INFORMATION
#MNEM.UNIT       API CODE    CURVE DESCRIPTION
#----------   ------------   ------------------------------
 DEPT.F                  :   
 SPR .MV     05 010 01 00:   SPONTANEOUS POTENTIAL FROM RES.
 ASN .OHMM   05 041 16 00:   AMPLIFIED SHORT NORMAL 16"
 ILD .OHMM   05 120 46 00:   INDUCTION LOG DEEP
 CALD.IN     45 280 60 00:   CALIPER FROM DENSITY
 CORR.G/C3   45 356 01 00:   DENSITY CORRECTION
 DPHI.DEC    45 890 12 00:   DENSITY POROSITY SANDSTONE
 GRD .GAPI   45 310 01 00:   GAMMA RAY FROM DENSITY LOG
 RHOB.G/C3   45 350 01 00:   BULK DENSITY
 CILD.MMHO   05 110 46 00:   CONDUCTIVITY INDUCTION LOG DEEP
~PARAMETER INFORMATION
#MNEM.UNIT          VALUE    DESCRIPTION
#----------   ------------   ------------------------------
 PD  .                 GL:   PERMANENT DATUM
 EPD .F              4994:   ELEVATION PERMANENT DATUM
 LMF .                 KB:   LOG MEASURED FROM
 DAPD.F                11:   FEET ABOVE PERMANENT DATUM
 DMF .                 KB:   DRILLING MEASURED FROM
 EKB .F              5005:   KELLING BUSHING
 EGL .F              4994:   GROUND LEVEL
 DATE.        20-JUL-1971:   RUN DATE
 RUN .                  1:   RUN NUMBER
 DD  .F              2770:   DEPTH DRILLER
 DL  .F              2769:   DEPTH LOGGER
 BLI .F              2768:   BOTTOM LOG INTERVAL
 TLI .F               276:   TOP LOG INTERVAL
 CS  .IN            10.75:   CASING SIZE
 CBD .F               274:   CASING BOTTOM DRILLER
 CBL .F               276:   CASING BOTTOM LOGGER
 BS  .IN                9:   BIT SIZE
 BSD .F              2770:   BIT SIZE AT DEPTH
 DFT .      FRESH GEL MUD:   DRILLING FLUID TYPE
 DFD .                 10:   DRILLING FLUID DENSITY
 DFV .                 82:   DRILLING FLUID VISCOSITY
 DFPH.                  8:   DRILLING FLUID PH
 DFL .                4.8:   DRILLING FLUID LOSS
 MSS .           FLOWLINE:   MUD SAMPLE SOURCE
 RMS .OHMM            1.8:   RESISTIVITY MUD SAMPLE
 MST .F                73:   MUD SAMPLE TEMPERATURE
 RMF .OHMM            1.4:   RESISTIVITY MUD FILTRATE SAMPLE
 MFST.F                73:   MUD FILTRATE SAMPLE TEMPERATURE
 MFSS.               MEAS:   MUD FILTRATE SAMPLE SOURCE
 RMB .OHMM           1.15:   RESISTIVITY MUD AT BHT
 BHT .F               116:   BOTTOM HOLE TEMPERATURE
 TCS .HRS               2:   TIME CURCULATED STOPPED
 MRT .F               116:   MAXIMUM RECORDED TEMPERATURE
 LUN .               7037:   LOGGING UNIT NUMBER
 LUL .               CSPR:   LOGGING UNIT LOCATION
 ENGI.             JENSEN:   RECORDING ENGINEER
 WITN.                MAY:   WITNESSED BY
 CLNT.            A2DTECH:   CLIENT CODE
 ORIG.     1", 2.5" PRINT:   ORIGIN OF DATA
 UWI .       490251022000:   UNIQUE WELL ID
 DICO. A2D Technologies, Inc.:   DIGITIZING COMPANY
~OTHER INFORMATION
~A   DEPT      SPR          ASN        ILD     CALD       CORR       DPHI        GRD       RHOB       CILD   
# ...
 2028.0000   -26.7223     5.1713     4.4595     9.4627     0.0187     0.0885   121.3672     2.5240  -999.2500
 2028.5000   -26.5231     5.2651     4.4566     9.4627     0.0325     0.0743   117.2530     2.5237  -999.2500
 2029.0000   -26.2291     5.3596     4.4536     9.4627     0.0191     0.0749   110.6463     2.5223  -999.2500
 2029.5000   -25.9350     5.4450     4.4506     9.4627     0.0239     0.0682   108.1552     2.5408  -999.2500
 2030.0000   -25.9403     5.5050     4.4477     9.4627     0.0218     0.0622   107.7763     2.5522  -999.2500
 2030.5000   -25.9448     5.5649     4.4447     9.4627    -0.0018     0.0677   109.1956     2.5230  -999.2500
 2031.0000   -26.0657     5.5895     4.5910     9.4627     0.0063     0.0818   110.5403     2.5102  -999.2500
 2031.5000   -26.2522     5.5836     4.5880     9.4627     0.0165     0.0872   111.9525     2.5073  -999.2500
 2032.0000   -26.3801     5.5593     4.5850     9.4627     0.0221     0.0862   121.1106     2.5243  -999.2500
 2032.5000   -26.5597     5.5292     4.5816     9.4627     0.0220     0.0762   121.6458     2.5357  -999.2500
 2033.0000   -26.6945     5.5291     4.5791     9.4627     0.0158     0.0883   116.8746     2.5244  -999.2500
 2033.5000   -26.8672     5.5289     4.5756     9.4627     0.0082     0.0824   114.4771     2.5062  -999.2500
 2034.0000   -26.8716     5.5288     4.4239     9.4627     0.0024     0.0857   118.2657     2.4874  -999.2500
 2034.5000   -26.8761     5.5286     4.4209     9.4627     0.0043     0.0972   118.9503     2.4994  -999.2500
 2035.0000   -26.8806     5.5659     4.4180     9.4627     0.0192     0.0963   118.0522     2.5356  -999.2500
 2035.5000   -26.8851     5.6258     4.4149     9.4627     0.0157     0.0902   118.8449     2.4862  -999.2500
 2036.0000   -26.8896     5.6638     4.5613     9.4627     0.0117     0.0918   123.5704     2.4817  -999.2500
 2036.5000   -26.8940     5.7458     4.5582     9.4627     0.0341     0.0990   126.6762     2.5145  -999.2500
 2037.0000   -26.8985     5.8058     4.7046     9.4516     0.0248     0.0979   126.9988     2.5236  -999.2500
 2037.5000   -26.9030     5.8658     4.7015     9.3918     0.0024     0.0948   126.4745     2.4765  -999.2500
 2038.0000   -26.9075     5.9258     4.8479     9.3731     0.0155     0.0965   120.2328     2.4785  -999.2500
 2038.5000   -26.9119     5.9558     4.8602     9.3616     0.0222     0.1009   117.1746     2.5020  -999.2500
 2039.0000   -26.9164     6.0063     4.9912     9.3433     0.0118     0.0920   114.4746     2.5220  -999.2500
 2039.5000   -26.9209     6.0062     4.9880     9.3433     0.0192     0.0959   112.6593     2.5059  -999.2500
 2040.0000   -26.9263     6.0060     4.9851     9.3433     0.0082     0.1071   118.4776     2.4804  -999.2500
 2040.5000   -26.6322     5.9759     4.8328     9.3433     0.0024     0.1119   119.8190     2.4678  -999.2500
 2041.0000   -26.6367     5.9353     4.6806     9.3433     0.0033     0.1131   113.0548     2.4769  -999.2500
 2041.5000   -26.6411     5.8751     4.5284     9.3433     0.0124     0.1047   109.4480     2.4900  -999.2500
 2042.0000   -26.6456     5.7738     4.3503     9.3433     0.0212     0.1017   105.9317     2.4995  -999.2500
 2042.5000   -26.6500     5.5599     4.1965     9.3731     0.0270     0.1071   109.9023     2.4642  -999.2500
 2043.0000   -26.6545     5.1948     4.0428     9.3731     0.0329     0.1191   117.8746     2.4501  -999.2500
 2043.5000   -26.9574     4.7722     3.7702     9.3731     0.0323     0.1143   121.7716     2.4635  -999.2500
 2044.0000   -26.9619     4.6455     3.6179     9.4161     0.0298     0.1035   123.2955     2.4938  -999.2500
 2044.5000   -27.2648     4.5553     3.4324     9.4461     0.0302     0.0927   125.7224     2.5147  -999.2500
 2045.0000   -27.2693     4.4526     3.2786     9.4761     0.0364     0.0850   129.2393     2.5054  -999.2500
 2045.5000   -27.5722     4.3322     3.1249     9.5061     0.0464     0.0844   134.8862     2.5027  -999.2500
 2046.0000   -27.5767     4.2118     3.0089     9.5522     0.0565     0.0706   135.0774     2.5293  -999.2500
 2046.5000   -27.2821     4.0913     3.0060     9.5821     0.0701     0.0692   134.1201     2.5412  -999.2500
 2047.0000   -27.2871     3.9574     2.8537     9.5821     0.0585     0.0796   133.2674     2.5292  -999.2500
 2047.5000   -26.9925     3.8343     2.8508     9.5821     0.0396     0.1000   132.3246     2.5053  -999.2500
 2048.0000   -26.6985     3.7581     2.8478     9.5235     0.0035     0.1024   131.4567     2.4754  -999.2500
 2048.5000   -26.7034     3.7280     2.8447     9.4780     0.0130     0.0934   128.3575     2.5053  -999.2500
 2049.0000   -26.4090     3.7578     2.8418     9.4627     0.0388     0.0826   123.8552     2.5157  -999.2500
 2049.5000   -26.1153     3.7277     2.8388     9.4925     0.0114     0.0874   123.1326     2.4798  -999.2500
 2050.0000   -26.1198     3.7276     2.8358     9.4925     0.0147     0.1024   124.9254     2.4748  -999.2500
 2050.5000   -26.1242     3.7274     2.8328     9.5224     0.0294     0.1000   125.1470     2.4992  -999.2500
 2051.0000   -26.1287     3.7272     2.8299     9.5224     0.0373     0.0964   124.6821     2.5187  -999.2500
 2051.5000   -26.1331     3.7271     2.8269     9.5224     0.0336     0.0952   123.7993     2.4783  -999.2500
 2052.0000   -26.1376     3.7110     2.8238     9.4925     0.0206     0.0964   124.9313     2.4708  -999.2500
 2052.5000   -26.4405     3.6968     2.9707     9.4925     0.0150     0.0970   125.8286     2.4932  -999.2500
 2053.0000   -26.4450     3.6967     2.9671     9.4925     0.0295     0.0952   126.9269     2.5111  -999.2500
 2053.5000   -26.7479     3.6666     2.9642     9.4925     0.0344     0.0965   128.5181     2.4528  -999.2500
 2054.0000   -26.7524     3.6664     2.9612     9.4925     0.0043     0.1126   128.6541     2.4289  -999.2500
 2054.5000   -27.0554     3.6663     3.0213     9.4925     0.0001     0.1203   124.3566     2.4453  -999.2500
 2055.0000   -27.3583     3.6836     3.1045     9.4925     0.0206     0.1132   123.3358     2.4856  -999.2500
 2055.5000   -27.3628     3.7137     3.1015     9.4760     0.0526     0.1001   123.5985     2.5125  -999.2500
 2056.0000   -27.3672     3.8155     3.0308     9.4627     0.0274     0.0929   121.5399     2.5469  -999.2500
 2056.5000   -27.3717     3.8753     2.9463     9.4627     0.0165     0.0863   112.5824     2.5409  -999.2500
 2057.0000   -27.3761     3.9350     2.9433     9.4627     0.0233     0.0713   112.1324     2.5315  -999.2500
 2057.5000   -27.3806     3.9947     2.7911     9.4627     0.0308     0.0660   120.1899     2.5394  -999.2500
 2058.0000   -27.3851     3.9048     2.7881     9.4627     0.0362     0.0648   126.9041     2.5409  -999.2500
 2058.5000   -27.3802     3.6950     2.6358     9.4801     0.0404     0.0947   128.6929     2.4990  -999.2500
 2059.0000   -26.7969     3.5152     2.5563     9.5101     0.0452     0.0995   132.2727     2.4855  -999.2500
 2059.5000   -26.5029     3.3953     2.4806     9.5401     0.0384     0.1055   131.8228     2.4736  -999.2500
 2060.0000   -26.2088     3.2754     2.4776     9.5522     0.0181     0.1073   132.7160     2.4586  -999.2500
 2060.5000   -26.2134     3.2154     2.4746     9.5821     0.0244     0.1073   140.3258     2.4735  -999.2500
 2061.0000   -26.2179     3.1853     2.4717     9.5821     0.0435     0.1067   145.2489     2.4825  -999.2500
 2061.5000   -26.2224     3.1552     2.6179     9.5821     0.0539     0.1043   146.1425     2.4810  -999.2500
 2062.0000   -26.2269     3.2149     2.7641     9.5821     0.0419     0.1001   135.8414     2.4810  -999.2500
 2062.5000   -26.1941     3.2747     2.9104     9.5821     0.0297     0.1002   130.4661     2.4794  -999.2500
 2063.0000   -25.9370     3.3644     3.1454     9.5821     0.0279     0.1002   130.0161     2.4809  -999.2500
 2063.5000   -25.9418     3.4840     3.3522     9.5821     0.0226     0.0996   125.9840     2.4839  -999.2500
 2064.0000   -26.2448     3.7233     3.4985     9.5821     0.0260     0.0954   123.2952     2.5003  -999.2500
