~VERSION INFORMATION
 VERS.                2.0:   CWLS LOG ASCII STANDARD - VERSION 2.0
 WRAP.                 NO:   ONE LINE PER DEPTH STEP
~WELL INFORMATION
#MNEM.UNIT      DATA TYPE    INFORMATION
#----------   ------------   ------------------------------
 STRT.F           40.0000:   START DEPTH
 STOP.F          821.0000:   STOP DEPTH
 STEP.F            0.5000:   STEP LENGTH
 NULL.          -999.2500:   NO VALUE
 COMP. FENIX & SCISSON INC:   COMPANY
 WELL. NPR 3 -68 SX #68-27:   WELL
 FLD .             TEAPOT:   FIELD
 LOC .      S27 T39N R78W:   LOCATION
 CNTY.            NATRONA:   COUNTY
 STAT.            WYOMING:   STATE
 CTRY. UNITED STATES OF AMERICA:   COUNTRY
 SRVC.           BIRDWELL:   SERVICE COMPANY
 DATE.        11-SEP-1978:   LOGDATE
 API .       490251069500:   API NUMBER
~CURVE INFORMATION
#MNEM.UNIT       API CODE    CURVE DESCRIPTION
#----------   ------------   ------------------------------
 DEPT.F                  :   
 SPR .MV     05 010 01 00:   SPONTANEOUS POTENTIAL FROM RES.
 SN  .OHMM   05 040 16 00:   SHORT NORMAL 16"
 ILD .OHMM   05 120 46 00:   INDUCTION LOG DEEP
 GRD .GAPI   45 310 01 00:   GAMMA RAY FROM DENSITY LOG
 CALD.IN     45 280 60 00:   CALIPER
 RHOB.G/C3   45 350 01 00:   BULK DENSITY
 CORR.G/C3   45 356 01 00:   DENSITY CORRECTION
 DPHI.DEC    45 890 12 00:   DENSITY POROSITY SANDSTONE
~PARAMETER INFORMATION
#MNEM.UNIT          VALUE    DESCRIPTION
#----------   ------------   ------------------------------
 PD  .                 GL:   PERMANENT DATUM
 EPD .F              5032:   ELEVATION PERMANENT DATUM
 LMF .                 GL:   LOG MEASURED FROM
 DAPD.F                 4:   FEET ABOVE PERMANENT DATUM
 DMF .                 GL:   DRILLING MEASURED FROM
 EKB .F              5036:   KELLING BUSHING
 EGL .F              5032:   GROUND LEVEL
 DATE.            9-11-78:   RUN DATE
 RUN .                  1:   RUN NUMBER
 DD  .F               820:   DEPTH DRILLER
 DL  .F               822:   DEPTH LOGGER
 BLI .F               818:   BOTTOM LOG INTERVAL
 TLI .F                40:   TOP LOG INTERVAL
 CS  .IN            8.625:   CASING SIZE
 CBD .F                40:   CASING BOTTOM DRILLER
 CBL .F                40:   CASING BOTTOM LOGGER
 BS  .IN            7.875:   BIT SIZE
 BSD .F               820:   BIT SIZE AT DEPTH
 DFT .                KCL:   DRILLING FLUID TYPE
 DFD .                8.6:   DRILLING FLUID DENSITY
 DFV .                 34:   DRILLING FLUID VISCOSITY
 DFPH.                  9:   DRILLING FLUID PH
 DFL .                  8:   DRILLING FLUID LOSS
 MSS .           FLOWLINE:   MUD SAMPLE SOURCE
 RMS .OHMM            .24:   RESISTIVITY MUD SAMPLE
 MST .F                62:   MUD SAMPLE TEMPERATURE
 RMF .OHMM            .18:   RESISTIVITY MUD FILTRATE SAMPLE
 MFST.F                64:   MUD FILTRATE SAMPLE TEMPERATURE
 RMC .OHMM             .3:   RESISTIVITY MUD CAKE
 MCST.F                66:   MUD CAKE SAMPLE TEMPERATURE
 MFSS.               MEAS:   MUD FILTRATE SAMPLE SOURCE
 MCSS.               MEAS:   MUD CAKE SAMPLE SOURCE
 RMB .OHMM            .22:   RESISTIVITY MUD AT BHT
 BHT .F                68:   BOTTOM HOLE TEMPERATURE
 TCS .HRS               1:   TIME CURCULATED STOPPED
 MRT .F                68:   MAXIMUM RECORDED TEMPERATURE
 LUN .               3006:   LOGGING UNIT NUMBER
 LUL .               CASP:   LOGGING UNIT LOCATION
 ENGI.            POINTER:   RECORDING ENGINEER
 WITN.              AMEND:   WITNESSED BY
 CLNT.            A2DTECH:   CLIENT CODE
 ORIG.           5" PRINT:   ORIGIN OF DATA
 UWI .       490251069500:   UNIQUE WELL ID
 DICO. A2D Technologies, Inc.:   DIGITIZING COMPANY
~OTHER INFORMATION
~A   DEPT       SPR        SN        ILD         GRD        CALD     RHOB       CORR       DPHI   
# ...
  202.0000   -39.1465     8.3244     7.7824    91.9333     7.9766     2.4405     0.0072     0.1488
  202.5000   -39.3809     8.1887     7.7353    92.6235     7.9425     2.4384     0.0080     0.1508
  203.0000   -39.6092     7.9540     7.6882    93.1820     7.9084     2.4371     0.0088     0.1526
  203.5000   -39.8420     7.7243     7.6415    92.5476     7.8745     2.4325     0.0096     0.1543
  204.0000   -40.2155     7.5018     7.4445    89.8155     7.8496     2.4080     0.0104     0.1659
  204.5000   -40.8246     7.0659     6.8178    87.6324     7.8564     2.3510     0.0113     0.1863
  205.0000   -41.2394     6.4920     6.1672    90.6130     7.8698     2.2957     0.0121     0.2067
  205.5000   -41.3691     5.9638     5.2258    95.2136     7.8830     2.2404     0.0129     0.2255
  206.0000   -41.1060     5.4659     4.4281    99.9029     7.8964     2.1851     0.0136     0.2517
  206.5000   -40.4571     4.7536     3.7521   102.2347     7.9097     2.1296     0.0147     0.2764
  207.0000   -39.7657     4.1182     3.2645   103.5815     7.9233     2.1116     0.0159     0.2993
  207.5000   -39.0960     3.5678     3.0030   107.1390     7.9281     2.1046     0.0171     0.2999
  208.0000   -37.8428     3.0892     2.7587   110.7777     7.8850     2.1197     0.0168     0.2998
  208.5000   -36.5205     2.9775     2.6419   112.0684     7.8424     2.1476     0.0134     0.2986
  209.0000   -34.6398     2.9775     2.6419   107.5735     7.8000     2.2743     0.0101     0.2823
  209.5000   -32.7114     3.0328     2.7388   103.9863     7.7576     2.3489     0.0067     0.2631
  210.0000   -32.7653     3.0892     2.8496   100.4212     7.7152     2.4106     0.0055     0.1961
  210.5000   -32.4151     3.4906     3.1818    97.5773     7.6730     2.4331     0.0054     0.1528
  211.0000   -31.9499     3.9348     3.6077    97.9637     7.6506     2.4198     0.0059     0.1589
  211.5000   -31.5878     4.4355     4.0712    99.7800     7.6906     2.4144     0.0178     0.1633
  212.0000   -31.8161     5.3071     5.2318   101.5368     7.7800     2.4141     0.0301     0.1677
  212.5000   -32.0341     6.5662     6.6622   101.5582     7.8678     2.4257     0.0387     0.1703
  213.0000   -32.1782     8.1241     8.4837   100.1145     7.9457     2.4390     0.0414     0.1614
  213.5000   -32.2447     9.0077     9.9356    97.0570     7.8794     2.4523     0.0415     0.1481
  214.0000   -32.3142     9.4344    10.6000    96.8559     7.8100     2.4641     0.0382     0.1392
  214.5000   -32.4586     9.8813    10.6980    98.8865     7.7425     2.4582     0.0327     0.1350
  215.0000   -32.9053    10.0307    10.1506    95.7096     7.7036     2.4450     0.0272     0.1324
  215.5000   -33.3416     9.9246     9.6659    92.1964     7.7087     2.4319     0.0217     0.1384
  216.0000   -33.7782     9.8055     9.2044    90.1172     7.7675     2.4189     0.0162     0.1597
  216.5000   -34.1551     9.6878     8.7649    88.4171     7.8359     2.4059     0.0106     0.1743
  217.0000   -33.9519     9.5715     8.3463    89.9619     7.9053     2.3927     0.0118     0.1759
  217.5000   -33.7565     9.4050     7.9478    93.4926     7.9297     2.3859     0.0149     0.1798
  218.0000   -33.5291     8.7772     7.5414    98.6421     7.9301     2.3860     0.0146     0.1837
  218.5000   -31.1989     8.1740     7.5414   101.5211     7.9300     2.3956     0.0135     0.1847
  219.0000   -28.6277     7.6815     7.5686    98.1846     7.9300     2.4056     0.0123     0.1786
  219.5000   -27.0312     7.6815     7.5892    93.7499     7.9299     2.4155     0.0111     0.1703
  220.0000   -26.7708     8.0010     7.6124    92.5526     7.9300     2.4258     0.0100     0.1621
  220.5000   -26.8534     8.5478     8.0089    93.8112     7.9341     2.4273     0.0088     0.1568
  221.0000   -26.9285     9.1321     8.4974    95.3104     7.9556     2.4250     0.0077     0.1569
  221.5000   -26.7351     9.7563     9.0982    96.8156     7.9767     2.4226     0.0065     0.1591
  222.0000   -26.3832    10.4229     9.8372    97.8368     7.9976     2.4200     0.0055     0.1602
  222.5000   -26.0284    11.1409    10.6363    96.5788     8.0096     2.4197     0.0056     0.1608
  223.0000   -25.6693    11.5132    11.0787    95.8287     7.9933     2.4192     0.0057     0.1615
  223.5000   -25.5526    11.6365    11.2757    97.2311     7.9766     2.4184     0.0058     0.1621
  224.0000   -25.5506    11.7600    11.4825    97.8299     7.9601     2.4128     0.0059     0.1653
  224.5000   -25.5509    11.8854    11.6931    95.5049     7.9542     2.4055     0.0060     0.1704
  225.0000   -25.5511    12.0124    11.9077    93.4152     7.9653     2.3981     0.0061     0.1746
  225.5000   -25.5511    12.1408    12.1262    93.3691     7.9762     2.3910     0.0062     0.1783
  226.0000   -25.5511    12.2706    12.2208    94.1858     7.9871     2.3904     0.0063     0.1795
  226.5000   -25.5509    12.4017    12.3068    95.1861     7.9979     2.3962     0.0064     0.1791
  227.0000   -25.5489    12.5343    12.3934    96.2042     8.0088     2.4064     0.0065     0.1742
  227.5000   -25.6465    12.6683    12.4806    96.3254     8.0197     2.4165     0.0066     0.1682
  228.0000   -25.7728    12.8037    12.5685    92.5702     8.0306     2.4392     0.0067     0.1565
  228.5000   -25.9025    12.9405    12.6571    88.5584     8.0415     2.4666     0.0068     0.1383
  229.0000   -25.9671    13.0789    12.7416    85.4961     8.0524     2.4696     0.0069     0.1324
  229.5000   -25.3223    13.2187    12.7416    85.5893     8.0633     2.4553     0.0071     0.1425
  230.0000   -24.5343    13.3601    12.6469    90.1879     8.0701     2.4425     0.0071     0.1542
  230.5000   -23.7457    13.4655    12.6250    95.0580     8.0633     2.4290     0.0072     0.1659
  231.0000   -23.1019    13.4650    13.0107    94.2926     8.0217     2.4117     0.0074     0.1700
  231.5000   -22.9653    13.4649    13.1051    93.0484     7.9805     2.4037     0.0074     0.1702
  232.0000   -22.8217    13.4649    13.1299    91.8126     7.9394     2.4030     0.0082     0.1703
  232.5000   -22.6787    13.4649    13.1547    90.7183     7.8983     2.4019     0.0092     0.1723
  233.0000   -22.5294    13.4649    13.1796    93.3243     7.8572     2.3959     0.0102     0.1750
  233.5000   -22.2146    13.4649    13.2045    94.3976     7.8162     2.3902     0.0113     0.1777
  234.0000   -21.9392    13.4649    13.2295    91.5446     7.7694     2.3872     0.0123     0.1804
  234.5000   -21.7920    13.4649    13.2545    88.1198     7.7122     2.3837     0.0133     0.1831
  235.0000   -21.5853    13.4649    13.2796    89.2169     7.6552     2.3767     0.0135     0.1858
  235.5000   -21.3763    13.4648    13.3042    90.6285     7.5982     2.3697     0.0135     0.1893
  236.0000   -21.1674    13.4649    13.3296    90.3467     7.5349     2.3658     0.0135     0.1928
  236.5000   -20.9584    13.4644    13.4981    90.5776     7.4416     2.3648     0.0135     0.1963
  237.0000   -20.7488    13.5359    13.7981    93.2351     7.3472     2.3687     0.0135     0.1925
  237.5000   -20.5491    13.6326    14.1039    94.5261     7.2510     2.3726     0.0134     0.1887
  238.0000   -20.4641    13.7301    14.4934    94.0144     7.1072     2.3763     0.0137     0.1871
  238.5000   -20.3710    13.8282    14.4622    81.5336     6.8819     2.3710     0.0209     0.1880
  239.0000   -20.2768    13.9270    14.4065    82.5277     6.8136     2.3548     0.0284     0.1904
  239.5000   -20.1824    14.0265    14.3606    84.8697     7.3919     2.3389     0.0437     0.2252
  240.0000   -20.0881    14.1268    14.9979    88.0673     7.5125     2.3229     0.0706     0.2230
  240.5000   -19.9936    14.2277    15.5636    91.1734     7.4604     2.3172     0.0974     0.2193
  241.0000   -19.8991    14.3294    16.1504    93.3547     7.4071     2.3399     0.1243     0.2155
  241.5000   -19.8066    14.4324    16.7143    94.8516     7.3541     2.3781     0.1520     0.2117
  242.0000   -19.7729    14.4972    17.1056    94.2581     7.3456     2.4967     0.1575     0.2075
