~VERSION INFORMATION
 VERS.                2.0:   CWLS LOG ASCII STANDARD - VERSION 2.0
 WRAP.                 NO:   ONE LINE PER DEPTH STEP
~WELL INFORMATION
#MNEM.UNIT      DATA TYPE    INFORMATION
#----------   ------------   ------------------------------
 STRT.F            0.0000:   START DEPTH
 STOP.F          545.0000:   STOP DEPTH
 STEP.F            0.1000:   STEP LENGTH
 NULL.          -999.2500:   NO VALUE
 COMP.       F D SERV INC:   COMPANY
 WELL. NAVAL PETROLEUM RESERVE 3 SX-3 #88-5-3:   WELL
 FLD .             TEAPOT:   FIELD
 LOC .       S3 T38N R78W:   LOCATION
 CNTY.            NATRONA:   COUNTY
 STAT.            WYOMING:   STATE
 CTRY. UNITED STATES OF AMERICA:   COUNTRY
 SRVC.     Atlas Wireline:   SERVICE COMPANY
 DATE.        14-OCT-1992:   LOGDATE
 API .       490252255700:   API NUMBER
~CURVE INFORMATION
#MNEM.UNIT       API CODE    CURVE DESCRIPTION
#----------   ------------   ------------------------------
 DEPT.F                  :   
 GRR .GAPI   07 310 01 00:   GAMMA RAY
 RILD.OHMM   07 120 46 00:   INDUCTION LOG DEEP RESISTIVITY
 RILM.OHMM   07 120 44 00:   INDUCTION LOG MEDIUM RESISTIVITY
~PARAMETER INFORMATION
#MNEM.UNIT          VALUE    DESCRIPTION
#----------   ------------   ------------------------------
 PD  .                 GL:   PERMANENT DATUM
 EPD .F              5152:   ELEVATION PERMANENT DATUM
 LMF .                 KB:   LOG MEASURED FROM
 DAPD.F                10:   FEET ABOVE PERMANENT DATUM
 DMF .                 KB:   DRILLING MEASURED FROM
 EKB .F              5162:   KELLING BUSHING
 EDF .F              5161:   DRILLING FLOOR
 EGL .F              5152:   GROUND LEVEL
 DATE.        14-OCT-1992:   RUN DATE
 RUN .                  1:   RUN NUMBER
 DD  .F               555:   DEPTH DRILLER
 DL  .F               552:   DEPTH LOGGER
 BLI .F               546:   BOTTOM LOG INTERVAL
 CS  .IN            8.625:   CASING SIZE
 CBD .F                85:   CASING BOTTOM DRILLER
 CBL .F                96:   CASING BOTTOM LOGGER
 BS  .IN            7.875:   BIT SIZE
 BSD .F               555:   BIT SIZE AT DEPTH
 DFT .           AIR FOAM:   DRILLING FLUID TYPE
 BHT .F                72:   BOTTOM HOLE TEMPERATURE
 TCS .HRS               2:   TIME CURCULATED STOPPED
 MRT .F                72:   MAXIMUM RECORDED TEMPERATURE
 LUN .            HL-6274:   LOGGING UNIT NUMBER
 LUL .             CASPER:   LOGGING UNIT LOCATION
 ENGI.             RAUTIO:   RECORDING ENGINEER
 WITN.        GARY STRONG:   WITNESSED BY
 CLNT.            A2DTECH:   CLIENT CODE
 ORIG.           5" PRINT:   ORIGIN OF DATA
 UWI .       490252255700:   UNIQUE WELL ID
 DICO. A2D Technologies, Inc.:   DIGITIZING COMPANY
~OTHER INFORMATION
~A    DEPT      GRR      RILD       RILM   
# ...
  527.8000  -999.2500     7.1214     7.6905
  527.9000  -999.2500     7.2066     7.8154
  528.0000  -999.2500     7.2859     7.9301
  528.1000  -999.2500     7.3296     8.0248
  528.2000  -999.2500     7.4832     8.1206
  528.3000  -999.2500     7.5576     8.2229
  528.4000  -999.2500     7.6480     8.4424
  528.5000  -999.2500     7.7394     8.5323
  528.6000  -999.2500     7.8319     8.6721
  528.7000  -999.2500     7.9255     8.8281
  528.8000  -999.2500     8.0195     8.9651
  528.9000  -999.2500     8.0743     9.0721
  529.0000  -999.2500     8.1567     9.1804
  529.1000  -999.2500     8.2885     9.2994
  529.2000  -999.2500     8.3846     9.4011
  529.3000  -999.2500     8.4529     9.5134
  529.4000  -999.2500     8.5436     9.6271
  529.5000  -999.2500     8.5964     9.7173
  529.6000  -999.2500     8.7121     9.7596
  529.7000  -999.2500     8.8034     9.7652
  529.8000  -999.2500     8.9088     9.8268
  529.9000  -999.2500     9.0153     9.8266
  530.0000  -999.2500     9.0809     9.8263
  530.1000  -999.2500     9.1053     9.8260
  530.2000  -999.2500     9.2072     9.8258
  530.3000  -999.2500     9.2071     9.8255
  530.4000  -999.2500     9.3062     9.8252
  530.5000  -999.2500     9.3351     9.8249
  530.6000  -999.2500     9.3350     9.8247
  530.7000  -999.2500     9.3578     9.8244
  530.8000  -999.2500     9.4135     9.8241
  530.9000  -999.2500     9.4647     9.8238
  531.0000  -999.2500     9.4646     9.8236
  531.1000  -999.2500     9.5691     9.8319
  531.2000  -999.2500     9.5962     9.8912
  531.3000  -999.2500     9.6303     9.8909
  531.4000  -999.2500     9.6876     9.8907
  531.5000  -999.2500     9.7295     9.8904
  531.6000  -999.2500     9.7294     9.9194
  531.7000  -999.2500     9.7293     9.9585
  531.8000  -999.2500     9.7291     9.9583
  531.9000  -999.2500     9.7745     9.9580
  532.0000  -999.2500     9.7964     9.9577
  532.1000  -999.2500     9.7963     9.9574
  532.2000  -999.2500     9.7962     9.9572
  532.3000  -999.2500     9.7960     9.9569
  532.4000  -999.2500     9.7959     9.9566
  532.5000  -999.2500     9.7957     9.9563
  532.6000  -999.2500     9.7956     9.9561
  532.7000  -999.2500     9.7955     9.9558
  532.8000  -999.2500     9.7953     9.9555
  532.9000  -999.2500     9.7952     9.9552
  533.0000  -999.2500     9.7951     9.9550
  533.1000  -999.2500     9.7949     9.9547
  533.2000  -999.2500     9.7948     9.9544
  533.3000  -999.2500     9.7947     9.9541
  533.4000  -999.2500     9.7945     9.9538
  533.5000  -999.2500     9.7944     9.9536
  533.6000  -999.2500     9.7943     9.9533
  533.7000  -999.2500     9.7941     9.9530
  533.8000  -999.2500     9.7940     9.9528
  533.9000  -999.2500     9.7938     9.9525
  534.0000  -999.2500     9.7937     9.9522
  534.1000  -999.2500     9.7936     9.9519
  534.2000  -999.2500     9.7628     9.9517
  534.3000  -999.2500     9.7258     9.9514
  534.4000  -999.2500     9.7256     9.9511
  534.5000  -999.2500     9.7255     9.9508
  534.6000  -999.2500     9.7254     9.9506
  534.7000  -999.2500     9.6747     9.9503
  534.8000  -999.2500     9.6172     9.9500
  534.9000  -999.2500     9.5913     9.9497
  535.0000  -999.2500     9.5691     9.9495
  535.1000  -999.2500     9.5122     9.9492
  535.2000  -999.2500     9.4556     9.9489
  535.3000  -999.2500     9.3937     9.9486
  535.4000  -999.2500     9.3936     9.9484
  535.5000  -999.2500     9.3524     9.9481
  535.6000  -999.2500     9.2968     9.9478
  535.7000  -999.2500     9.2415     9.9475
  535.8000  -999.2500     9.2001     9.9473
  535.9000  -999.2500     9.1953     9.9470
  536.0000  -999.2500     9.1364     9.9467
  536.1000  -999.2500     9.1363     9.9464
  536.2000  -999.2500     9.0950     9.9461
  536.3000  -999.2500     9.0730     9.9458
  536.4000  -999.2500     9.0729     9.9456
  536.5000  -999.2500     9.0728     9.9844
  536.6000  -999.2500     9.0726    10.0141
  536.7000  -999.2500     9.0725    10.0138
  536.8000  -999.2500     9.0724    10.0136
  536.9000  -999.2500     9.0723    10.0133
  537.0000  -999.2500     9.0721    10.0130
  537.1000  -999.2500     9.0720    10.0127
  537.2000  -999.2500     9.0719    10.0124
  537.3000  -999.2500     9.0718    10.0122
  537.4000  -999.2500     9.0716    10.0119
  537.5000  -999.2500     9.0089    10.0116
  537.6000  -999.2500     9.0088    10.0095
  537.7000  -999.2500     8.9743     9.9420
  537.8000  -999.2500     8.9464     9.9417
  537.9000  -999.2500     8.9463     9.9415
  538.0000  -999.2500     8.9462     9.9412
  538.1000  -999.2500     8.9461     9.9409
  538.2000  -999.2500     8.9459     9.9406
  538.3000  -999.2500     8.9458     9.9404
  538.4000  -999.2500     8.9457     9.9401
  538.5000  -999.2500     8.9456     9.9398
  538.6000  -999.2500     8.9455     9.9395
  538.7000  -999.2500     8.9359     9.9393
  538.8000  -999.2500     8.8835     9.9390
  538.9000  -999.2500     8.8834     9.9387
  539.0000  -999.2500     8.8384     9.9339
  539.1000  -999.2500     8.8219     9.8696
  539.2000  -999.2500     8.7942     9.8694
  539.3000  -999.2500     8.7419     9.8251
  539.4000  -999.2500     8.7003     9.8008
  539.5000  -999.2500     8.6981     9.8005
  539.6000  -999.2500     8.6400     9.7697
  539.7000  -999.2500     8.5950     9.6653
  539.8000  -999.2500     8.5802     9.6650
  539.9000  -999.2500     8.5521     9.5576
  540.0000  -999.2500     8.5012     9.5316
  540.1000  -999.2500     8.4507     9.4967
  540.2000  -999.2500     8.4004     9.4401
  540.3000  -999.2500     8.3454     9.3679
  540.4000  -999.2500     8.3008     9.2704
  540.5000  -999.2500     8.2155     9.2701
  540.6000  -999.2500     8.1458     9.1646
  540.7000  -999.2500     8.0777     9.0989
  540.8000  -999.2500     7.9820     9.0447
  540.9000  -999.2500     7.8913     8.9656
  541.0000  -999.2500     7.8444     8.8593
  541.1000  -999.2500  -999.2500     8.7618
  541.2000  -999.2500  -999.2500     8.7087
  541.3000  -999.2500  -999.2500     8.6484
  541.4000  -999.2500  -999.2500     8.5642
  541.5000  -999.2500  -999.2500     8.4958
  541.6000  -999.2500  -999.2500     8.4451
  541.7000  -999.2500  -999.2500     8.3782
  541.8000  -999.2500  -999.2500     8.2872
  541.9000  -999.2500  -999.2500     8.2377
  542.0000  -999.2500  -999.2500     8.1810
  542.1000  -999.2500  -999.2500     8.0991
  542.2000  -999.2500  -999.2500     8.0356
  542.3000  -999.2500  -999.2500     7.9877
  542.4000  -999.2500  -999.2500     7.9233
  542.5000  -999.2500  -999.2500     7.8382
  542.6000  -999.2500  -999.2500     7.7915
  542.7000  -999.2500  -999.2500     7.7390
  542.8000  -999.2500  -999.2500     7.6594
  542.9000  -999.2500  -999.2500     7.5686
  543.0000  -999.2500  -999.2500     7.4549
  543.1000  -999.2500  -999.2500     7.2903
  543.2000  -999.2500  -999.2500     7.0850
  543.3000  -999.2500  -999.2500     6.9201
  543.4000  -999.2500  -999.2500     6.7842
  543.5000  -999.2500  -999.2500     6.6771
  543.6000  -999.2500  -999.2500     6.5872
  543.7000  -999.2500  -999.2500     6.5091
  543.8000  -999.2500  -999.2500     6.4319
  543.9000  -999.2500  -999.2500     6.3556
  544.0000  -999.2500  -999.2500     6.2831
  544.1000  -999.2500  -999.2500     6.2424
  544.2000  -999.2500  -999.2500     6.1747
  544.3000  -999.2500  -999.2500     6.1288
  544.4000  -999.2500  -999.2500     6.0711
  544.5000  -999.2500  -999.2500     5.9991
  544.6000  -999.2500  -999.2500     5.9371
  544.7000  -999.2500  -999.2500     5.9017
  544.8000  -999.2500  -999.2500     5.8644
  544.9000  -999.2500  -999.2500     5.7992
  545.0000  -999.2500  -999.2500     5.7835
