~VERSION INFORMATION
 VERS.                2.0:   CWLS LOG ASCII STANDARD - VERSION 2.0
 WRAP.                 NO:   ONE LINE PER DEPTH STEP
~WELL INFORMATION
#MNEM.UNIT      DATA TYPE    INFORMATION
#----------   ------------   ------------------------------
 STRT.F           18.0000:   START DEPTH
 STOP.F          647.0000:   STOP DEPTH
 STEP.F            0.5000:   STEP LENGTH
 NULL.          -999.2500:   NO VALUE
 COMP. FENIX & SCISSON INC:   COMPANY
 WELL. NAVAL PETROLEUM RESERVE 3 SX-1 #82-15:   WELL
 FLD .        TEAPOT DOME:   FIELD
 LOC .      S15 T38N R78W:   LOCATION
 CNTY.            NATRONA:   COUNTY
 STAT.            WYOMING:   STATE
 CTRY. UNITED STATES OF AMERICA:   COUNTRY
 SRVC.            Unknown:   SERVICE COMPANY
 DATE.        15-MAR-1979:   LOGDATE
 API .       490251076500:   API NUMBER
~CURVE INFORMATION
#MNEM.UNIT       API CODE    CURVE DESCRIPTION
#----------   ------------   ------------------------------
 DEPT.F                  :   
 SPR .MV     05 010 01 00:   SPONTANEOUS POTENTIAL FROM RES.
 SN  .OHMM   05 040 16 00:   SHORT NORMAL 16"
 IL  .OHMM   05 120 00 00:   INDUCTION LOG
 CALD.IN     45 280 60 00:   CALIPER
 GRD .GAPI   45 310 01 00:   GAMMA RAY FROM DENSITY LOG
 RHOB.G/C3   45 350 01 00:   BULK DENSITY
 DPHI.DEC    45 890 12 00:   DENSITY POROSITY SANDSTONE
 CORR.G/C3   45 356 01 00:   DENSITY CORRECTION
~PARAMETER INFORMATION
#MNEM.UNIT          VALUE    DESCRIPTION
#----------   ------------   ------------------------------
 PD  .                 GL:   PERMANENT DATUM
 EPD .F              5249:   ELEVATION PERMANENT DATUM
 LMF .                 KB:   LOG MEASURED FROM
 DAPD.F                 4:   FEET ABOVE PERMANENT DATUM
 DMF .                 KB:   DRILLING MEASURED FROM
 EKB .F              5253:   KELLING BUSHING
 EGL .F              5249:   GROUND LEVEL
 DATE.            1-15-79:   RUN DATE
 RUN .                  1:   RUN NUMBER
 DD  .F               670:   DEPTH DRILLER
 DL  .F               647:   DEPTH LOGGER
 BLI .F               640:   BOTTOM LOG INTERVAL
 TLI .F                30:   TOP LOG INTERVAL
 CS  .IN            8.625:   CASING SIZE
 CBD .F                40:   CASING BOTTOM DRILLER
 CBL .F                34:   CASING BOTTOM LOGGER
 BS  .IN            7.875:   BIT SIZE
 BSD .F               670:   BIT SIZE AT DEPTH
 DFT .                KCL:   DRILLING FLUID TYPE
 DFD .                8.9:   DRILLING FLUID DENSITY
 DFV .                 44:   DRILLING FLUID VISCOSITY
 DFPH.                8.5:   DRILLING FLUID PH
 DFL .               14.8:   DRILLING FLUID LOSS
 MSS .           FLOWLINE:   MUD SAMPLE SOURCE
 RMS .OHMM            .26:   RESISTIVITY MUD SAMPLE
 MST .F                61:   MUD SAMPLE TEMPERATURE
 RMF .OHMM            .25:   RESISTIVITY MUD FILTRATE SAMPLE
 MFST.F                60:   MUD FILTRATE SAMPLE TEMPERATURE
 RMC .OHMM             .2:   RESISTIVITY MUD CAKE
 MCST.F                60:   MUD CAKE SAMPLE TEMPERATURE
 MFSS.           MEASURED:   MUD FILTRATE SAMPLE SOURCE
 MCSS.           MEASURED:   MUD CAKE SAMPLE SOURCE
 RMB .OHMM            .27:   RESISTIVITY MUD AT BHT
 BHT .F                58:   BOTTOM HOLE TEMPERATURE
 TCS .HRS               5:   TIME CURCULATED STOPPED
 MRT .F                58:   MAXIMUM RECORDED TEMPERATURE
 LUN .               3006:   LOGGING UNIT NUMBER
 LUL .             CASPER:   LOGGING UNIT LOCATION
 ENGI.            ROLLINS:   RECORDING ENGINEER
 WITN.              AMEND:   WITNESSED BY
 CLNT.            A2DTECH:   CLIENT CODE
 ORIG.         2.5" PRINT:   ORIGIN OF DATA
 UWI .       490251076500:   UNIQUE WELL ID
 DICO. A2D Technologies, Inc.:   DIGITIZING COMPANY
~OTHER INFORMATION
~A   DEPT      SPR         SN         IL       CALD         GRD      RHOB       DPHI       CORR   
# ...
  585.0000   -70.1270     9.6560    10.0660     8.1380    90.4160     2.4480     0.1440     0.0290
  585.5000   -70.1940     9.6390    10.0180     8.1380    89.8590     2.4470     0.1490     0.0260
  586.0000   -70.2620     9.6220     9.9700     8.1390    88.9300     2.4410     0.1540     0.0260
  586.5000   -70.3290     9.6050     9.9220     8.1400    88.9170     2.4350     0.1570     0.0260
  587.0000   -70.3960     9.5880     9.8740     8.1400    88.6480     2.4290     0.1530     0.0260
  587.5000   -70.4650     9.5710     9.8260     8.1410    87.3540     2.4300     0.1540     0.0260
  588.0000   -70.5310     9.5530     9.7780     8.1410    90.2930     2.4320     0.1540     0.0260
  588.5000   -70.5990     9.5360     9.7300     8.1420    92.7280     2.4320     0.1510     0.0260
  589.0000   -70.6690     9.5190     9.6820     8.1430    95.2640     2.4360     0.1470     0.0260
  589.5000   -70.7260     9.5020     9.6340     8.1430    96.0950     2.4440     0.1440     0.0260
  590.0000   -70.8900     9.4850     9.5860     8.1440    93.9320     2.4470     0.1440     0.0260
  590.5000   -71.1590     9.4680     9.5380     8.1450    93.3750     2.4450     0.1450     0.0260
  591.0000   -71.4140     9.4510     9.4900     8.1450    93.4120     2.4440     0.1470     0.0270
  591.5000   -71.6720     9.4340     9.4430     8.1460    93.0570     2.4420     0.1490     0.0290
  592.0000   -71.9300     9.4160     9.3950     8.1470    91.8700     2.4410     0.1500     0.0300
  592.5000   -72.1870     9.3990     9.3470     8.1470    90.7800     2.4390     0.1480     0.0320
  593.0000   -72.4450     9.3820     9.2990     8.1480    89.5340     2.4440     0.1430     0.0340
  593.5000   -72.7030     9.3650     9.2510     8.1490    89.1820     2.4510     0.1410     0.0360
  594.0000   -72.9620     9.3480     9.2030     8.1490    88.9880     2.4530     0.1440     0.0380
  594.5000   -73.2150     9.3310     9.1550     8.1500    89.3290     2.4520     0.1420     0.0390
  595.0000   -73.4840     9.3140     9.1070     8.1510    92.8870     2.4520     0.1390     0.0410
  595.5000   -73.5870     9.2960     9.0590     8.1510    95.4960     2.4510     0.1390     0.0440
  596.0000   -73.5550     9.2800     9.0110     8.1520    93.9270     2.4500     0.1410     0.0500
  596.5000   -73.5400     9.2630     8.9630     8.1530    92.3480     2.4500     0.1430     0.0550
  597.0000   -73.5220     9.2450     8.9150     8.1530    91.1160     2.4490     0.1450     0.0710
  597.5000   -73.5030     9.2270     8.8630     8.1540    93.4150     2.4440     0.1440     0.0830
  598.0000   -73.4850     9.2110     8.7960     8.1550    97.1140     2.4370     0.1320     0.0890
  598.5000   -73.4660     9.1110     8.7290     8.1550   100.6850     2.4540     0.1200     0.0810
  599.0000   -73.4480     9.0180     8.6620     8.1560   102.0390     2.4730     0.1240     0.0750
  599.5000   -73.4300     8.9250     8.5950     8.1560    99.2790     2.4800     0.1330     0.0850
  600.0000   -73.4110     8.8320     8.5280     8.1570    96.3350     2.4670     0.1400     0.0940
  600.5000   -73.3930     8.7380     8.4610     8.1580    96.5820     2.4580     0.1370     0.1040
  601.0000   -73.3740     8.6450     8.3950     8.1580    98.7910     2.4630     0.1350     0.1140
  601.5000   -73.3550     8.5510     8.3280     8.1590   100.4360     2.4670     0.1320     0.1340
  602.0000   -73.3370     8.4580     8.2610     8.1600    99.8280     2.4730     0.1240     0.1580
  602.5000   -73.3180     8.3640     8.1940     8.1570    99.0860     2.4790     0.1160     0.1810
  603.0000   -73.3000     8.2710     8.1270     8.1520   100.1770     2.4890     0.1080     0.2050
  603.5000   -73.2820     8.1770     8.0600     8.1470    99.8690     2.5030     0.1000     0.2280
  604.0000   -73.2630     8.0840     7.9930     8.1410    98.3720     2.5160     0.0920     0.2510
  604.5000   -73.2450     7.9900     7.8320     8.1360    97.1340     2.5300     0.0810     0.2760
  605.0000   -73.2250     7.8100     7.4620     8.1310    95.6580     2.5420     0.0690     0.2830
  605.5000   -73.2090     7.5560     7.0930     8.1260    95.2740     2.5510     0.0570     0.2550
  606.0000   -73.1910     7.3010     6.7230     8.1200    95.4660     2.5710     0.0430     0.2060
  606.5000   -73.2770     7.0470     6.3540     8.1200    96.5610     2.5990     0.0420     0.1580
  607.0000   -73.3880     6.7920     5.9840     8.1200    98.1600     2.6170     0.0840     0.1080
  607.5000   -73.4980     6.5380     5.7140     8.1200    99.7210     2.5850     0.1190     0.0770
  608.0000   -73.6070     6.2840     5.5360     8.1200   101.2710     2.5310     0.1300     0.0710
  608.5000   -73.7180     6.0290     5.3940     8.1200   102.8090     2.4900     0.1390     0.0640
  609.0000   -73.8230     5.7750     5.3940     8.1200   104.3450     2.4660     0.1510     0.0580
  609.5000   -73.9450     5.3940     5.3940     8.1200   106.0000     2.4440     0.1670     0.0470
  610.0000   -73.9480     5.4940     5.3940     8.1200   106.5870     2.4160     0.1920     0.0370
  610.5000   -73.8350     5.4940     5.7480     8.1200   110.0680     2.3910     0.1860     0.0260
  611.0000   -73.7370     5.8170     6.0950     8.1200   119.9090     2.3710     0.1670     0.0210
  611.5000   -73.6350     6.1540     6.4420     8.1200   118.1100     2.3990     0.1480     0.0200
  612.0000   -73.5320     6.4910     6.7900     8.1200   108.5800     2.4210     0.1260     0.0180
  612.5000   -73.4310     6.8280     7.1370     8.1200    98.7910     2.4460     0.1250     0.0160
  613.0000   -73.3290     7.1650     7.4850     8.1200    93.1250     2.4690     0.1300     0.0150
  613.5000   -73.2280     7.5020     7.8320     8.1200    95.7660     2.4690     0.1350     0.0130
  614.0000   -73.1260     7.8400     8.1790     8.1200    97.6060     2.4660     0.1360     0.0110
  614.5000   -73.0240     8.1770     8.5270     8.1200    99.6870     2.4630     0.1360     0.0110
  615.0000   -72.9220     8.5140     8.8740     8.1200   102.0660     2.4620     0.1320     0.0120
  615.5000   -72.8210     8.8780     9.2210     8.1200   101.5850     2.4680     0.1270     0.0140
  616.0000   -72.7190     9.0240     9.4730     8.1200    99.9840     2.4740     0.1230     0.0160
  616.5000   -72.6160     9.1820     9.6410     8.1200    98.5670     2.4800     0.1210     0.0180
  617.0000   -72.5190     9.3410     9.8090     8.1200    98.2510     2.4860     0.1200     0.0200
  617.5000   -72.4070     9.5000     9.9770     8.1200    99.4390     2.4890     0.1180     0.0220
  618.0000   -72.4400     9.6580    10.1440     8.1200   100.6530     2.4910     0.1170     0.0270
  618.5000   -72.5570     9.8170    10.2910     8.1200   102.0560     2.4930     0.1150     0.0330
  619.0000   -72.6590     9.9750    10.4060     8.1200   102.2100     2.4960     0.1140     0.0380
  619.5000   -72.7630    10.1030    10.5080     8.1200   100.9240     2.4980     0.1130     0.0420
  620.0000   -72.8660    10.2140    10.6100     8.1200   101.1570     2.5000     0.1110     0.0400
  620.5000   -72.9720    10.3070    10.7120     8.1200   102.4500     2.5020     0.1090     0.0390
  621.0000   -73.0710    10.4000    10.8140     8.1200   103.4970     2.5050     0.1060     0.0380
  621.5000   -73.1760    10.4920    10.9170     8.1200   104.6830     2.5070     0.1050     0.0370
  622.0000   -73.1830    10.5850    11.0190     8.1200   103.9470     2.5090     0.1090     0.0360
  622.5000   -73.1730    10.6780    11.1210     8.1200   102.4220     2.5040     0.1130     0.0350
  623.0000   -73.2130    10.7710    11.2230     8.1200   101.1160     2.4980     0.1170     0.0330
  623.5000   -72.8370    10.8640    11.3250     8.1200   101.5490     2.4920     0.1220     0.0320
  624.0000   -72.0250    10.9570    11.4270     8.1200   102.0540     2.4850     0.1260     0.0310
  624.5000   -71.2350    11.0500    11.5290     8.1200   102.0150     2.4790     0.1300     0.0300
  625.0000   -70.4790    11.1420    11.6310     8.1200   101.4060     2.4720     0.1340     0.0350
