~VERSION INFORMATION
 VERS.                2.0:   CWLS LOG ASCII STANDARD - VERSION 2.0
 WRAP.                 NO:   ONE LINE PER DEPTH STEP
~WELL INFORMATION
#MNEM.UNIT      DATA TYPE    INFORMATION
#----------   ------------   ------------------------------
 STRT.F            0.0000:   START DEPTH
 STOP.F          453.5000:   STOP DEPTH
 STEP.F            0.5000:   STEP LENGTH
 NULL.          -999.2500:   NO VALUE
 COMP. BROWN JOHN E&C INC:   COMPANY
 WELL. NAVAL PETROLEUM RESERVE 3 SX-1 #54-1-10:   WELL
 FLD .             TEAPOT:   FIELD
 LOC .      S10 T38N R78W:   LOCATION
 CNTY.            NATRONA:   COUNTY
 STAT.            WYOMING:   STATE
 CTRY. UNITED STATES OF AMERICA:   COUNTRY
 SRVC.     Atlas Wireline:   SERVICE COMPANY
 DATE.        22-APR-1991:   LOGDATE
 API .       490251133200:   API NUMBER
~CURVE INFORMATION
#MNEM.UNIT       API CODE    CURVE DESCRIPTION
#----------   ------------   ------------------------------
 DEPT.F                  :   
 GRR .GAPI   07 310 01 00:   GAMMA RAY
 RILD.OHMM   07 120 46 00:   INDUCTION LOG DEEP RESISTIVITY
 RILM.OHMM   07 120 44 00:   INDUCTION LOG MEDIUM RESISTIVITY
~PARAMETER INFORMATION
#MNEM.UNIT          VALUE    DESCRIPTION
#----------   ------------   ------------------------------
 PD  .                 GL:   PERMANENT DATUM
 EPD .F              5199:   ELEVATION PERMANENT DATUM
 LMF .                 KB:   LOG MEASURED FROM
 DAPD.F                 5:   FEET ABOVE PERMANENT DATUM
 DMF .                 KB:   DRILLING MEASURED FROM
 EKB .F              5204:   KELLING BUSHING
 EGL .F              5199:   GROUND LEVEL
 DATE.        22-APR-1991:   RUN DATE
 RUN .                  1:   RUN NUMBER
 DD  .F               460:   DEPTH DRILLER
 DL  .F               461:   DEPTH LOGGER
 BLI .F               459:   BOTTOM LOG INTERVAL
 TLI .F                 0:   TOP LOG INTERVAL
 CS  .IN            8.625:   CASING SIZE
 CBD .F                45:   CASING BOTTOM DRILLER
 CBL .F                44:   CASING BOTTOM LOGGER
 BS  .IN            7.875:   BIT SIZE
 BSD .F               460:   BIT SIZE AT DEPTH
 DFT .                AIR:   DRILLING FLUID TYPE
 LUN .           HL- 6307:   LOGGING UNIT NUMBER
 LUL .             CASPER:   LOGGING UNIT LOCATION
 ENGI.          OTTERHOLT:   RECORDING ENGINEER
 WITN.   HERRMANN/ STRONG:   WITNESSED BY
 CLNT.            A2DTECH:   CLIENT CODE
 ORIG.           5" PRINT:   ORIGIN OF DATA
 UWI .       490251133200:   UNIQUE WELL ID
 DICO. A2D Technologies, Inc.:   DIGITIZING COMPANY
~OTHER INFORMATION
~A    DEPT      GRR      RILD       RILM   
    0.0000    15.4531  -999.2500  -999.2500
    0.5000    21.2040  -999.2500  -999.2500
    1.0000    19.6777  -999.2500  -999.2500
    1.5000    19.3680  -999.2500  -999.2500
    2.0000    21.4781  -999.2500  -999.2500
    2.5000    26.9237  -999.2500  -999.2500
    3.0000    39.3391  -999.2500  -999.2500
    3.5000    46.9059  -999.2500  -999.2500
    4.0000    59.6487  -999.2500  -999.2500
    4.5000    60.5245  -999.2500  -999.2500
    5.0000    60.8187  -999.2500  -999.2500
    5.5000    62.6257  -999.2500  -999.2500
    6.0000    67.1623  -999.2500  -999.2500
    6.5000    71.0928  -999.2500  -999.2500
    7.0000    75.3263  -999.2500  -999.2500
    7.5000   197.7416  -999.2500  -999.2500
    8.0000   399.8546  -999.2500  -999.2500
    8.5000   399.8454  -999.2500  -999.2500
    9.0000   399.8347  -999.2500  -999.2500
    9.5000   399.8257  -999.2500  -999.2500
   10.0000   399.5139  -999.2500  -999.2500
   10.5000    67.4087  -999.2500  -999.2500
   11.0000    63.4347  -999.2500  -999.2500
   11.5000    64.3349  -999.2500  -999.2500
   12.0000    64.3260  -999.2500  -999.2500
   12.5000    63.1049  -999.2500  -999.2500
   13.0000    60.9748  -999.2500  -999.2500
   13.5000    60.0591  -999.2500  -999.2500
   14.0000    63.6843  -999.2500  -999.2500
   14.5000    67.3117  -999.2500  -999.2500
   15.0000    67.9091  -999.2500  -999.2500
   15.5000    68.8150  -999.2500  -999.2500
   16.0000    71.3540  -999.2500  -999.2500
   16.5000    76.3649  -999.2500  -999.2500
   17.0000    78.4795  -999.2500  -999.2500
   17.5000    73.9228  -999.2500  -999.2500
   18.0000    72.3988  -999.2500  -999.2500
   18.5000    69.9656  -999.2500  -999.2500
   19.0000    67.5325  -999.2500  -999.2500
   19.5000    67.8267  -999.2500  -999.2500
   20.0000    70.8480  -999.2500  -999.2500
   20.5000    73.8695  -999.2500  -999.2500
   21.0000    77.1939  -999.2500  -999.2500
   21.5000    79.9483  -999.2500  -999.2500
   22.0000    81.7216  -999.2500  -999.2500
   22.5000    79.8923  -999.2500  -999.2500
   23.0000    79.5803  -999.2500  -999.2500
   23.5000    79.8767  -999.2500  -999.2500
   24.0000    78.9564  -999.2500  -999.2500
   24.5000    76.8264  -999.2500  -999.2500
   25.0000    73.4841  -999.2500  -999.2500
   25.5000    73.1744  -999.2500  -999.2500
   26.0000    78.6179  -999.2500  -999.2500
   26.5000    81.9423  -999.2500  -999.2500
   27.0000    83.7516  -999.2500  -999.2500
   27.5000    83.7424  -999.2500  -999.2500
   28.0000    84.9436  -999.2500  -999.2500
   28.5000    86.7529  -999.2500  -999.2500
   29.0000    87.0493  -999.2500  -999.2500
   29.5000    86.4321  -999.2500  -999.2500
   30.0000    85.5141  -999.2500  -999.2500
   30.5000    83.6871  -999.2500  -999.2500
   31.0000    82.1652  -999.2500  -999.2500
   31.5000    87.0025  -999.2500  -999.2500
   32.0000    88.8121  -999.2500  -999.2500
   32.5000    85.7727  -999.2500  -999.2500
   33.0000    82.7333  -999.2500  -999.2500
   33.5000    84.6696  -999.2500  -999.2500
   34.0000    89.6831  -999.2500  -999.2500
   34.5000    92.7045  -999.2500  -999.2500
   35.0000    93.0009  -999.2500  -999.2500
   35.5000    90.5655  -999.2500  -999.2500
   36.0000    86.9203  -999.2500  -999.2500
   36.5000    84.7901  -999.2500  -999.2500
   37.0000    80.5388  -999.2500  -999.2500
   37.5000    81.4391  -999.2500  -999.2500
   38.0000    86.2787  -999.2500  -999.2500
   38.5000    87.4819  -999.2500  -999.2500
   39.0000    86.8667  -999.2500  -999.2500
   39.5000    89.0028  -999.2500  -999.2500
   40.0000    97.4529  -999.2500  -999.2500
   40.5000   102.2947  -999.2500  -999.2500
   41.0000    99.8593  -999.2500  -999.2500
   41.5000    98.9413  -999.2500  -999.2500
   42.0000   101.9628  -999.2500  -999.2500
   42.5000   109.8327  -999.2500  -999.2500
   43.0000   121.6420  -999.2500  -999.2500
   43.5000   135.2695  -999.2500  -999.2500
   44.0000   137.9878     1.6824     3.1902
   44.5000   137.6758     1.8406     3.6638
   45.0000   140.2121     3.1851     6.2522
   45.5000   145.2316     6.2026     9.1573
   46.0000   146.1340    27.2244    13.1356
   46.5000   145.8199    25.5659    15.9492
   47.0000   145.8109    13.1196    16.9711
   47.5000   147.3172     7.1172    10.8008
   48.0000   153.3689     6.5842     9.4615
   48.5000   157.9077     6.2276    10.9189
   49.0000   150.6239     6.1019    14.0009
   49.5000   146.0695     6.1851    15.9102
   50.0000   154.2407     6.5363     8.7504
   50.5000   156.6493     7.2516     7.3525
   51.0000   155.1080     7.9342     6.9522
   51.5000   153.8751     8.2125     6.9013
   52.0000   153.8541     7.3967     7.0437
   52.5000   153.2273     6.8980     7.2392
   53.0000   145.5495     6.5230     7.3376
   53.5000   139.0434     6.5663     7.4890
   54.0000   135.8920     6.8433     7.5381
   54.5000   139.5023     7.1321     7.5349
   55.0000   145.2389     7.3850     7.5405
   55.5000   147.3393     7.6453     7.7409
   56.0000   151.2579     7.8074     7.9558
   56.5000   149.7219     8.0143     8.2327
   57.0000   144.8525     8.1244     8.4035
   57.5000   144.2256     8.2345     8.3992
   58.0000   148.1440     8.2898     8.3958
   58.5000   147.2141     8.2289     8.3343
   59.0000   145.3751     8.1698     8.2159
   59.5000   143.8391     8.2813     8.1557
   60.0000   142.3031     8.3362     8.2092
   60.5000   141.6758     8.3326     8.2631
   61.0000   141.7353     8.3879     8.3173
   61.5000   146.1747     8.3269     8.3718
   62.0000   149.1840     8.2086     8.4259
   62.5000   151.2844     8.0931     8.4225
   63.0000   153.6877     8.0344     8.3607
   63.5000   155.1821     8.0870     8.3573
   64.0000   156.9793     8.1406     8.3539
   64.5000   155.7464     8.1378     8.3505
   65.0000   148.4528     8.3063     8.4639
   65.5000   141.4623     8.4197     8.5195
   66.0000   143.5625     8.5940     8.6952
   66.5000   149.2993     8.7113     8.8183
   67.0000   148.6724     8.8309     9.0055
   67.5000   145.0152     8.9514     9.4385
   68.0000   142.2671     9.0728     9.8362
   68.5000   145.3565     9.3251    10.0402
   69.0000   144.6443     9.5182    10.1061
   69.5000   137.9568     9.7195    10.3136
   70.0000   134.9056     9.9256    10.3823
   70.5000   131.5515    10.2626    10.6694
   71.0000   131.8336    10.5481    10.9655
   71.5000   133.0248    10.7666    11.1918
   72.0000   135.1304    11.0661    11.5826
   72.5000   133.5892    11.2953    11.9108
   73.0000   131.4471    11.4494    12.2484
   73.5000   133.5475    11.6056    12.5740
   74.0000   139.2841    11.7639    12.7447
   74.5000   142.8996    11.9244    12.8283
   75.0000   138.9393    12.0034    12.8217
   75.5000   134.6152    12.1672    12.8165
   76.0000   131.8869    12.1630    12.8112
   76.5000   132.8109    12.2436    12.8060
   77.0000   136.1235    12.1546    12.8008
   77.5000   140.6480    11.9675    12.7956
   78.0000   142.1476    11.8126    12.7903
   78.5000   135.4548    11.5650    12.6086
   79.0000   123.6140    11.4811    12.5162
   79.5000   123.2953    11.3188    12.4234
   80.0000   129.6329    11.2366    12.1622
   80.5000   133.8597    11.2328    11.9895
   81.0000   132.3184    11.3082    11.8193
   81.5000   129.8733    11.3831    11.7327
   82.0000   127.4283    11.4585    11.7279
   82.5000   127.4073    11.5335    11.8060
   83.0000   129.5077    11.5296    11.8000
   83.5000   132.2141    11.5256    12.0437
   84.0000   132.2747    11.5216    12.1226
   84.5000   128.5360    11.4379    12.1175
   85.0000   123.9697    11.3540    12.0985
   85.5000   122.7363    11.1936    11.8568
   86.0000   124.6545    11.0354    11.6885
   86.5000   129.9625    10.8794    11.4428
   87.0000   133.2749    10.7257    11.2022
   87.5000   136.8904    10.5741    11.0431
   88.0000   140.2029    10.4246    10.8864
   88.5000   137.1517    10.2773    10.8066
   89.0000   131.6764    10.2027    10.6532
   89.5000   128.6252    10.1286    10.5019
   90.0000   128.3013    10.0551    10.4976
   90.5000   131.6137     9.9821    10.4872
