~VERSION INFORMATION
 VERS.                2.0:   CWLS LOG ASCII STANDARD - VERSION 2.0
 WRAP.                 NO:   ONE LINE PER DEPTH STEP
~WELL INFORMATION
#MNEM.UNIT      DATA TYPE    INFORMATION
#----------   ------------   ------------------------------
 STRT.F            4.0000:   START DEPTH
 STOP.F          473.0000:   STOP DEPTH
 STEP.F            0.5000:   STEP LENGTH
 NULL.          -999.2500:   NO VALUE
 COMP.       F D SERV INC:   COMPANY
 WELL.  64-5 SX-10 #64-10:   WELL
 FLD .             TEAPOT:   FIELD
 LOC .      S10 T38N R78W:   LOCATION
 CNTY.            NATRONA:   COUNTY
 STAT.            WYOMING:   STATE
 CTRY. UNITED STATES OF AMERICA:   COUNTRY
 SRVC.     Atlas Wireline:   SERVICE COMPANY
 DATE.        11-APR-1992:   LOGDATE
 API .       490252252800:   API NUMBER
~CURVE INFORMATION
#MNEM.UNIT       API CODE    CURVE DESCRIPTION
#----------   ------------   ------------------------------
 DEPT.F                  :   
 GRR .GAPI   07 310 01 00:   GAMMA RAY
 SPR .MV     07 010 01 00:   SPONTANEOUS POTENTIAL
 RILD.OHMM   07 120 46 00:   INDUCTION LOG DEEP RESISTIVITY
 RILM.OHMM   07 120 44 00:   INDUCTION LOG MEDIUM RESISTIVITY
 RFOC.OHMM   07 220 04 00:   RESISTIVITY FOCUSED LOG
~PARAMETER INFORMATION
#MNEM.UNIT          VALUE    DESCRIPTION
#----------   ------------   ------------------------------
 PD  .                 GL:   PERMANENT DATUM
 EPD .F              5189:   ELEVATION PERMANENT DATUM
 LMF .                 KB:   LOG MEASURED FROM
 DAPD.F                10:   FEET ABOVE PERMANENT DATUM
 DMF .                 KB:   DRILLING MEASURED FROM
 EKB .F              5199:   KELLING BUSHING
 EDF .F              5198:   DRILLING FLOOR
 EGL .F              5189:   GROUND LEVEL
 DATE.        11-APR-1992:   RUN DATE
 RUN .                  1:   RUN NUMBER
 DD  .F               475:   DEPTH DRILLER
 DL  .F               475:   DEPTH LOGGER
 BLI .F               473:   BOTTOM LOG INTERVAL
 CS  .IN            8.625:   CASING SIZE
 CBD .F               130:   CASING BOTTOM DRILLER
 CBL .F               140:   CASING BOTTOM LOGGER
 BS  .IN            7.875:   BIT SIZE
 BSD .F               475:   BIT SIZE AT DEPTH
 DFT .          CHEM. GEL:   DRILLING FLUID TYPE
 DFD .               13.8:   DRILLING FLUID DENSITY
 DFV .                 62:   DRILLING FLUID VISCOSITY
 DFPH.                  9:   DRILLING FLUID PH
 DFL .                6.8:   DRILLING FLUID LOSS
 MSS .            MUDTANK:   MUD SAMPLE SOURCE
 RMS .OHMM           1.85:   RESISTIVITY MUD SAMPLE
 MST .F                72:   MUD SAMPLE TEMPERATURE
 RMF .OHMM           0.96:   RESISTIVITY MUD FILTRATE SAMPLE
 MFST.F                72:   MUD FILTRATE SAMPLE TEMPERATURE
 RMC .OHMM           3.17:   RESISTIVITY MUD CAKE
 MCST.F                72:   MUD CAKE SAMPLE TEMPERATURE
 MFSS.               MEAS:   MUD FILTRATE SAMPLE SOURCE
 MCSS.               MEAS:   MUD CAKE SAMPLE SOURCE
 RMB .OHMM           1.28:   RESISTIVITY MUD AT BHT
 BHT .F               104:   BOTTOM HOLE TEMPERATURE
 TCS .HRS               2:   TIME CURCULATED STOPPED
 MRT .F               104:   MAXIMUM RECORDED TEMPERATURE
 LUN .            HL-6274:   LOGGING UNIT NUMBER
 LUL .             CASPER:   LOGGING UNIT LOCATION
 ENGI.             RAUTIO:   RECORDING ENGINEER
 WITN.        GARY STRONG:   WITNESSED BY
 CLNT.            A2DTECH:   CLIENT CODE
 ORIG.           5" PRINT:   ORIGIN OF DATA
 UWI .       490252252800:   UNIQUE WELL ID
 DICO. A2D Technologies, Inc.:   DIGITIZING COMPANY
~OTHER INFORMATION
~A    DEPT     GRR        SPR       RILD       RILM       RFOC   
# ...
  431.0000    84.9495   -30.1651    10.1987     9.8460    10.0973
  431.5000    88.5164   -30.0177    10.2665     9.7734    10.1644
  432.0000    89.1157   -30.0252    10.2621     9.7693    10.1608
  432.5000    88.4984   -30.0313    10.2585     9.7528    10.2283
  433.0000    87.8833   -30.0373    10.2550     9.2958    10.2248
  433.5000    88.4826   -30.0434    10.2514     9.0366    10.2212
  434.0000    89.0774   -29.5935    10.1766     8.9078    10.2167
  434.5000    90.2805   -29.4461     9.8933     8.7199     9.8628
  435.0000    90.8798   -29.7576     9.6179     8.5957     9.5131
  435.5000    91.4745   -29.9156     9.3501     8.5325     9.1298
  436.0000    92.6799   -30.0737     9.2174     8.5289     8.9379
  436.5000    92.6686   -30.2317     9.1502     8.4662     8.8727
  437.0000    92.0535   -30.0842     9.0835     8.4039     8.8081
  437.5000    90.8324   -30.0918     9.0803     8.3421     8.9293
  438.0000    88.7022   -30.0979     9.0141     8.2233     8.9886
  438.5000    87.1780   -29.8000     8.8862     8.1061     8.8604
  439.0000    85.0477   -29.9580     8.8214     7.9906     8.6741
  439.5000    83.8266   -29.9641     8.8801     7.9318     8.4918
  440.0000    85.0297   -29.8166     9.0016     7.6039     8.2555
  440.5000    87.4449   -29.5202     8.9985     7.2896     7.9701
  441.0000    90.1632   -29.2223     9.0583     6.9398     7.7484
  441.5000    90.1541   -28.9229     9.0552     6.6994     7.5861
  442.0000    89.2360   -28.7770     7.8163     6.6966     7.7978
  442.5000    88.6209   -28.7846     7.0878     7.5355     6.7335
  443.0000    88.3089   -28.9426     7.1892     8.0758     6.4562
  443.5000    87.0877   -28.9487     7.5472     8.3006     8.4094
  444.0000    82.5333   -29.1067     7.8783     8.4724     9.6634
  444.5000    82.8292   -29.5687     8.3825     9.0169    10.0024
  445.0000    84.3334   -29.7267     8.9331     9.5964    10.1393
  445.5000    84.0020   -30.0367     9.5685    10.0019    10.2075
  446.0000    84.0688   -30.1947     9.9766    10.2805    10.3462
  446.5000    86.2736   -30.2008    10.3158    10.4930    10.3426
  447.0000    88.2367   -30.2068    10.5888    10.4887    10.2672
  447.5000    88.1717   -30.2129    10.7337    10.4843    10.2637
  448.0000    87.6103   -30.2189    10.8051    10.4800    10.2601
  448.5000    87.6013   -30.6809    10.8769    10.4029    10.4005
  449.0000    88.2006   -30.6870    10.8732    10.4713    10.4704
  449.5000  -999.2500   -30.3891    10.8694    10.4669    10.5400
  450.0000  -999.2500   -30.1478    10.9094    10.4555    10.4446
  450.5000  -999.2500   -29.7708    10.8066    10.4226    10.3330
  451.0000  -999.2500   -29.8107    10.7038    10.3897    10.2214
  451.5000  -999.2500   -29.9740    10.5616    10.3791    10.0933
  452.0000  -999.2500   -29.8328    10.5597    10.3755    10.0898
  452.5000  -999.2500   -29.3883    10.6322    10.4444    10.0163
  453.0000  -999.2500   -30.0078    10.8546    10.4407    10.1542
  453.5000  -999.2500   -30.1711    10.9291    10.4286    10.2217
  454.0000  -999.2500   -30.0304    11.1577    10.3610    10.1463
  454.5000  -999.2500   -29.7315    11.2343    10.2855    10.1428
  455.0000  -999.2500   -29.2931    11.3110    10.2105    10.2110
  455.5000  -999.2500   -29.1524    11.3085    10.1361    10.3498
  456.0000  -999.2500   -29.1641    11.0725     9.7171    10.4195
  456.5000  -999.2500   -29.4817    10.6170     9.3812    10.2709
  457.0000  -999.2500   -30.1009    10.2515     9.1202    10.0549
  457.5000  -999.2500   -30.1122    10.0375     8.8049     9.3750
  458.0000  -999.2500   -29.8176    10.0358     8.4415     8.8637
  458.5000  -999.2500   -29.5187     9.6903     8.0931     8.3803
  459.0000  -999.2500   -29.0803     0.2000     7.7590     8.1472
  459.5000  -999.2500   -28.9396  -999.2500     7.1841     7.9205
  460.0000  -999.2500   -28.7989  -999.2500     6.6057     7.7540
  460.5000  -999.2500   -28.5091  -999.2500     5.9481     7.6441
  461.0000  -999.2500   -28.3656  -999.2500     4.9609     7.4834
  461.5000  -999.2500   -28.2249  -999.2500     4.1956     6.9289
  462.0000  -999.2500   -28.0842  -999.2500     3.5237     6.2828
  462.5000  -999.2500   -27.7943  -999.2500     2.8382     5.4637
  463.0000  -999.2500   -27.3468  -999.2500     2.6279     4.3703
  463.5000  -999.2500   -26.9050  -999.2500     2.6090     3.4948
  464.0000  -999.2500   -26.7615  -999.2500     2.9563     3.3274
  464.5000  -999.2500   -26.7756  -999.2500     3.3736     3.5020
  465.0000  -999.2500   -26.7869  -999.2500     3.7964     4.3573
  465.5000  -999.2500   -27.1021  -999.2500     4.4547     5.6807
  466.0000  -999.2500   -27.8217  -999.2500     5.0481     7.7044
  466.5000  -999.2500  -999.2500  -999.2500     5.5634     8.1616
  467.0000  -999.2500  -999.2500  -999.2500     6.0044     8.0815
  467.5000  -999.2500  -999.2500  -999.2500     6.8998     7.8761
  468.0000  -999.2500  -999.2500  -999.2500     7.6572     8.0959
  468.5000  -999.2500  -999.2500  -999.2500     8.0371     8.3218
  469.0000  -999.2500  -999.2500  -999.2500     0.3635     8.4946
  469.5000  -999.2500  -999.2500  -999.2500  -999.2500     8.5518
  470.0000  -999.2500  -999.2500  -999.2500  -999.2500     8.5481
  470.5000  -999.2500  -999.2500  -999.2500  -999.2500     8.6650
  471.0000  -999.2500  -999.2500  -999.2500  -999.2500     8.6620
  471.5000  -999.2500  -999.2500  -999.2500  -999.2500     8.7805
  472.0000  -999.2500  -999.2500  -999.2500  -999.2500     8.7775
  472.5000  -999.2500  -999.2500  -999.2500  -999.2500     8.8365
  473.0000  -999.2500  -999.2500  -999.2500  -999.2500     8.8331
