~VERSION INFORMATION
 VERS.                2.0:   CWLS LOG ASCII STANDARD - VERSION 2.0
 WRAP.                 NO:   ONE LINE PER DEPTH STEP
~WELL INFORMATION
#MNEM.UNIT      DATA TYPE    INFORMATION
#----------   ------------   ------------------------------
 STRT.F           60.0000:   START DEPTH
 STOP.F         3052.0000:   STOP DEPTH
 STEP.F            0.5000:   STEP LENGTH
 NULL.          -999.2500:   NO VALUE
 COMP.   FLUOR DANIEL INC:   COMPANY
 WELL. NAVAL PETROLEUM RESERVE 3 X-14 #57-14:   WELL
 FLD .            WILDCAT:   FIELD
 LOC .      S14 T38N R78W:   LOCATION
 CNTY.            NATRONA:   COUNTY
 STAT.            WYOMING:   STATE
 CTRY. UNITED STATES OF AMERICA:   COUNTRY
 SRVC.            Unknown:   SERVICE COMPANY
 DATE.        16-MAY-1995:   LOGDATE
 API .       490252272000:   API NUMBER
~CURVE INFORMATION
#MNEM.UNIT       API CODE    CURVE DESCRIPTION
#----------   ------------   ------------------------------
 DEPT.F                  :   
 ROP .FT/HR  91 810 01 00:   RAT OF DRILLING PENETRATION
 TGAS.TC/CC  91 830 01 00:   TOTAL GAS UNIT
~PARAMETER INFORMATION
#MNEM.UNIT          VALUE    DESCRIPTION
#----------   ------------   ------------------------------
 EKB .F              5312:   KELLING BUSHING
 EGL .F              5302:   GROUND LEVEL
 DATE.        16-MAY-1995:   RUN DATE
 RUN .                  1:   RUN NUMBER
 BLI .F              3062:   BOTTOM LOG INTERVAL
 TLI .F                60:   TOP LOG INTERVAL
 ENGI.     C.TOWER/R.HUSK:   RECORDING ENGINEER
 CLNT.            A2DTECH:   CLIENT CODE
 ORIG.           5" PRINT:   ORIGIN OF DATA
 UWI .       490252272000:   UNIQUE WELL ID
 DICO. A2D Technologies, Inc.:   DIGITIZING COMPANY
~OTHER INFORMATION
~A   DEPT        ROP       TGAS 
# ...
 1639.5000     0.5258    72.1935
 1640.0000     0.5263    68.9326
 1640.5000     0.5268    66.6700
 1641.0000     0.5273    64.9759
 1641.5000     0.5277    63.4712
 1642.0000     0.5282    62.3455
 1642.5000     0.5287    61.5987
 1643.0000     0.5291    61.0414
 1643.5000     0.5296    60.8627
 1644.0000     1.4981    60.4952
 1644.5000     1.5008    60.3169
 1645.0000     1.5034    60.1386
 1645.5000     1.5061    59.7735
 1646.0000     1.5087    59.4057
 1646.5000     0.9839    58.4695
 1647.0000     0.9856    57.3438
 1647.5000     0.9873    55.4602
 1648.0000     0.9890    53.5765
 1648.5000     0.9907    51.6929
 1649.0000     0.9924    49.6981
 1649.5000     0.9940    47.2899
 1650.0000     0.9957    45.0947
 1650.5000     0.7899    43.3515
 1651.0000     0.7906    40.6286
 1651.5000     0.7912    37.9309
 1652.0000     0.7765    36.2368
 1652.5000     0.6515    34.9216
 1653.0000     0.6521    33.7959
 1653.5000     0.6527    32.4807
 1654.0000     0.6533    31.1449
 1654.5000     0.6539    29.3817
 1655.0000     0.6545    28.2252
 1655.5000     0.6551    27.1159
 1656.0000     0.6557    26.7384
 1656.5000     0.6563    26.5507
 1657.0000     0.6569    26.3631
 1657.5000     0.6575    26.1755
 1658.0000     0.6581    26.1778
 1658.5000     0.6587    26.1796
 1659.0000     0.6593    25.9920
 1659.5000     0.6599    25.9939
 1660.0000     0.7356    25.9961
 1660.5000     0.8114    25.9980
 1661.0000     0.8120    26.1891
 1661.5000     0.8126    26.1909
 1662.0000     0.8132    26.1931
 1662.5000     0.7762    26.1950
 1663.0000     0.7862    26.1968
 1663.5000     0.7871    26.3881
 1664.0000     0.7968    26.3900
 1664.5000     0.9855    25.6339
 1665.0000     0.9861    24.8651
 1665.5000     0.9867    24.6902
 1666.0000     1.2598    24.6925
 1666.5000     1.3074    24.6944
 1667.0000     1.2984    24.6962
 1667.5000     1.2992    24.6981
 1668.0000     1.2997    24.6999
 1668.5000     1.3003    24.7017
 1669.0000     1.3009    24.7036
 1669.5000     1.3110    24.7055
 1670.0000     1.3641    24.7077
 1670.5000     1.5747    24.7096
 1671.0000     1.5745    24.7114
 1671.5000     1.5743    24.7133
 1672.0000     1.5741    24.7151
 1672.5000     1.5739    24.7169
 1673.0000     1.5737    24.7188
 1673.5000     1.5735    24.7206
 1674.0000     1.5733    24.7225
 1674.5000     1.5730    24.7248
 1675.0000     1.5728    24.7266
 1675.5000     1.5726    24.7285
 1676.0000     2.9729    24.7303
 1676.5000     2.9735    24.9216
 1677.0000     2.9646    24.7335
 1677.5000     2.9652    24.7358
 1678.0000     2.9658    24.7377
 1678.5000     1.9984    24.7396
 1679.0000     1.9990    24.9313
 1679.5000     1.9996    24.9331
 1680.0000     2.0002    24.9350
 1680.5000     2.0008    24.9368
 1681.0000     2.0014    24.9387
 1681.5000     2.0020    24.9405
 1682.0000     1.9252    24.9424
 1682.5000     1.5529    24.9442
 1683.0000     1.5551    24.9461
 1683.5000     1.5573    24.7584
 1684.0000     1.5596    24.7607
 1684.5000     1.5618    24.7626
 1685.0000     1.5640    24.5745
 1685.5000     1.1608    24.5768
 1686.0000     1.1598    24.5786
 1686.5000     1.1584    24.7699
 1687.0000     1.1571    24.7718
 1687.5000     1.1557    24.7737
 1688.0000     1.0794    24.7759
 1688.5000     0.7791    24.3983
 1689.0000     0.7712    24.2107
 1689.5000     0.7751    23.8336
 1690.0000     0.7791    23.4570
 1690.5000     1.1107    22.7009
 1691.0000     1.1139    22.1343
 1691.5000     1.1170    21.7572
 1692.0000     1.1202    21.1911
 1692.5000     1.1233    20.8140
 1693.0000     1.1264    20.4369
 1693.5000     1.1296    20.4387
 1694.0000     1.1327    20.4406
 1694.5000     1.0119    20.4424
 1695.0000     1.0313    20.4443
 1695.5000     1.0319    20.2566
 1696.0000     1.0420    20.2585
 1696.5000     1.0426    20.2608
 1697.0000     1.2311    20.2626
 1697.5000     1.2317    20.2645
 1698.0000     1.2323    20.0764
 1698.5000     1.2329    20.0787
 1699.0000     1.2239    20.0805
 1699.5000     1.2246    20.0824
 1700.0000     1.2252    20.0842
 1700.5000     0.9439    19.8966
 1701.0000     0.9446    19.8989
 1701.5000     0.9358    19.9007
 1702.0000     0.9363    19.7126
 1702.5000     0.9369    19.7149
 1703.0000     0.9375    19.7168
 1703.5000     0.9286    19.7186
 1704.0000     0.9293    19.5309
 1704.5000     0.9299    19.5328
 1705.0000     0.9305    19.5347
 1705.5000     0.9310    19.3470
 1706.0000     0.9412    19.1594
 1706.5000     0.9793    19.1826
 1707.0000     0.9893    19.2040
 1707.5000     0.9993    19.2253
 1708.0000     1.0006    19.2380
 1708.5000     1.0019    19.2418
 1709.0000     1.0032    19.0564
 1709.5000     1.0045    19.0595
 1710.0000     1.0057    18.9831
 1710.5000     1.0070    18.4976
 1711.0000     1.0083    18.5036
 1711.5000     1.0096    18.5097
 1712.0000     1.0109    18.5159
 1712.5000     1.0122    18.5221
 1713.0000     1.0135    18.5283
 1713.5000     1.0147    18.5345
 1714.0000     1.0160    18.5407
 1714.5000     1.1486    18.5468
 1715.0000     1.1488    18.5530
 1715.5000     1.1479    18.5592
 1716.0000     1.1471    18.5654
 1716.5000     1.1462    18.5716
 1717.0000     1.1453    18.5777
 1717.5000     1.1444    18.5839
 1718.0000     1.1434    18.5901
 1718.5000     1.0500    18.5963
 1719.0000     1.0600    18.6025
 1719.5000     1.0512    18.6087
 1720.0000     1.0518    18.6148
 1720.5000     1.0035    18.6210
 1721.0000     0.9872    18.6272
 1721.5000     0.9878    18.6334
 1722.0000     0.9884    18.6396
 1722.5000     0.9890    18.6458
 1723.0000     0.9896    18.6519
 1723.5000     0.9902    18.6581
 1724.0000     0.9908    18.6643
 1724.5000     0.9914    18.6705
 1725.0000     0.9920    18.6767
 1725.5000     0.9926    18.6829
 1726.0000     0.9932    18.6890
 1726.5000     0.9938    18.6952
 1727.0000     0.9944    18.7014
 1727.5000     0.9950    18.7076
 1728.0000     0.9956    18.7138
 1728.5000     0.9962    18.7200
 1729.0000     0.9968    18.7261
 1729.5000     0.9974    18.7323
 1730.0000     0.9979    18.7385
 1730.5000     0.9985    18.7447
 1731.0000     0.9991    18.7509
 1731.5000     0.9997    18.7571
 1732.0000     1.0003    18.7632
 1732.5000     1.0009    18.7694
 1733.0000     1.0015    18.7756
 1733.5000     1.0021    18.7818
 1734.0000     1.0027    18.7880
 1734.5000     1.0033    18.7941
 1735.0000     1.0039    18.8003
 1735.5000     1.0045    18.8065
 1736.0000     1.0051    18.8127
 1736.5000     1.0057    18.8189
 1737.0000     1.0063    18.8251
 1737.5000     1.0069    18.8312
 1738.0000     1.0075    18.8374
 1738.5000     1.0082    18.8436
 1739.0000     1.5820    18.8498
 1739.5000     1.5826    18.8560
 1740.0000     1.5832    18.8622
 1740.5000     2.0914    18.8683
 1741.0000     2.0822    18.8745
 1741.5000     2.0799    18.8807
 1742.0000     2.0777    18.8869
 1742.5000     2.0755    18.8931
 1743.0000     1.8311    18.8993
 1743.5000     1.8319    18.9054
 1744.0000     1.8263    18.9116
 1744.5000     1.4853    18.9178
 1745.0000     1.4841    18.9240
 1745.5000     1.4806    18.9302
 1746.0000     1.2896    18.9364
 1746.5000     1.2903    18.9425
 1747.0000     1.2813    18.9487
 1747.5000     1.2821    18.9549
 1748.0000     1.2826    18.9611
 1748.5000     1.2832    18.9673
 1749.0000     1.2744    18.9734
 1749.5000     1.2751    18.9796
 1750.0000     1.2757    18.9858
 1750.5000     1.2763    18.4220
 1751.0000     1.2863    17.0966
 1751.5000     1.2869    16.9095
 1752.0000     1.4660    17.1040
 1752.5000     1.5324    17.2976
 1753.0000     1.5236    17.4912
 1753.5000     1.5242    17.6848
 1754.0000     1.5373    17.6886
 1754.5000     1.7417    17.6931
 1755.0000     1.7422    17.6968
 1755.5000     1.7522    17.7005
 1756.0000     1.4521    17.7042
 1756.5000     1.4526    17.7080
 1757.0000     1.4626    17.7117
 1757.5000     1.4632    17.7152
 1758.0000     1.4732    17.7190
 1758.5000     1.4738    17.5329
 1759.0000     1.3428    17.3467
 1759.5000     1.3435    17.3514
 1760.0000     2.0114    17.3551
 1760.5000     2.0119    17.3588
