~VERSION INFORMATION
 VERS.                2.0:   CWLS LOG ASCII STANDARD - VERSION 2.0
 WRAP.                 NO:   ONE LINE PER DEPTH STEP
~WELL INFORMATION
#MNEM.UNIT      DATA TYPE    INFORMATION
#----------   ------------   ------------------------------
 STRT.F            2.0000:   START DEPTH
 STOP.F          560.0000:   STOP DEPTH
 STEP.F            0.1000:   STEP LENGTH
 NULL.          -999.2500:   NO VALUE
 COMP.       F D SERV INC:   COMPANY
 WELL. NAVAL PETROLEUM RESERVE 3 SX-3 #88-3:   WELL
 FLD .             NPR #3:   FIELD
 LOC .       S3 T38N R78W:   LOCATION
 CNTY.            NATRONA:   COUNTY
 STAT.            WYOMING:   STATE
 CTRY. UNITED STATES OF AMERICA:   COUNTRY
 SRVC.      Western Atlas:   SERVICE COMPANY
 DATE.        30-OCT-1992:   LOGDATE
 API .       490252254900:   API NUMBER
~CURVE INFORMATION
#MNEM.UNIT       API CODE    CURVE DESCRIPTION
#----------   ------------   ------------------------------
 DEPT.F                  :   
 GRR .GAPI   07 310 01 00:   GAMMA RAY
 RILD.OHMM   07 120 46 00:   INDUCTION LOG DEEP RESISTIVITY
 RILM.OHMM   07 120 44 00:   INDUCTION LOG MEDIUM RESISTIVITY
~PARAMETER INFORMATION
#MNEM.UNIT          VALUE    DESCRIPTION
#----------   ------------   ------------------------------
 PD  .                 GL:   PERMANENT DATUM
 EPD .F              5131:   ELEVATION PERMANENT DATUM
 LMF .                 KB:   LOG MEASURED FROM
 DAPD.F                10:   FEET ABOVE PERMANENT DATUM
 DMF .                 KB:   DRILLING MEASURED FROM
 EKB .F              5141:   KELLING BUSHING
 EDF .F              5140:   DRILLING FLOOR
 EGL .F              5131:   GROUND LEVEL
 DATE.        30-OCT-1992:   RUN DATE
 RUN .                  1:   RUN NUMBER
 DD  .F               568:   DEPTH DRILLER
 DL  .F               568:   DEPTH LOGGER
 BLI .F               560:   BOTTOM LOG INTERVAL
 CS  .IN            8.625:   CASING SIZE
 CBD .F                73:   CASING BOTTOM DRILLER
 CBL .F                73:   CASING BOTTOM LOGGER
 BS  .IN            7.875:   BIT SIZE
 BSD .F               568:   BIT SIZE AT DEPTH
 DFT .           AIR FOAM:   DRILLING FLUID TYPE
 BHT .F                63:   BOTTOM HOLE TEMPERATURE
 TCS .HRS               2:   TIME CURCULATED STOPPED
 MRT .F                63:   MAXIMUM RECORDED TEMPERATURE
 LUN .            HL-6274:   LOGGING UNIT NUMBER
 LUL .             CASPER:   LOGGING UNIT LOCATION
 ENGI.             RAUTIO:   RECORDING ENGINEER
 WITN.          BOB SYLAR:   WITNESSED BY
 CLNT.            A2DTECH:   CLIENT CODE
 ORIG.           5" PRINT:   ORIGIN OF DATA
 UWI .       490252254900:   UNIQUE WELL ID
 DICO. A2D Technologies, Inc.:   DIGITIZING COMPANY
~OTHER INFORMATION
~A    DEPT      GRR      RILD       RILM   
# ...
  548.0000  -999.2500     9.9688     9.2997
  548.1000  -999.2500     9.9627     9.2514
  548.2000  -999.2500     9.9009     9.1973
  548.3000  -999.2500     9.9012     9.1436
  548.4000  -999.2500     9.9017     9.0902
  548.5000  -999.2500     9.8670     9.0371
  548.6000  -999.2500     9.8092     8.9843
  548.7000  -999.2500     9.7518     8.9250
  548.8000  -999.2500     9.6947     8.9254
  548.9000  -999.2500     9.6334     8.8891
  549.0000  -999.2500     9.5815     8.8371
  549.1000  -999.2500     9.4834     8.8042
  549.2000  -999.2500     9.4043     8.7948
  549.3000  -999.2500     9.3267     8.7445
  549.4000  -999.2500     9.2304     8.7450
  549.5000  -999.2500     9.1763     8.7016
  549.6000  -999.2500     9.1172     8.6508
  549.7000  -999.2500     9.0212     8.5489
  549.8000  -999.2500     8.9155     8.4325
  549.9000  -999.2500     8.7822     8.3832
  550.0000  -999.2500     8.6477     8.3342
  550.1000  -999.2500     8.5651     8.2523
  550.2000  -999.2500     8.5500     8.1705
  550.3000  -999.2500     8.5350     8.0886
  550.4000  -999.2500     8.5199     8.0067
  550.5000  -999.2500     8.4954     7.9328
  550.6000  -999.2500     8.4457     7.8876
  550.7000  -999.2500     8.3921     7.8349
  550.8000  -999.2500     8.3921     7.7607
  550.9000  -999.2500     8.3205     7.6999
  551.0000  -999.2500     8.2501     7.6560
  551.1000  -999.2500     8.2019     7.6123
  551.2000  -999.2500     8.1630     7.5668
  551.3000  -999.2500     8.1622     7.4675
  551.4000  -999.2500     8.0508     7.4312
  551.5000  -999.2500     8.0119     7.3331
  551.6000  -999.2500     7.9651     7.2457
  551.7000  -999.2500     7.9401     7.1823
  551.8000  -999.2500     7.9140     7.0590
  551.9000  -999.2500     7.8125     6.9230
  552.0000  -999.2500     7.6172     6.8537
  552.1000  -999.2500     7.5356     6.7488
  552.2000  -999.2500     7.3840     6.6516
  552.3000  -999.2500     7.2130     6.5645
  552.4000  -999.2500     7.0613     6.4517
  552.5000  -999.2500     6.9303     6.3301
  552.6000  -999.2500     6.7688     6.2649
  552.7000  -999.2500     6.5415     6.1682
  552.8000  -999.2500     6.4465     6.0099
  552.9000  -999.2500     6.3343     5.8049
  553.0000  -999.2500     6.2070     5.6141
  553.1000  -999.2500     6.0631     5.4762
  553.2000  -999.2500     5.9187     5.3895
  553.3000  -999.2500     5.7356     5.2531
  553.4000  -999.2500     5.6124     5.1036
  553.5000  -999.2500     5.4825     4.9488
  553.6000  -999.2500     5.3036     4.7835
  553.7000  -999.2500     5.0682     4.6401
  553.8000  -999.2500     4.8182     4.4422
  553.9000  -999.2500     4.6239     4.3153
  554.0000  -999.2500     4.4094     4.2035
  554.1000  -999.2500     4.3024     4.0589
  554.2000  -999.2500     4.1467     3.8858
  554.3000  -999.2500     3.9910     3.7718
  554.4000  -999.2500     3.8400     3.6069
  554.5000  -999.2500     3.6733     3.5059
  554.6000  -999.2500     3.5828     3.3809
  554.7000  -999.2500     3.5052     3.2280
  554.8000  -999.2500     3.4392     3.0950
  554.9000  -999.2500     3.3793     3.0239
  555.0000  -999.2500     3.3128     2.9213
  555.1000  -999.2500     3.2400     2.8812
  555.2000  -999.2500     3.1834     2.8318
  555.3000  -999.2500     3.1197     2.7768
  555.4000  -999.2500     3.0736     2.7200
  555.5000  -999.2500     3.0318     2.6891
  555.6000  -999.2500     2.9965     2.6711
  555.7000  -999.2500     2.9669     2.6712
  555.8000  -999.2500     2.9517     2.6812
  555.9000  -999.2500     2.9517     2.7107
  556.0000  -999.2500     2.9517     2.7583
  556.1000  -999.2500  -999.2500     2.8067
  556.2000  -999.2500  -999.2500     2.8636
  556.3000  -999.2500  -999.2500     2.9065
  556.4000  -999.2500  -999.2500     2.9576
  556.5000  -999.2500  -999.2500     3.0016
  556.6000  -999.2500  -999.2500     3.0509
  556.7000  -999.2500  -999.2500     3.1380
  556.8000  -999.2500  -999.2500     3.2002
  556.9000  -999.2500  -999.2500     3.2660
  557.0000  -999.2500  -999.2500     3.3695
  557.1000  -999.2500  -999.2500     3.4789
  557.2000  -999.2500  -999.2500     3.5812
  557.3000  -999.2500  -999.2500     3.6824
  557.4000  -999.2500  -999.2500     3.7539
  557.5000  -999.2500  -999.2500     3.8332
  557.6000  -999.2500  -999.2500     3.9233
  557.7000  -999.2500  -999.2500     4.0396
  557.8000  -999.2500  -999.2500     4.1594
  557.9000  -999.2500  -999.2500     4.2413
  558.0000  -999.2500  -999.2500     4.4033
  558.1000  -999.2500  -999.2500     4.5966
  558.2000  -999.2500  -999.2500     4.7338
  558.3000  -999.2500  -999.2500     4.8151
  558.4000  -999.2500  -999.2500     4.8811
  558.5000  -999.2500  -999.2500     4.9669
  558.6000  -999.2500  -999.2500     5.0590
  558.7000  -999.2500  -999.2500     5.1715
  558.8000  -999.2500  -999.2500     5.2932
  558.9000  -999.2500  -999.2500     5.4176
  559.0000  -999.2500  -999.2500     5.5215
  559.1000  -999.2500  -999.2500     5.5862
  559.2000  -999.2500  -999.2500     5.6537
  559.3000  -999.2500  -999.2500     5.7179
  559.4000  -999.2500  -999.2500     5.8110
  559.5000  -999.2500  -999.2500     5.9535
  559.6000  -999.2500  -999.2500     6.1149
  559.7000  -999.2500  -999.2500     6.2583
  559.8000  -999.2500  -999.2500     6.4063
  559.9000  -999.2500  -999.2500     6.5560
  560.0000  -999.2500  -999.2500     6.7097
