~VERSION INFORMATION
 VERS.                2.0:   CWLS LOG ASCII STANDARD - VERSION 2.0
 WRAP.                 NO:   ONE LINE PER DEPTH STEP
~WELL INFORMATION
#MNEM.UNIT      DATA TYPE    INFORMATION
#----------   ------------   ------------------------------
 STRT.F            3.0000:   START DEPTH
 STOP.F          523.0000:   STOP DEPTH
 STEP.F            0.1000:   STEP LENGTH
 NULL.          -999.2500:   NO VALUE
 COMP.     BROWN JOHN E&C:   COMPANY
 WELL.   NPR 3 #52-2-SX-3:   WELL
 FLD .             TEAPOT:   FIELD
 LOC .       S3 T38N R78W:   LOCATION
 CNTY.            NATRONA:   COUNTY
 STAT.            WYOMING:   STATE
 CTRY. UNITED STATES OF AMERICA:   COUNTRY
 SRVC.     Atlas Wireline:   SERVICE COMPANY
 DATE.        18-APR-1992:   LOGDATE
 API .       490252251500:   API NUMBER
~CURVE INFORMATION
#MNEM.UNIT       API CODE    CURVE DESCRIPTION
#----------   ------------   ------------------------------
 DEPT.F                  :   
 GRR .GAPI   07 310 01 00:   GAMMA RAY
 RILD.OHMM   07 120 46 00:   INDUCTION LOG DEEP RESISTIVITY
 RILM.OHMM   07 120 44 00:   INDUCTION LOG MEDIUM RESISTIVITY
~PARAMETER INFORMATION
#MNEM.UNIT          VALUE    DESCRIPTION
#----------   ------------   ------------------------------
 PD  .                 GL:   PERMANENT DATUM
 EPD .F              5128:   ELEVATION PERMANENT DATUM
 LMF .                 KB:   LOG MEASURED FROM
 DAPD.F                 5:   FEET ABOVE PERMANENT DATUM
 DMF .                 KB:   DRILLING MEASURED FROM
 EKB .F              5133:   KELLING BUSHING
 EDF .F              5132:   DRILLING FLOOR
 EGL .F              5128:   GROUND LEVEL
 DATE.        18-APR-1992:   RUN DATE
 RUN .                  1:   RUN NUMBER
 DD  .F               525:   DEPTH DRILLER
 DL  .F               526:   DEPTH LOGGER
 BLI .F               524:   BOTTOM LOG INTERVAL
 CS  .IN            8.625:   CASING SIZE
 CBD .F                48:   CASING BOTTOM DRILLER
 CBL .F                49:   CASING BOTTOM LOGGER
 BS  .IN            7.875:   BIT SIZE
 BSD .F               525:   BIT SIZE AT DEPTH
 DFT .                AIR:   DRILLING FLUID TYPE
 TCS .HRS               2:   TIME CURCULATED STOPPED
 MRT .F                87:   MAXIMUM RECORDED TEMPERATURE
 LUN .            HL 6274:   LOGGING UNIT NUMBER
 LUL .             CASPER:   LOGGING UNIT LOCATION
 ENGI.            LEBSOCK:   RECORDING ENGINEER
 WITN.             STRONG:   WITNESSED BY
 CLNT.            A2DTECH:   CLIENT CODE
 ORIG.       2", 5" PRINT:   ORIGIN OF DATA
 UWI .       490252251500:   UNIQUE WELL ID
 DICO. A2D Technologies, Inc.:   DIGITIZING COMPANY
~OTHER INFORMATION
~A    DEPT     GRR       RILD       RILM   
# ...
  494.4000   126.5390    10.4665     9.9513
  494.5000   126.0435    10.4115     9.9512
  494.6000   125.4872    10.3928     9.9510
  494.7000   125.0523    10.3924     9.9509
  494.8000   124.5567    10.3919     9.9507
  494.9000   124.0612    10.3915     9.9506
  495.0000   123.6161    10.3911     9.9504
  495.1000   123.3630    10.3436     9.9503
  495.2000   122.8776    10.3178     9.9502
  495.3000   122.5689    10.3174     9.9500
  495.4000   122.1895    10.3170     9.9499
  495.5000   121.7697    10.3165     9.9498
  495.6000   121.5419    10.2634     9.9496
  495.7000   122.4502    10.2438     9.9495
  495.8000   123.0861    10.2172     9.9494
  495.9000   123.8279    10.1716     9.9492
  496.0000   124.7718    10.1712     9.9472
  496.1000   125.9175    10.1708     9.8796
  496.2000   126.6897    10.1255     9.8795
  496.3000   127.1638    10.0991     9.8467
  496.4000   127.8399    10.0799     9.8104
  496.5000   128.4555    10.0221     9.8030
  496.6000   128.8792     9.9576     9.7418
  496.7000   129.1109     9.9076     9.6916
  496.8000   129.1102     9.8875     9.5993
  496.9000   129.1097     9.8871     9.5147
  497.0000   129.1091     9.8752     9.4482
  497.1000   129.1085     9.8174     9.3410
  497.2000   129.0675     9.8170     9.2878
  497.3000   128.8042     9.8591     9.2349
  497.4000   128.1066     9.8850     9.1535
  497.5000   127.5404     9.8846     9.0663
  497.6000   127.1661     9.8842     9.0198
  497.7000   126.8523     9.8837     9.0197
  497.8000   126.3668     9.8834     8.9747
  497.9000   126.0732     9.8830     8.9566
  498.0000   126.0727     9.8596     8.9565
  498.1000   126.0721     9.8133     8.9462
  498.2000   126.0715     9.8129     8.8939
  498.3000   126.1063     9.8125     8.8937
  498.4000   126.3733     9.7711     8.8936
  498.5000   126.8273     9.7151     8.8935
  498.6000   127.6652     9.6594     8.8934
  498.7000   128.4221     9.6040     8.8932
  498.8000   128.9769     9.5399     8.8931
  498.9000   129.7086     9.4942     8.8930
  499.0000   129.9555     9.4398     8.8929
  499.1000   130.5964     9.3857     8.8927
  499.2000   131.4796     9.3319     8.8926
  499.3000   132.2971     9.2751     8.8925
  499.4000   132.8218     9.2747     8.8924
  499.5000   133.6393     9.2366     8.8923
  499.6000   134.5276     9.2093     8.8921
  499.7000   135.5170     9.1951     8.8920
  499.8000   136.3951     9.1444     8.8897
  499.9000   137.0258     9.1440     8.8298
  500.0000   137.2727     9.1140     8.8297
  500.1000   137.5121     9.0773     8.8294
  500.2000   137.3515     9.0406     8.8291
  500.3000   136.9394     9.0039     8.8207
  500.4000   136.4243     8.9672     8.7670
  500.5000   135.9091     8.9509     8.7667
  500.6000   135.3815     8.9502     8.7664
  500.7000   134.6332     8.9496     8.7661
  500.8000   133.8665     8.9489     8.7658
  500.9000   133.0999     8.9484     8.7617
  501.0000   132.5151     8.9477     8.7041
  501.1000   132.2909     8.9471     8.6611
  501.2000   132.2782     8.9465     8.6429
  501.3000   132.5060     8.9409     8.6216
  501.4000   132.7454     8.8829     8.5821
  501.5000   132.9848     8.8823     8.5818
  501.6000   133.2242     8.8471     8.5815
  501.7000   133.4636     8.7955     8.5433
  501.8000   133.7203     8.7313     8.5212
  501.9000   133.9424     8.6302     8.5209
  502.0000   134.1818     8.5145     8.5146
  502.1000   134.2909     8.4729     8.4609
  502.2000   134.2788     8.4235     8.4168
  502.3000   134.2667     8.3744     8.4014
  502.4000   134.2534     8.3256     8.3785
  502.5000   134.2424     8.2770     8.3302
  502.6000   134.2303     8.2764     8.2822
  502.7000   133.9697     8.2759     8.2259
  502.8000   133.5273     8.2753     8.1871
  502.9000   133.2637     8.2747     8.1400
  503.0000   132.9682     8.2741     8.1110
  503.1000   132.7364     8.2735     8.1029
  503.2000   132.3030     8.2730     8.0539
  503.3000   132.0242     8.2724     8.0098
  503.4000   131.8787     8.2718     7.9637
  503.5000   131.3787     8.2712     7.9178
  503.6000   131.0770     8.2707     7.8722
  503.7000   130.8515     8.2700     7.8305
  503.8000   130.5878     8.2695     7.8302
  503.9000   130.2121     8.3022     7.7912
  504.0000   129.6365     8.3263     7.7463
  504.1000   128.8789     8.3257     7.7208
  504.2000   128.2767     8.3252     7.7110
  504.3000   127.6396     8.3245     7.6665
  504.4000   127.3455     8.3240     7.6662
  504.5000   127.3333     8.3234     7.6659
  504.6000   127.3212     8.3228     7.6409
  504.7000   127.3091     8.3223     7.6120
  504.8000   127.2946     8.3217     7.6118
  504.9000   127.2848     8.3793     7.6115
  505.0000   127.2727     8.3789     7.6112
  505.1000   127.2606     8.3783     7.6415
  505.2000   127.2000     8.3777     7.6641
  505.3000   126.9332     8.3771     7.6754
  505.4000   126.9212     8.3765     7.7193
  505.5000   126.1213     8.3759     7.7711
  505.6000   120.8855     8.3753     7.8079
  505.7000    43.9412     8.4014     7.8526
  505.8000  -999.2500     8.4495     7.8975
  505.9000  -999.2500     8.4915     7.9508
  506.0000  -999.2500     8.4908     8.0460
  506.1000  -999.2500     8.5355     8.1351
  506.2000  -999.2500     8.5492     8.2288
  506.3000  -999.2500     8.5734     8.2983
  506.4000  -999.2500     8.6224     8.3607
  506.5000  -999.2500     8.6678     8.4524
  506.6000  -999.2500     8.6670     8.5068
  506.7000  -999.2500     8.7103     8.5494
  506.8000  -999.2500     8.7601     8.5984
  506.9000  -999.2500     8.8334     8.6696
  507.0000  -999.2500     8.9228     8.7580
  507.1000  -999.2500     8.9772     8.8088
  507.2000  -999.2500     9.1615     8.9618
  507.3000  -999.2500     9.2046     9.0347
  507.4000  -999.2500     9.2903     9.1165
  507.5000  -999.2500     9.3976     9.2025
  507.6000  -999.2500     9.4953     9.2625
  507.7000  -999.2500     9.5505     9.3776
  507.8000  -999.2500     9.6592     9.4771
  507.9000  -999.2500     9.7271     9.5475
  508.0000  -999.2500     9.7828     9.6021
  508.1000  -999.2500     9.8591     9.6722
  508.2000  -999.2500     9.9644     9.7804
  508.3000  -999.2500    10.0251     9.8456
  508.4000  -999.2500    10.0788     9.8927
  508.5000  -999.2500    10.1365     9.9494
  508.6000  -999.2500    10.2251    10.0063
  508.7000  -999.2500    10.3064    10.0635
  508.8000  -999.2500    10.3115    10.1230
  508.9000  -999.2500    10.3772    10.1226
  509.0000  -999.2500    10.4299    10.1223
  509.1000  -999.2500    10.4896    10.1530
  509.2000  -999.2500    10.5496    10.1926
  509.3000  -999.2500    10.5942    10.1922
  509.4000  -999.2500    10.5964    10.1918
  509.5000  -999.2500    10.6668    10.1915
  509.6000  -999.2500    10.6662    10.1911
  509.7000  -999.2500    10.7043    10.1908
  509.8000  -999.2500    10.7395    10.1904
  509.9000  -999.2500    10.7518    10.1909
  510.0000  -999.2500    10.8133    10.2493
  510.1000  -999.2500    10.8126    10.2608
  510.2000  -999.2500    10.8118    10.2605
  510.3000  -999.2500    10.8110    10.2601
  510.4000  -999.2500    10.8103    10.2597
  510.5000  -999.2500    10.8095    10.2594
  510.6000  -999.2500    10.8087    10.3139
  510.7000  -999.2500    10.8080    10.3306
  510.8000  -999.2500    10.8073    10.3302
  510.9000  -999.2500    10.8065    10.3299
  511.0000  -999.2500    10.8003    10.3295
  511.1000  -999.2500    10.7826    10.3291
  511.2000  -999.2500    10.7649    10.3288
  511.3000  -999.2500    10.7471    10.3284
  511.4000  -999.2500    10.7274    10.3281
  511.5000  -999.2500    10.7268    10.3277
  511.6000  -999.2500    10.6842    10.3273
  511.7000  -999.2500    10.6506    10.3270
  511.8000  -999.2500    10.6498    10.3266
  511.9000  -999.2500    10.6491    10.3263
  512.0000  -999.2500    10.6482    10.3259
  512.1000  -999.2500    10.5962    10.3319
  512.2000  -999.2500    10.5727    10.3976
  512.3000  -999.2500    10.5720    10.3972
  512.4000  -999.2500    10.5712    10.3969
  512.5000  -999.2500    10.5705    10.3693
