~VERSION INFORMATION
 VERS.                2.0:   CWLS LOG ASCII STANDARD - VERSION 2.0
 WRAP.                 NO:   ONE LINE PER DEPTH STEP
~WELL INFORMATION
#MNEM.UNIT      DATA TYPE    INFORMATION
#----------   ------------   ------------------------------
 STRT.F            4.0000:   START DEPTH
 STOP.F          468.5000:   STOP DEPTH
 STEP.F            0.1000:   STEP LENGTH
 NULL.          -999.2500:   NO VALUE
 COMP. BROWN JOHN E&C INC:   COMPANY
 WELL.  SX-10 #1-14-SX-10:   WELL
 FLD .        N.P.R. No.3:   FIELD
 LOC .      S10 T38N R78W:   LOCATION
 CNTY.            NATRONA:   COUNTY
 STAT.            WYOMING:   STATE
 CTRY. UNITED STATES OF AMERICA:   COUNTRY
 SRVC.     Atlas Wireline:   SERVICE COMPANY
 DATE.        21-SEP-1991:   LOGDATE
 API .       490251125800:   API NUMBER
~CURVE INFORMATION
#MNEM.UNIT       API CODE    CURVE DESCRIPTION
#----------   ------------   ------------------------------
 DEPT.F                  :   
 GRR .GAPI   07 310 01 00:   GAMMA RAY FROM RES. LOG.
 ILD .OHMM   07 120 46 00:   INDUCTION LOG DEEP
 RILM.OHMM   07 120 44 00:   INDUCTION LOG MEDIUM RESISTIVITY
~PARAMETER INFORMATION
#MNEM.UNIT          VALUE    DESCRIPTION
#----------   ------------   ------------------------------
 PD  .                 GL:   PERMANENT DATUM
 EPD .F              5183:   ELEVATION PERMANENT DATUM
 LMF .                 KB:   LOG MEASURED FROM
 DAPD.F                10:   FEET ABOVE PERMANENT DATUM
 DMF .                 KB:   DRILLING MEASURED FROM
 EKB .F              5193:   KELLING BUSHING
 EGL .F              5183:   GROUND LEVEL
 DATE.            9-21-91:   RUN DATE
 RUN .                  1:   RUN NUMBER
 DD  .F               480:   DEPTH DRILLER
 DL  .F               478:   DEPTH LOGGER
 BLI .F               470:   BOTTOM LOG INTERVAL
 CS  .IN                7:   CASING SIZE
 CBD .F                90:   CASING BOTTOM DRILLER
 CBL .F                90:   CASING BOTTOM LOGGER
 BS  .IN             6.25:   BIT SIZE
 BSD .F               480:   BIT SIZE AT DEPTH
 DFT .                AIR:   DRILLING FLUID TYPE
 TCS .HRS               1:   TIME CURCULATED STOPPED
 MRT .F                80:   MAXIMUM RECORDED TEMPERATURE
 LUN .            HL-6307:   LOGGING UNIT NUMBER
 LUL .             CASPER:   LOGGING UNIT LOCATION
 ENGI.             RAUTIO:   RECORDING ENGINEER
 WITN.             STRONG:   WITNESSED BY
 CLNT.            A2DTECH:   CLIENT CODE
 ORIG.        2" 5" PRINT:   ORIGIN OF DATA
 UWI .       490251125800:   UNIQUE WELL ID
 DICO. A2D Technologies, Inc.:   DIGITIZING COMPANY
~OTHER INFORMATION
~A    DEPT       GRR      ILD       RILM   
# ...
  295.2000   106.3988    19.3644    21.1587
  295.3000   106.5732    19.4132    21.1934
  295.4000   106.7475    19.4619    21.2282
  295.5000   106.9219    19.5106    21.2629
  295.6000   106.5877    19.5458    21.3186
  295.7000   106.2535    19.5811    21.3743
  295.8000   105.9193    19.6163    21.4300
  295.9000   105.5851    19.6515    21.4857
  296.0000   105.2509    19.6868    21.5414
  296.1000   104.9238    19.7222    21.5980
  296.2000   104.5968    19.7576    21.6547
  296.3000   104.2698    19.7930    21.7113
  296.4000   103.9428    19.8285    21.7680
  296.5000   103.6157    19.8639    21.8246
  296.6000   103.8343    19.8911    21.8912
  296.7000   104.0528    19.9183    21.9578
  296.8000   104.2713    19.9456    22.0243
  296.9000   104.4899    19.9728    22.0909
  297.0000   104.7084    20.0000    22.1574
  297.1000   104.9843    19.9911    22.1440
  297.2000   105.2602    19.9822    22.1305
  297.3000   105.5360    19.9734    22.1170
  297.4000   105.8119    19.9645    22.1035
  297.5000   106.0878    19.9556    22.0901
  297.6000   106.0070    19.9471    22.0741
  297.7000   105.9262    19.9386    22.0582
  297.8000   105.8454    19.9302    22.0422
  297.9000   105.7646    19.9217    22.0263
  298.0000   105.6838    19.9132    22.0103
  298.1000   105.4867    19.9046    21.9771
  298.2000   105.2896    19.8960    21.9439
  298.3000   105.0924    19.8874    21.9107
  298.4000   104.8953    19.8789    21.8776
  298.5000   104.6982    19.8703    21.8444
  298.6000   104.4966    19.8629    21.7647
  298.7000   104.2950    19.8556    21.6851
  298.8000   104.0934    19.8483    21.6055
  298.9000   103.8918    19.8410    21.5259
  299.0000   103.6901    19.8337    21.4463
  299.1000   103.4898    19.7769    21.3681
  299.2000   103.2895    19.7201    21.2899
  299.3000   103.0892    19.6633    21.2118
  299.4000   102.8889    19.6065    21.1336
  299.5000   102.6886    19.5497    21.0554
  299.6000   102.5083    19.4936    20.9787
  299.7000   102.3280    19.4375    20.9019
  299.8000   102.1476    19.3814    20.8252
  299.9000   101.9673    19.3254    20.7484
  300.0000   101.7870    19.2693    20.6717
  300.1000   101.7460    19.2140    20.5964
  300.2000   101.7051    19.1587    20.5210
  300.3000   101.6642    19.1035    20.4457
  300.4000   101.6233    19.0482    20.3703
  300.5000   101.5823    18.9929    20.2950
  300.6000   101.7763    18.9384    20.2381
  300.7000   101.9703    18.8839    20.1813
  300.8000   102.1643    18.8295    20.1245
  300.9000   102.3583    18.7750    20.0676
  301.0000   102.5523    18.7205    20.0108
  301.1000   102.7474    18.6668    19.9617
  301.2000   102.9425    18.6131    19.9125
  301.3000   103.1376    18.5594    19.8634
  301.4000   103.3326    18.5057    19.8143
  301.5000   103.5277    18.4520    19.7651
  301.6000   103.9905    18.3990    19.7166
  301.7000   104.4532    18.3461    19.6681
  301.8000   104.9159    18.2932    19.6196
  301.9000   105.3786    18.2402    19.5710
  302.0000   105.8413    18.1873    19.5225
  302.1000   106.5303    18.1351    19.4746
  302.2000   107.2193    18.0830    19.4267
  302.3000   107.9084    18.0308    19.3787
  302.4000   108.5974    17.9786    19.3308
  302.5000   109.2864    17.9265    19.2829
  302.6000   109.6347    17.8750    19.2355
  302.7000   109.9830    17.8236    19.1882
  302.8000   110.3313    17.7722    19.1408
  302.9000   110.6796    17.7208    19.0935
  303.0000   111.0279    17.6693    19.0461
  303.1000   111.1382    17.6164    18.9994
  303.2000   111.2485    17.5634    18.9526
  303.3000   111.3588    17.5104    18.9059
  303.4000   111.4692    17.4574    18.8591
  303.5000   111.5795    17.4044    18.8123
  303.6000   111.4123    17.3504    18.7662
  303.7000   111.2452    17.2964    18.7200
  303.8000   111.0780    17.2424    18.6738
  303.9000   110.9109    17.1884    18.6276
  304.0000   110.7437    17.1344    18.5814
  304.1000   110.0977    17.0812    18.5254
  304.2000   109.4518    17.0279    18.4695
  304.3000   108.8058    16.9747    18.4135
  304.4000   108.1598    16.9215    18.3576
  304.5000   107.5139    16.8683    18.3016
  304.6000   107.3278    16.8159    18.1974
  304.7000   107.1418    16.7635    18.0932
  304.8000   106.9558    16.7111    17.9890
  304.9000   106.7697    16.6588    17.8848
  305.0000   106.5837    16.6064    17.7805
  305.1000   106.5469    16.5548    17.6793
  305.2000   106.5101    16.5032    17.5781
  305.3000   106.4733    16.4516    17.4768
  305.4000   106.4364    16.4000    17.3756
  305.5000   106.3996    16.3484    17.2743
  305.6000   106.5090    16.2975    17.2301
  305.7000   106.6185    16.2466    17.1860
  305.8000   106.7279    16.1957    17.1418
  305.9000   106.8373    16.1449    17.0976
  306.0000   106.9468    16.0940    17.0534
  306.1000   107.3479    16.0445    17.0442
  306.2000   107.7491    15.9949    17.0350
  306.3000   108.1502    15.9454    17.0258
  306.4000   108.5514    15.8959    17.0165
  306.5000   108.9526    15.8464    17.0073
  306.6000   108.9154    15.8367    16.9981
  306.7000   108.8782    15.8270    16.9889
  306.8000   108.8410    15.8172    16.9797
  306.9000   108.8038    15.8075    16.9705
  307.0000   108.7667    15.7978    16.9613
  307.1000   108.3696    15.7883    16.9521
  307.2000   107.9726    15.7787    16.9430
  307.3000   107.5756    15.7692    16.9338
  307.4000   107.1785    15.7596    16.9246
  307.5000   106.7815    15.7501    16.9154
  307.6000   106.3802    15.7405    16.9063
  307.7000   105.9788    15.7310    16.8972
  307.8000   105.5775    15.7215    16.8880
  307.9000   105.1761    15.7120    16.8789
  308.0000   104.7748    15.7024    16.8697
  308.1000   104.7548    15.6930    16.8606
  308.2000   104.7348    15.6835    16.8515
  308.3000   104.7149    15.6740    16.8423
  308.4000   104.6949    15.6645    16.8332
  308.5000   104.6749    15.6550    16.8241
  308.6000   105.1001    15.6455    16.8150
  308.7000   105.5254    15.6360    16.8059
  308.8000   105.9506    15.6265    16.7968
  308.9000   106.3759    15.6170    16.7877
  309.0000   106.8011    15.6075    16.7786
  309.1000   107.2381    15.5982    16.7695
  309.2000   107.6750    15.5890    16.7604
  309.3000   108.1120    15.5797    16.7514
  309.4000   108.5490    15.5705    16.7423
  309.5000   108.9859    15.5612    16.7332
  309.6000   108.8523    15.5419    16.7242
  309.7000   108.7187    15.5226    16.7151
  309.8000   108.5851    15.5032    16.7061
  309.9000   108.4515    15.4839    16.6970
  310.0000   108.3179    15.4645    16.6880
  310.1000   108.0531    15.4439    16.6789
  310.2000   107.7883    15.4233    16.6699
  310.3000   107.5235    15.4027    16.6609
  310.4000   107.2587    15.3821    16.6519
  310.5000   106.9939    15.3615    16.6428
  310.6000   107.1458    15.3425    16.6345
  310.7000   107.2977    15.3235    16.6262
  310.8000   107.4496    15.3045    16.6179
  310.9000   107.6015    15.2855    16.6096
  311.0000   107.7534    15.2665    16.6012
  311.1000   108.0423    15.2270    16.5401
  311.2000   108.3312    15.1875    16.4789
  311.3000   108.6201    15.1480    16.4177
  311.4000   108.9090    15.1085    16.3565
  311.5000   109.1980    15.0689    16.2954
  311.6000   108.6372    15.0327    16.2395
  311.7000   108.0764    14.9964    16.1836
  311.8000   107.5156    14.9601    16.1277
  311.9000   106.9548    14.9238    16.0719
  312.0000   106.3940    14.8875    16.0160
  312.1000   105.6614    14.8517    15.9611
  312.2000   104.9288    14.8158    15.9062
  312.3000   104.1961    14.7800    15.8513
  312.4000   103.4635    14.7441    15.7963
  312.5000   102.7309    14.7083    15.7414
  312.6000   102.8027    14.6729    15.6949
  312.7000   102.8746    14.6374    15.6483
  312.8000   102.9464    14.6020    15.6018
  312.9000   103.0183    14.5666    15.5552
  313.0000   103.0901    14.5312    15.5086
  313.1000   103.8957    14.4962    15.4776
  313.2000   104.7012    14.4612    15.4466
  313.3000   105.5067    14.4262    15.4155
