~VERSION INFORMATION
 VERS.                2.0:   CWLS LOG ASCII STANDARD - VERSION 2.0
 WRAP.                 NO:   ONE LINE PER DEPTH STEP
~WELL INFORMATION
#MNEM.UNIT      DATA TYPE    INFORMATION
#----------   ------------   ------------------------------
 STRT.F           14.5000:   START DEPTH
 STOP.F          750.0000:   STOP DEPTH
 STEP.F            0.5000:   STEP LENGTH
 NULL.          -999.2500:   NO VALUE
 COMP. FENIX & SCISSON INC:   COMPANY
 WELL.       NPR 3 #24-14:   WELL
 FLD .             TEAPOT:   FIELD
 LOC .      S14 T38N R78W:   LOCATION
 CNTY.            NATRONA:   COUNTY
 STAT.            WYOMING:   STATE
 CTRY. UNITED STATES OF AMERICA:   COUNTRY
 SRVC.           BIRDWELL:   SERVICE COMPANY
 DATE.        27-DEC-1978:   LOGDATE
 API .       490251075900:   API NUMBER
~CURVE INFORMATION
#MNEM.UNIT       API CODE    CURVE DESCRIPTION
#----------   ------------   ------------------------------
 DEPT.F                  :   
 SPR .MV     05 010 01 00:   SPONTANEOUS POTENTIAL FROM RES.
 SN  .OHMM   05 040 16 00:   SHORT NORMAL 16"
 IL  .OHMM   05 120 00 00:   INDUCTION LOG
 GRD .GAPI   45 310 01 00:   GAMMA RAY FROM DENSITY LOG
 CALD.IN     45 280 60 00:   CALIPER
 RHOB.G/C3   45 350 01 00:   BULK DENSITY
 DPHI.DEC    45 890 12 00:   DENSITY POROSITY SANDSTONE
 CORR.G/C3   45 356 01 00:   DENSITY CORRECTION
~PARAMETER INFORMATION
#MNEM.UNIT          VALUE    DESCRIPTION
#----------   ------------   ------------------------------
 PD  .                 GL:   PERMANENT DATUM
 EPD .F              5209:   ELEVATION PERMANENT DATUM
 LMF .                 KB:   LOG MEASURED FROM
 DAPD.F                 4:   FEET ABOVE PERMANENT DATUM
 DMF .                 KB:   DRILLING MEASURED FROM
 EKB .F              5212:   KELLING BUSHING
 EGL .F              5209:   GROUND LEVEL
 DATE.           12-27-78:   RUN DATE
 RUN .                  1:   RUN NUMBER
 DD  .F               750:   DEPTH DRILLER
 DL  .F               742:   DEPTH LOGGER
 BLI .F               735:   BOTTOM LOG INTERVAL
 TLI .F                35:   TOP LOG INTERVAL
 CS  .IN            8.625:   CASING SIZE
 CBD .F                40:   CASING BOTTOM DRILLER
 CBL .F                32:   CASING BOTTOM LOGGER
 BS  .IN            7.875:   BIT SIZE
 BSD .F               750:   BIT SIZE AT DEPTH
 DFT .                KCL:   DRILLING FLUID TYPE
 DFD .                8.6:   DRILLING FLUID DENSITY
 DFV .                 35:   DRILLING FLUID VISCOSITY
 DFPH.                9.4:   DRILLING FLUID PH
 DFL .               12.4:   DRILLING FLUID LOSS
 MSS .           FLOWLINE:   MUD SAMPLE SOURCE
 RMS .OHMM            .38:   RESISTIVITY MUD SAMPLE
 MST .F                58:   MUD SAMPLE TEMPERATURE
 RMF .OHMM            .38:   RESISTIVITY MUD FILTRATE SAMPLE
 MFST.F                58:   MUD FILTRATE SAMPLE TEMPERATURE
 RMC .OHMM            .36:   RESISTIVITY MUD CAKE
 MCST.F                60:   MUD CAKE SAMPLE TEMPERATURE
 MFSS.           MEASURED:   MUD FILTRATE SAMPLE SOURCE
 MCSS.           MEASURED:   MUD CAKE SAMPLE SOURCE
 RMB .OHMM            .37:   RESISTIVITY MUD AT BHT
 BHT .F                59:   BOTTOM HOLE TEMPERATURE
 TCS .HRS               2:   TIME CURCULATED STOPPED
 MRT .F                59:   MAXIMUM RECORDED TEMPERATURE
 LUN .               2958:   LOGGING UNIT NUMBER
 LUL .             CASPER:   LOGGING UNIT LOCATION
 ENGI.         B. ROLLINS:   RECORDING ENGINEER
 WITN.           DINSMORE:   WITNESSED BY
 CLNT.            A2DTECH:   CLIENT CODE
 ORIG.           5" PRINT:   ORIGIN OF DATA
 UWI .       490251075900:   UNIQUE WELL ID
 DICO. A2D Technologies, Inc.:   DIGITIZING COMPANY
~OTHER INFORMATION
~A   DEPT      SPR         SN         IL         GRD      CALD       RHOB       DPHI       CORR   
# ...
   95.5000   -55.2360     2.8910     2.6660    95.8260     8.0380     2.3870     0.1580     0.0460
   96.0000   -55.2550     2.8520     2.7640    95.4400     8.0350     2.4150     0.1580     0.0430
   96.5000   -55.2740     2.7920     2.8590    92.9410     8.0500     2.4170     0.1580     0.0400
   97.0000   -55.2960     2.8530     2.9530    90.2180     8.0070     2.4180     0.1590     0.0370
   97.5000   -55.1700     2.9890     3.1150    89.5520     7.7970     2.4180     0.1690     0.0340
   98.0000   -54.9830     3.1840     3.3560    91.0620     7.7410     2.4090     0.1720     0.0340
   98.5000   -54.7960     3.5390     3.5960    93.3090     7.6930     2.3990     0.1760     0.0350
   99.0000   -54.5620     3.8940     3.8370    93.7570     7.6500     2.3910     0.1820     0.0360
   99.5000   -54.2550     4.2630     3.9600    93.6350     7.6570     2.3740     0.1900     0.0380
  100.0000   -53.3190     4.3420     3.9600    93.0650     7.6650     2.3630     0.1980     0.0410
  100.5000   -52.4930     4.2510     3.8690    92.5100     7.6910     2.3510     0.2060     0.0430
  101.0000   -52.1110     4.1680     3.7860    91.9740     7.7820     2.3400     0.2140     0.0450
  101.5000   -51.4980     4.0850     3.7040    92.9060     7.8120     2.3230     0.2220     0.0490
  102.0000   -50.8320     4.0020     3.5990    95.0200     7.8200     2.3040     0.2420     0.0540
  102.5000   -50.5050     3.8980     3.4440    97.6820     7.8290     2.2800     0.2600     0.0590
  103.0000   -50.5040     3.7740     3.2890   100.0540     7.9020     2.2560     0.2740     0.0670
  103.5000   -50.4910     3.6500     3.1180   104.1830     8.0330     2.2330     0.2700     0.0810
  104.0000   -50.9980     3.5140     2.8750   111.2950     8.1620     2.2240     0.2590     0.0920
  104.5000   -51.6800     3.4010     2.7220   112.0080     8.2420     2.2400     0.2290     0.0910
  105.0000   -52.3680     3.2750     2.6660   112.1010     8.3200     2.3110     0.1930     0.0900
  105.5000   -52.7140     3.1490     2.7160   112.1140     8.3210     2.3860     0.1570     0.0920
  106.0000   -52.7490     3.0560     2.8140   111.8320     8.2240     2.4530     0.1360     0.0980
  106.5000   -52.7860     3.0330     2.9040   103.9080     8.1190     2.4570     0.1320     0.1050
  107.0000   -52.8210     3.0830     2.9900    94.6610     8.0300     2.4580     0.1290     0.1080
  107.5000   -52.8560     3.1470     3.1300    92.8870     7.9810     2.4650     0.1310     0.1030
  108.0000   -52.8950     3.4470     3.3250    95.0930     7.8990     2.4660     0.1410     0.0920
  108.5000   -52.6790     3.7480     3.5210    97.3590     7.8020     2.4560     0.1550     0.0700
  109.0000   -52.2840     4.2930     4.0560    99.0070     7.5160     2.4400     0.1690     0.0470
  109.5000   -51.5490     4.8680     4.8050   100.1750     7.4400     2.4100     0.1710     0.0380
  110.0000   -50.8290     5.3080     5.0850    99.7840     7.4290     2.3960     0.1580     0.0340
  110.5000   -50.6270     5.5160     5.3650    98.0810     7.4790     2.4130     0.1490     0.0300
  111.0000   -50.8530     5.5160     5.3790    95.7450     7.5350     2.4280     0.1490     0.0260
  111.5000   -50.8610     5.5160     5.3910    94.5100     7.5920     2.4330     0.1490     0.0260
  112.0000   -50.8100     5.5160     5.4040    94.3720     7.6290     2.4330     0.1470     0.0270
  112.5000   -50.7590     5.5160     5.4150    94.4780     7.6290     2.4340     0.1440     0.0280
  113.0000   -50.7080     5.7130     5.6260    95.9380     7.6290     2.4390     0.1460     0.0290
  113.5000   -50.6560     5.9320     5.7900    98.2200     7.6290     2.4400     0.1480     0.0340
  114.0000   -50.6050     6.1510     5.9250   100.2700     7.6350     2.4340     0.1460     0.0510
  114.5000   -50.5540     6.3870     6.0470   100.6590     7.6880     2.4340     0.1390     0.0660
  115.0000   -50.4950     6.6310     5.9640    99.9050     7.8540     2.4500     0.1330     0.0800
  115.5000   -50.2170     6.7720     5.8890    98.7110     8.0250     2.4590     0.1330     0.0820
  116.0000   -49.9230     6.8080     5.8130    97.5480     8.0970     2.4600     0.1330     0.0840
  116.5000   -49.6270     6.8450     5.7680    96.5910     8.1650     2.4600     0.1340     0.0870
  117.0000   -49.5020     6.8780     5.7540    96.4580     8.1850     2.4590     0.1350     0.0910
  117.5000   -49.5000     6.7860     5.7390    96.9020     8.1400     2.4580     0.1350     0.0980
  118.0000   -49.4980     6.7020     5.7250    98.6170     8.0880     2.4560     0.1380     0.1040
  118.5000   -49.5030     6.6180     5.7110   100.0840     8.0070     2.4520     0.1420     0.1110
  119.0000   -49.1000     6.5340     5.6970   100.1550     7.9260     2.4490     0.1400     0.1180
  119.5000   -48.1160     6.5090     5.6820   100.4750     7.8960     2.4470     0.1350     0.1210
  120.0000   -46.8020     6.5090     5.6680   102.6980     7.9580     2.4570     0.1240     0.1170
  120.5000   -45.6660     6.5090     5.6540   107.7600     7.7720     2.4700     0.1410     0.1020
  121.0000   -45.6980     6.5090     5.6390   107.6460     7.6490     2.4750     0.1490     0.0860
  121.5000   -45.7030     6.5090     5.6180   103.3990     7.6890     2.4420     0.1710     0.0740
  122.0000   -45.7020     6.5090     5.6350   103.1820     7.7430     2.4120     0.1660     0.0910
  122.5000   -45.7050     6.5090     5.6700   104.9840     7.7970     2.3990     0.1580     0.1250
  123.0000   -45.8050     6.5090     5.7050   107.8990     7.8240     2.4240     0.1280     0.1590
  123.5000   -46.3640     6.5090     5.7400   110.0580     7.8170     2.4720     0.1030     0.1850
  124.0000   -47.2100     6.5290     5.7750   106.4120     7.8100     2.5110     0.1050     0.1770
  124.5000   -48.5280     6.5960     5.8090   104.8920     7.7830     2.5100     0.1070     0.1620
  125.0000   -49.8360     6.6620     5.8440   102.1510     7.7440     2.5060     0.1090     0.1430
  125.5000   -50.4320     6.7290     5.8820    98.2800     7.7050     2.5050     0.1130     0.1240
  126.0000   -50.7160     6.7960     5.8820    94.8280     7.7000     2.5020     0.1180     0.1040
  126.5000   -50.7650     6.9430     5.8820    94.6350     7.8500     2.4860     0.1200     0.0940
  127.0000   -50.8160     7.0820     5.8820    96.7520     7.9860     2.4860     0.1130     0.0900
  127.5000   -50.8660     7.1360     5.8820    97.1300     8.0440     2.4910     0.1140     0.0860
  128.0000   -50.9150     7.1200     5.8830    97.3820     8.0820     2.4980     0.1200     0.0770
  128.5000   -50.9640     7.0880     5.8820    98.0190     8.0650     2.4900     0.1270     0.0690
  129.0000   -51.0110     7.0550     5.8890    97.9910     7.9690     2.4770     0.1320     0.0660
  129.5000   -51.0540     7.0230     5.8820    97.5830     7.8590     2.4630     0.1350     0.0640
  130.0000   -50.9440     6.9910     6.3960    94.1400     7.7870     2.4610     0.1420     0.0610
  130.5000   -50.1840     6.9580     6.8150    88.9990     7.7250     2.4480     0.1580     0.0580
  131.0000   -49.4320     6.8850     6.6920    88.5870     7.6660     2.4310     0.1800     0.0580
  131.5000   -48.6880     6.7710     6.5690    89.1090     7.5980     2.4010     0.2020     0.0580
  132.0000   -48.0740     6.6570     6.4620    89.3220     7.4900     2.3590     0.2460     0.0580
  132.5000   -48.0380     6.5430     6.3320    88.2500     7.6070     2.2870     0.2800     0.0580
  133.0000   -47.9910     6.1750     5.9470    87.4400     7.7420     2.2150     0.3070     0.0580
  133.5000   -47.9430     5.6970     5.5190    90.2070     7.7280     2.1590     0.3280     0.0580
  134.0000   -47.9510     5.2680     5.0720    98.7000     7.7070     2.1260     0.3370     0.0610
  134.5000   -48.2920     4.8300     4.5800   107.5120     7.6850     2.1150     0.3040     0.0660
  135.0000   -49.1270     4.3590     4.0880   111.1830     7.6330     2.1890     0.2600     0.0640
  135.5000   -49.9010     3.8150     3.5460   114.2950     7.3650     2.2830     0.2180     0.0510
