~VERSION INFORMATION
 VERS.                2.0:   CWLS LOG ASCII STANDARD - VERSION 2.0
 WRAP.                 NO:   ONE LINE PER DEPTH STEP
~WELL INFORMATION
#MNEM.UNIT      DATA TYPE    INFORMATION
#----------   ------------   ------------------------------
 STRT.F           33.5000:   START DEPTH
 STOP.F          680.0000:   STOP DEPTH
 STEP.F            0.5000:   STEP LENGTH
 NULL.          -999.2500:   NO VALUE
 COMP. FENIX & SCISSON INC:   COMPANY
 WELL.       NPR 3 #66-34:   WELL
 FLD .             TEAPOT:   FIELD
 LOC .      S34 T39N R78W:   LOCATION
 CNTY.            NATRONA:   COUNTY
 STAT.            WYOMING:   STATE
 CTRY. UNITED STATES OF AMERICA:   COUNTRY
 SRVC.           BIRDWELL:   SERVICE COMPANY
 DATE.        12-AUG-1978:   LOGDATE
 API .       490251068400:   API NUMBER
~CURVE INFORMATION
#MNEM.UNIT       API CODE    CURVE DESCRIPTION
#----------   ------------   ------------------------------
 DEPT.F                  :   
 SPR .MV     05 010 01 00:   SPONTANEOUS POTENTIAL FROM RES.
 SN  .OHMM   05 040 16 00:   SHORT NORMAL 16"
 IL  .OHMM   05 120 00 00:   INDUCTION LOG
 CORR.G/C3   45 356 01 00:   DENSITY CORRECTION
 GRD .GAPI   45 310 01 00:   GAMMA RAY FROM DENSITY LOG
 RHOB.G/C3   45 350 01 00:   BULK DENSITY
 DPHI.DEC    45 890 12 00:   DENSITY POROSITY SANDSTONE
 CALD.IN     45 280 60 00:   CALIPER
~PARAMETER INFORMATION
#MNEM.UNIT          VALUE    DESCRIPTION
#----------   ------------   ------------------------------
 PD  .                 GL:   PERMANENT DATUM
 EPD .F              5078:   ELEVATION PERMANENT DATUM
 LMF .                 KB:   LOG MEASURED FROM
 DAPD.F                 4:   FEET ABOVE PERMANENT DATUM
 DMF .                 KB:   DRILLING MEASURED FROM
 EKB .F              5082:   KELLING BUSHING
 EGL .F              5078:   GROUND LEVEL
 DATE.            8-12-78:   RUN DATE
 RUN .                  1:   RUN NUMBER
 DD  .F               675:   DEPTH DRILLER
 DL  .F               686:   DEPTH LOGGER
 BLI .F               680:   BOTTOM LOG INTERVAL
 TLI .F                50:   TOP LOG INTERVAL
 CS  .IN            8.625:   CASING SIZE
 CBD .F                40:   CASING BOTTOM DRILLER
 BS  .IN            7.875:   BIT SIZE
 BSD .F               675:   BIT SIZE AT DEPTH
 DFT .                KCL:   DRILLING FLUID TYPE
 DFL .               10.4:   DRILLING FLUID LOSS
 MSS .          FLOW LINE:   MUD SAMPLE SOURCE
 RMS .OHMM            .18:   RESISTIVITY MUD SAMPLE
 MST .F                90:   MUD SAMPLE TEMPERATURE
 RMF .OHMM            .16:   RESISTIVITY MUD FILTRATE SAMPLE
 MFST.F                90:   MUD FILTRATE SAMPLE TEMPERATURE
 RMC .OHMM            .32:   RESISTIVITY MUD CAKE
 MCST.F                90:   MUD CAKE SAMPLE TEMPERATURE
 MFSS.               MEAS:   MUD FILTRATE SAMPLE SOURCE
 TCS .HRS               3:   TIME CURCULATED STOPPED
 LUN .               3006:   LOGGING UNIT NUMBER
 LUL .               CASP:   LOGGING UNIT LOCATION
 ENGI.             MILLER:   RECORDING ENGINEER
 WITN.           MCGINLEY:   WITNESSED BY
 CLNT.            A2DTECH:   CLIENT CODE
 ORIG.           5" PRINT:   ORIGIN OF DATA
 UWI .       490251068400:   UNIQUE WELL ID
 DICO. A2D Technologies, Inc.:   DIGITIZING COMPANY
~OTHER INFORMATION
~A   DEPT      SPR         SN         IL       CORR         GRD      RHOB       DPHI       CALD   
# ...
  357.5000   -52.3034     6.9781     6.4173     0.0157    86.0779     2.4554     0.1354     8.1091
  358.0000   -52.3028     6.9905     6.4049     0.0121    83.6416     2.4561     0.1342     8.1105
  358.5000   -52.4243     7.0027     6.4704     0.0086    85.0745     2.4521     0.1371     8.0780
  359.0000   -52.5490     7.0204     6.5167     0.0100    87.0367     2.4476     0.1423     8.0463
  359.5000   -52.6730     6.9743     6.5633     0.0143    87.6930     2.4433     0.1435     8.0522
  360.0000   -52.7968     6.8863     6.5838     0.0185    85.5000     2.4431     0.1447     8.0741
  360.5000   -52.9241     6.7679     6.5838     0.0229    85.4880     2.4445     0.1428     8.0961
  361.0000   -53.0611     6.7772     6.5022     0.0233    85.7995     2.4502     0.1391     8.1189
  361.5000   -53.1981     6.7939     6.3717     0.0199    86.4535     2.4557     0.1355     8.0929
  362.0000   -53.2802     6.8100     6.2446     0.0164    89.5726     2.4612     0.1320     8.0580
  362.5000   -53.1763     6.8301     6.1200     0.0143    89.3184     2.4611     0.1291     8.0227
  363.0000   -53.0774     6.7487     5.9980     0.0189    89.0486     2.4596     0.1343     8.0463
  363.5000   -52.9791     6.6429     5.8784     0.0240    89.1435     2.4601     0.1301     8.0788
  364.0000   -52.9183     6.5379     5.7705     0.0248    90.7747     2.4619     0.1290     8.1121
  364.5000   -53.0412     6.4398     5.6842     0.0202    92.4339     2.4614     0.1311     8.1016
  365.0000   -53.1607     6.3464     5.7280     0.0202    92.0878     2.4568     0.1349     8.0735
  365.5000   -53.2803     6.3742     5.7895     0.0210    89.1023     2.4523     0.1367     8.0630
  366.0000   -53.3996     6.4049     5.7688     0.0179    86.3260     2.4485     0.1396     8.0995
  366.5000   -53.4935     6.3464     5.7323     0.0173    86.4322     2.4466     0.1431     8.1380
  367.0000   -53.4239     6.3976     5.6847     0.0189    89.8002     2.4498     0.1312     8.1153
  367.5000   -53.3568     6.4789     5.7499     0.0205    91.4001     2.4638     0.1275     8.0855
  368.0000   -53.2902     6.5847     5.8525     0.0150    91.6414     2.4595     0.1373     8.0578
  368.5000   -53.2233     6.5626     5.9561     0.0108    92.7817     2.4519     0.1390     8.0427
  369.0000   -53.1566     6.5239     6.0625     0.0148    93.8571     2.4512     0.1353     8.0589
  369.5000   -53.1050     6.4853     6.0534     0.0189    91.3833     2.4584     0.1306     8.0756
  370.0000   -53.1559     6.4640     6.0386     0.0204    88.5942     2.4613     0.1283     8.0918
  370.5000   -53.2055     6.5770     6.0242     0.0191    87.2376     2.4573     0.1358     8.0959
  371.0000   -53.2557     6.6687     6.0062     0.0160    89.7218     2.4596     0.1296     8.0646
  371.5000   -53.2944     6.7617     6.0483     0.0145    93.7922     2.4619     0.1329     8.0336
  372.0000   -53.1779     6.8931     6.1060     0.0145    98.2834     2.4573     0.1367     8.0039
  372.5000   -53.0625     6.8633     6.1643     0.0185    98.2866     2.4520     0.1347     8.0439
  373.0000   -52.9464     6.8146     6.2309     0.0226    96.7077     2.4617     0.1297     8.0529
  373.5000   -52.9648     6.7663     6.2039     0.0268    95.1577     2.4737     0.1248     8.0325
  374.0000   -53.0719     6.7059     6.1730     0.0305    94.8800     2.4785     0.1200     8.0115
  374.5000   -53.1813     6.7190     6.1422     0.0283    95.0442     2.4812     0.1176     8.0025
  375.0000   -53.2889     6.7367     6.1175     0.0244    92.8303     2.4840     0.1167     8.0218
  375.5000   -53.2696     6.7544     6.2115     0.0205    90.2795     2.4835     0.1173     8.0427
  376.0000   -53.2348     6.7675     6.2914     0.0166    93.2288     2.4798     0.1188     8.0637
  376.5000   -53.2001     6.7311     6.3724     0.0127    94.9956     2.4761     0.1234     8.0818
  377.0000   -53.1656     6.7059     6.4543     0.0142    94.9685     2.4724     0.1275     8.0433
  377.5000   -53.1308     6.7783     6.5236     0.0162    95.6241     2.4709     0.1254     8.0009
  378.0000   -53.1023     6.8301     6.4399     0.0182    98.4276     2.4732     0.1232     7.9654
  378.5000   -53.1463     6.6571     6.3338     0.0202    99.6071     2.4755     0.1215     8.0273
  379.0000   -53.1899     6.4891     6.2294     0.0196    97.6249     2.4767     0.1229     8.0828
  379.5000   -53.2330     6.4049     6.1175     0.0186    92.0459     2.4731     0.1247     8.0465
  380.0000   -53.2754     6.4423     6.0062     0.0176    86.0027     2.4698     0.1244     8.0078
  380.5000   -53.2841     6.4763     6.0402     0.0166    84.0200     2.4688     0.1251     8.0107
  381.0000   -53.2469     6.5236     6.1017     0.0165    84.1884     2.4681     0.1272     8.0211
  381.5000   -53.2102     6.4757     6.1734     0.0164    82.3954     2.4673     0.1293     7.9935
  382.0000   -53.1732     6.3993     6.0918     0.0164    79.5525     2.4672     0.1285     7.9630
  382.5000   -53.1359     6.2884     6.0069     0.0196    78.7223     2.4675     0.1227     7.9728
  383.0000   -53.1021     6.3161     6.0641     0.0238    78.8206     2.4678     0.1248     8.0298
  383.5000   -53.1412     6.3693     6.1176     0.0281    78.5027     2.4680     0.1267     8.0845
  384.0000   -53.1830     6.4229     6.0375     0.0323    77.1225     2.4743     0.1195     8.1119
  384.5000   -53.2244     6.4640     5.9372     0.0325    79.0179     2.4837     0.1148     8.0804
  385.0000   -53.2657     6.4100     5.8386     0.0260    82.0152     2.4803     0.1206     8.0500
  385.5000   -53.3010     6.3666     5.7593     0.0195    85.0048     2.4751     0.1251     8.0219
  386.0000   -53.3001     6.3237     5.6844     0.0185    86.2731     2.4723     0.1251     8.0355
  386.5000   -53.2997     6.2885     5.7084     0.0201    83.3650     2.4784     0.1233     8.0549
  387.0000   -53.3000     6.3030     5.7402     0.0217    80.9575     2.4739     0.1216     8.0748
  387.5000   -53.3237     6.3155     5.7724     0.0213    78.8876     2.4721     0.1209     8.0675
  388.0000   -53.4216     6.3279     5.7895     0.0172    80.3718     2.4738     0.1249     8.0158
  388.5000   -53.4933     6.3460     5.7167     0.0129    81.8440     2.4587     0.1327     7.9174
  389.0000   -53.4300     6.3264     5.6842     0.0108    81.0171     2.4555     0.1321     7.8202
  389.5000   -53.3685     6.2889     5.7172     0.0129    81.1761     2.4555     0.1333     7.7515
  390.0000   -53.3048     6.2517     5.7419     0.0173    81.9400     2.4521     0.1365     7.8053
  390.5000   -53.4043     6.1556     5.7667     0.0236    82.5144     2.4583     0.1322     7.7939
  391.0000   -53.5259     5.9874     5.7895     0.0306    81.5123     2.4664     0.1279     7.5918
  391.5000   -53.6479     5.8430     5.7065     0.0414    80.7069     2.4706     0.1267     7.6166
  392.0000   -53.6762     5.8996     5.4571     0.0524    80.7002     2.4678     0.1262     7.7128
  392.5000   -53.6141     5.9513     5.2186     0.0632    81.7707     2.4681     0.1271     7.7897
  393.0000   -53.5515     5.8767     4.9528     0.0704    82.8254     2.4708     0.1231     7.7813
  393.5000   -53.4888     5.7844     4.9678     0.0703    83.7449     2.4653     0.1299     7.7380
  394.0000   -53.4263     5.7366     4.9961     0.0741    82.9957     2.4646     0.1250     7.7158
  394.5000   -53.3633     5.7993     4.9570     0.0824    80.1110     2.4770     0.1202     7.7973
  395.0000   -53.3020     5.9246     4.9063     0.0744    79.8677     2.4858     0.1160     7.8775
  395.5000   -53.2994     6.0528     4.9994     0.0683    80.5557     2.4812     0.1119     7.9588
  396.0000   -53.2988     6.1829     5.1474     0.0668    81.3118     2.4963     0.1052     7.9538
  396.5000   -53.3060     6.2323     5.3032     0.0582    82.0657     2.4821     0.1171     7.9411
  397.0000   -53.4418     6.1341     5.4792     0.0504    82.8210     2.4774     0.1251     7.9289
  397.5000   -53.5761     6.0579     5.4550     0.0493    83.5238     2.4821     0.1204     7.9298
