~VERSION INFORMATION
 VERS.                2.0:   CWLS LOG ASCII STANDARD - VERSION 2.0
 WRAP.                 NO:   ONE LINE PER DEPTH STEP
~WELL INFORMATION
#MNEM.UNIT      DATA TYPE    INFORMATION
#----------   ------------   ------------------------------
 STRT.F           11.5000:   START DEPTH
 STOP.F          583.0000:   STOP DEPTH
 STEP.F            0.5000:   STEP LENGTH
 NULL.          -999.2500:   NO VALUE
 COMP.    FENIX & SCISSON:   COMPANY
 WELL.      41 SX 3 #41-3:   WELL
 FLD .             TEAPOT:   FIELD
 LOC .       S3 T38N R78W:   LOCATION
 CNTY.            NATRONA:   COUNTY
 STAT.            WYOMING:   STATE
 CTRY. UNITED STATES OF AMERICA:   COUNTRY
 SRVC.            Unknown:   SERVICE COMPANY
 DATE.        01-DEC-1978:   LOGDATE
 API .       490251074000:   API NUMBER
~CURVE INFORMATION
#MNEM.UNIT       API CODE    CURVE DESCRIPTION
#----------   ------------   ------------------------------
 DEPT.F                  :   
 SPR .MV     05 010 01 00:   SPONTANEOUS POTENTIAL FROM RES.
 SN  .OHMM   05 040 16 00:   SHORT NORMAL 16"
 IL  .OHMM   05 120 00 00:   INDUCTION LOG
 GRD .GAPI   45 310 01 00:   GAMMA RAY FROM DENSITY LOG
 CALD.IN     45 280 60 00:   CALIPER
 DEN .G/C3   45 350 01 00:   COMPENSATED BULK DENSTIY
 CORR.G/C3   45 356 01 00:   DENSITY CORRECTION
 DPHI.DEC    45 890 12 00:   DENSITY POROSITY SANDSTONE
~PARAMETER INFORMATION
#MNEM.UNIT          VALUE    DESCRIPTION
#----------   ------------   ------------------------------
 PD  .                 GL:   PERMANENT DATUM
 EPD .F              5150:   ELEVATION PERMANENT DATUM
 LMF .                 KB:   LOG MEASURED FROM
 DAPD.F                 4:   FEET ABOVE PERMANENT DATUM
 DMF .                 KB:   DRILLING MEASURED FROM
 EKB .F              5154:   KELLING BUSHING
 EGL .F              5150:   GROUND LEVEL
 DATE.            12-1-78:   RUN DATE
 RUN .                  1:   RUN NUMBER
 DD  .F               600:   DEPTH DRILLER
 DL  .F               582:   DEPTH LOGGER
 BLI .F               576:   BOTTOM LOG INTERVAL
 TLI .F                42:   TOP LOG INTERVAL
 CS  .IN            8.625:   CASING SIZE
 CBD .F                40:   CASING BOTTOM DRILLER
 CBL .F                41:   CASING BOTTOM LOGGER
 BS  .IN            7.875:   BIT SIZE
 BSD .F               600:   BIT SIZE AT DEPTH
 DFT .                KCL:   DRILLING FLUID TYPE
 DFD .                8.8:   DRILLING FLUID DENSITY
 DFV .                 35:   DRILLING FLUID VISCOSITY
 DFPH.               11.2:   DRILLING FLUID PH
 DFL .               11.6:   DRILLING FLUID LOSS
 MSS .          FLOW LINE:   MUD SAMPLE SOURCE
 RMS .OHMM            .36:   RESISTIVITY MUD SAMPLE
 MST .F                52:   MUD SAMPLE TEMPERATURE
 RMF .OHMM            .36:   RESISTIVITY MUD FILTRATE SAMPLE
 MFST.F                55:   MUD FILTRATE SAMPLE TEMPERATURE
 RMC .OHMM            .42:   RESISTIVITY MUD CAKE
 MCST.F                60:   MUD CAKE SAMPLE TEMPERATURE
 MFSS.           MEASURED:   MUD FILTRATE SAMPLE SOURCE
 MCSS.           MEASURED:   MUD CAKE SAMPLE SOURCE
 RMB .OHMM            .32:   RESISTIVITY MUD AT BHT
 BHT .F                58:   BOTTOM HOLE TEMPERATURE
 MRT .F                58:   MAXIMUM RECORDED TEMPERATURE
 LUN .               2958:   LOGGING UNIT NUMBER
 LUL .                CPR:   LOGGING UNIT LOCATION
 ENGI.            ROLLINS:   RECORDING ENGINEER
 WITN.              AMEND:   WITNESSED BY
 CLNT.            A2DTECH:   CLIENT CODE
 ORIG.       2", 5" PRINT:   ORIGIN OF DATA
 UWI .       490251074000:   UNIQUE WELL ID
 DICO. A2D Technologies, Inc.:   DIGITIZING COMPANY
~OTHER INFORMATION
~A   DEPT      SPR         SN         IL         GRD      CALD        DEN       CORR       DPHI   
# ...
   92.5000   -14.3430     7.6615     7.7017   125.2218     8.0218     2.4577     0.0130     0.1390
   93.0000   -14.1559     6.7237     8.0882   123.8449     8.0221     2.4573     0.0130     0.1391
   93.5000   -14.8374     7.8935     8.1413   121.5520     8.0225     2.4569     0.0130     0.1392
   94.0000   -17.0390     7.3067     8.1994   121.7704     8.0228     2.4566     0.0130     0.1411
   94.5000   -14.6834     8.8069     8.2579   124.1595     8.0231     2.4563     0.0130     0.1421
   95.0000   -15.5404     7.8756     8.3167   127.3700     8.0234     2.4560     0.0130     0.1414
   95.5000   -15.1194     7.1040     8.3757   129.7950     8.0238     2.4556     0.0130     0.1420
   96.0000   -15.2140     6.3027     8.4352   123.6208     8.0241     2.4553     0.0130     0.1428
   96.5000   -15.2157     6.6259     8.4747   117.6105     8.0244     2.4550     0.0130     0.1420
   97.0000   -15.3335     7.0416     8.4940   114.2566     8.0248     2.4547     0.0130     0.1425
   97.5000   -15.9420     7.0416     8.5133   113.1623     8.0251     2.4547     0.0130     0.1431
   98.0000   -16.5446     7.5804     8.5326   116.3528     8.0254     2.4554     0.0130     0.1417
   98.5000   -16.9103     7.6082     8.5491   118.9840     8.0258     2.4583     0.0130     0.1387
   99.0000   -17.1229     7.6446     8.2784   121.5027     8.0261     2.4611     0.0130     0.1357
   99.5000   -17.3376     7.6599     7.9401   121.1339     8.0264     2.4635     0.0130     0.1380
  100.0000   -20.7296     7.1069     8.0142   120.4299     8.0268     2.4606     0.0130     0.1404
  100.5000   -16.2239     5.0962     8.1621   119.7967     8.0271     2.4576     0.0130     0.1426
  101.0000    -4.9597     8.0138     8.3127   121.8797     8.0274     2.4553     0.0129     0.1443
  101.5000   -23.6486     6.9768     8.4661   125.4706     8.0278     2.4544     0.0127     0.1458
  102.0000   -19.2084     9.6400     8.6223   128.2063     8.0281     2.4535     0.0125     0.1422
  102.5000   -21.6640     6.3721     8.7814   127.3256     8.0284     2.4579     0.0124     0.1364
  103.0000   -20.8820     9.4636     8.9435   123.1870     8.0287     2.4627     0.0122     0.1373
  103.5000   -21.6005     6.8491     9.1085   119.2904     8.0291     2.4630     0.0120     0.1381
  104.0000   -23.7992    11.8126     9.2248   119.6118     8.0294     2.4622     0.0118     0.1377
  104.5000   -21.2441     8.3155     9.2718   116.4081     8.0297     2.4631     0.0116     0.1348
  105.0000   -21.5138     8.5491     9.3190   111.8196     8.0301     2.4684     0.0115     0.1295
  105.5000   -21.6220    11.0626     9.3665   113.2634     8.0304     2.4736     0.0113     0.1249
  106.0000   -22.5741    15.1740     9.4161   115.6163     8.0307     2.4790     0.0111     0.1315
  106.5000   -22.5421     7.3199     9.4689   116.7418     8.0310     2.4740     0.0110     0.1370
  107.0000   -22.4093     8.6169    10.3512   114.6238     8.0314     2.4644     0.0137     0.1424
  107.5000   -22.2805     9.7099    11.1668   114.1133     8.0317     2.4545     0.0168     0.1452
  108.0000   -22.2852    11.0729    10.8632   116.6435     8.0321     2.4515     0.0199     0.1456
  108.5000   -23.1138    10.9547    10.5990   118.7345     8.0324     2.4511     0.0230     0.1435
  109.0000   -23.9489    10.7965    10.3358   119.9914     8.0327     2.4549     0.0263     0.1383
  109.5000   -24.5211    10.6405    10.0745   119.0181     8.0330     2.4614     0.0241     0.1338
  110.0000   -24.8528    10.4976     9.8196   118.1512     8.0334     2.4673     0.0205     0.1385
  110.5000   -25.1799    10.3617     9.5723   119.4455     8.0337     2.4616     0.0165     0.1424
  111.0000   -25.9716    13.2488     9.2088   120.8649     8.0340     2.4555     0.0158     0.1428
  111.5000   -26.9269    15.0194     9.4149   121.8115     8.0344     2.4540     0.0175     0.1410
  112.0000   -27.6081    15.7296     9.8696   119.9889     8.0347     2.4563     0.0193     0.1392
  112.5000   -28.2734    13.6902    10.1570   114.6012     8.0350     2.4588     0.0210     0.1353
  113.0000   -29.5793    11.1756     8.6552   109.1859     8.0353     2.4649     0.0227     0.1314
  113.5000   -30.8652    13.9790    10.2816   105.4958     8.0357     2.4710     0.0245     0.1273
  114.0000   -31.7726    14.3416     9.3065   103.7729     8.0360     2.4785     0.0262     0.1222
  114.5000   -32.9678    12.9945    10.2687   102.0445     8.0364     2.4872     0.0280     0.1167
  115.0000   -34.1588    11.5187     7.7265   100.3213     8.0367     2.4959     0.0289     0.1117
  115.5000   -33.8424     1.6975     8.1374    99.3914     8.0370     2.5033     0.0288     0.1149
  116.0000   -33.1333     0.7698     8.4201   100.2270     8.0373     2.4994     0.0227     0.1178
  116.5000   -35.1723     1.4779     8.6017   101.0599     8.0377     2.4964     0.0160     0.1201
  117.0000   -35.2669     1.2255     8.7872   101.8268     8.0380     2.4965     0.0163     0.1200
  117.5000   -35.0056     1.0103     8.8757   101.0462     8.0383     2.4965     0.0179     0.1199
  118.0000   -34.7316     0.8330     8.8841   100.1768     8.0387     2.4965     0.0196     0.1197
  118.5000   -34.4892     0.7323     8.8926   100.4720     8.0390     2.4965     0.0207     0.1202
  119.0000   -34.4540     1.2286     8.9011   101.2220     8.0393     2.4945     0.0193     0.1209
  119.5000   -34.4207     0.8102     8.9095   101.9864     8.0396     2.4898     0.0180     0.1215
  120.0000   -34.3869     1.2436     8.9180   102.7807     8.0400     2.4856     0.0166     0.1230
  120.5000   -34.3532     0.6965     8.9265   101.4682     8.0403     2.4826     0.0153     0.1249
  121.0000   -34.3177     0.9955     8.9350    99.8805     8.0406     2.4796     0.0139     0.1284
  121.5000   -34.2409     1.2400     8.9436    98.8426     8.0410     2.4758     0.0128     0.1321
  122.0000   -34.0233     0.7123     8.9533   100.6211     8.0413     2.4716     0.0158     0.1336
  122.5000   -33.8104     0.8889     8.9086   102.3666     8.0416     2.4689     0.0190     0.1337
  123.0000   -33.5979     1.2286     8.8410   103.6425     8.0420     2.4699     0.0223     0.1314
  123.5000   -33.3851     0.8806     8.7738   102.5573     8.0423     2.4720     0.0255     0.1292
  124.0000   -33.1725     0.7323     8.7086   100.7657     8.0426     2.4788     0.0287     0.1258
  124.5000   -32.9593     1.2061     8.7086    99.6464     8.0430     2.4853     0.0304     0.1222
  125.0000   -32.7444     0.9141     8.7086    99.1775     8.0433     2.4880     0.0290     0.1190
  125.5000   -32.7045     0.6865     8.7086    95.5688     8.0436     2.4904     0.0277     0.1173
  126.0000   -32.7035     1.2748     8.7086    92.8127     8.0440     2.4929     0.0284     0.1155
  126.5000   -32.7036     0.8729     8.7086    96.0995     8.0443     2.4954     0.0316     0.1176
  127.0000   -32.7034     0.9832     8.7086    99.5024     8.0446     2.4949     0.0347     0.1201
  127.5000   -32.7040     1.5335     8.7086   101.3376     8.0449     2.4903     0.0327     0.1226
  128.0000   -32.7450     1.3982     8.7085   101.7410     8.0453     2.4858     0.0305     0.1251
  128.5000   -33.0340     1.5054     8.7092   101.3748     8.0456     2.4833     0.0297     0.1273
  129.0000   -33.3211     2.0093     8.7076   101.1332     8.0459     2.4829     0.0324     0.1258
  129.5000   -33.6014     2.2600     8.7532   102.1500     8.0463     2.4846     0.0351     0.1243
  130.0000   -33.9182     3.7231     8.8973   102.2181     8.0466     2.4899     0.0379     0.1182
  130.5000   -33.9620     7.1842     9.0438   101.4197     8.0469     2.4951     0.0407     0.1138
  131.0000   -34.0103     8.8850     9.1406   101.0614     8.0473     2.5003     0.0405     0.1141
  131.5000   -34.0560     8.8779     9.1838   100.9796     8.0476     2.4982     0.0401     0.1162
  132.0000   -34.1012     8.9352     9.2272   100.7625     8.0479     2.4957     0.0397     0.1191
  132.5000   -34.1467     8.9694     9.2706    99.5072     8.0483     2.4931     0.0394     0.1217
