~VERSION INFORMATION
 VERS.                2.0:   CWLS LOG ASCII STANDARD - VERSION 2.0
 WRAP.                 NO:   ONE LINE PER DEPTH STEP
~WELL INFORMATION
#MNEM.UNIT      DATA TYPE    INFORMATION
#----------   ------------   ------------------------------
 STRT.F            0.0000:   START DEPTH
 STOP.F          625.0000:   STOP DEPTH
 STEP.F            0.5000:   STEP LENGTH
 NULL.          -999.2500:   NO VALUE
 COMP.       F D SERV INC:   COMPANY
 WELL.    75-3 SX-3 #72-3:   WELL
 FLD .             TEAPOT:   FIELD
 LOC .       S3 T38N R78W:   LOCATION
 CNTY.            NATRONA:   COUNTY
 STAT.            WYOMING:   STATE
 CTRY. UNITED STATES OF AMERICA:   COUNTRY
 SRVC.     Atlas Wireline:   SERVICE COMPANY
 DATE.        05-MAY-1992:   LOGDATE
 API .       490252251800:   API NUMBER
~CURVE INFORMATION
#MNEM.UNIT       API CODE    CURVE DESCRIPTION
#----------   ------------   ------------------------------
 DEPT.F                  :   
 CALD.IN     45 280 60 00:   CALIPER FROM DENSITY
 CORR.G/C3   45 356 01 00:   DENSITY CORRECTION
 DEN .G/C3   45 350 01 00:   COMPENSATED BULK DENSTIY
 GRD .GAPI   45 310 01 00:   GAMMA RAY FROM DENSITY LOG
 RILD.OHMM   07 120 46 00:   INDUCTION LOG DEEP RESISTIVITY
 RILM.OHMM   07 120 44 00:   INDUCTION LOG MEDIUM RESISTIVITY
 PORD.DEC    45 890 12 00:   POROSITY DENSITY SANDSTONE
~PARAMETER INFORMATION
#MNEM.UNIT          VALUE    DESCRIPTION
#----------   ------------   ------------------------------
 PD  .                 GL:   PERMANENT DATUM
 EPD .F              5148:   ELEVATION PERMANENT DATUM
 LMF .                 KB:   LOG MEASURED FROM
 DAPD.F                 5:   FEET ABOVE PERMANENT DATUM
 DMF .                 KB:   DRILLING MEASURED FROM
 EKB .F              5153:   KELLING BUSHING
 EDF .F              5152:   DRILLING FLOOR
 EGL .F              5148:   GROUND LEVEL
 DATE.        05-MAY-1992:   RUN DATE
 RUN .                  1:   RUN NUMBER
 DD  .F               630:   DEPTH DRILLER
 DL  .F               633:   DEPTH LOGGER
 BLI .F               625:   BOTTOM LOG INTERVAL
 CS  .IN            8.625:   CASING SIZE
 CBD .F                44:   CASING BOTTOM DRILLER
 CBL .F                49:   CASING BOTTOM LOGGER
 BS  .IN            7.875:   BIT SIZE
 BSD .F               630:   BIT SIZE AT DEPTH
 DFT .        AIR DRILLED:   DRILLING FLUID TYPE
 MRT .F                88:   MAXIMUM RECORDED TEMPERATURE
 LUN .           HL- 6274:   LOGGING UNIT NUMBER
 LUL .             CASPER:   LOGGING UNIT LOCATION
 ENGI.       P. RASHUSSEN:   RECORDING ENGINEER
 WITN.          G. STRONG:   WITNESSED BY
 CLNT.            A2DTECH:   CLIENT CODE
 ORIG.           5" PRINT:   ORIGIN OF DATA
 UWI .       490252251800:   UNIQUE WELL ID
 DICO. A2D Technologies, Inc.:   DIGITIZING COMPANY
~OTHER INFORMATION
~A    DEPT    CALD       CORR        DEN         GRD      RILD       RILM       PORD   
# ...
  409.5000     8.1861     0.0092     2.5261   169.0226     6.7397     7.4797     0.0779
  410.0000     8.2009     0.0185     2.5095   167.2180     7.4294     8.0736     0.0834
  410.5000     8.2008     0.0211     2.5095   166.9173     8.0197     8.7757     0.0864
  411.0000     8.2156     0.0211     2.5095   168.7218     8.6569     9.4066     0.0867
  411.5000     8.2154     0.0151     2.5140   171.4425     9.4102     9.8741     0.0837
  412.0000     8.2303     0.0090     2.5185   170.7631     9.9472    10.2212     0.0813
  412.5000     8.2301     0.0060     2.5230   168.7218    10.3688    10.2901     0.0782
  413.0000     8.2300     0.0060     2.5275   170.8271    10.2207    10.2857     0.0731
  413.5000     8.2148     0.0030     2.5335   175.9398     9.8657    10.6472     0.0701
  414.0000     8.2147     0.0030     2.5426   183.7594    10.3560    10.9448     0.0665
  414.5000     8.2595     0.0030     2.5425   184.6617    11.0237    11.3295     0.0659
  415.0000     8.3193     0.0090     2.5380   180.4511    12.3227    12.3147     0.0695
  415.5000     8.3492     0.0120     2.5212   175.6391    13.1172    13.2187     0.0738
  416.0000     8.3640     0.0120     2.5091   158.1955    13.8735    14.5028     0.0826
  416.5000     8.3639     0.0057     2.4897   138.9474    14.8819    15.9243     0.0925
  417.0000     8.3330    -0.0005     2.4173   129.3233    16.0909    17.3091     0.1143
  417.5000     8.2869    -0.0060     2.3735   123.3083    18.4412    18.8144     0.1400
  418.0000     8.2734     0.0000     2.2815   119.3985    20.3282    20.4505     0.2146
  418.5000     8.2733     0.0090     2.2543   126.9173    21.9434    21.3176     0.2367
  419.0000     8.2581     0.0151     2.2679   129.6241    23.0340    22.3769     0.2346
  419.5000     8.2580     0.0181     2.2830   127.5149    23.8432    23.0024     0.2271
  420.0000     8.2579     0.0181     2.2845   127.5589    24.5090    23.8109     0.2204
  420.5000     8.2427     0.0211     2.2679   129.0226    25.5479    24.9941     0.2289
  421.0000     8.2276     0.0211     2.2377   127.6510    26.2612    26.2362     0.2425
  421.5000     8.2425     0.0241     2.2362   123.0075    26.9945    27.1584     0.2467
  422.0000     8.2573     0.0271     2.2316   118.4962    27.7483    28.1129     0.2484
  422.5000     8.2721     0.0301     2.2105   115.4887    28.3249    28.6978     0.2556
  423.0000     8.2720     0.0301     2.1924   112.4812    28.5116    28.6877     0.2706
  423.5000     8.2868     0.0301     2.2067   110.9774    28.3011    28.8789     0.2719
  424.0000     8.2717     0.0301     2.2316   114.2857    28.2894    29.2747     0.2568
  424.5000     8.2400     0.0241     2.2587   120.6015    28.4760    29.6733     0.2396
  425.0000     8.2114     0.0090     2.2647   126.6165    28.8649    30.0826     0.2360
  425.5000     8.2112    -0.0030     2.2360   132.6316    29.2591    30.4923     0.2471
  426.0000     8.1961    -0.0060     2.2300   135.0376    30.0729    31.1266     0.2526
  426.5000     8.1659    -0.0030     2.2375   136.2406    30.7005    30.8995     0.2496
  427.0000     8.1658     0.0000     2.2315   135.3383    30.6847    30.2491     0.2514
  427.5000     8.1656     0.0030     2.2118   132.9323    30.6720    30.2387     0.2596
  428.0000     8.1655     0.0090     2.1937   131.4205    30.8744    30.8677     0.2714
  428.5000     8.1804     0.0120     2.2118   129.8464    31.5155    31.9527     0.2696
  429.0000     8.1952     0.0181     2.2254   126.8289    32.3988    32.8458     0.2637
  429.5000     8.1950     0.0241     2.2389   122.1053    33.3000    33.7638     0.2518
  430.0000     8.2099     0.0301     2.2525   119.3985    34.7116    35.4417     0.2334
  430.5000     8.2247     0.0331     2.2847   121.8045    35.9311    36.4491     0.2119
  431.0000     8.2546     0.0361     2.3442   124.5113    37.4542    36.9316     0.1943
  431.5000     8.2694     0.0331     2.3867   133.8346    39.5913    36.9158     0.1671
  432.0000     8.2843     0.0090     2.3927   144.6617    39.2700    36.9031     0.1594
  432.5000     8.3141    -0.0060     2.3112   148.2707    38.1689    37.1520     0.2144
  433.0000     8.3289    -0.0030     2.2418   141.3534    37.0847    36.6214     0.2470
  433.5000     8.3438     0.0000     2.2177   129.6241    33.8899    36.3543     0.2582
  434.0000     8.3586     0.0000     2.2252   123.0075    34.8362    36.3418     0.2558
  434.5000     8.3735     0.0030     2.2297   121.5038    36.0600    36.5837     0.2531
  435.0000     8.3733     0.0060     2.2222   128.7218    36.8126    37.0851     0.2586
  435.5000     8.3432     0.0090     2.1995   128.7438    35.5302    37.5966     0.2703
  436.0000     8.3280     0.0151     2.1694   122.7068    34.2960    36.8020     0.2903
  436.5000     8.2979     0.0181     2.1405   117.2653    33.3369    34.5501     0.3051
  437.0000     8.2678     0.0184     2.1678   114.2857    31.9548    32.8918     0.2927
  437.5000     8.2526     0.0211     2.2040   115.5889    30.4168    30.8792     0.2698
  438.0000     8.2225     0.0181     2.2680   120.3008    28.9527    29.1790     0.2314
  438.5000     8.1924     0.0090     2.3164   122.7068    26.9874    27.1405     0.2143
  439.0000     8.1622     0.0090     2.3382   125.4135    24.1226    23.9934     0.1946
  439.5000     8.1470     0.0120     2.3533   128.7218    22.6413    22.5252     0.1834
  440.0000     8.1469     0.0181     2.3879   132.0301    20.3621    21.0005     0.1665
  440.5000     8.1767     0.0181     2.4090   135.3383    19.6550    20.2735     0.1499
  441.0000     8.2066     0.0151     2.4543   136.5414    18.9878    19.5717     0.1278
  441.5000     8.2514     0.0030     2.4769   138.0451    18.7166    19.1597     0.1089
  442.0000     8.2663    -0.0060     2.4708   140.7519    18.4492    18.7564     0.1137
  442.5000     8.2961    -0.0120     2.4406   142.5564    18.3131    18.7499     0.1261
  443.0000     8.3260    -0.0120     2.4105   138.6466    18.3056    18.7434     0.1445
  443.5000     8.3258    -0.0090     2.3999   135.3383    18.1706    18.7369     0.1506
  444.0000     8.3256    -0.0086     2.4135   133.5338    18.1631    18.5988     0.1476
  444.5000     8.3105    -0.0060     2.4165   132.6316    18.1556    18.4631     0.1443
  445.0000     8.2804    -0.0030     2.4059   132.0101    18.1481    18.4568     0.1497
  445.5000     8.2807     0.0000     2.3966   132.0682    18.2697    18.4505     0.1537
  446.0000     8.3100     0.0000     2.3860   132.6316    18.1331    18.5733     0.1570
  446.5000     8.3249     0.0030     2.3817   133.5338    18.1257    18.3096     0.1634
  447.0000     8.3247     0.0030     2.3862   135.0376    18.2453    18.4331     0.1625
  447.5000     8.3246     0.0030     2.3983   136.5414    18.6262    18.8149     0.1582
  448.0000     8.3244     0.0030     2.4043   137.4436    19.2784    19.3408     0.1501
  448.5000     8.3243     0.0060     2.4103   136.5414    19.8363    20.1608     0.1473
  449.0000     8.2642     0.0090     2.4163   134.1353    21.0921    21.4601     0.1356
  449.5000     8.2040     0.0090     2.4435   130.8271    22.6095    23.4896     0.1308
  450.0000     8.1330     0.0151     2.4977   126.6629    23.5062    28.3495     0.1128
  450.5000     8.0237     0.0151     2.5143   119.6992    24.9146    31.2521     0.0777
  451.0000     8.0834     0.0090     2.5339   116.9925    24.9060    30.7912     0.0656
  451.5000     8.1280     0.0030     2.5611   113.3835    24.5518    29.2465     0.0441
  452.0000     8.1427     0.0026     2.5837   115.7895    24.0342    25.8684     0.0426
  452.5000     8.1724    -0.0031     2.5581   128.1203    23.5274    23.2930     0.0680
  453.0000     8.1871    -0.0040     2.5128   133.5338    22.3965    21.5676     0.0934
  453.5000     8.2018     0.0021     2.4600   141.3534    21.1715    20.6790     0.1212
  454.0000     8.1865    -0.0010     2.4027   142.5564    19.7357    19.6892     0.1433
  454.5000     8.1862    -0.0010     2.3876   139.8496    18.9187    19.1433     0.1587
