~VERSION INFORMATION
 VERS.                2.0:   CWLS LOG ASCII STANDARD - VERSION 2.0
 WRAP.                 NO:   ONE LINE PER DEPTH STEP
~WELL INFORMATION
#MNEM.UNIT      DATA TYPE    INFORMATION
#----------   ------------   ------------------------------
 STRT.F            4.0000:   START DEPTH
 STOP.F          468.5000:   STOP DEPTH
 STEP.F            0.1000:   STEP LENGTH
 NULL.          -999.2500:   NO VALUE
 COMP. BROWN JOHN E&C INC:   COMPANY
 WELL.  SX-10 #1-14-SX-10:   WELL
 FLD .        N.P.R. No.3:   FIELD
 LOC .      S10 T38N R78W:   LOCATION
 CNTY.            NATRONA:   COUNTY
 STAT.            WYOMING:   STATE
 CTRY. UNITED STATES OF AMERICA:   COUNTRY
 SRVC.     Atlas Wireline:   SERVICE COMPANY
 DATE.        21-SEP-1991:   LOGDATE
 API .       490251125800:   API NUMBER
~CURVE INFORMATION
#MNEM.UNIT       API CODE    CURVE DESCRIPTION
#----------   ------------   ------------------------------
 DEPT.F                  :   
 GRR .GAPI   07 310 01 00:   GAMMA RAY FROM RES. LOG.
 ILD .OHMM   07 120 46 00:   INDUCTION LOG DEEP
 RILM.OHMM   07 120 44 00:   INDUCTION LOG MEDIUM RESISTIVITY
~PARAMETER INFORMATION
#MNEM.UNIT          VALUE    DESCRIPTION
#----------   ------------   ------------------------------
 PD  .                 GL:   PERMANENT DATUM
 EPD .F              5183:   ELEVATION PERMANENT DATUM
 LMF .                 KB:   LOG MEASURED FROM
 DAPD.F                10:   FEET ABOVE PERMANENT DATUM
 DMF .                 KB:   DRILLING MEASURED FROM
 EKB .F              5193:   KELLING BUSHING
 EGL .F              5183:   GROUND LEVEL
 DATE.            9-21-91:   RUN DATE
 RUN .                  1:   RUN NUMBER
 DD  .F               480:   DEPTH DRILLER
 DL  .F               478:   DEPTH LOGGER
 BLI .F               470:   BOTTOM LOG INTERVAL
 CS  .IN                7:   CASING SIZE
 CBD .F                90:   CASING BOTTOM DRILLER
 CBL .F                90:   CASING BOTTOM LOGGER
 BS  .IN             6.25:   BIT SIZE
 BSD .F               480:   BIT SIZE AT DEPTH
 DFT .                AIR:   DRILLING FLUID TYPE
 TCS .HRS               1:   TIME CURCULATED STOPPED
 MRT .F                80:   MAXIMUM RECORDED TEMPERATURE
 LUN .            HL-6307:   LOGGING UNIT NUMBER
 LUL .             CASPER:   LOGGING UNIT LOCATION
 ENGI.             RAUTIO:   RECORDING ENGINEER
 WITN.             STRONG:   WITNESSED BY
 CLNT.            A2DTECH:   CLIENT CODE
 ORIG.        2" 5" PRINT:   ORIGIN OF DATA
 UWI .       490251125800:   UNIQUE WELL ID
 DICO. A2D Technologies, Inc.:   DIGITIZING COMPANY
~OTHER INFORMATION
~A    DEPT       GRR      ILD       RILM   
# ...
  313.4000   106.3122    14.3912    15.3845
  313.5000   107.1177    14.3562    15.3534
  313.6000   107.9220    14.3191    15.3233
  313.7000   108.7263    14.2819    15.2932
  313.8000   109.5305    14.2448    15.2631
  313.9000   110.3348    14.2076    15.2329
  314.0000   111.1391    14.1705    15.2028
  314.1000   111.0406    14.1428    15.1730
  314.2000   110.9421    14.1152    15.1432
  314.3000   110.8436    14.0875    15.1133
  314.4000   110.7451    14.0599    15.0835
  314.5000   110.6466    14.0323    15.0537
  314.6000   110.1860    14.0027    15.0249
  314.7000   109.7254    13.9731    14.9961
  314.8000   109.2647    13.9435    14.9673
  314.9000   108.8041    13.9139    14.9384
  315.0000   108.3435    13.8843    14.9096
  315.1000   108.1744    13.8551    14.8818
  315.2000   108.0052    13.8258    14.8539
  315.3000   107.8361    13.7965    14.8260
  315.4000   107.6669    13.7672    14.7982
  315.5000   107.4978    13.7380    14.7703
  315.6000   107.7395    13.7090    14.7427
  315.7000   107.9813    13.6800    14.7151
  315.8000   108.2231    13.6511    14.6875
  315.9000   108.4648    13.6221    14.6599
  316.0000   108.7066    13.5931    14.6323
  316.1000   108.5207    13.5645    14.6050
  316.2000   108.3347    13.5358    14.5776
  316.3000   108.1488    13.5071    14.5503
  316.4000   107.9629    13.4785    14.5229
  316.5000   107.7769    13.4498    14.4956
  316.6000   107.5865    13.4151    14.4685
  316.7000   107.3961    13.3804    14.4413
  316.8000   107.2056    13.3456    14.4142
  316.9000   107.0152    13.3109    14.3871
  317.0000   106.8247    13.2762    14.3600
  317.1000   107.5745    13.2815    14.3330
  317.2000   108.3243    13.2868    14.3061
  317.3000   109.0740    13.2921    14.2792
  317.4000   109.8238    13.2974    14.2522
  317.5000   110.5735    13.3027    14.2253
  317.6000   111.4332    13.3120    14.1881
  317.7000   112.2928    13.3213    14.1508
  317.8000   113.1525    13.3305    14.1136
  317.9000   114.0121    13.3398    14.0763
  318.0000   114.8717    13.3491    14.0391
  318.1000   115.1086    13.3584    14.0565
  318.2000   115.3454    13.3677    14.0738
  318.3000   115.5823    13.3770    14.0912
  318.4000   115.8191    13.3863    14.1086
  318.5000   116.0559    13.3956    14.1259
  318.6000   115.7004    13.4049    14.1556
  318.7000   115.3448    13.4142    14.1852
  318.8000   114.9893    13.4236    14.2148
  318.9000   114.6337    13.4329    14.2444
  319.0000   114.2782    13.4422    14.2741
  319.1000   114.0879    13.4516    14.3040
  319.2000   113.8976    13.4609    14.3339
  319.3000   113.7073    13.4703    14.3639
  319.4000   113.5170    13.4797    14.3938
  319.5000   113.3267    13.4890    14.4237
  319.6000   113.3385    13.5000    14.4540
  319.7000   113.3504    13.5109    14.4842
  319.8000   113.3622    13.5218    14.5145
  319.9000   113.3741    13.5327    14.5447
  320.0000   113.3859    13.5436    14.5750
  320.1000   112.8772    13.5601    14.6055
  320.2000   112.3684    13.5766    14.6361
  320.3000   111.8596    13.5930    14.6666
  320.4000   111.3509    13.6095    14.6972
  320.5000   110.8421    13.6259    14.7278
  320.6000   110.0499    13.6425    14.7587
  320.7000   109.2576    13.6590    14.7895
  320.8000   108.4654    13.6756    14.8204
  320.9000   107.6731    13.6921    14.8513
  321.0000   106.8809    13.7087    14.8822
  321.1000   105.7995    13.7253    14.9134
  321.2000   104.7181    13.7420    14.9446
  321.3000   103.6366    13.7587    14.9758
  321.4000   102.5552    13.7753    15.0070
  321.5000   101.4738    13.7920    15.0382
  321.6000   101.3497    13.8088    15.0556
  321.7000   101.2255    13.8256    15.0729
  321.8000   101.1013    13.8424    15.0903
  321.9000   100.9772    13.8593    15.1076
  322.0000   100.8530    13.8761    15.1250
  322.1000   101.8050    13.8932    15.1036
  322.2000   102.7570    13.9103    15.0822
  322.3000   103.7090    13.9274    15.0608
  322.4000   104.6609    13.9445    15.0393
  322.5000   105.6129    13.9616    15.0179
  322.6000   106.4751    13.9768    15.0032
  322.7000   107.3373    13.9921    14.9884
  322.8000   108.1995    14.0073    14.9737
  322.9000   109.0617    14.0226    14.9589
  323.0000   109.9239    14.0378    14.9442
  323.1000   109.7250    13.9880    14.9289
  323.2000   109.5262    13.9381    14.9136
  323.3000   109.3274    13.8883    14.8982
  323.4000   109.1286    13.8385    14.8829
  323.5000   108.9298    13.7886    14.8676
  323.6000   108.4826    13.7419    14.8209
  323.7000   108.0355    13.6951    14.7741
  323.8000   107.5883    13.6484    14.7274
  323.9000   107.1412    13.6016    14.6806
  324.0000   106.6940    13.5549    14.6339
  324.1000   106.4069    13.5093    14.5725
  324.2000   106.1199    13.4636    14.5111
  324.3000   105.8328    13.4180    14.4497
  324.4000   105.5457    13.3723    14.3883
  324.5000   105.2586    13.3267    14.3270
  324.6000   105.4027    13.2818    14.2669
  324.7000   105.5468    13.2370    14.2068
  324.8000   105.6908    13.1921    14.1467
  324.9000   105.8349    13.1472    14.0866
  325.0000   105.9789    13.1024    14.0265
  325.1000   106.1089    13.0583    13.9676
  325.2000   106.2390    13.0141    13.9088
  325.3000   106.3690    12.9700    13.8500
  325.4000   106.4990    12.9259    13.7911
  325.5000   106.6290    12.8818    13.7323
  325.6000   106.8580    12.8384    13.6745
  325.7000   107.0870    12.7951    13.6167
  325.8000   107.3160    12.7517    13.5589
  325.9000   107.5449    12.7083    13.5011
  326.0000   107.7739    12.6650    13.4433
  326.1000   108.5354    12.6223    13.3606
  326.2000   109.2970    12.5797    13.2779
  326.3000   110.0585    12.5370    13.1952
  326.4000   110.8200    12.4944    13.1125
  326.5000   111.5816    12.4518    13.0298
  326.6000   112.0759    12.4098    13.0303
  326.7000   112.5702    12.3679    13.0308
  326.8000   113.0645    12.3260    13.0312
  326.9000   113.5588    12.2841    13.0317
  327.0000   114.0531    12.2422    13.0322
  327.1000   114.4000    12.1904    12.9839
  327.2000   114.7469    12.1387    12.9356
  327.3000   115.0938    12.0869    12.8873
  327.4000   115.4406    12.0352    12.8390
  327.5000   115.7875    11.9835    12.7907
  327.6000   115.8152    11.9914    12.7907
  327.7000   115.8428    11.9994    12.7907
  327.8000   115.8705    12.0074    12.7907
  327.9000   115.8981    12.0153    12.7907
  328.0000   115.9257    12.0233    12.7907
  328.1000   115.7530    12.0341    12.7907
  328.2000   115.5803    12.0448    12.7907
  328.3000   115.4076    12.0556    12.7906
  328.4000   115.2348    12.0664    12.7906
  328.5000   115.0621    12.0772    12.7906
  328.6000   114.9849    12.0880    12.7895
  328.7000   114.9078    12.0988    12.7884
  328.8000   114.8306    12.1096    12.7874
  328.9000   114.7535    12.1205    12.7863
  329.0000   114.6763    12.1313    12.7852
  329.1000   114.6236    12.1421    12.7837
  329.2000   114.5709    12.1530    12.7821
  329.3000   114.5182    12.1639    12.7805
  329.4000   114.4655    12.1748    12.7789
  329.5000   114.4128    12.1856    12.7774
  329.6000   114.2992    12.2912    12.8539
  329.7000   114.1857    12.3968    12.9305
  329.8000   114.0721    12.5024    13.0070
  329.9000   113.9585    12.6079    13.0836
  330.0000   113.8449    12.7135    13.1601
  330.1000   113.6014    12.8990    13.5351
  330.2000   113.3578    13.0845    13.9101
  330.3000   113.1143    13.2699    14.2851
  330.4000   112.8707    13.4554    14.6601
  330.5000   112.6272    13.6409    15.0351
  330.6000   112.4410    13.8637    15.4774
  330.7000   112.2548    14.0866    15.9197
  330.8000   112.0686    14.3094    16.3620
  330.9000   111.8824    14.5322    16.8043
  331.0000   111.6962    14.7551    17.2465
  331.1000   111.6245    15.1052    17.7624
  331.2000   111.5529    15.4554    18.2782
  331.3000   111.4812    15.8055    18.7940
  331.4000   111.4096    16.1557    19.3099
  331.5000   111.3379    16.5058    19.8257
