~VERSION INFORMATION
 VERS.                2.0:   CWLS LOG ASCII STANDARD - VERSION 2.0
 WRAP.                 NO:   ONE LINE PER DEPTH STEP
~WELL INFORMATION
#MNEM.UNIT      DATA TYPE    INFORMATION
#----------   ------------   ------------------------------
 STRT.F           34.0000:   START DEPTH
 STOP.F          458.0000:   STOP DEPTH
 STEP.F            0.5000:   STEP LENGTH
 NULL.          -999.2500:   NO VALUE
 COMP. FENIX & SCISSON INC:   COMPANY
 WELL.    42 SX 3FO #42-3:   WELL
 FLD .             TEAPOT:   FIELD
 LOC .       S3 T38N R78W:   LOCATION
 CNTY.            NATRONA:   COUNTY
 STAT.            WYOMING:   STATE
 CTRY. UNITED STATES OF AMERICA:   COUNTRY
 SRVC.              Welex:   SERVICE COMPANY
 DATE.        29-JUN-1980:   LOGDATE
 API .       490251081500:   API NUMBER
~CURVE INFORMATION
#MNEM.UNIT       API CODE    CURVE DESCRIPTION
#----------   ------------   ------------------------------
 DEPT.F                  :   
 RHOB.G/C3   45 350 01 00:   BULK DENSITY
 CORR.G/C3   45 356 01 00:   DENSITY CORRECTION
 DPHI.DEC    45 890 12 00:   DENSITY POROSITY SANDSTONE
 GRD .GAPI   45 310 01 00:   GAMMA RAY FROM DENSITY LOG
 CALD.IN     45 280 60 00:   CALIPER
~PARAMETER INFORMATION
#MNEM.UNIT          VALUE    DESCRIPTION
#----------   ------------   ------------------------------
 PD  .                 GL:   PERMANENT DATUM
 EPD .F              5162:   ELEVATION PERMANENT DATUM
 LMF .                 KB:   LOG MEASURED FROM
 DAPD.F                 5:   FEET ABOVE PERMANENT DATUM
 DMF .                 KB:   DRILLING MEASURED FROM
 EKB .F              5167:   KELLING BUSHING
 EGL .F              5162:   GROUND LEVEL
 DATE.            6-29-80:   RUN DATE
 RUN .                  1:   RUN NUMBER
 DD  .F               470:   DEPTH DRILLER
 DL  .F               460:   DEPTH LOGGER
 BLI .F               458:   BOTTOM LOG INTERVAL
 TLI .F                46:   TOP LOG INTERVAL
 CS  .IN                7:   CASING SIZE
 BS  .IN             6.25:   BIT SIZE
 BSD .F               470:   BIT SIZE AT DEPTH
 DFT .        AIR DRILLED:   DRILLING FLUID TYPE
 BHT .F                73:   BOTTOM HOLE TEMPERATURE
 TCS .HRS               2:   TIME CURCULATED STOPPED
 MRT .F                73:   MAXIMUM RECORDED TEMPERATURE
 ENGI.            TOTHILL:   RECORDING ENGINEER
 WITN.              AMEND:   WITNESSED BY
 CLNT.            A2DTECH:   CLIENT CODE
 ORIG.           5" PRINT:   ORIGIN OF DATA
 UWI .       490251081500:   UNIQUE WELL ID
 DICO. A2D Technologies, Inc.:   DIGITIZING COMPANY
~OTHER INFORMATION
~A   DEPT       RHOB      CORR      DPHI         GRD        CALD 
# ...
  278.0000     2.5127     0.1008     0.1104    99.8420     6.4169
  278.5000     2.4902     0.0860     0.1224    97.3965     6.4196
  279.0000     2.4682     0.0711     0.1340    96.1343     6.4223
  279.5000     2.4577     0.0656     0.1384    93.8237     6.4250
  280.0000     2.4493     0.0617     0.1427    93.3595     6.4277
  280.5000     2.4434     0.0709     0.1491    94.8727     6.4304
  281.0000     2.4288     0.0694     0.1584    95.4112     6.4341
  281.5000     2.4098     0.0582     0.1676    91.8186     6.4458
  282.0000     2.3948     0.0624     0.1748    87.7845     6.4576
  282.5000     2.4014     0.0849     0.1795    82.7056     6.4694
  283.0000     2.3836     0.1097     0.1883    74.9995     6.4812
  283.5000     2.3572     0.1207     0.2028    67.3346     6.4930
  284.0000     2.3299     0.1258     0.2203    61.0103     6.5048
  284.5000     2.2971     0.1328     0.2396    58.1772     6.5112
  285.0000     2.2660     0.1204     0.2568    57.0090     6.4912
  285.5000     2.2345     0.1057     0.2713    57.5418     6.4655
  286.0000     2.2309     0.0949     0.2672    57.1013     6.3940
  286.5000     2.2412     0.1072     0.2679    54.1645     6.3415
  287.0000     2.2421     0.1176     0.2707    52.6675     6.2971
  287.5000     2.2254     0.1011     0.2686    54.1920     6.2955
  288.0000     2.2404     0.0995     0.2609    55.4893     6.2999
  288.5000     2.2476     0.1025     0.2608    54.8572     6.3043
  289.0000     2.2441     0.1108     0.2602    54.2356     6.3087
  289.5000     2.2533     0.1170     0.2555    54.3601     6.3133
  290.0000     2.2624     0.1097     0.2508    55.2492     6.3194
  290.5000     2.2715     0.0956     0.2468    57.2221     6.3256
  291.0000     2.2725     0.0940     0.2448    59.3232     6.3318
  291.5000     2.2706     0.0936     0.2428    60.8867     6.3380
  292.0000     2.2806     0.0981     0.2376    62.7491     6.3442
  292.5000     2.3055     0.1025     0.2288    64.7555     6.3504
  293.0000     2.3144     0.1069     0.2200    66.7467     6.3565
  293.5000     2.3207     0.1153     0.2138    67.4743     6.3627
  294.0000     2.3307     0.1235     0.2079    67.7591     6.3689
  294.5000     2.3422     0.1317     0.2019    67.7562     6.3751
  295.0000     2.3506     0.1313     0.1953    67.6629     6.3813
  295.5000     2.3622     0.1297     0.1882    67.2342     6.3875
  296.0000     2.3797     0.1272     0.1817    66.0724     6.3937
  296.5000     2.3856     0.1209     0.1836    64.8959     6.3999
  297.0000     2.3766     0.1147     0.1917    63.9542     6.4062
  297.5000     2.3542     0.1071     0.1996    63.0992     6.4120
  298.0000     2.3460     0.0998     0.1925    62.3503     6.3754
  298.5000     2.3646     0.0965     0.1833    63.2443     6.3336
  299.0000     2.3869     0.1067     0.1720    64.7180     6.3148
  299.5000     2.4096     0.1159     0.1621    67.3949     6.3193
  300.0000     2.4166     0.1161     0.1723    70.0548     6.3237
  300.5000     2.3902     0.1069     0.1874    72.6565     6.3282
  301.0000     2.3614     0.0969     0.2022    73.2883     6.3326
  301.5000     2.3321     0.0823     0.2157    72.8663     6.3371
  302.0000     2.3181     0.0736     0.2245    73.3650     6.3415
  302.5000     2.3061     0.0664     0.2313    74.3019     6.3460
  303.0000     2.2944     0.0625     0.2353    75.4051     6.3504
  303.5000     2.2873     0.0587     0.2378    76.3779     6.3549
  304.0000     2.2822     0.0548     0.2395    74.8397     6.3593
  304.5000     2.2882     0.0627     0.2322    73.8208     6.3637
  305.0000     2.3070     0.0718     0.2236    75.0165     6.3682
  305.5000     2.3228     0.0765     0.2157    75.5310     6.3726
  306.0000     2.3177     0.0671     0.2186    75.8294     6.3771
  306.5000     2.3220     0.0602     0.2145    77.0557     6.3815
  307.0000     2.3370     0.0648     0.2035    78.2012     6.3860
  307.5000     2.3519     0.0707     0.1983    78.7846     6.3904
  308.0000     2.3625     0.0741     0.1933    78.3389     6.3922
  308.5000     2.3514     0.0774     0.1976    76.3683     6.3909
  309.0000     2.3519     0.0808     0.1980    75.1681     6.3897
  309.5000     2.3591     0.0841     0.1957    76.3508     6.3885
  310.0000     2.3575     0.0846     0.2009    80.8733     6.3872
  310.5000     2.3433     0.0751     0.2079    85.2870     6.3860
  311.0000     2.3276     0.0667     0.2145    88.1867     6.3847
  311.5000     2.3194     0.0665     0.2185    88.9950     6.3835
  312.0000     2.3224     0.0644     0.2192    88.9514     6.3822
  312.5000     2.3129     0.0543     0.2247    87.7344     6.3809
  313.0000     2.3014     0.0490     0.2294    85.7042     6.3797
  313.5000     2.2920     0.0448     0.2313    83.6910     6.3784
  314.0000     2.3006     0.0421     0.2234    81.6821     6.3772
  314.5000     2.3208     0.0581     0.2128    81.1104     6.3759
  315.0000     2.3358     0.0765     0.2064    80.0044     6.3747
  315.5000     2.3479     0.0924     0.2000    78.5173     6.3735
  316.0000     2.3567     0.0994     0.1953    77.0195     6.3739
  316.5000     2.3648     0.1065     0.1915    75.9636     6.3765
  317.0000     2.3679     0.1099     0.1915    76.6996     6.3792
  317.5000     2.3637     0.1082     0.1960    78.4206     6.3818
  318.0000     2.3557     0.1065     0.2005    80.1266     6.3844
  318.5000     2.3479     0.1029     0.2008    81.7634     6.3871
  319.0000     2.3520     0.0992     0.2002    82.0698     6.3897
  319.5000     2.3507     0.0967     0.1996    81.7664     6.3924
  320.0000     2.3511     0.0944     0.1969    81.4759     6.3928
  320.5000     2.3651     0.0924     0.1911    81.1577     6.3928
  321.0000     2.3654     0.0991     0.1853    80.2622     6.3928
  321.5000     2.3809     0.1071     0.1794    79.3827     6.3928
  322.0000     2.3989     0.1152     0.1735    80.2941     6.3928
  322.5000     2.4006     0.1198     0.1704    81.3089     6.3928
  323.0000     2.4000     0.1239     0.1689    79.9481     6.3928
  323.5000     2.4023     0.1275     0.1674    77.6389     6.3928
  324.0000     2.4072     0.1327     0.1647    75.3739     6.3928
  324.5000     2.4127     0.1376     0.1613    73.6644     6.3928
  325.0000     2.4169     0.1428     0.1649    74.9045     6.3928
  325.5000     2.4094     0.1325     0.1748    76.7974     6.3928
  326.0000     2.3828     0.1128     0.1853    78.6682     6.3928
  326.5000     2.3679     0.1007     0.1920    80.4597     6.3928
  327.0000     2.3606     0.1015     0.1918    81.0826     6.3928
  327.5000     2.3584     0.1021     0.1901    81.2823     6.3928
  328.0000     2.3761     0.1067     0.1836    82.0542     6.3928
  328.5000     2.3860     0.1227     0.1793    83.8668     6.3928
  329.0000     2.3814     0.1224     0.1773    83.1677     6.3949
  329.5000     2.3962     0.1300     0.1677    81.4554     6.4080
  330.0000     2.4120     0.1393     0.1609    79.7211     6.4210
  330.5000     2.4275     0.1488     0.1559    77.9955     6.4339
  331.0000     2.4227     0.1468     0.1596    76.4861     6.4468
  331.5000     2.4158     0.1369     0.1634    76.1518     6.4598
  332.0000     2.4090     0.1270     0.1662    74.9734     6.4724
  332.5000     2.4081     0.1183     0.1646    73.7361     6.4679
  333.0000     2.4154     0.1122     0.1629    72.4940     6.4626
  333.5000     2.4067     0.1059     0.1709    71.3990     6.4573
  334.0000     2.3974     0.1027     0.1709    70.5962     6.4520
  334.5000     2.4132     0.1002     0.1629    70.9866     6.4468
  335.0000     2.4058     0.0967     0.1681    72.3718     6.4415
  335.5000     2.3997     0.0913     0.1646    74.4957     6.4362
  336.0000     2.4107     0.0855     0.1578    75.2678     6.4268
  336.5000     2.4346     0.0939     0.1471    75.4561     6.4093
  337.0000     2.4564     0.1061     0.1363    75.2615     6.3919
  337.5000     2.4624     0.1175     0.1321    74.6658     6.3745
  338.0000     2.4683     0.1218     0.1333    73.7764     6.3564
  338.5000     2.4568     0.1285     0.1354    73.7111     6.3570
