~VERSION INFORMATION
 VERS.                2.0:   CWLS LOG ASCII STANDARD - VERSION 2.0
 WRAP.                 NO:   ONE LINE PER DEPTH STEP
~WELL INFORMATION
#MNEM.UNIT      DATA TYPE    INFORMATION
#----------   ------------   ------------------------------
 STRT.F            3.5000:   START DEPTH
 STOP.F          523.0000:   STOP DEPTH
 STEP.F            0.5000:   STEP LENGTH
 NULL.          -999.2500:   NO VALUE
 COMP.       F D SERV INC:   COMPANY
 WELL.    88-8 SX 3 #88-3:   WELL
 FLD .             TEAPOT:   FIELD
 LOC .       S3 T38N R78W:   LOCATION
 CNTY.            NATRONA:   COUNTY
 STAT.            WYOMING:   STATE
 CTRY. UNITED STATES OF AMERICA:   COUNTRY
 SRVC.      Western Atlas:   SERVICE COMPANY
 DATE.        28-NOV-1992:   LOGDATE
 API .       490252256200:   API NUMBER
~CURVE INFORMATION
#MNEM.UNIT       API CODE    CURVE DESCRIPTION
#----------   ------------   ------------------------------
 DEPT.F                  :   
 GRR .GAPI   07 310 01 00:   GAMMA RAY
 RILD.OHMM   07 120 46 00:   INDUCTION LOG DEEP RESISTIVITY
 RILM.OHMM   07 120 44 00:   RESITIVITY LONG MEDIUM
 C13 .IN     45 280 13 00:   CALIPER X
 PORZ.DEC    45 890 12 00:   DENSITY POROSITY SANDSTONE
 NPHI.DEC    42 890 03 00:   NEUTRON POROSITY SANDSTONE
 ZCOR.G/C3   45 356 01 00:   DENSITY CORRECTION
 ZDEN.G/C3   45 350 01 00:   BULK DENSITY
~PARAMETER INFORMATION
#MNEM.UNIT          VALUE    DESCRIPTION
#----------   ------------   ------------------------------
 PD  .                 GL:   PERMANENT DATUM
 EPD .F              5126:   ELEVATION PERMANENT DATUM
 LMF .                 KB:   LOG MEASURED FROM
 DAPD.F                10:   FEET ABOVE PERMANENT DATUM
 DMF .                 KB:   DRILLING MEASURED FROM
 EKB .F              5136:   KELLING BUSHING
 EDF .F              5135:   DRILLING FLOOR
 EGL .F              5126:   GROUND LEVEL
 DATE.        28-NOV-1992:   RUN DATE
 RUN .                  1:   RUN NUMBER
 DD  .F               525:   DEPTH DRILLER
 DL  .F               525:   DEPTH LOGGER
 BLI .F               516:   BOTTOM LOG INTERVAL
 TLI .F                76:   TOP LOG INTERVAL
 CS  .IN            8.625:   CASING SIZE
 CBD .F                95:   CASING BOTTOM DRILLER
 CBL .F                76:   CASING BOTTOM LOGGER
 BS  .IN            7.875:   BIT SIZE
 BSD .F               525:   BIT SIZE AT DEPTH
 DFT .           AIR FOAM:   DRILLING FLUID TYPE
 MRT .F                70:   MAXIMUM RECORDED TEMPERATURE
 LUN .            HL-6274:   LOGGING UNIT NUMBER
 LUL .             CASPER:   LOGGING UNIT LOCATION
 ENGI.             RAUTIO:   RECORDING ENGINEER
 WITN.           ED REISH:   WITNESSED BY
 CLNT.            A2DTECH:   CLIENT CODE
 ORIG.           5" PRINT:   ORIGIN OF DATA
 UWI .       490252256200:   UNIQUE WELL ID
 DICO. A2D Technologies, Inc.:   DIGITIZING COMPANY
~OTHER INFORMATION
~A    DEPT     GRR       RILD       RILM        C13       PORZ       NPHI       ZCOR       ZDEN   
# ...
   84.5000   154.2380     6.6567     6.3111     8.3054     0.1159     0.3526     0.0562     2.4545
   85.0000   155.1522     6.9944     6.3566     8.3203     0.1189     0.3571     0.0517     2.4500
   85.5000   156.6668     6.9435     6.3139     8.3352     0.1201     0.3592     0.0457     2.4515
   86.0000   158.1814     6.7554     6.2715     8.3350     0.1192     0.3577     0.0427     2.4553
   86.5000   157.8901     6.3927     6.2728     8.3349     0.1153     0.3541     0.0397     2.4599
   87.0000   156.3926     6.1758     6.4507     8.3347     0.1135     0.3451     0.0367     2.4621
   87.5000   154.5939     6.2649     6.5875     8.3346     0.1123     0.3391     0.0352     2.4598
   88.0000   151.8916     6.5780     6.6808     8.3344     0.1114     0.3351     0.0442     2.4560
   88.5000   144.9745     6.8591     6.7774     8.3343     0.1153     0.3339     0.0487     2.4530
   89.0000   138.9590     7.0538     6.9675     8.3341     0.1177     0.3367     0.0532     2.4560
   89.5000   135.9555     7.1546     7.0661     8.3340     0.1162     0.3364     0.0532     2.4636
   90.0000   135.6225     7.2563     7.1167     8.3338     0.1141     0.3327     0.0532     2.4696
   90.5000   138.6855     7.3595     7.2676     8.3337     0.1119     0.3258     0.0517     2.4733
   91.0000   139.8989     7.4126     7.3709     8.3335     0.1092     0.3210     0.0487     2.4771
   91.5000   140.2086     7.4662     7.4236     8.3334     0.1056     0.3168     0.0472     2.4771
   92.0000   140.5183     7.5205     7.4250     8.3182     0.1050     0.3137     0.0472     2.4711
   92.5000   140.1556     7.5225     7.4781     8.3180     0.1080     0.3126     0.0472     2.4651
   93.0000   139.0315     7.5768     7.4797     8.3179     0.1104     0.3120     0.0472     2.4643
   93.5000   139.9436     7.5788     7.4815     8.3328     0.1128     0.3108     0.0457     2.4703
   94.0000   140.8558     7.5289     7.4829     8.3326     0.1104     0.3105     0.0427     2.4711
   94.5000   139.6215     7.5309     7.4844     8.3325     0.1086     0.3114     0.0382     2.4673
   95.0000   136.6560     7.5853     7.5379     8.3323     0.1116     0.3132     0.0262     2.4620
   95.5000   136.6666     7.6400     7.5922     8.3322     0.1158     0.3147     0.0172     2.4576
   96.0000   139.9884     7.8031     7.6465     8.3320     0.1134     0.3150     0.0112     2.4643
   96.5000   143.3192     7.8594     7.7548     8.3319     0.1098     0.3129     0.0159     2.4703
   97.0000   142.1161     7.9161     7.8102     8.3317     0.1092     0.3096     0.0217     2.4726
   97.5000   137.6065     7.9733     7.8665     8.3316     0.1086     0.3087     0.0262     2.4711
   98.0000   137.9163     8.0309     7.9227     8.3164     0.1077     0.3135     0.0292     2.4718
   98.5000   139.7320     8.0335     7.9243     8.3162     0.1065     0.3138     0.0337     2.4748
   99.0000   140.9475     8.0356     7.9810     8.3011     0.1047     0.3114     0.0352     2.4771
   99.5000   142.7633     8.0377     8.0381     8.3009     0.1048     0.3105     0.0371     2.4770
  100.0000   146.9887     8.0963     8.0957     8.3007     0.1101     0.3117     0.0412     2.4696
  100.5000   148.2020     7.9958     8.0737     8.3006     0.1128     0.3129     0.0412     2.4651
  101.0000   147.8675     7.9964     8.0186     8.2854     0.1107     0.3160     0.0382     2.4696
  101.5000   145.2092     7.9418     7.9088     8.2702     0.1071     0.3175     0.0367     2.4771
  102.0000   141.3020     7.9424     7.8547     8.2701     0.1056     0.3181     0.0292     2.4778
  102.5000   138.9009     7.8880     7.8010     8.2398     0.1074     0.3169     0.0262     2.4748
  103.0000   138.6082     7.8887     7.8078     8.2397     0.1101     0.3145     0.0262     2.4681
  103.5000   140.7273     7.8892     7.8565     8.2245     0.1116     0.3103     0.0307     2.4681
  104.0000   142.8443     7.8898     7.8570     8.2243     0.1067     0.3060     0.0307     2.4748
  104.5000   143.7565     7.9451     7.9121     8.2242     0.0988     0.3012     0.0367     2.4884
  105.0000   144.0763     8.0008     7.9677     8.2241     0.0806     0.2958     0.0427     2.5086
  105.5000   142.8720     8.1130     7.9683     8.2089     0.0736     0.2940     0.0489     2.5214
  106.0000   140.7721     8.1135     7.9688     8.2238     0.0833     0.2967     0.0367     2.5290
  106.5000   138.0698     8.1140     7.9143     8.2236     0.0989     0.3034     0.0322     2.5086
  107.0000   136.8675     7.9479     7.8602     8.2235     0.1073     0.3088     0.0412     2.4838
  107.5000   140.7999     7.9484     7.9154     8.2237     0.1097     0.3121     0.0397     2.4688
  108.0000   145.0253     8.0041     7.9160     8.2382     0.1061     0.3121     0.0337     2.4681
  108.5000   147.1422     7.9496     7.9165     8.2458     0.1037     0.3118     0.0337     2.4733
  109.0000   147.1508     7.7868     7.9171     8.2680     0.1025     0.3127     0.0382     2.4771
  109.5000   145.9566     7.7873     7.9176     8.2678     0.1016     0.3145     0.0457     2.4816
  110.0000   143.8567     7.7842     7.9182     8.2526     0.1004     0.3172     0.0487     2.4838
  110.5000   141.1544     7.7346     7.9188     8.2374     0.0992     0.3217     0.0472     2.4846
  111.0000   139.0545     7.7352     7.9193     8.2222     0.0980     0.3248     0.0322     2.4861
  111.5000   139.7319     7.7357     7.9749     8.2221     0.0953     0.3263     0.0247     2.4876
  112.0000   143.5918     7.7363     7.9754     8.2219     0.0956     0.3263     0.0263     2.4914
  112.5000   144.8051     7.6833     7.9760     8.2218     0.0965     0.3269     0.0352     2.4921
  113.0000   145.4139     7.6900     7.8668     8.2367     0.0980     0.3278     0.0442     2.4899
  113.5000   144.2028     7.6314     7.7592     8.2365     0.0983     0.3281     0.0487     2.4884
  114.0000   143.9271     7.6321     7.7060     8.2213     0.0974     0.3314     0.0488     2.4914
  114.5000   145.1426     7.6325     7.6006     8.2212     0.0971     0.3338     0.0440     2.4921
  115.0000   148.7911     7.5804     7.6012     8.2210     0.0971     0.3368     0.0397     2.4936
  115.5000   153.3856     7.5810     7.5492     8.2209     0.0995     0.3380     0.0352     2.4921
  116.0000   155.8064     7.5815     7.5498     8.2208     0.1031     0.3353     0.0322     2.4891
  116.5000   153.7121     7.6346     7.6027     8.2357     0.1064     0.3322     0.0307     2.4838
  117.0000   152.8193     7.6883     7.6144     8.2355     0.1076     0.3287     0.0292     2.4791
  117.5000   151.6289     7.7421     7.6757     8.2504     0.1076     0.3269     0.0292     2.4748
  118.0000   150.4353     7.7964     7.7639     8.2502     0.1073     0.3254     0.0277     2.4741
  118.5000   149.8413     7.9057     7.8729     8.2501     0.1067     0.3233     0.0277     2.4748
  119.0000   148.9458     7.9903     7.9832     8.2499     0.1064     0.3205     0.0277     2.4748
  119.5000   147.4570     8.1286     8.0950     8.2498     0.1053     0.3182     0.0322     2.4756
  120.0000   146.8658     8.1856     8.2086     8.2346     0.1042     0.3200     0.0337     2.4756
  120.5000   148.0846     8.3003     8.3236     8.2344     0.1042     0.3218     0.0337     2.4771
  121.0000   147.4963     8.3585     8.3820     8.2192     0.1018     0.3218     0.0337     2.4816
  121.5000   146.9023     8.3591     8.3825     8.2135     0.1000     0.3197     0.0337     2.4838
  122.0000   147.8199     8.4178     8.4415     8.2039     0.1009     0.3191     0.0367     2.4823
  122.5000   146.2952     8.4183     8.4420     8.2188     0.1018     0.3194     0.0202     2.4801
  123.0000   144.8304     8.3608     8.5012     8.2186     0.1018     0.3206     0.0232     2.4801
  123.5000   149.6637     8.3615     8.5019     8.2336     0.1012     0.3224     0.0337     2.4817
  124.0000   154.7954     8.3042     8.4436     8.2334     0.1006     0.3230     0.0382     2.4838
  124.5000   155.7103     8.2476     8.3860     8.2332     0.1003     0.3218     0.0382     2.4831
