~VERSION INFORMATION
 VERS.                2.0:   CWLS LOG ASCII STANDARD - VERSION 2.0
 WRAP.                 NO:   ONE LINE PER DEPTH STEP
~WELL INFORMATION
#MNEM.UNIT      DATA TYPE    INFORMATION
#----------   ------------   ------------------------------
 STRT.F          250.0000:   START DEPTH
 STOP.F         2527.0000:   STOP DEPTH
 STEP.F            0.5000:   STEP LENGTH
 NULL.          -999.2500:   NO VALUE
 COMP. FENIX & SCISSON INC:   COMPANY
 WELL.       NPR 3 #18-28:   WELL
 FLD .            WILDCAT:   FIELD
 LOC .      S28 T39N R78W:   LOCATION
 CNTY.            NATRONA:   COUNTY
 STAT.            WYOMING:   STATE
 CTRY. UNITED STATES OF AMERICA:   COUNTRY
 SRVC.            Unknown:   SERVICE COMPANY
 DATE.        01-MAY-1979:   LOGDATE
 API .       490251078000:   API NUMBER
~CURVE INFORMATION
#MNEM.UNIT       API CODE    CURVE DESCRIPTION
#----------   ------------   ------------------------------
 DEPT.F                  :   
 CORR.G/C3   45 356 01 00:   DENSITY CORRECTION
 DPHI.DEC    45 890 12 00:   DENSITY POROSITY SANDSTONE
 RHOB.G/C3   45 350 01 00:   BULK DENSITY
 CALD.IN     45 280 60 00:   CALIPER FROM DENSITY LOG
 GRD .GAPI   45 310 01 00:   GAMMA RAY FROM DENSITY LOG
~PARAMETER INFORMATION
#MNEM.UNIT          VALUE    DESCRIPTION
#----------   ------------   ------------------------------
 PD  .                 GL:   PERMANENT DATUM
 EPD .F              5079:   ELEVATION PERMANENT DATUM
 LMF .                 KB:   LOG MEASURED FROM
 DAPD.F                10:   FEET ABOVE PERMANENT DATUM
 DMF .                 KB:   DRILLING MEASURED FROM
 EKB .F              5089:   KELLING BUSHING
 EGL .F              5079:   GROUND LEVEL
 DATE.             5-1-79:   RUN DATE
 RUN .                  1:   RUN NUMBER
 DL  .F              2527:   DEPTH LOGGER
 BLI .F              2527:   BOTTOM LOG INTERVAL
 TLI .F               250:   TOP LOG INTERVAL
 CS  .IN            9.625:   CASING SIZE
 CBD .F               500:   CASING BOTTOM DRILLER
 CBL .F               495:   CASING BOTTOM LOGGER
 BS  .IN             8.75:   BIT SIZE
 DFT .                AIR:   DRILLING FLUID TYPE
 TCS .HRS              12:   TIME CURCULATED STOPPED
 LUL .             CASPER:   LOGGING UNIT LOCATION
 ENGI.         B. ROLLINS:   RECORDING ENGINEER
 WITN.           DINSMORE:   WITNESSED BY
 CLNT.            A2DTECH:   CLIENT CODE
 ORIG.           5" PRINT:   ORIGIN OF DATA
 UWI .       490251078000:   UNIQUE WELL ID
 DICO. A2D Technologies, Inc.:   DIGITIZING COMPANY
~OTHER INFORMATION
~A   DEPT     CORR       DPHI       RHOB       CALD         GRD  
# ...
  860.0000     0.0708     0.0220     2.5190     9.2808   115.4706
  860.5000     0.0674     0.0216     2.5149     9.2708   110.4448
  861.0000     0.0523     0.0316     2.4968     9.2614   105.3076
  861.5000     0.0375     0.0450     2.4794     9.2583   105.4716
  862.0000     0.0224     0.0507     2.4651     9.2550   111.9369
  862.5000     0.0170     0.0482     2.4681     9.2516   116.3008
  863.0000     0.0195     0.0362     2.4885     9.2483   113.5020
  863.5000     0.0423     0.0246     2.5208     9.2449   111.7755
  864.0000     0.0640     0.0131     2.5294     9.2427   111.4516
  864.5000     0.0857     0.0033     2.5564     9.2429   110.8948
  865.0000     0.0984     0.0015     2.5552     9.2479   109.0012
  865.5000     0.0803     0.0107     2.5454     9.2532   107.1332
  866.0000     0.0590     0.0241     2.5206     9.2584   105.2718
  866.5000     0.0430     0.0324     2.4995     9.2637   104.1998
  867.0000     0.0435     0.0306     2.5008     9.2689   104.3656
  867.5000     0.0484     0.0287     2.5099     9.2741   105.3552
  868.0000     0.0531     0.0269     2.5189     9.2794   107.3042
  868.5000     0.0504     0.0248     2.5245     9.2846   111.5736
  869.0000     0.0418     0.0282     2.5115     9.2898   115.8154
  869.5000     0.0346     0.0387     2.4975     9.2951   116.9023
  870.0000     0.0367     0.0387     2.4979     9.3003   118.0202
  870.5000     0.0501     0.0310     2.5060     9.3055   119.7326
  871.0000     0.0631     0.0259     2.5152     9.3108   120.5558
  871.5000     0.0765     0.0203     2.5183     9.3160   119.0496
  872.0000     0.0866     0.0136     2.5296     9.3205   117.5206
  872.5000     0.1096     0.0069     2.5434     9.3206   116.2765
  873.0000     0.1339     0.0006     2.5573     9.3139   116.3046
  873.5000     0.1416     0.0002     2.5630     9.3061   116.5297
  874.0000     0.1243     0.0104     2.5539     9.2981   117.8267
  874.5000     0.0961     0.0174     2.5359     9.2902   121.9262
  875.0000     0.0824     0.0212     2.5187     9.2823   126.8662
  875.5000     0.0858     0.0147     2.5203     9.2744   129.0412
  876.0000     0.1037     0.0011     2.5441     9.2665   122.3016
  876.5000     0.1217    -0.0002     2.5657     9.2586   117.2804
  877.0000     0.1218     0.0070     2.5518     9.2506   115.4538
  877.5000     0.1080     0.0166     2.5260     9.2429   114.5796
  878.0000     0.0940     0.0201     2.5250     9.2425   114.3446
  878.5000     0.0825     0.0208     2.5253     9.2436   115.1856
  879.0000     0.0740     0.0224     2.5214     9.2640   116.4508
  879.5000     0.0655     0.0243     2.5171     9.2843   117.7371
  880.0000     0.0570     0.0275     2.5127     9.3045   119.0138
  880.5000     0.0489     0.0288     2.5084     9.3246   119.8445
  881.0000     0.0511     0.0278     2.5044     9.3448   118.7177
  881.5000     0.0554     0.0272     2.5067     9.3649   117.6281
  882.0000     0.0721     0.0253     2.5172     9.3851   116.4878
  882.5000     0.0973     0.0193     2.5285     9.4052   118.0027
  883.0000     0.1221     0.0131     2.5398     9.4254   120.0217
  883.5000     0.1452     0.0067     2.5510     9.4453   122.7902
  884.0000     0.1456    -0.0014     2.5559     9.4668   125.9547
  884.5000     0.1466     0.0175     2.5189     9.4580   129.2403
  885.0000     0.1763     0.0248     2.5152     9.4831   129.8189
  885.5000     0.2406     0.0201     2.5272     9.5069   127.3834
  886.0000     0.3260     0.0041     2.5553     9.5307   124.9316
  886.5000     0.4046    -0.0077     2.5736     9.5546   122.5015
  887.0000     0.4733    -0.0085     2.5407     9.5785   120.7764
  887.5000     0.4870     0.0364     2.4869     9.6023   121.8204
  888.0000     0.4887     0.0668     2.4412     9.6263   122.9153
  888.5000     0.3923     0.0668     2.4391     9.6364   123.1329
  889.0000     0.2739     0.0137     2.5409     9.6472   123.6290
  889.5000     0.1594     0.0121     2.5329     9.5768   124.7087
  890.0000     0.0738     0.0263     2.5201     9.5060   125.7962
  890.5000     0.0604     0.0303     2.5068     9.4359   125.2168
  891.0000     0.0645     0.0276     2.5066     9.3652   123.7272
  891.5000     0.0749     0.0215     2.5326     9.3369   124.8222
  892.0000     0.0804     0.0155     2.5353     9.3316   126.1364
  892.5000     0.0768     0.0141     2.5286     9.3267   126.7773
  893.0000     0.0699     0.0211     2.5194     9.3217   124.4248
  893.5000     0.0630     0.0286     2.5103     9.3168   122.0682
  894.0000     0.0560     0.0312     2.5032     9.3118   120.8390
  894.5000     0.0490     0.0328     2.5012     9.3068   120.9128
  895.0000     0.0421     0.0343     2.4995     9.3018   123.7082
  895.5000     0.0352     0.0381     2.4981     9.2969   126.5506
  896.0000     0.0305     0.0427     2.4903     9.2919   127.1057
  896.5000     0.0289     0.0450     2.4817     9.2869   128.9238
  897.0000     0.0287     0.0419     2.4827     9.2819   131.0108
  897.5000     0.0374     0.0370     2.4863     9.2769   133.1949
  898.0000     0.0464     0.0321     2.4956     9.2720   133.4463
  898.5000     0.0555     0.0272     2.5056     9.2669   131.2852
  899.0000     0.0627     0.0224     2.5157     9.2624   128.9136
  899.5000     0.0627     0.0217     2.5213     9.2666   126.5309
  900.0000     0.0590     0.0269     2.5158     9.2711   126.1887
  900.5000     0.0529     0.0320     2.5066     9.2755   131.7536
  901.0000     0.0468     0.0371     2.4975     9.2800   136.6142
  901.5000     0.0408     0.0421     2.4883     9.2844   137.0531
  902.0000     0.0349     0.0472     2.4790     9.2888   135.8611
  902.5000     0.0415     0.0498     2.4758     9.2933   133.9201
  903.0000     0.0662     0.0358     2.4940     9.2977   131.9816
  903.5000     0.0905     0.0232     2.5140     9.3021   130.5273
  904.0000     0.1150     0.0117     2.5343     9.3066   131.2655
  904.5000     0.1195     0.0113     2.5411     9.3110   132.2621
  905.0000     0.0825     0.0236     2.5151     9.3154   131.8802
  905.5000     0.0580     0.0329     2.5025     9.3199   130.3943
  906.0000     0.0566     0.0356     2.5052     9.3243   128.9919
  906.5000     0.0535     0.0312     2.5056     9.3287   128.7595
  907.0000     0.0485     0.0332     2.5014     9.3332   129.0965
  907.5000     0.0431     0.0351     2.4979     9.3376   129.4444
  908.0000     0.0543     0.0327     2.5140     9.3427   128.4104
  908.5000     0.0679     0.0226     2.5307     9.3484   124.9524
  909.0000     0.0744     0.0185     2.5254     9.3540   121.4653
  909.5000     0.0726     0.0185     2.5185     9.3597   121.4559
  910.0000     0.0754     0.0243     2.5117     9.3654   122.2423
  910.5000     0.0782     0.0304     2.5049     9.3711   122.3415
  911.0000     0.0869     0.0303     2.5023     9.3768   121.7396
  911.5000     0.1006     0.0213     2.5121     9.3821   121.1273
  912.0000     0.1142     0.0150     2.5274     9.3870   120.5848
  912.5000     0.1184     0.0124     2.5371     9.3920   120.7812
  913.0000     0.1196     0.0107     2.5431     9.3972   122.8349
  913.5000     0.1216     0.0177     2.5369     9.3941   126.3049
  914.0000     0.1356     0.0119     2.5304     9.3890   127.6277
  914.5000     0.1451     0.0014     2.5410     9.3839   124.2881
  915.0000     0.1547    -0.0091     2.5642     9.3787   121.8965
  915.5000     0.1643    -0.0196     2.5809     9.3736   121.3933
  916.0000     0.1720    -0.0215     2.5996     9.3685   124.0470
  916.5000     0.1653    -0.0172     2.6024     9.3634   128.0250
  917.0000     0.1400    -0.0072     2.5743     9.3575   130.5882
  917.5000     0.1154     0.0087     2.5467     9.3476   127.5460
  918.0000     0.0911     0.0248     2.5188     9.3378   126.0414
  918.5000     0.0948     0.0292     2.5119     9.3279   131.5199
  919.0000     0.1032     0.0197     2.5226     9.3181   136.1006
  919.5000     0.1055     0.0153     2.5351     9.3083   138.3611
  920.0000     0.0915     0.0174     2.5368     9.2984   132.2637
  920.5000     0.0771     0.0208     2.5270     9.2886   131.8500
