~VERSION INFORMATION
 VERS.                2.0:   CWLS LOG ASCII STANDARD - VERSION 2.0
 WRAP.                 NO:   ONE LINE PER DEPTH STEP
~WELL INFORMATION
#MNEM.UNIT      DATA TYPE    INFORMATION
#----------   ------------   ------------------------------
 STRT.F            0.1000:   START DEPTH
 STOP.F          550.8000:   STOP DEPTH
 STEP.F            0.1000:   STEP LENGTH
 NULL.          -999.2500:   NO VALUE
 COMP.       F D SERV INC:   COMPANY
 WELL.  82-1 SX 10 #82-10:   WELL
 FLD .             TEAPOT:   FIELD
 LOC .      S10 T38N R78W:   LOCATION
 CNTY.            NATRONA:   COUNTY
 STAT.            WYOMING:   STATE
 CTRY. UNITED STATES OF AMERICA:   COUNTRY
 SRVC.     Atlas Wireline:   SERVICE COMPANY
 DATE.        11-DEC-1992:   LOGDATE
 API .       490252257600:   API NUMBER
~CURVE INFORMATION
#MNEM.UNIT       API CODE    CURVE DESCRIPTION
#----------   ------------   ------------------------------
 DEPT.F                  :   
 GRR .GAPI   07 310 01 00:   GAMMA RAY
 RILD.OHMM   07 120 46 00:   INDUCTION LOG DEEP RESISTIVITY
 RILM.OHMM   07 120 44 00:   INDUCTION LOG MEDIUM RESISTIVITY
~PARAMETER INFORMATION
#MNEM.UNIT          VALUE    DESCRIPTION
#----------   ------------   ------------------------------
 PD  .                 GL:   PERMANENT DATUM
 EPD .F              5136:   ELEVATION PERMANENT DATUM
 LMF .                 KB:   LOG MEASURED FROM
 DAPD.F                10:   FEET ABOVE PERMANENT DATUM
 DMF .                 KB:   DRILLING MEASURED FROM
 EKB .F              5146:   KELLING BUSHING
 EDF .F              5145:   DRILLING FLOOR
 EGL .F              5136:   GROUND LEVEL
 DATE.        11-DEC-1992:   RUN DATE
 RUN .                  1:   RUN NUMBER
 DD  .F               560:   DEPTH DRILLER
 DL  .F               560:   DEPTH LOGGER
 BLI .F               551:   BOTTOM LOG INTERVAL
 CS  .IN            8.625:   CASING SIZE
 CBD .F                53:   CASING BOTTOM DRILLER
 CBL .F                54:   CASING BOTTOM LOGGER
 BS  .IN            7.875:   BIT SIZE
 BSD .F               560:   BIT SIZE AT DEPTH
 DFT .           AIR FOAM:   DRILLING FLUID TYPE
 BHT .F                60:   BOTTOM HOLE TEMPERATURE
 MRT .F                60:   MAXIMUM RECORDED TEMPERATURE
 LUN .           HL- 6274:   LOGGING UNIT NUMBER
 LUL .             CASPER:   LOGGING UNIT LOCATION
 ENGI.       P. RASMUSSEN:   RECORDING ENGINEER
 WITN.          G. STRONG:   WITNESSED BY
 CLNT.            A2DTECH:   CLIENT CODE
 ORIG.           5" PRINT:   ORIGIN OF DATA
 UWI .       490252257600:   UNIQUE WELL ID
 DICO. A2D Technologies, Inc.:   DIGITIZING COMPANY
~OTHER INFORMATION
~A    DEPT      GRR      RILD       RILM   
# ...
  182.1000   124.0174     8.0532     8.0285
  182.2000   124.2426     8.0688     8.0285
  182.3000   124.4993     8.1094     8.0285
  182.4000   125.0334     8.1095     8.0285
  182.5000   125.6140     8.1096     8.0285
  182.6000   125.8707     8.1097     8.0285
  182.7000   126.1191     8.1098     8.0285
  182.8000   126.1184     8.1099     8.0285
  182.9000   126.1179     8.1101     8.0285
  183.0000   125.9389     8.1102     8.0285
  183.1000   125.6810     8.1103     8.0285
  183.2000   125.4232     8.1104     8.0285
  183.3000   125.1653     8.1105     8.0285
  183.4000   124.9031     8.1106     8.0285
  183.5000   124.3097     8.1107     8.0285
  183.6000   123.8729     8.1190     8.0285
  183.7000   123.1832     8.1433     8.0285
  183.8000   122.4109     8.1674     8.0285
  183.9000   121.7261     8.1675     8.0285
  184.0000   121.2110     8.1677     8.0285
  184.1000   120.6971     8.1678     8.0285
  184.2000   120.6964     8.1679     8.0285
  184.3000   120.9103     8.1680     8.0285
  184.4000   121.3378     8.1681     8.0285
  184.5000   121.8517     8.1682     8.0406
  184.6000   122.4493     8.1684     8.0842
  184.7000   123.1801     8.1685     8.0842
  184.8000   123.7004     8.1686     8.0842
  184.9000   124.3012     8.1687     8.0842
  185.0000   124.7218     8.1688     8.0842
  185.1000   125.7368     8.1689     8.0842
  185.2000   126.5283     8.1690     8.0842
  185.3000   126.8650     8.1691     8.0842
  185.4000   127.3789     8.1692     8.0842
  185.5000   127.9068     8.1694     8.0842
  185.6000   127.9060     8.1695     8.0842
  185.7000   127.9056     8.1696     8.1120
  185.8000   127.9050     8.1697     8.1403
  185.9000   127.9044     8.1698     8.1403
  186.0000   127.8276     8.1699     8.1403
  186.1000   127.5697     8.1700     8.1403
  186.2000   127.3010     8.1701     8.1403
  186.3000   126.8076     8.1703     8.1403
  186.4000   126.6983     8.1704     8.1403
  186.5000   126.3789     8.1705     8.1403
  186.6000   125.6321     8.1706     8.1403
  186.7000   124.8196     8.1707     8.1403
  186.8000   124.5618     8.1708     8.1403
  186.9000   124.2893     8.1709     8.0967
  187.0000   124.2887     8.1711     8.0842
  187.1000   124.4872     8.1712     8.0842
  187.2000   124.7439     8.1713     8.0842
  187.3000   125.0005     8.1714     8.0842
  187.4000   125.2571     8.1715     8.0842
  187.5000   125.5138     8.1716     8.0842
  187.6000   125.7888     8.1717     8.0842
  187.7000   126.0271     8.1718     8.0842
  187.8000   126.2837     8.1720     8.0571
  187.9000   126.5403     8.1721     8.0285
  188.0000   126.9053     8.1722     8.0285
  188.1000   127.2896     8.1723     8.0285
  188.2000   127.3103     8.1298     8.0285
  188.3000   127.5891     8.1161     8.0285
  188.4000   128.0585     8.1162     7.9938
  188.5000   128.3810     8.1164     7.9732
  188.6000   128.6376     8.1165     7.9732
  188.7000   128.9987     8.1166     7.9732
  188.8000   129.4516     8.1167     7.9732
  188.9000   129.7257     8.0955     7.9732
  189.0000   130.2917     8.0715     7.9732
  189.1000   130.5223     8.0610     7.9732
  189.2000   130.9666     8.0611     7.9732
  189.3000   131.3363     8.0612     7.9547
  189.4000   131.4923     8.0613     7.9182
  189.5000   131.5489     8.0615     7.9182
  189.6000   131.7919     8.0616     7.9182
  189.7000   131.4905     8.0617     7.9182
  189.8000   131.2626     8.0618     7.9182
  189.9000   131.0047     8.0619     7.9182
  190.0000   130.6066     8.0509     7.9182
  190.1000   130.1883     8.0065     7.9182
  190.2000   129.9304     8.0066     7.9182
  190.3000   129.6627     8.0067     7.9182
  190.4000   129.0802     8.0068     7.9182
  190.5000   127.9620     8.0069     7.9182
  190.6000   127.2845     8.0070     7.9182
  190.7000   126.8684     7.9958     7.9182
  190.8000   126.4522     7.9520     7.9182
  190.9000   126.0361     7.9521     7.9182
  191.0000   125.6199     7.9522     7.9182
  191.1000   125.3040     7.9523     7.9182
  191.2000   124.8072     7.9524     7.9182
  191.3000   124.1869     7.9526     7.9182
  191.4000   123.9290     7.9527     7.9182
  191.5000   123.6601     7.9489     7.9182
  191.6000   122.9209     7.8980     7.9182
  191.7000   122.5540     7.8981     7.9182
  191.8000   122.4553     7.8982     7.9182
  191.9000   122.4547     7.8983     7.9182
  192.0000   122.5263     7.8984     7.9182
  192.1000   122.7830     7.8985     7.9182
  192.2000   123.0544     7.8987     7.9182
  192.3000   123.2963     7.8988     7.9182
  192.4000   123.5529     7.8989     7.9182
  192.5000   123.9649     7.8990     7.9182
  192.6000   124.3669     7.8991     7.9182
  192.7000   124.6235     7.8992     7.9182
  192.8000   124.9051     7.8993     7.9008
  192.9000   125.4562     7.8994     7.8541
  193.0000   125.4556     7.8995     7.8077
  193.1000   125.4550     7.8996     7.7557
  193.2000   125.3029     7.8998     7.7158
  193.3000   124.9369     7.8999     7.6702
  193.4000   124.4218     7.8797     7.6249
  193.5000   123.8647     7.8456     7.5799
  193.6000   122.7452     7.8457     7.5351
  193.7000   121.5708     7.8458     7.4905
  193.8000   118.7535     7.8204     7.4405
  193.9000   116.4432     7.7566     7.3645
  194.0000   114.7950     7.6360     7.3079
  194.1000   112.9330     7.4121     7.2420
  194.2000   110.9261     7.1708     7.1721
  194.3000   109.5079     7.0588     7.1132
  194.4000   108.5835     6.9342     6.9865
  194.5000   107.3664     6.8566     6.8008
  194.6000   105.7917     6.7849     6.7317
  194.7000   104.5931     6.6826     6.6525
  194.8000   104.5060     6.6408     6.5741
  194.9000   105.0200     6.5541     6.5105
  195.0000   105.5939     6.4851     6.4720
  195.1000   106.2749     6.4363     6.4338
  195.2000   107.0460     6.3770     6.3905
  195.3000   108.5178     6.3314     6.3581
  195.4000   110.2854     6.3228     6.3465
  195.5000   111.5179     6.2879     6.3268
  195.6000   112.5366     6.2880     6.3027
  195.7000   113.4092     6.2545     6.2956
  195.8000   114.0787     6.2176     6.2593
  195.9000   115.2096     6.2017     6.2593
  196.0000   116.6317     6.2018     6.2277
  196.1000   117.8031     6.2019     6.2162
  196.2000   118.3170     6.2020     6.2162
  196.3000   118.8193     6.2021     6.2162
  196.4000   118.8186     6.2022     6.2162
  196.5000   119.0376     6.2022     6.2169
  196.6000   119.2942     6.2023     6.2593
  196.7000   119.5509     6.2024     6.2593
  196.8000   119.8075     6.2025     6.2593
  196.9000   120.0188     6.2026     6.2593
  197.0000   120.0201     6.2027     6.2723
  197.1000   120.3181     6.2028     6.3027
  197.2000   120.5333     6.2305     6.3033
  197.3000   120.7900     6.2678     6.3465
  197.4000   121.0466     6.2895     6.3465
  197.5000   121.2180     6.2896     6.3721
  197.6000   121.2592     6.2897     6.4100
  197.7000   121.5176     6.2898     6.4348
  197.8000   121.8176     6.3244     6.4348
  197.9000   121.8171     6.3337     6.4353
  198.0000   121.8165     6.3561     6.4795
  198.1000   121.9409     6.4103     6.5120
  198.2000   122.1161     6.4669     6.5244
  198.3000   122.1534     6.4706     6.5442
  198.4000   122.4156     6.5120     6.5831
  198.5000   122.4149     6.5482     6.6222
  198.6000   122.6226     6.5873     6.6612
  198.7000   122.8792     6.6266     6.6612
  198.8000   123.0147     6.6662     6.6945
  198.9000   123.0141     6.7060     6.7074
  199.0000   123.0476     6.7420     6.7276
  199.1000   123.3137     6.7421     6.7676
  199.2000   123.3131     6.8177     6.8008
  199.3000   123.5168     6.8677     6.8010
  199.4000   123.7734     6.8839     6.8480
  199.5000   123.9128     6.9020     6.8821
  199.6000   123.9122     6.9546     6.9230
  199.7000   123.9116     7.0287     6.9641
  199.8000   123.9109     7.0288     7.0195
  199.9000   123.9104     7.0684     7.0960
  200.0000   123.6675     7.1107     7.1381
  200.1000   123.3561     7.1531     7.1876
  200.2000   123.0447     7.1959     7.1876
