~VERSION INFORMATION
 VERS.                2.0:   CWLS LOG ASCII STANDARD - VERSION 2.0
 WRAP.                 NO:   ONE LINE PER DEPTH STEP
~WELL INFORMATION
#MNEM.UNIT      DATA TYPE    INFORMATION
#----------   ------------   ------------------------------
 STRT.F            0.0000:   START DEPTH
 STOP.F          523.0000:   STOP DEPTH
 STEP.F            0.1000:   STEP LENGTH
 NULL.          -999.2500:   NO VALUE
 COMP.       F D SERV INC:   COMPANY
 WELL. NAVAL PETROLEUM RESERVE 3 SX-3 #87-3:   WELL
 FLD .             TEAPOT:   FIELD
 LOC .       S3 T38N R78W:   LOCATION
 CNTY.            NATRONA:   COUNTY
 STAT.            WYOMING:   STATE
 CTRY. UNITED STATES OF AMERICA:   COUNTRY
 SRVC.      Western Atlas:   SERVICE COMPANY
 DATE.        22-NOV-1992:   LOGDATE
 API .       490252254300:   API NUMBER
~CURVE INFORMATION
#MNEM.UNIT       API CODE    CURVE DESCRIPTION
#----------   ------------   ------------------------------
 DEPT.F                  :   
 GRR .GAPI   07 310 01 00:   GAMMA RAY
 RILD.OHMM   07 120 46 00:   INDUCTION LOG DEEP RESISTIVITY
 RILM.OHMM   07 120 44 00:   INDUCTION LOG MEDIUM RESISTIVITY
~PARAMETER INFORMATION
#MNEM.UNIT          VALUE    DESCRIPTION
#----------   ------------   ------------------------------
 PD  .                 GL:   PERMANENT DATUM
 EPD .F              5129:   ELEVATION PERMANENT DATUM
 LMF .                 KB:   LOG MEASURED FROM
 DAPD.F                10:   FEET ABOVE PERMANENT DATUM
 DMF .                 KB:   DRILLING MEASURED FROM
 EKB .F              5139:   KELLING BUSHING
 EDF .F              5138:   DRILLING FLOOR
 EGL .F              5129:   GROUND LEVEL
 DATE.        22-NOV-1992:   RUN DATE
 RUN .                  1:   RUN NUMBER
 DD  .F               530:   DEPTH DRILLER
 DL  .F               531:   DEPTH LOGGER
 BLI .F               530:   BOTTOM LOG INTERVAL
 TLI .F                58:   TOP LOG INTERVAL
 CS  .IN            8.625:   CASING SIZE
 CBD .F                58:   CASING BOTTOM DRILLER
 CBL .F                58:   CASING BOTTOM LOGGER
 BS  .IN            7.875:   BIT SIZE
 BSD .F               530:   BIT SIZE AT DEPTH
 DFT .           AIR FOAM:   DRILLING FLUID TYPE
 MRT .F                73:   MAXIMUM RECORDED TEMPERATURE
 LUN .            HL-6274:   LOGGING UNIT NUMBER
 LUL .             CASPER:   LOGGING UNIT LOCATION
 ENGI.       P. RASMUSSEN:   RECORDING ENGINEER
 WITN.          G. STRONG:   WITNESSED BY
 CLNT.            A2DTECH:   CLIENT CODE
 ORIG.           5" PRINT:   ORIGIN OF DATA
 UWI .       490252254300:   UNIQUE WELL ID
 DICO. A2D Technologies, Inc.:   DIGITIZING COMPANY
~OTHER INFORMATION
~A    DEPT      GRR      RILD       RILM   
# ...
  291.2000   150.4917     6.0781     6.7471
  291.3000   149.9174     6.1858     6.7849
  291.4000   149.0451     6.2187     6.8253
  291.5000   148.2162     6.3051     6.8250
  291.6000   147.7021     6.3761     6.8518
  291.7000   146.8563     6.4409     6.8719
  291.8000   146.4346     6.5846     6.8715
  291.9000   146.0943     6.6733     6.8712
  292.0000   145.8462     6.7338     6.8708
  292.1000   145.5981     6.7654     6.8704
  292.2000   145.3331     6.7646     6.8700
  292.3000   145.3303     6.7637     6.8696
  292.4000   145.4995     6.7628     6.8693
  292.5000   145.6259     6.7620     6.8688
  292.6000   145.6820     6.7612     6.8685
  292.7000   145.9296     6.7603     6.8681
  292.8000   146.6619     6.7594     6.8678
  292.9000   147.7770     6.7586     6.8673
  293.0000   148.9996     6.7212     6.8669
  293.1000   150.3785     6.7100     6.8665
  293.2000   152.0923     6.7092     6.8662
  293.3000   154.0478     6.7084     6.8658
  293.4000   155.9377     6.7075     6.8654
  293.5000   157.9875     6.7065     6.8650
  293.6000   159.2648     6.6753     6.8273
  293.7000   159.4666     6.6153     6.7885
  293.8000   159.1612     6.5655     6.7689
  293.9000   158.2403     6.5603     6.7584
  294.0000   157.0837     6.5182     6.7199
  294.1000   156.4374     6.4526     6.6818
  294.2000   156.0143     6.4028     6.6140
  294.3000   154.2926     6.3658     6.5601
  294.4000   152.3288     6.3153     6.4866
  294.5000   151.1324     6.2041     6.3445
  294.6000   150.1487     6.1361     6.2232
  294.7000   149.0862     6.0663     6.1029
  294.8000   147.8346     5.9804     5.9874
  294.9000   146.1564     5.8967     5.8606
  295.0000   145.9427     5.8600     5.7071
  295.1000   145.8492     5.7419     5.6041
  295.2000   146.0424     5.7151     5.5744
  295.3000   146.4882     5.6452     5.5428
  295.4000   146.7449     5.5602     5.4969
  295.5000   147.4329     5.5005     5.4419
  295.6000   148.3390     5.4653     5.4108
  295.7000   149.3166     5.4647     5.4105
  295.8000   150.1728     5.4640     5.4102
  295.9000   150.6684     5.4501     5.4099
  296.0000   151.6463     5.4247     5.4096
  296.1000   153.2021     5.4240     5.4093
  296.2000   154.5058     5.4233     5.4089
  296.3000   155.6428     5.4226     5.4086
  296.4000   157.0878     5.4220     5.4084
  296.5000   158.4762     5.4298     5.4081
  296.6000   158.6856     5.4585     5.4078
  296.7000   158.7722     5.4577     5.4074
  296.8000   158.6702     5.4571     5.4072
  296.9000   158.3797     5.4745     5.4271
  297.0000   157.8580     5.4939     5.4444
  297.1000   157.6242     5.4932     5.4500
  297.2000   157.0267     5.4924     5.4818
  297.3000   156.1701     5.5196     5.5113
  297.4000   155.0639     5.5295     5.5423
  297.5000   153.6200     5.5288     5.5578
  297.6000   153.1956     5.5344     5.5657
  297.7000   152.3092     5.5661     5.5968
  297.8000   151.4229     5.6269     5.6283
  297.9000   150.5365     5.6665     5.6599
  298.0000   149.8499     5.6815     5.6916
  298.1000   149.3568     5.6808     5.7341
  298.2000   148.8641     5.6831     5.8019
  298.3000   148.2806     5.7589     5.9148
  298.4000   148.0786     5.7851     5.9722
  298.5000   147.8315     5.8172     6.0613
  298.6000   147.4969     5.8613     6.1507
  298.7000   147.0347     5.9273     6.2258
  298.8000   146.7617     6.0011     6.3398
  298.9000   146.7607     6.0616     6.4061
  299.0000   146.7595     6.1068     6.5041
  299.1000   146.7583     6.1407     6.6148
  299.2000   146.8070     6.1748     6.7188
  299.3000   147.0584     6.2100     6.7954
  299.4000   147.0572     6.2780     6.8715
  299.5000   147.2385     6.3221     6.9195
  299.6000   147.3574     6.3388     6.9377
  299.7000   147.4253     6.3790     6.9602
  299.8000   147.6701     6.5163     7.0365
  299.9000   147.9586     6.5153     7.0830
  300.0000   148.3611     6.6064     7.1157
  300.1000   148.7066     6.6737     7.1795
  300.2000   148.9513     6.7383     7.2460
  300.3000   149.2276     6.8426     7.2867
  300.4000   149.7681     6.8845     7.3321
  300.5000   149.9879     6.9899     7.3317
  300.6000   150.0684     7.0818     7.3859
  300.7000   150.0672     7.1795     7.4337
  300.8000   150.0151     7.2927     7.4412
  300.9000   149.7621     7.3767     7.4849
  301.0000   149.7610     7.4578     7.4845
  301.1000   149.7598     7.5419     7.4840
  301.2000   149.7586     7.6268     7.5043
  301.3000   149.8274     7.6877     7.5356
  301.4000   150.0588     7.6939     7.5351
  301.5000   150.0573     7.8480     7.5347
  301.6000   149.8537     7.8472     7.5679
  301.7000   149.3148     7.8726     7.5865
  301.8000   148.5759     7.9000     7.5861
  301.9000   147.8374     7.8932     7.5894
  302.0000   147.0256     7.8431     7.6382
  302.1000   146.5813     7.8422     7.6379
  302.2000   146.2533     7.8412     7.6642
  302.3000   146.1144     7.8403     7.7072
  302.4000   146.1131     7.8487     7.7438
  302.5000   146.1119     7.8931     7.7433
  302.6000   146.1107     7.8921     7.7429
  302.7000   146.1095     7.8911     7.7725
  302.8000   146.2357     7.8901     7.7961
  302.9000   146.4805     7.8891     7.8053
  303.0000   146.7251     7.8933     7.8498
  303.1000   147.0122     7.9977     7.8493
  303.2000   147.2145     7.9968     7.9158
  303.3000   147.8991     8.0229     7.9819
  303.4000   148.8814     8.0507     8.0138
  303.5000   149.7971     8.0558     8.0156
  303.6000   150.3345     8.1049     8.0688
  303.7000   150.5559     8.1039     8.1058
  303.8000   150.4690     8.1029     8.1244
  303.9000   150.2219     8.1019     8.1240
  304.0000   149.8701     8.1009     8.1288
  304.1000   149.1183     8.0999     8.1798
  304.2000   148.1506     8.0989     8.1794
  304.3000   147.5356     8.1325     8.1789
  304.4000   147.0426     8.1776     8.1785
  304.5000   146.6213     8.2230     8.1780
  304.6000   146.3741     8.2686     8.1776
  304.7000   146.0851     8.3224     8.1771
  304.8000   145.8800     8.3215     8.1767
  304.9000   145.9278     8.3773     8.1762
  305.0000   146.4444     8.4538     8.1758
  305.1000   147.3586     8.4942     8.1753
  305.2000   147.8946     8.4929     8.1748
  305.3000   148.7868     8.4919     8.1744
  305.4000   149.4358     8.4909     8.1739
  305.5000   149.8163     8.4898     8.1735
  305.6000   150.0078     8.4784     8.1731
  305.7000   150.0066     8.4287     8.1725
  305.8000   150.2480     8.4277     8.1721
  305.9000   150.3068     8.4266     8.1717
  306.0000   150.3056     8.4255     8.1712
  306.1000   150.3044     8.4105     8.1707
  306.2000   150.3032     8.3619     8.1702
  306.3000   150.3018     8.3057     8.1279
  306.4000   150.0959     8.3048     8.1127
  306.5000   149.9970     8.3038     8.1122
  306.6000   149.9957     8.3027     8.1117
  306.7000   149.9596     8.3017     8.1113
  306.8000   149.6907     8.3005     8.1108
  306.9000   149.4654     8.2996     8.1104
  307.0000   149.0510     8.2986     8.1100
  307.1000   148.1153     8.3187     8.1095
  307.2000   146.5844     8.3545     8.1091
  307.3000   144.8436     8.3534     8.1085
  307.4000   143.8937     8.3524     8.1081
  307.5000   142.9334     8.3513     8.1077
  307.6000   141.9732     8.3753     8.1072
  307.7000   140.9052     8.4076     8.1068
  307.8000   140.6858     8.4065     8.1063
  307.9000   140.4387     8.4053     8.1059
  308.0000   140.4014     8.4444     8.1054
  308.1000   140.5981     8.4622     8.1050
  308.2000   140.5966     8.4792     8.1045
  308.3000   141.0702     8.5193     8.1040
  308.4000   141.3801     8.5180     8.1036
  308.5000   141.8728     8.5170     8.1357
  308.6000   142.4746     8.5160     8.1594
  308.7000   142.7192     8.5149     8.1700
  308.8000   143.0098     8.5246     8.2158
  308.9000   143.0088     8.5723     8.2619
  309.0000   143.0076     8.6196     8.3082
  309.1000   142.9198     8.6675     8.3294
  309.2000   142.7025     8.7156     8.3434
  309.3000   142.7012     8.7490     8.3901
