~VERSION INFORMATION
 VERS.                2.0:   CWLS LOG ASCII STANDARD - VERSION 2.0
 WRAP.                 NO:   ONE LINE PER DEPTH STEP
~WELL INFORMATION
#MNEM.UNIT      DATA TYPE    INFORMATION
#----------   ------------   ------------------------------
 STRT.F           30.0000:   START DEPTH
 STOP.F          562.0000:   STOP DEPTH
 STEP.F            0.5000:   STEP LENGTH
 NULL.          -999.2500:   NO VALUE
 COMP. LAWRENCE/ALLISON INC:   COMPANY
 WELL. NPR 3 #53-16-SX-10:   WELL
 FLD .             TEAPOT:   FIELD
 LOC .      S10 T38N R78W:   LOCATION
 CNTY.            NATRONA:   COUNTY
 STAT.            WYOMING:   STATE
 CTRY. UNITED STATES OF AMERICA:   COUNTRY
 SRVC.      Dresser Atlas:   SERVICE COMPANY
 DATE.        27-AUG-1984:   LOGDATE
 API .       490251098200:   API NUMBER
~CURVE INFORMATION
#MNEM.UNIT       API CODE    CURVE DESCRIPTION
#----------   ------------   ------------------------------
 DEPT.F                  :   
 RILD.OHMM   07 120 46 00:   INDUCTION LOG DEEP RESISTIVITY
 RILM.OHMM   07 120 44 00:   INDUCTION LOG MEDIUM RESISTIVITY
 RFOC.OHMM   07 220 04 00:   RESISTIVITY FOCUSED LOG
 SPR .MV     07 010 01 00:   SPONTANEOUS POTENTIAL
 AC  .US/F   60 520 00 00:   ACOUSTIC SONIC
 DEN .G/C3   45 350 01 00:   COMPENSATED BULK DENSTIY
 CORR.G/C3   45 356 01 00:   DENSITY CORRECTION
 CNC .DEC    42 890 01 00:   NEUTRON POROSITY LIMESTONE
 CALD.IN     45 280 60 00:   CALIPER
 GRD .GAPI   45 310 01 00:   GAMMA RAY FROM DENSITY LOG
 PORD.DEC    45 890 10 00:   POROSITY DENSITY LIMESTONE
~PARAMETER INFORMATION
#MNEM.UNIT          VALUE    DESCRIPTION
#----------   ------------   ------------------------------
 PD  .                 GL:   PERMANENT DATUM
 EPD .F              5199:   ELEVATION PERMANENT DATUM
 LMF .                 GL:   LOG MEASURED FROM
 DMF .                 GL:   DRILLING MEASURED FROM
 EGL .F              5199:   GROUND LEVEL
 DATE.            8-27-84:   RUN DATE
 RUN .                  1:   RUN NUMBER
 DD  .F               550:   DEPTH DRILLER
 DL  .F               549:   DEPTH LOGGER
 BLI .F               547:   BOTTOM LOG INTERVAL
 TLI .F                30:   TOP LOG INTERVAL
 CS  .IN            9.625:   CASING SIZE
 CBD .F                40:   CASING BOTTOM DRILLER
 CBL .F                44:   CASING BOTTOM LOGGER
 BS  .IN            7.875:   BIT SIZE
 BSD .F               550:   BIT SIZE AT DEPTH
 DFT .          KCL/WATER:   DRILLING FLUID TYPE
 MSS .           MUD TANK:   MUD SAMPLE SOURCE
 RMS .OHMM            .28:   RESISTIVITY MUD SAMPLE
 MST .F                78:   MUD SAMPLE TEMPERATURE
 TCS .HRS               4:   TIME CURCULATED STOPPED
 LUN .               4082:   LOGGING UNIT NUMBER
 LUL .          ROOSEVELT:   LOGGING UNIT LOCATION
 ENGI.            FRANCIS:   RECORDING ENGINEER
 WITN.              FIVAS:   WITNESSED BY
 CLNT.            A2DTECH:   CLIENT CODE
 ORIG.       2", 5" PRINT:   ORIGIN OF DATA
 UWI .       490251098200:   UNIQUE WELL ID
 DICO. A2D Technologies, Inc.:   DIGITIZING COMPANY
~OTHER INFORMATION
~A   DEPT     RILD       RILM       RFOC        SPR         AC        DEN       CORR          CNC     CALD         GRD      PORD   
# ...
  518.0000     9.3860    10.0440    10.8987   -14.8453    95.5585     2.5025     0.0049     0.2442     7.8867   114.7027     0.1089
  518.5000     9.2668     9.9640    10.7873   -14.7213    95.5683     2.5085     0.0193     0.2450     7.8853   115.2472     0.1044
  519.0000     9.1491     9.8843    10.6771   -14.6403    96.3338     2.5094     0.0371     0.2491     7.8838   116.9598     0.1012
  519.5000     9.0328     9.6940    10.5679   -15.1186    97.1246     2.5071     0.0339     0.2615     7.8824   117.6195     0.1010
  520.0000     8.9181     9.5074    10.4599   -15.5863    97.9659     2.5049     0.0127     0.2706     7.8817   114.6385     0.1029
  520.5000     8.8048     9.3244    10.3507   -16.0499    98.1592     2.5077     0.0056     0.2709     7.8841   112.9860     0.1034
  521.0000     8.6929     9.1449    10.2324   -16.5136    98.4217     2.5117     0.0395     0.2560     7.8865   115.5605     0.1021
  521.5000     8.5825     8.9688    10.1163   -16.9762    98.6830     2.5191     0.0635     0.2444     7.8888   117.8221     0.0993
  522.0000     8.4734     8.7955    10.0016   -17.4409    98.9451     2.5225     0.0722     0.2448     7.8911   118.1973     0.0952
  522.5000     8.3658     8.6271     9.9029   -17.7337    99.2070     2.5196     0.0670     0.2499     7.8935   118.8617     0.0922
  523.0000     8.2595     8.6260     9.8635   -17.9049    99.4689     2.5167     0.0615     0.2552     7.8959   120.4419     0.0936
  523.5000     8.1619     8.6285     9.8204   -18.0728    99.7309     2.5163     0.0628     0.2561     7.8981   119.4209     0.0955
  524.0000     8.2591     8.7894     9.9150   -18.2406    99.7695     2.5160     0.0645     0.2521     7.9007   118.1612     0.0972
  524.5000     8.3673     8.7894    10.0219   -18.4138    99.6693     2.5158     0.0607     0.2501     7.8904   118.1607     0.0972
  525.0000     8.4776     8.8219    10.1308   -18.3795    98.6281     2.5164     0.0503     0.2573     7.8807   118.8833     0.0969
  525.5000     8.5892     8.9928    10.2407   -18.2603    97.3683     2.5198     0.0431     0.2613     7.8794   118.4763     0.0963
  526.0000     8.7023     9.1669    10.3518   -18.3465    96.8117     2.5254     0.0438     0.2486     7.8781   117.8553     0.0943
  526.5000     8.8710     9.3444    10.4640   -18.4660    96.8043     2.5317     0.0456     0.2290     7.8768   117.2154     0.0906
  527.0000     8.8617     9.5253    10.5775   -18.5859    96.8522     2.5322     0.0561     0.2093     7.8755   116.0148     0.0868
  527.5000     8.8444     9.6400    10.6712   -18.7053    96.9000     2.5298     0.0669     0.2031     7.8742   114.0787     0.0881
  528.0000     8.8271     9.5071    10.5740   -18.8247    96.9492     2.5235     0.0609     0.2076     7.8730   114.0695     0.0916
  528.5000     8.8099     9.4116    10.4925   -18.9440    97.0782     2.5177     0.0375     0.2243     7.8717   116.4874     0.0951
  529.0000     8.7926     9.3171    10.4117   -19.0633    97.3016     2.5204     0.0266     0.2420     7.8704   117.6010     0.0962
  529.5000     8.7754     9.2235    10.3315   -19.1832    97.7646     2.5271     0.0506     0.2412     7.8691   118.1162     0.0900
  530.0000     8.7583     9.1307    10.2519   -19.3306    98.0591     2.5334     0.0866     0.2427     7.8678   119.5983     0.0860
  530.5000     8.7412     9.0383    10.1895   -19.5221    98.4666     2.5273     0.0883     0.2458     7.8665   120.4237     0.0922
  531.0000     8.7241     8.9539    10.1895   -19.7129    98.7559     2.5139     0.0496     0.2459     7.8653   117.3832     0.1023
  531.5000     8.7086     9.0835    10.1895   -19.9040    98.8677     2.5006     0.0123     0.2401     7.8640   114.2758     0.1110
  532.0000     8.7761     9.2088    10.1895   -20.0949    98.8677     2.4883     0.0179     0.2339     7.8627   112.8934     0.1170
  532.5000     8.8520     9.3358    10.2776   -20.2859    98.6939     2.4833     0.0302     0.2364     7.8613   113.2294     0.1201
  533.0000     8.9285     9.4646    10.3727   -20.4768    98.2861     2.4781     0.0372     0.2392     7.8634   114.1244     0.1233
  533.5000     9.0056     9.5951    10.4689   -20.6681    97.7128     2.4728     0.0372     0.2361     7.8661   116.1388     0.1263
  534.0000     9.0835     9.7275    10.5664   -20.8636    97.3830     2.4674     0.0315     0.2338     7.8688   118.1091     0.1285
  534.5000     9.1620     9.8624    10.6712   -21.0827    97.0628     2.4664     0.0210     0.2316     7.8715   118.6206     0.1274
  535.0000     9.2412    10.0044    10.7305   -21.3075    96.8016     2.4675     0.0103     0.2294     7.8742   118.1389     0.1249
  535.5000     9.2903    10.0024    10.7702   -21.5328    96.5510     2.4732     0.0069     0.2271     7.8769   119.4001     0.1218
  536.0000     9.2714    10.0041    10.7037   -21.7576    96.3005     2.4787     0.0152     0.2248     7.8796   120.8410     0.1187
  536.5000     9.2555     9.8621    10.6555   -21.9834    96.0499     2.4841     0.0267     0.2285     7.8823   119.2563     0.1155
  537.0000     9.2397     9.7640    10.6076   -22.1314    95.9619     2.4900     0.0446     0.2336     7.8850   114.7831     0.1120
  537.5000     9.2239     9.6670    10.5601   -22.2281    96.1553     2.5060     0.0644     0.2387     7.8877   112.1051     0.1000
  538.0000     9.2079     9.5514    10.5127   -22.3234    96.9639     2.5222     0.0769     0.2404     7.8904  -999.2500     0.0894
  538.5000     9.2001     9.6592    10.4758   -22.4188    96.7635     2.5307     0.0789     0.2389     7.8931  -999.2500     0.0888
  539.0000     9.1942     9.7964    10.6817   -22.5143    96.4598     2.5274     0.0638     0.2360     7.8959  -999.2500     0.0902
  539.5000     9.1882     9.9355    10.8538   -22.6097    96.7167     2.5264     0.0468     0.2406     7.8986  -999.2500     0.0900
  540.0000     9.1823    10.0029    10.9710   -22.7047    97.2406     2.5299     0.0472     0.2526     7.9012  -999.2500     0.0885
  540.5000     9.1763    10.0029    10.8717   -22.7998    97.0849     2.5295     0.0470     0.2537     7.8971  -999.2500     0.0899
  541.0000     9.1704    10.0030    10.7975   -22.9395    96.7182     2.5213     0.0424    -0.0112     7.8925  -999.2500     0.0948
  541.5000     9.1645    10.0029    10.7238   -23.3470    96.6228     2.5113     0.0375    -0.0068     7.8879  -999.2500     0.0997
  542.0000     9.1585    10.0029    10.6712   -23.7568    96.5752     2.5034     0.0348     0.0242     7.8833  -999.2500     0.1046
  542.5000     9.1526    10.0029    10.7427   -24.1679    96.5397     2.4957     0.0336     0.3006     7.8787  -999.2500     0.1095
  543.0000     9.1467    10.0029    10.7987   -24.4235    96.1886     2.4881     0.0274     0.7071     7.8742  -999.2500     0.1148
  543.5000     9.1407    10.0029    10.8552   -24.6104    95.8415     2.4886     0.0178     0.6914     7.8696  -999.2500     0.1145
  544.0000     9.1348    10.0029    10.9119   -24.7972    95.4885     2.4955     0.0305     0.5018     7.8650  -999.2500     0.1095
  544.5000     9.1289    10.0029    10.9689   -24.9828    93.7246     2.5023     0.0462  -999.2500     7.8593  -999.2500     0.1054
  545.0000     9.1206    10.0030    11.0263   -25.1736    89.3008     2.5031     0.0511  -999.2500     7.8475  -999.2500     0.1042
  545.5000     9.1252    10.0122    11.0839   -25.7092    87.6307     2.5047     0.0502  -999.2500     7.8358  -999.2500     0.1028
  546.0000     9.1342    10.0225    11.1418   -27.0901    87.7396     2.5102     0.0491  -999.2500     7.8241  -999.2500     0.1001
  546.5000     9.1433    10.0326    11.1756   -28.4562  -999.2500     2.5146     0.0508  -999.2500     7.8124  -999.2500     0.0980
  547.0000     9.1524    10.0428    11.0247   -29.8188  -999.2500     2.5092     0.0644  -999.2500     7.8007  -999.2500     0.1015
  547.5000     9.1615    10.0530    10.9195   -30.5467  -999.2500     2.4965     0.0854  -999.2500     7.7889  -999.2500     0.1088
  548.0000     9.1706    10.0632    10.8153   -30.5447  -999.2500     2.5002     0.1319  -999.2500     7.7772  -999.2500     0.1034
