~VERSION INFORMATION
 VERS.                2.0:   CWLS LOG ASCII STANDARD - VERSION 2.0
 WRAP.                 NO:   ONE LINE PER DEPTH STEP
~WELL INFORMATION
#MNEM.UNIT      DATA TYPE    INFORMATION
#----------   ------------   ------------------------------
 STRT.F           60.0000:   START DEPTH
 STOP.F         3052.0000:   STOP DEPTH
 STEP.F            0.5000:   STEP LENGTH
 NULL.          -999.2500:   NO VALUE
 COMP.   FLUOR DANIEL INC:   COMPANY
 WELL. NAVAL PETROLEUM RESERVE 3 X-14 #57-14:   WELL
 FLD .            WILDCAT:   FIELD
 LOC .      S14 T38N R78W:   LOCATION
 CNTY.            NATRONA:   COUNTY
 STAT.            WYOMING:   STATE
 CTRY. UNITED STATES OF AMERICA:   COUNTRY
 SRVC.            Unknown:   SERVICE COMPANY
 DATE.        16-MAY-1995:   LOGDATE
 API .       490252272000:   API NUMBER
~CURVE INFORMATION
#MNEM.UNIT       API CODE    CURVE DESCRIPTION
#----------   ------------   ------------------------------
 DEPT.F                  :   
 ROP .FT/HR  91 810 01 00:   RAT OF DRILLING PENETRATION
 TGAS.TC/CC  91 830 01 00:   TOTAL GAS UNIT
~PARAMETER INFORMATION
#MNEM.UNIT          VALUE    DESCRIPTION
#----------   ------------   ------------------------------
 EKB .F              5312:   KELLING BUSHING
 EGL .F              5302:   GROUND LEVEL
 DATE.        16-MAY-1995:   RUN DATE
 RUN .                  1:   RUN NUMBER
 BLI .F              3062:   BOTTOM LOG INTERVAL
 TLI .F                60:   TOP LOG INTERVAL
 ENGI.     C.TOWER/R.HUSK:   RECORDING ENGINEER
 CLNT.            A2DTECH:   CLIENT CODE
 ORIG.           5" PRINT:   ORIGIN OF DATA
 UWI .       490252272000:   UNIQUE WELL ID
 DICO. A2D Technologies, Inc.:   DIGITIZING COMPANY
~OTHER INFORMATION
~A   DEPT        ROP       TGAS 
# ...
 2368.5000     1.7595     0.6581
 2369.0000     1.7603     0.6655
 2369.5000     1.7655     0.6728
 2370.0000     1.7713     0.4916
 2370.5000     1.7772     0.3103
 2371.0000     1.7830     0.1290
 2371.5000     1.7889     0.1364
 2372.0000     2.1986     0.1437
 2372.5000     2.2747     0.1511
 2373.0000     2.2849     0.1585
 2373.5000     2.2856     0.3547
 2374.0000     2.4938     0.3623
 2374.5000     2.5134     0.3712
 2375.0000     2.5142     0.3786
 2375.5000     2.5244     0.3860
 2376.0000     3.5534     0.3934
 2376.5000     3.5541     0.4008
 2377.0000     3.5454     0.4081
 2377.5000     3.5461     0.2250
 2378.0000     3.5561     0.4229
 2378.5000     2.2362     0.4303
 2379.0000     2.2369     0.4377
 2379.5000     2.2376     0.4453
 2380.0000     1.0120     0.4543
 2380.5000     1.0095     0.4617
 2381.0000     1.0039     0.2786
 2381.5000     1.0060     0.2878
 2382.0000     1.0083     0.4839
 2382.5000     1.0107     0.4912
 2383.0000     1.0130     0.4986
 2383.5000     1.0154     0.5060
 2384.0000     1.0365     0.7021
 2384.5000     1.3203     0.7095
 2385.0000     1.3212     0.9057
 2385.5000     1.3219     1.1019
 2386.0000     3.7664     1.1108
 2386.5000     3.7693     1.1182
 2387.0000     3.7723     1.1256
 2387.5000     3.7752     1.3217
 2388.0000     3.7783     1.3291
 2388.5000     2.7978     1.3365
 2389.0000     2.7986     1.3438
 2389.5000     0.4967     1.3512
 2390.0000     0.4952     1.3586
 2390.5000     0.4936     1.1773
 2391.0000     0.4920     1.1849
 2391.5000     0.4905     1.0034
 2392.0000     0.4889     0.8240
 2392.5000     0.4874     0.8314
 2393.0000     0.4858     0.8387
 2393.5000     0.4843     0.8461
 2394.0000     0.6171     0.8535
 2394.5000     0.6274     0.8609
 2395.0000     0.6281     0.8683
 2395.5000     0.5533     0.8757
 2396.0000     0.4784     0.6943
 2396.5000     0.4793     0.5131
 2397.0000     0.4705     0.5208
 2397.5000     0.4807     0.5297
 2398.0000     0.5948     0.5371
 2398.5000     0.6047     0.5445
 2399.0000     0.6056     0.5519
 2399.5000     0.5967     0.7479
 2400.0000     0.5976     0.7553
 2400.5000     0.5983     0.7627
 2401.0000     0.5990     0.5811
 2401.5000     0.5997     0.7775
 2402.0000     0.6098     0.7849
 2402.5000     0.6105     0.8425
 2403.0000     0.6113     0.9161
 2403.5000     0.6027     0.9897
 2404.0000     0.4430     1.0644
 2404.5000     0.3586     1.0792
 2405.0000     0.3499     1.0943
 2405.5000     0.3508     1.1121
 2406.0000     0.3419     1.1267
 2406.5000     0.3428     1.1414
 2407.0000     0.3435     0.9637
 2407.5000     0.3536     0.9820
 2408.0000     0.3543     0.9967
 2408.5000     0.3646     1.0114
 2409.0000     0.3653     1.0264
 2409.5000     0.3564     0.8520
 2410.0000     0.3196     0.8704
 2410.5000     0.3107     1.0737
 2411.0000     0.3116     0.8960
 2411.5000     0.3123     0.9144
 2412.0000     0.3224     0.9290
 2412.5000     0.3325     0.9437
 2413.0000     0.3428     0.9584
 2413.5000     0.4285     0.7844
 2414.0000     0.5141     0.6103
 2414.5000     0.5148     0.6287
 2415.0000     0.5249     0.6433
 2415.5000     0.4690     0.6580
 2416.0000     0.4319     0.8614
 2416.5000     0.4327     1.2534
 2417.0000     0.4334     1.2680
 2417.5000     0.4341     1.2830
 2418.0000     0.4254     1.4897
 2418.5000     0.3696     1.3157
 2419.0000     0.3513     1.3304
 2419.5000     0.3522     1.3450
 2420.0000     0.3623     1.5484
 2420.5000     0.3725     1.3707
 2421.0000     0.3732     1.5777
 2421.5000     0.3739     1.5925
 2422.0000     0.3840     1.6075
 2422.5000     0.3849     1.4330
 2423.0000     0.3856     1.4514
 2423.5000     0.3863     1.4660
 2424.0000     0.3774     1.2884
 2424.5000     0.3783     1.1180
 2425.0000     0.3790     1.1327
 2425.5000     0.3797     0.9585
 2426.0000     0.3804     0.9736
 2426.5000     0.4098     0.9917
 2427.0000     0.4209     1.1950
 2427.5000     0.4110     1.3984
 2428.0000     0.4023     1.4130
 2428.5000     0.3747     1.4277
 2429.0000     0.3565     1.4424
 2429.5000     0.3855     1.4786
 2430.0000     0.4522     1.6604
 2430.5000     0.4907     1.6755
 2431.0000     0.4914     1.6934
 2431.5000     0.4629     1.7080
 2432.0000     0.4269     1.5304
 2432.5000     0.4559     1.5487
 2433.0000     0.4755     1.5634
 2433.5000     0.4572     1.5780
 2434.0000     0.4203     1.7814
 2434.5000     0.4022     1.7962
 2435.0000     0.4123     1.8113
 2435.5000     0.4413     1.8290
 2436.0000     0.4703     1.8437
 2436.5000     0.4805     1.8584
 2437.0000     0.4719     1.8730
 2437.5000     0.4630     1.8877
 2438.0000     0.4356     1.9024
 2438.5000     0.4172     1.9170
 2439.0000     0.3898     1.7430
 2439.5000     0.3811     1.5690
 2440.0000     0.3818     1.5874
 2440.5000     0.3716     1.6020
 2441.0000     0.3664     1.6167
 2441.5000     0.3612     1.4390
 2442.0000     0.3561     1.2650
 2442.5000     0.3509     1.4720
 2443.0000     0.3484     1.4868
 2443.5000     0.3680     1.6906
 2444.0000     0.3976     1.8970
 2444.5000     0.4465     1.7181
 2445.0000     0.4740     1.9251
 2445.5000     0.3238     1.9398
 2446.0000     0.3245     2.1434
 2446.5000     0.3252     1.9691
 2447.0000     0.3448     1.7988
 2447.5000     0.4021     1.6248
 2448.0000     0.4028     1.6395
 2448.5000     0.4129     1.4618
 2449.0000     0.4136     1.4801
 2449.5000     0.4145     1.4948
 2450.0000     0.4152     1.5094
 2450.5000     0.4158     1.5245
 2451.0000     0.4166     1.5424
 2451.5000     0.4173     1.5571
 2452.0000     0.4180     1.5718
 2452.5000     0.4093     1.5864
 2453.0000     0.4194     1.6011
 2453.5000     0.4206     1.6158
 2454.0000     0.4462     1.6304
 2454.5000     0.3717     1.6453
 2455.0000     0.3345     1.6604
 2455.5000     0.3447     1.6781
 2456.0000     0.3470     1.5004
 2456.5000     0.3499     1.3264
 2457.0000     0.3527     1.5334
 2457.5000     0.3556     1.5481
 2458.0000     0.3585     1.5628
 2458.5000     0.3614     1.5774
 2459.0000     0.3643     1.7811
 2459.5000     0.3671     1.7991
 2460.0000     0.3700     1.8138
 2460.5000     0.3729     1.8284
 2461.0000     0.3758     1.6508
 2461.5000     0.3787     1.8578
 2462.0000     0.3331     1.8724
 2462.5000     0.2678     1.8871
 2463.0000     0.2967     1.9018
 2463.5000     0.3066     1.7203
 2464.0000     0.5139     1.7221
 2464.5000     0.5145     1.7295
 2465.0000     0.5244     1.7369
 2465.5000     0.5048     1.5538
 2466.0000     0.3471     1.3744
 2466.5000     0.3477     1.3818
 2467.0000     0.3482     1.3892
 2467.5000     0.3488     1.2061
 2468.0000     0.5655     0.8380
 2468.5000     0.5565     0.8454
 2469.0000     0.5476     0.6642
 2469.5000     0.4730     0.6717
 2470.0000     0.4831     0.6792
 2470.5000     0.4837     0.8769
 2471.0000     0.4936     0.8844
 2471.5000     0.4942     0.8918
 2472.0000     0.3821     0.8992
 2472.5000     0.3543     0.9066
 2473.0000     0.3550     0.9140
 2473.5000     0.3837     0.9215
 2474.0000     0.4125     0.9289
 2474.5000     0.4318     0.9363
 2475.0000     0.4418     0.9437
 2475.5000     0.4328     0.9511
 2476.0000     0.4335     0.9585
 2476.5000     0.4340     1.1547
 2477.0000     0.4346     1.1623
 2477.5000     0.4257     1.1698
 2478.0000     0.4263     1.1787
 2478.5000     0.4270     1.1862
 2479.0000     0.4275     1.0030
 2479.5000     0.4281     1.0123
 2480.0000     0.4662     1.2084
 2480.5000     0.5044     1.2158
 2481.0000     0.4861     1.0346
 2481.5000     0.4585     1.0420
 2482.0000     0.4121     1.0494
 2482.5000     0.3938     1.0568
 2483.0000     0.3944     1.0642
 2483.5000     0.4043     1.0717
 2484.0000     0.4049     1.0792
 2484.5000     0.4056     1.0868
 2485.0000     0.4061     1.0958
 2485.5000     0.4067     1.1032
 2486.0000     0.4072     1.1106
 2486.5000     0.4078     1.1180
 2487.0000     0.3988     0.9368
 2487.5000     0.3995     1.3215
 2488.0000     0.3812     1.3289
 2488.5000     0.3348     1.3364
 2489.0000     0.3354     1.3438
 2489.5000     0.3453     1.1623
