~VERSION INFORMATION
 VERS.                2.0:   CWLS LOG ASCII STANDARD - VERSION 2.0
 WRAP.                 NO:   ONE LINE PER DEPTH STEP
~WELL INFORMATION
#MNEM.UNIT      DATA TYPE    INFORMATION
#----------   ------------   ------------------------------
 STRT.F           41.0000:   START DEPTH
 STOP.F          468.0000:   STOP DEPTH
 STEP.F            0.1000:   STEP LENGTH
 NULL.          -999.2500:   NO VALUE
 COMP.       F D SERV INC:   COMPANY
 WELL. NAVAL PETROLEUM RESERVE 3 SX-1 #53-1-10:   WELL
 FLD .             TEAPOT:   FIELD
 LOC .      S10 T38N R78W:   LOCATION
 CNTY.            NATRONA:   COUNTY
 STAT.            WYOMING:   STATE
 CTRY. UNITED STATES OF AMERICA:   COUNTRY
 SRVC.     Atlas Wireline:   SERVICE COMPANY
 DATE.        22-DEC-1992:   LOGDATE
 API .       490252256900:   API NUMBER
~CURVE INFORMATION
#MNEM.UNIT       API CODE    CURVE DESCRIPTION
#----------   ------------   ------------------------------
 DEPT.F                  :   
 GRR .GAPI   07 310 01 00:   GAMMA RAY
 RILD.OHMM   07 120 46 00:   INDUCTION LOG DEEP RESISTIVITY
 RILM.OHMM   07 120 44 00:   RESITIVITY LONG MEDIUM
~PARAMETER INFORMATION
#MNEM.UNIT          VALUE    DESCRIPTION
#----------   ------------   ------------------------------
 PD  .                 GL:   PERMANENT DATUM
 EPD .F              5185:   ELEVATION PERMANENT DATUM
 LMF .                 KB:   LOG MEASURED FROM
 DAPD.F                10:   FEET ABOVE PERMANENT DATUM
 DMF .                 KB:   DRILLING MEASURED FROM
 EKB .F              5195:   KELLING BUSHING
 EDF .F              5194:   DRILLING FLOOR
 EGL .F              5185:   GROUND LEVEL
 DATE.        22-DEC-1992:   RUN DATE
 RUN .                  1:   RUN NUMBER
 DD  .F               475:   DEPTH DRILLER
 DL  .F               472:   DEPTH LOGGER
 BLI .F               470:   BOTTOM LOG INTERVAL
 CS  .IN            8.625:   CASING SIZE
 CBL .F                80:   CASING BOTTOM LOGGER
 BS  .IN            7.875:   BIT SIZE
 BSD .F               475:   BIT SIZE AT DEPTH
 DFT .        AIR DRILLED:   DRILLING FLUID TYPE
 LUN .            HL 6321:   LOGGING UNIT NUMBER
 LUL .       RCK, SPRINGS:   LOGGING UNIT LOCATION
 ENGI.      JOHN THOMPSON:   RECORDING ENGINEER
 WITN.          G. STRONG:   WITNESSED BY
 CLNT.            A2DTECH:   CLIENT CODE
 ORIG.           5" PRINT:   ORIGIN OF DATA
 UWI .       490252256900:   UNIQUE WELL ID
 DICO. A2D Technologies, Inc.:   DIGITIZING COMPANY
~OTHER INFORMATION
~A   DEPT      GRR       RILD       RILM   
# ...
  423.2000   136.6101    11.7986    12.8763
  423.3000   136.4136    11.7996    12.8776
  423.4000   136.4152    11.8008    12.8790
  423.5000   136.1692    11.8019    12.8801
  423.6000   136.1151    11.8185    12.8813
  423.7000   136.2571    11.8868    12.8826
  423.8000   136.6819    11.8879    12.8839
  423.9000   137.5315    11.8891    12.8851
  424.0000   139.1516    11.8902    12.8864
  424.1000   139.8409    11.9152    12.8876
  424.2000   140.5910    11.9757    12.8889
  424.3000   141.0965    11.9770    12.8901
  424.4000   141.3475    11.9780    12.8842
  424.5000   141.5833    11.9321    12.8034
  424.6000   141.5851    11.8972    12.8045
  424.7000   141.5864    11.8984    12.7577
  424.8000   141.4303    11.8995    12.6863
  424.9000   141.1823    11.9009    12.6311
  425.0000   140.8838    11.9018    12.6323
  425.1000   140.3803    11.8628    12.5617
  425.2000   139.6425    11.8215    12.5471
  425.3000   138.8954    11.8123    12.5083
  425.4000   138.1484    11.7418    12.4383
  425.5000   137.4014    11.6804    12.3687
  425.6000   136.6868    11.6625    12.2927
  425.7000   136.1471    11.6307    12.2307
  425.8000   135.4637    11.5655    12.2097
  425.9000   134.7166    11.5044    12.1787
  426.0000   134.2121    11.5058    12.1105
  426.1000   133.9642    11.4519    12.0444
  426.2000   133.7162    11.3877    12.0458
  426.3000   133.4290    11.3497    12.0467
  426.4000   133.4303    11.3393    12.0078
  426.5000   133.4318    11.2732    11.9655
  426.6000   134.2575    11.2126    11.9667
  426.7000   136.3544    11.1970    11.9679
  426.8000   138.8909    11.1650    11.9690
  426.9000   140.1195    11.1215    11.9220
  427.0000   140.7928    11.1174    11.8883
  427.1000   141.1550    11.0465    11.8894
  427.2000   141.3212    11.0475    11.8873
  427.3000   141.3227    11.0486    11.8095
  427.4000   141.3244    11.0230    11.8104
  427.5000   141.0985    10.9740    11.7706
  427.6000   141.0242    10.9751    11.7308
  427.7000   141.0258    10.9761    11.7205
  427.8000   141.0273    10.9294    11.6517
  427.9000   141.0288    10.9020    11.6528
  428.0000   141.0305    10.9031    11.6539
  428.1000   140.8227    10.9042    11.6211
  428.2000   140.7303    10.9054    11.5753
  428.3000   140.8338    10.8513    11.5716
  428.4000   141.0364    10.7905    11.4974
  428.5000   141.0379    10.7575    11.4984
  428.6000   141.0394    10.7446    11.4580
  428.7000   141.2318    10.6844    11.4208
  428.8000   141.3454    10.6246    11.4093
  428.9000   141.4308    10.6128    11.3438
  429.0000   141.6818    10.6138    11.2820
  429.1000   141.9562    10.5937    11.2673
  429.2000   142.1838    10.5344    11.2340
  429.3000   142.4349    10.4701    11.1711
  429.4000   142.6859    10.4167    11.1147
  429.5000   142.9368    10.3993    11.1160
  429.6000   143.1879    10.3724    11.0614
  429.7000   143.4806    10.3292    11.0409
  429.8000   143.8981    10.3301    11.0282
  429.9000   144.2440    10.2596    10.9978
  430.0000   144.5960    10.2604    10.9675
  430.1000   145.0964    10.2268    10.9062
  430.2000   145.6091    10.1695    10.8452
  430.3000   146.0975    10.1213    10.7845
  430.4000   146.5980    10.1225    10.7450
  430.5000   147.2348    10.0695    10.7386
  430.6000   147.9848    10.0131    10.6726
  430.7000   148.7056     9.9571    10.6188
  430.8000   149.2547     9.9013    10.5594
  430.9000   149.4813     9.8458    10.5003
  431.0000   149.5606     9.7818    10.4560
  431.1000   149.3257     9.7359    10.4570
  431.2000   148.8282     9.6814    10.3857
  431.3000   148.3087     9.6491    10.3390
  431.4000   147.1427     9.6402    10.3155
  431.5000   145.2803     9.5840    10.2950
  431.6000   142.8826     9.5325    10.2374
  431.7000   140.8893     9.5193    10.1759
  431.8000   139.6899     9.4920    10.1768
  431.9000   138.6652     9.4550    10.1369
  432.0000   138.4242     9.4516    10.1082
  432.1000   137.9874     9.3913    10.0937
  432.2000   137.6253     9.3921    10.0372
  432.3000   137.4591     9.3587     9.9715
  432.4000   137.4606     9.3287     9.9723
  432.5000   137.4623     9.3189     9.9387
  432.6000   137.9121     9.2658     9.9051
  432.7000   138.9246     9.2667     9.9060
  432.8000   140.1737     9.2676     9.9070
  432.9000   141.2955     9.2685     9.9080
  433.0000   142.0455     9.2694     9.9089
  433.1000   142.9260     9.2703     9.9099
  433.2000   143.3394     9.2713     9.9108
  433.3000   143.8399     9.2253     9.9118
  433.4000   144.3404     9.2086     9.9129
  433.5000   144.7955     9.2095     9.9137
  433.6000   145.0546     9.2104     9.9147
  433.7000   145.7803     9.2113     9.9275
  433.8000   146.3424     9.2122     9.9568
  433.9000   146.9772     9.2131     9.9869
  434.0000   147.8081     9.2140     9.9879
  434.1000   148.7804     9.2334    10.0321
  434.2000   149.6093     9.2802    10.0596
  434.3000   150.0570     9.2812    10.0789
  434.4000   150.5575     9.2821    10.1319
  434.5000   151.2903     9.2830    10.1330
  434.6000   152.1647     9.2839    10.1338
  434.7000   152.6652     9.2848    10.1348
  434.8000   153.2548     9.2856    10.1613
  434.9000   153.4611     9.2223    10.2076
  435.0000   153.7121     9.2230    10.2086
  435.1000   153.8651     9.2239    10.2096
  435.2000   153.9111     9.2052    10.2106
  435.3000   154.1713     9.1615    10.2116
  435.4000   154.1727     9.1626    10.1928
  435.5000   154.1743     9.1147    10.1426
  435.6000   153.7757     9.1007    10.1437
  435.7000   152.9491     9.0759    10.1447
  435.8000   151.9789     9.0393    10.1457
  435.9000   151.1502     9.0402    10.1199
  436.0000   150.2625     9.0412    10.0773
  436.1000   149.4348     9.0419    10.0782
  436.2000   148.8030     9.0110    10.0095
  436.3000   148.3672     8.9809    10.0103
  436.4000   148.1272     8.9818    10.0113
  436.5000   148.1291     8.9827     9.9914
  436.6000   148.1303     8.9835     9.9436
  436.7000   148.4329     8.9844     9.9448
  436.8000   148.9334     8.9853     9.9457
  436.9000   149.3904     8.9862     9.9066
  437.0000   149.6516     8.9870     9.8786
  437.1000   150.1318     8.9880     9.8796
  437.2000   150.4465     8.9888     9.8805
  437.3000   150.6975     8.9897     9.8817
  437.4000   150.8697     8.9906     9.8358
  437.5000   150.8712     8.9914     9.8149
  437.6000   150.8729     8.9923     9.7940
  437.7000   150.6530     8.9932     9.7485
  437.8000   150.2374     8.9941     9.7497
  437.9000   149.8540     8.9949     9.7506
  438.0000   149.5455     8.9792     9.7109
  438.1000   149.0551     8.9341     9.6848
  438.2000   148.7609     8.9352     9.6696
  438.3000   148.5591     8.9360     9.6194
  438.4000   148.4606     8.9368     9.6206
  438.5000   148.4621     8.9377     9.6214
  438.6000   148.4212     8.9270     9.5876
  438.7000   148.1622     8.8774     9.5339
  438.8000   148.1636     8.8783     9.4909
  438.9000   148.1652     8.8393     9.4921
  439.0000   148.2980     8.8183     9.4403
  439.1000   148.3934     8.8192     9.4280
  439.2000   148.1696     8.8201     9.4002
  439.3000   148.1714     8.8210     9.3476
  439.4000   147.9525     8.8218     9.3003
  439.5000   147.7045     8.7879     9.3014
  439.6000   147.4566     8.7622     9.2557
  439.7000   147.0894     8.7505     9.2386
  439.8000   146.3545     8.7031     9.2395
  439.9000   146.0594     8.7041     9.2288
  440.0000   145.6566     8.6645     9.1772
  440.1000   145.1591     8.6452     9.1780
  440.2000   144.7566     8.6461     9.1789
  440.3000   144.5085     8.6469     9.1798
  440.4000   144.2486     8.6478     9.1807
  440.5000   144.0126     8.6026     9.1753
  440.6000   143.9485     8.5894     9.1189
  440.7000   143.8197     8.5902     9.1197
  440.8000   143.6485     8.5775     9.1206
  440.9000   143.7197     8.5322     9.1215
  441.0000   144.5608     8.5332     9.1224
  441.1000   145.6581     8.4932     9.1233
  441.2000   146.5757     8.4755     9.1243
  441.3000   147.1015     8.4763     9.1250
