~VERSION INFORMATION
 VERS.                2.0:   CWLS LOG ASCII STANDARD - VERSION 2.0
 WRAP.                 NO:   ONE LINE PER DEPTH STEP
~WELL INFORMATION
#MNEM.UNIT      DATA TYPE    INFORMATION
#----------   ------------   ------------------------------
 STRT.F          750.0000:   START DEPTH
 STOP.F         1490.0000:   STOP DEPTH
 STEP.F            0.5000:   STEP LENGTH
 NULL.          -999.2500:   NO VALUE
 COMP.    FENIX & SCISSON:   COMPANY
 WELL.  53 STX 15 #53 -15:   WELL
 FLD .             TEAPOT:   FIELD
 LOC .      S15 T38N R78W:   LOCATION
 CNTY.            NATRONA:   COUNTY
 STAT.            WYOMING:   STATE
 CTRY. UNITED STATES OF AMERICA:   COUNTRY
 SRVC.              Welex:   SERVICE COMPANY
 DATE.        01-JUN-1980:   LOGDATE
 API .       490251082000:   API NUMBER
~CURVE INFORMATION
#MNEM.UNIT       API CODE    CURVE DESCRIPTION
#----------   ------------   ------------------------------
 DEPT.F                  :   
 CALD.IN     45 280 60 00:   CALIPER
 GRD .GAPI   45 310 01 00:   GAMMA RAY FROM DENSITY LOG
 CORR.G/C3   45 356 01 00:   DENSITY CORRECTION
 RHOB.G/C3   45 350 01 00:   BULK DENSITY
 DPHI.DEC    45 890 12 00:   DENSITY POROSITY SANDSTONE
~PARAMETER INFORMATION
#MNEM.UNIT          VALUE    DESCRIPTION
#----------   ------------   ------------------------------
 PD  .                 GL:   PERMANENT DATUM
 EPD .F              5257:   ELEVATION PERMANENT DATUM
 LMF .                 KB:   LOG MEASURED FROM
 DAPD.F                10:   FEET ABOVE PERMANENT DATUM
 DMF .                 KB:   DRILLING MEASURED FROM
 EKB .F              5267:   KELLING BUSHING
 EGL .F              5257:   GROUND LEVEL
 DATE.             6-1-80:   RUN DATE
 RUN .                  1:   RUN NUMBER
 DD  .F              1498:   DEPTH DRILLER
 DL  .F              1492:   DEPTH LOGGER
 BLI .F              1490:   BOTTOM LOG INTERVAL
 TLI .F               750:   TOP LOG INTERVAL
 CS  .IN            9.625:   CASING SIZE
 CBD .F               772:   CASING BOTTOM DRILLER
 BS  .IN             8.75:   BIT SIZE
 BSD .F              1498:   BIT SIZE AT DEPTH
 DFT .        AIR DRILLED:   DRILLING FLUID TYPE
 TCS .HRS               4:   TIME CURCULATED STOPPED
 MRT .F                88:   MAXIMUM RECORDED TEMPERATURE
 ENGI.               REIN:   RECORDING ENGINEER
 WITN.            RHOADES:   WITNESSED BY
 CLNT.            A2DTECH:   CLIENT CODE
 ORIG.           5" PRINT:   ORIGIN OF DATA
 UWI .       490251082000:   UNIQUE WELL ID
 DICO. A2D Technologies, Inc.:   DIGITIZING COMPANY
~OTHER INFORMATION
~A   DEPT     CALD         GRD      CORR       RHOB       DPHI   
# ...
  933.0000     9.3674    96.9584     0.0598     2.4417     0.0618
  933.5000     9.3900    97.0964     0.0508     2.4409     0.0655
  934.0000     9.3735    97.1563     0.0469     2.4508     0.0644
  934.5000     9.3580    97.2183     0.0472     2.4491     0.0600
  935.0000     9.3428    97.2796     0.0549     2.4539     0.0573
  935.5000     9.3276    97.3498     0.0598     2.4594     0.0552
  936.0000     9.2614    97.8412     0.0632     2.4775     0.0465
  936.5000     9.1920    98.3561     0.0662     2.4888     0.0290
  937.0000     9.2098    98.8707     0.0814     2.4713     0.0373
  937.5000     9.2493    99.3845     0.0673     2.4648     0.0483
  938.0000     9.2695    99.7275     0.0531     2.4580     0.0512
  938.5000     9.2768    99.1192     0.0452     2.4607     0.0558
  939.0000     9.2849    98.5246     0.0482     2.4653     0.0483
  939.5000     9.2821    97.9326     0.0509     2.4572     0.0509
  940.0000     9.2403    97.3480     0.0511     2.4451     0.0577
  940.5000     9.1978    97.0771     0.0427     2.4326     0.0660
  941.0000     9.2223    96.8210     0.0295     2.4220     0.0745
  941.5000     9.2826    96.5580     0.0207     2.4231     0.0778
  942.0000     9.3430    96.2686     0.0259     2.4176     0.0749
  942.5000     9.3412    95.5964     0.0289     2.4125     0.0831
  943.0000     9.3284    94.9482     0.0226     2.4120     0.0859
  943.5000     9.3148    94.3329     0.0203     2.4099     0.0830
  944.0000     9.3357    94.3127     0.0170     2.3984     0.0863
  944.5000     9.3707    94.3158     0.0077     2.3718     0.0974
  945.0000     9.3485    94.2684    -0.0031     2.3707     0.1141
  945.5000     9.3259    93.9208     0.0041     2.4124     0.0972
  946.0000     9.3118    93.5735     0.0180     2.4299     0.0780
  946.5000     9.3214    93.2226     0.0303     2.4513     0.0668
  947.0000     9.3302    93.0901     0.0438     2.4481     0.0580
  947.5000     9.2987    92.9935     0.0547     2.4369     0.0633
  948.0000     9.2691    92.9022     0.0411     2.4404     0.0701
  948.5000     9.2779    92.8044     0.0497     2.4666     0.0566
  949.0000     9.2881    92.5539     0.0613     2.4598     0.0471
  949.5000     9.2985    92.2930     0.0621     2.4545     0.0549
  950.0000     9.3088    92.0319     0.0629     2.4626     0.0572
  950.5000     9.3191    91.9670     0.0704     2.4676     0.0459
  951.0000     9.3373    92.1840     0.0697     2.4482     0.0528
  951.5000     9.3493    92.3970     0.0581     2.4440     0.0644
  952.0000     9.3398    92.2515     0.0634     2.4667     0.0548
  952.5000     9.3305    91.4093     0.0721     2.4668     0.0481
  953.0000     9.3106    90.5757     0.0599     2.4338     0.0587
  953.5000     9.2744    89.7519     0.0450     2.4268     0.0685
  954.0000     9.2493    89.1589     0.0301     2.4263     0.0752
  954.5000     9.2613    89.0400     0.0377     2.4385     0.0703
  955.0000     9.2739    88.9080     0.0506     2.4496     0.0643
  955.5000     9.2866    88.7784     0.0584     2.4557     0.0582
  956.0000     9.2992    88.6484     0.0632     2.4610     0.0536
  956.5000     9.3099    88.5168     0.0680     2.4658     0.0507
  957.0000     9.2953    88.3881     0.0728     2.4706     0.0476
  957.5000     9.2792    88.3779     0.0757     2.4740     0.0446
  958.0000     9.2258    89.0528     0.0714     2.4665     0.0465
  958.5000     9.0774    89.4981     0.0464     2.4492     0.0573
  959.0000     9.0826    89.2640     0.0212     2.4221     0.0719
  959.5000     9.1412    88.9763     0.0191     2.4131     0.0847
  960.0000     9.2008    88.6870     0.0356     2.4415     0.0781
  960.5000     9.2570    88.4061     0.0465     2.4505     0.0699
  961.0000     9.2878    88.8005     0.0409     2.4516     0.0617
  961.5000     9.1882    90.1703     0.0354     2.4429     0.0578
  962.0000     9.2299    90.9695     0.0371     2.4408     0.0689
  962.5000     9.3318    89.7441     0.0418     2.4453     0.0608
  963.0000     9.3408    88.4781     0.0465     2.4437     0.0623
  963.5000     9.3261    87.2200     0.0561     2.4369     0.0665
  964.0000     9.3108    86.4001     0.0509     2.4445     0.0694
  964.5000     9.2950    86.0763     0.0502     2.4703     0.0534
  965.0000     9.2689    85.7496     0.0649     2.4883     0.0380
  965.5000     9.2184    85.2040     0.0764     2.4839     0.0339
  966.0000     9.1992    84.1431     0.0760     2.4861     0.0399
  966.5000     9.2262    83.5431     0.0646     2.4779     0.0369
  967.0000     9.1507    82.7561     0.0338     2.4697     0.0448
  967.5000     9.1776    81.9054     0.0299     2.4614     0.0506
  968.0000     9.2231    82.6410     0.0346     2.4596     0.0536
  968.5000     9.1963    83.7212     0.0388     2.4652     0.0532
  969.0000     9.1466    84.8106     0.0389     2.4805     0.0453
  969.5000     9.1676    84.9430     0.0388     2.4763     0.0380
  970.0000     9.2535    84.5077     0.0389     2.4793     0.0425
  970.5000     9.3388    84.0699     0.0479     2.4748     0.0370
  971.0000     9.3464    83.7361     0.0322     2.4471     0.0443
  971.5000     9.3290    84.0808     0.0228     2.4243     0.0599
  972.0000     9.3119    84.4593     0.0247     2.4173     0.0755
  972.5000     9.2948    84.8369     0.0179     2.4292     0.0796
  973.0000     9.2893    84.5799     0.0138     2.4388     0.0714
  973.5000     9.3067    83.7908     0.0261     2.4465     0.0650
  974.0000     9.3259    83.0045     0.0342     2.4421     0.0606
  974.5000     9.3453    82.2190     0.0316     2.4454     0.0648
  975.0000     9.3657    81.4290     0.0377     2.4352     0.0640
  975.5000     9.3698    81.0164     0.0404     2.4468     0.0631
  976.0000     9.3080    80.7578     0.0429     2.4657     0.0568
  976.5000     9.2239    80.4931     0.0536     2.4841     0.0447
  977.0000     9.1324    80.4651     0.0655     2.4934     0.0347
  977.5000     9.0685    80.7380     0.0785     2.4795     0.0287
  978.0000     9.1514    81.0150     0.0785     2.4668     0.0454
  978.5000     9.1193    81.2911     0.0671     2.4711     0.0479
  979.0000     9.0605    81.5764     0.0671     2.4810     0.0423
  979.5000     9.0503    81.6462     0.0670     2.4839     0.0340
  980.0000     9.1786    81.6998     0.0602     2.4688     0.0397
  980.5000     9.1794    81.7515     0.0406     2.4522     0.0514
  981.0000     9.2330    81.8037     0.0397     2.4441     0.0615
  981.5000     9.3077    81.8559     0.0389     2.4498     0.0605
  982.0000     9.2840    81.9070     0.0431     2.4546     0.0577
  982.5000     9.2696    81.9359     0.0479     2.4673     0.0519
  983.0000     9.2627    82.2079     0.0526     2.4796     0.0428
  983.5000     9.2534    82.5566     0.0592     2.4763     0.0402
  984.0000     9.2489    82.9068     0.0665     2.4713     0.0440
  984.5000     9.2476    83.2566     0.0738     2.4824     0.0437
  985.0000     9.2464    83.6062     0.0814     2.4890     0.0364
  985.5000     9.2453    83.9577     0.0699     2.4849     0.0331
  986.0000     9.2441    84.3147     0.0511     2.4568     0.0412
  986.5000     9.2429    84.6167     0.0317     2.4320     0.0658
  987.0000     9.2417    83.5629     0.0121     2.4330     0.0697
  987.5000     9.2405    82.4392     0.0028     2.4247     0.0723
  988.0000     9.2393    81.3733     0.0104     2.4162     0.0804
  988.5000     9.2381    81.5788     0.0178     2.4253     0.0807
  989.0000     9.2369    82.2090     0.0197     2.4343     0.0699
  989.5000     9.2358    82.8301     0.0208     2.4209     0.0673
  990.0000     9.2346    83.4554     0.0162     2.4184     0.0835
  990.5000     9.2334    84.0227     0.0094     2.4469     0.0703
  991.0000     9.2322    84.5212     0.0187     2.4597     0.0565
  991.5000     9.2310    84.8396     0.0328     2.4691     0.0494
  992.0000     9.2296    84.9698     0.0415     2.4630     0.0463
  992.5000     9.2450    84.5132     0.0263     2.4503     0.0567
  993.0000     9.2690    83.9791     0.0189     2.4376     0.0642
  993.5000     9.2933    83.4432     0.0204     2.4315     0.0717
