~VERSION INFORMATION
 VERS.                2.0:   CWLS LOG ASCII STANDARD - VERSION 2.0
 WRAP.                 NO:   ONE LINE PER DEPTH STEP
~WELL INFORMATION
#MNEM.UNIT      DATA TYPE    INFORMATION
#----------   ------------   ------------------------------
 STRT.F           14.0000:   START DEPTH
 STOP.F          513.0000:   STOP DEPTH
 STEP.F            0.1000:   STEP LENGTH
 NULL.          -999.2500:   NO VALUE
 COMP.       F D SERV INC:   COMPANY
 WELL.    52-1 SX-3 #52-3:   WELL
 FLD .             TEAPOT:   FIELD
 LOC .       S3 T38N R78W:   LOCATION
 CNTY.            NATRONA:   COUNTY
 STAT.            WYOMING:   STATE
 CTRY. UNITED STATES OF AMERICA:   COUNTRY
 SRVC.     Atlas Wireline:   SERVICE COMPANY
 DATE.        21-APR-1992:   LOGDATE
 API .       490252251400:   API NUMBER
~CURVE INFORMATION
#MNEM.UNIT       API CODE    CURVE DESCRIPTION
#----------   ------------   ------------------------------
 DEPT.F                  :   
 GRR .GAPI   07 310 01 00:   GAMMA RAY
 RILD.OHMM   07 120 46 00:   INDUCTION LOG DEEP RESISTIVITY
 RILM.OHMM   07 120 44 00:   INDUCTION LOG MEDIUM RESISTIVITY
~PARAMETER INFORMATION
#MNEM.UNIT          VALUE    DESCRIPTION
#----------   ------------   ------------------------------
 PD  .                 GL:   PERMANENT DATUM
 EPD .F              5115:   ELEVATION PERMANENT DATUM
 LMF .                 KB:   LOG MEASURED FROM
 DAPD.F                 5:   FEET ABOVE PERMANENT DATUM
 DMF .                 KB:   DRILLING MEASURED FROM
 EKB .F              5120:   KELLING BUSHING
 EDF .F              5119:   DRILLING FLOOR
 EGL .F              5115:   GROUND LEVEL
 DATE.        21-APR-1992:   RUN DATE
 RUN .                  1:   RUN NUMBER
 DD  .F               515:   DEPTH DRILLER
 DL  .F               520:   DEPTH LOGGER
 BLI .F               517:   BOTTOM LOG INTERVAL
 TLI .F                50:   TOP LOG INTERVAL
 CS  .IN            9.625:   CASING SIZE
 CBD .F                45:   CASING BOTTOM DRILLER
 CBL .F                50:   CASING BOTTOM LOGGER
 BS  .IN            7.875:   BIT SIZE
 BSD .F               515:   BIT SIZE AT DEPTH
 DFT .                AIR:   DRILLING FLUID TYPE
 LUN .            HL-6272:   LOGGING UNIT NUMBER
 LUL .             CASPER:   LOGGING UNIT LOCATION
 ENGI.       P. RASMUSSEN:   RECORDING ENGINEER
 WITN.          G. STRONG:   WITNESSED BY
 CLNT.            A2DTECH:   CLIENT CODE
 ORIG.           5" PRINT:   ORIGIN OF DATA
 UWI .       490252251400:   UNIQUE WELL ID
 DICO. A2D Technologies, Inc.:   DIGITIZING COMPANY
~OTHER INFORMATION
~A   DEPT      GRR       RILD       RILM   
# ...
  196.0000   121.6072     7.1592     7.0570
  196.1000   120.7806     7.1553     7.0290
  196.2000   120.2505     7.1088     7.0066
  196.3000   120.0514     7.1084     6.9959
  196.4000   120.0483     7.1080     6.9565
  196.5000   120.0453     7.1076     6.9556
  196.6000   120.2272     7.0991     6.9225
  196.7000   120.4705     7.0576     6.9060
  196.8000   120.9338     7.0572     6.9053
  196.9000   121.9511     7.0264     6.9045
  197.0000   123.6551     7.0075     6.9037
  197.1000   125.5251     6.9945     6.8652
  197.2000   128.9571     6.9544     6.8544
  197.3000   131.7909     6.9095     6.8329
  197.4000   132.4053     6.9091     6.7931
  197.5000   132.4016     6.8832     6.7536
  197.6000   132.3988     6.8605     6.7098
  197.7000   132.0449     6.8439     6.6753
  197.8000   131.6689     6.7649     6.6364
  197.9000   131.2919     6.7267     6.5807
  198.0000   130.5578     6.6881     6.5140
  198.1000   129.9662     6.6090     6.4761
  198.2000   129.1694     6.5203     6.4314
  198.3000   128.1812     6.4792     6.3713
  198.4000   127.0189     6.3965     6.3197
  198.5000   125.5379     6.3326     6.2829
  198.6000   123.9091     6.2606     6.2403
  198.7000   123.2411     6.2046     6.1653
  198.8000   122.9970     6.1615     6.0977
  198.9000   123.2143     6.0909     6.0277
  199.0000   123.7039     6.0221     5.9585
  199.1000   124.1964     5.9536     5.8900
  199.2000   124.6832     5.8859     5.8254
  199.3000   125.1728     5.8297     5.7875
  199.4000   125.9291     5.7892     5.7578
  199.5000   126.9114     5.6796     5.7026
  199.6000   127.8936     5.6508     5.6663
  199.7000   129.0117     5.5973     5.6503
  199.8000   130.4952     5.5475     5.5853
  199.9000   131.2774     5.5087     5.5090
  200.0000   131.3770     5.4460     5.5857
  200.1000   131.2689     5.5994     5.6058
  200.2000   131.1608     5.5218     5.5629
  200.3000   131.0208     5.4918     5.5043
  200.4000   130.8541     5.4606     5.4703
  200.5000   130.6875     5.4142     5.4424
  200.6000   130.4988     5.3611     5.4117
  200.7000   130.2830     5.3319     5.3811
  200.8000   130.0343     5.3317     5.3574
  200.9000   129.8876     5.3315     5.3574
  201.0000   129.7925     5.3313     5.3574
  201.1000   129.2785     5.3310     5.3574
  201.2000   128.8024     5.3308     5.3736
  201.3000   128.4884     5.3306     5.3948
  201.4000   128.1144     5.3304     5.3971
  201.5000   127.6194     5.3302     5.4324
  201.6000   127.1107     5.3436     5.4586
  201.7000   126.2425     5.3738     5.4896
  201.8000   125.8320     5.4042     5.5085
  201.9000   125.1885     5.4346     5.5187
  202.0000   124.1692     5.4414     5.5856
  202.1000   122.7257     5.4580     5.6152
  202.2000   121.3968     5.4790     5.6471
  202.3000   119.8027     5.4842     5.6791
  202.4000   118.0761     5.5552     5.7195
  202.5000   116.4653     5.5822     5.7838
  202.6000   115.2850     5.6137     5.8166
  202.7000   115.0363     5.6584     5.8496
  202.8000   114.7875     5.7226     5.9017
  202.9000   114.9283     5.7908     5.9689
  203.0000   115.1722     5.8218     6.0367
  203.1000   115.4993     5.9031     6.1138
  203.2000   116.0718     5.9702     6.1750
  203.3000   117.4426     6.0223     6.2453
  203.4000   119.4017     6.1223     6.3164
  203.5000   120.8056     6.1634     6.3882
  203.6000   121.3631     6.2203     6.4634
  203.7000   122.4225     6.2909     6.5344
  203.8000   127.7027     6.3623     6.6089
  203.9000   131.0756     6.4345     6.6648
  204.0000   133.0393     6.5148     6.7026
  204.1000   133.7378     6.5816     6.7426
  204.2000   133.6616     6.6308     6.8331
  204.3000   133.4129     6.6853     6.8649
  204.4000   133.1259     6.7611     6.9039
  204.5000   132.7070     6.8384     6.9575
  204.6000   132.2119     6.8767     7.0311
  204.7000   131.5231     6.9155     7.0747
  204.8000   130.4532     6.9546     7.0747
  204.9000   128.8844     6.9938     7.1020
  205.0000   127.2607     7.0332     7.1423
  205.1000   125.1823     7.0787     7.1828
  205.2000   123.3233     7.1128     7.2238
  205.3000   122.0357     7.1529     7.2238
  205.4000   121.3196     7.1933     7.2552
  205.5000   121.3168     7.2268     7.2742
  205.6000   121.3148     7.2265     7.2869
  205.7000   121.3124     7.2650     7.3316
  205.8000   121.4848     7.3359     7.4275
  205.9000   122.0383     7.3780     7.4275
  206.0000   123.1176     7.3886     7.4537
  206.1000   124.4483     7.4289     7.4793
  206.2000   126.4229     7.4285     7.4863
  206.3000   128.5269     7.4623     7.5315
  206.4000   130.8785     7.5044     7.5715
  206.5000   134.5861     7.5467     7.6145
  206.6000   135.0743     7.5840     7.6577
  206.7000   134.8065     7.5836     7.6902
  206.8000   134.3114     7.6220     7.6912
  206.9000   133.7383     7.6359     7.7348
  207.0000   132.9969     7.6548     7.7787
  207.1000   132.1543     7.6886     7.8229
  207.2000   131.5143     7.6882     7.8522
  207.3000   130.7729     7.7311     7.8571
  207.4000   130.0315     7.7747     7.9070
  207.5000   129.3353     7.7950     7.9070
  207.6000   128.8192     7.7947     7.9070
  207.7000   128.3452     7.7943     7.9260
  207.8000   128.2103     7.7940     7.9621
  207.9000   128.0836     7.8313     7.9621
  208.0000   127.8348     7.8478     8.0058
  208.1000   127.5988     7.8474     8.0513
  208.2000   127.5960     7.8471     8.0736
  208.3000   127.5940     7.8468     8.0736
  208.4000   127.5915     7.8465     8.0760
  208.5000   127.5891     7.8779     8.1299
  208.6000   127.5867     7.9006     8.1299
  208.7000   127.5841     7.9118     8.1299
  208.8000   127.3555     7.9564     8.1299
  208.9000   127.1067     8.0102     8.1299
  209.0000   126.8580     8.0099     8.1299
  209.1000   126.3733     8.0096     8.1719
  209.2000   125.1393     8.0251     8.1866
  209.3000   123.9053     8.0649     8.2077
  209.4000   122.8649     8.0645     8.2437
  209.5000   122.0151     8.0642     8.2437
  209.6000   121.3559     8.0638     8.2904
  209.7000   120.9136     8.0835     8.3012
  209.8000   120.9109     8.1194     8.3012
  209.9000   120.9088     8.1191     8.3012
  210.0000   121.0675     8.1188     8.3051
  210.1000   121.3114     8.1532     8.3591
  210.2000   121.7535     8.1747     8.3591
  210.3000   123.0138     8.1744     8.3591
  210.4000   124.6920     8.1774     8.3591
  210.5000   127.1510     8.2307     8.3591
  210.6000   130.5008     8.2304     8.3591
  210.7000   133.4943     8.2301     8.3591
  210.8000   134.1970     8.2297     8.3591
  210.9000   134.4794     8.2294     8.3820
  211.0000   134.4774     8.2290     8.4175
  211.1000   134.3233     8.2287     8.4175
  211.2000   134.0745     8.2615     8.4175
  211.3000   133.7457     8.2855     8.4175
  211.4000   132.9570     8.2851     8.4175
  211.5000   131.5709     8.2848     8.4175
  211.6000   130.0906     8.2844     8.4175
  211.7000   128.6102     8.2841     8.4175
  211.8000   127.2564     8.2837     8.4175
  211.9000   126.2911     8.2834     8.3864
  212.0000   125.9935     8.2830     8.3591
  212.1000   126.1895     8.2827     8.3591
  212.2000   126.4334     8.2824     8.3591
  212.3000   126.6773     8.2820     8.3591
  212.4000   126.9212     8.2817     8.3591
  212.5000   127.1901     8.2813     8.3591
  212.6000   127.8514     8.2810     8.3591
  212.7000   128.7534     8.2806     8.3591
  212.8000   129.7362     8.2803     8.3591
  212.9000   130.7727     8.2555     8.3591
  213.0000   132.0121     8.2222     8.3591
  213.1000   132.7426     8.2219     8.3591
  213.2000   132.9136     8.2215     8.3591
  213.3000   132.9112     8.2212     8.3591
  213.4000   132.7549     8.2208     8.3591
  213.5000   132.2810     8.2205     8.3269
  213.6000   131.9972     8.2201     8.3012
  213.7000   131.7835     8.2198     8.3012
  213.8000   131.2230     8.2194     8.3012
  213.9000   130.5817     8.2191     8.3012
  214.0000   130.0866     8.2188     8.3012
  214.1000   129.5685     8.2184     8.3012
