~VERSION INFORMATION
 VERS.                2.0:   CWLS LOG ASCII STANDARD - VERSION 2.0
 WRAP.                 NO:   ONE LINE PER DEPTH STEP
~WELL INFORMATION
#MNEM.UNIT      DATA TYPE    INFORMATION
#----------   ------------   ------------------------------
 STRT.F           26.0000:   START DEPTH
 STOP.F         1071.0000:   STOP DEPTH
 STEP.F            0.5000:   STEP LENGTH
 NULL.          -999.2500:   NO VALUE
 COMP. FENIX & SCISSON INC:   COMPANY
 WELL.       NRP 3 #61-14:   WELL
 FLD .        TEAPOT DOME:   FIELD
 LOC .      S14 T38N R78W:   LOCATION
 CNTY.            NATRONA:   COUNTY
 STAT.            WYOMING:   STATE
 CTRY. UNITED STATES OF AMERICA:   COUNTRY
 SRVC.            Unknown:   SERVICE COMPANY
 DATE.        09-JAN-1979:   LOGDATE
 API .       490251076300:   API NUMBER
~CURVE INFORMATION
#MNEM.UNIT       API CODE    CURVE DESCRIPTION
#----------   ------------   ------------------------------
 DEPT.F                  :   
 SPR .MV     05 010 01 00:   SPONTANEOUS POTENTIAL FROM RES.
 SN  .OHMM   05 040 16 00:   SHORT NORMAL 16"
 IL  .OHMM   05 120 00 00:   INDUCTION LOG
 CALD.IN     45 280 60 00:   CALIPER
 GRD .GAPI   45 310 01 00:   GAMMA RAY FROM DENSITY LOG
 RHOB.G/C3   45 350 01 00:   BULK DENSITY
 DPHI.DEC    45 890 12 00:   DENSITY POROSITY SANDSTONE
 CORR.G/C3   45 356 01 00:   DENSITY CORRECTION
~PARAMETER INFORMATION
#MNEM.UNIT          VALUE    DESCRIPTION
#----------   ------------   ------------------------------
 PD  .                 GL:   PERMANENT DATUM
 EPD .F              5240:   ELEVATION PERMANENT DATUM
 LMF .                 KB:   LOG MEASURED FROM
 DAPD.F                 4:   FEET ABOVE PERMANENT DATUM
 DMF .                 KB:   DRILLING MEASURED FROM
 EKB .F              5244:   KELLING BUSHING
 EGL .F              5240:   GROUND LEVEL
 DATE.             1-9-79:   RUN DATE
 RUN .                  1:   RUN NUMBER
 DD  .F              1061:   DEPTH DRILLER
 DL  .F              1071:   DEPTH LOGGER
 BLI .F              1064:   BOTTOM LOG INTERVAL
 TLI .F                50:   TOP LOG INTERVAL
 CS  .IN            8.625:   CASING SIZE
 CBD .F                40:   CASING BOTTOM DRILLER
 CBL .F                38:   CASING BOTTOM LOGGER
 BS  .IN            7.875:   BIT SIZE
 BSD .F              1061:   BIT SIZE AT DEPTH
 DFT .                KCL:   DRILLING FLUID TYPE
 DFD .                8.8:   DRILLING FLUID DENSITY
 DFV .                 36:   DRILLING FLUID VISCOSITY
 DFPH.                9.2:   DRILLING FLUID PH
 MSS .           FLOWLINE:   MUD SAMPLE SOURCE
 RMS .OHMM             .3:   RESISTIVITY MUD SAMPLE
 MST .F                58:   MUD SAMPLE TEMPERATURE
 RMF .OHMM             .3:   RESISTIVITY MUD FILTRATE SAMPLE
 MFST.F                58:   MUD FILTRATE SAMPLE TEMPERATURE
 RMC .OHMM            .34:   RESISTIVITY MUD CAKE
 MCST.F                62:   MUD CAKE SAMPLE TEMPERATURE
 MFSS.           MEASURED:   MUD FILTRATE SAMPLE SOURCE
 MCSS.           MEASURED:   MUD CAKE SAMPLE SOURCE
 RMB .OHMM            .29:   RESISTIVITY MUD AT BHT
 BHT .F                61:   BOTTOM HOLE TEMPERATURE
 TCS .HRS               4:   TIME CURCULATED STOPPED
 MRT .F                61:   MAXIMUM RECORDED TEMPERATURE
 LUN .               3006:   LOGGING UNIT NUMBER
 LUL .             CASPER:   LOGGING UNIT LOCATION
 ENGI.            ROLLINS:   RECORDING ENGINEER
 WITN.           DINSMORE:   WITNESSED BY
 CLNT.            A2DTECH:   CLIENT CODE
 ORIG.           5" PRINT:   ORIGIN OF DATA
 UWI .       490251076300:   UNIQUE WELL ID
 DICO. A2D Technologies, Inc.:   DIGITIZING COMPANY
~OTHER INFORMATION
~A   DEPT      SPR         SN         IL       CALD         GRD      RHOB       DPHI       CORR   
# ...
  957.5000   -61.9290     9.0760    10.9260     7.7450    84.4100     2.3770     0.1820     0.0990
  958.0000   -62.0790     9.0740    10.8950     7.7660    86.6230     2.3780     0.1820     0.0990
  958.5000   -62.2300     9.0720    10.8630     7.7870    87.0700     2.3780     0.1810     0.1000
  959.0000   -62.3800     9.0700    10.8320     7.7900    86.9470     2.3780     0.1800     0.1000
  959.5000   -62.5300     9.0680    10.8000     7.7920    86.8190     2.3790     0.1820     0.1010
  960.0000   -62.6800     9.0660    10.7690     7.7940    86.7550     2.3790     0.1850     0.1010
  960.5000   -62.8300     9.0640    10.7380     7.7960    86.8760     2.3790     0.1830     0.1020
  961.0000   -62.9800     9.0620    10.7230     7.7980    86.9980     2.3800     0.1810     0.1020
  961.5000   -63.1290     9.0600    10.7170     7.8010    87.1120     2.3850     0.1790     0.1030
  962.0000   -63.2500     9.0580    10.7110     7.8030    86.1140     2.3890     0.1790     0.1030
  962.5000   -63.2470     9.0570    10.7050     7.8050    85.3060     2.3900     0.1790     0.1040
  963.0000   -63.2470     9.0550    10.6990     7.8070    86.6260     2.3900     0.1770     0.1040
  963.5000   -63.2470     9.0530    10.6930     7.8090    87.3320     2.3920     0.1740     0.1040
  964.0000   -63.2470     9.0510    10.6870     7.8120    88.3980     2.3950     0.1740     0.1040
  964.5000   -63.2470     9.0490    10.6810     7.8140    90.5060     2.3980     0.1740     0.1030
  965.0000   -63.2470     9.0470    10.6740     7.8160    90.9860     2.3990     0.1740     0.1020
  965.5000   -63.2470     9.0450    10.6680     7.8180    91.1280     2.3990     0.1680     0.1010
  966.0000   -63.2470     9.0430    10.6620     7.8200    91.2780     2.3990     0.1610     0.1030
  966.5000   -63.3120     9.0410    10.6560     7.8220    90.6340     2.4090     0.1550     0.1070
  967.0000   -63.3870     9.0390    10.6500     7.8250    89.8220     2.4190     0.1510     0.1110
  967.5000   -63.4620     9.0370    10.6440     7.8270    89.1150     2.4240     0.1520     0.1150
  968.0000   -63.5370     9.0360    10.6380     7.8290    89.3490     2.4250     0.1540     0.1290
  968.5000   -63.6120     9.0340    10.6320     7.8310    89.5030     2.4240     0.1560     0.1450
  969.0000   -63.6870     9.0320    10.6260     7.8330    88.9810     2.4240     0.1580     0.1610
  969.5000   -63.7620     9.0300    10.6200     7.8360    88.0020     2.4230     0.1590     0.1700
  970.0000   -63.8390     9.0280    10.6140     7.8380    87.0320     2.4230     0.1590     0.1740
  970.5000   -63.7670     9.0260    10.6080     7.8400    86.3390     2.4220     0.1560     0.1760
  971.0000   -63.6810     9.0240    10.6010     7.8420    86.4450     2.4230     0.1450     0.1740
  971.5000   -63.5950     9.0220    10.5950     7.8440    86.5330     2.4320     0.1400     0.1720
  972.0000   -63.5090     9.0200    10.5890     7.8470    86.6260     2.4440     0.1390     0.1630
  972.5000   -63.4230     9.0180    10.5830     7.8430    86.7500     2.4500     0.1370     0.1530
  973.0000   -63.3370     9.0160    10.5770     7.8360    85.5830     2.4510     0.1350     0.1440
  973.5000   -63.2410     9.0150    10.5710     7.8290    84.2750     2.4520     0.1350     0.1440
  974.0000   -62.8720     9.0130    10.5650     7.8220    83.0320     2.4530     0.1390     0.1460
  974.5000   -62.4800     9.0110    10.5590     7.8150    83.8650     2.4460     0.1430     0.1500
  975.0000   -62.0670     9.0090    10.5530     7.8080    86.5930     2.4400     0.1460     0.1570
  975.5000   -61.6280     9.0070    10.5470     7.8020    87.8240     2.4360     0.1500     0.1650
  976.0000   -61.1610     9.0050    10.5410     7.7970    88.7100     2.4330     0.1550     0.1730
  976.5000   -60.6930     9.0030    10.5310     7.7920    89.5940     2.4290     0.1520     0.1730
  977.0000   -60.2260     9.0310    10.5690     7.7870    90.4880     2.4320     0.1490     0.1620
  977.5000   -59.7750     9.1000    10.6570     7.7820    90.9400     2.4340     0.1470     0.1520
  978.0000   -58.8780     9.1680    10.7450     7.7770    91.2630     2.4380     0.1440     0.1490
  978.5000   -57.9110     9.2370    10.8330     7.7720    90.7640     2.4430     0.1410     0.1450
  979.0000   -56.9390     9.3050    10.9270     7.7670    90.2050     2.4480     0.1410     0.1400
  979.5000   -56.2240     9.3740    11.0760     7.7620    89.7840     2.4470     0.1490     0.1340
  980.0000   -56.0930     9.4420    11.2350     7.7570    90.4020     2.4350     0.1560     0.1280
  980.5000   -55.9540     9.5100    11.3940     7.7510    91.0320     2.4200     0.1580     0.1230
  981.0000   -55.9250     9.5790    11.5530     7.7440    91.5510     2.4160     0.1560     0.1240
  981.5000   -56.0250     9.6820    11.7120     7.7270    91.7620     2.4160     0.1550     0.1250
  982.0000   -56.1240     9.8040    11.8710     7.7100    91.6210     2.4170     0.1560     0.1260
  982.5000   -56.2240     9.9260    12.0300     7.6240    91.1000     2.4160     0.1610     0.1230
  983.0000   -56.3240    10.0480    12.4280     7.5260    91.0880     2.4110     0.1650     0.1190
  983.5000   -56.4240    10.1490    12.9920     7.4280    91.0800     2.4060     0.1760     0.1160
  984.0000   -56.5240    10.1320    13.5560     7.3780    90.9920     2.3930     0.1880     0.1170
  984.5000   -56.6240    10.1170    14.1190     7.3390    90.6270     2.3730     0.1990     0.1230
  985.0000   -56.7240    10.1010    14.6830     7.3380    88.4020     2.3540     0.2060     0.1290
  985.5000   -56.8240    10.0860    15.2470     7.3450    84.3830     2.3380     0.2130     0.1350
  986.0000   -56.9250    10.0710    15.7650     7.3520    80.3270     2.3260     0.2190     0.1390
  986.5000   -57.0250    10.0560    16.1590     7.3590    76.3010     2.3210     0.2220     0.1400
  987.0000   -57.1250    10.0410    16.5530     7.3680    72.6930     2.3220     0.2180     0.1400
  987.5000   -57.2250    10.0260    16.7060     7.4100    72.4320     2.3260     0.2160     0.1410
  988.0000   -57.3250    10.0110    16.0660     7.5390    73.1700     2.3280     0.2170     0.1420
  988.5000   -57.4250     9.9950    15.6610     7.6630    75.5390     2.3290     0.2120     0.1430
  989.0000   -57.4830     9.9800    15.6610     7.7870    77.9920     2.3320     0.2050     0.1480
  989.5000   -57.5080     9.9640    15.2470     7.8530    79.4000     2.3340     0.2090     0.1520
  990.0000   -57.5320     9.8190    14.8060     7.8360    79.8500     2.3330     0.2110     0.1560
  990.5000   -57.5570     9.6620    14.3660     7.7300    79.9710     2.3330     0.2120     0.1520
  991.0000   -57.5810     9.5140    13.9250     7.7290    79.9800     2.3340     0.2100     0.1470
  991.5000   -57.6060     9.4790    13.4840     7.7300    79.9820     2.3380     0.2090     0.1470
  992.0000   -57.6310     9.4450    13.1420     7.7310    79.9800     2.3420     0.2030     0.1480
  992.5000   -57.6570     9.4110    12.9630     7.7320    79.9660     2.3490     0.1950     0.1460
  993.0000   -57.7910     9.3770    12.7870     7.7330    80.5220     2.3590     0.1910     0.1430
  993.5000   -58.1110     9.3430    12.6120     7.7350    81.5370     2.3680     0.1900     0.1390
  994.0000   -58.4270     9.3100    12.4360     7.7360    84.1630     2.3690     0.1900     0.1380
  994.5000   -58.7440     9.2760    12.2610     7.7370    85.7310     2.3690     0.1880     0.1460
  995.0000   -59.0610     9.2420    12.0850     7.7380    85.9060     2.3700     0.1850     0.1520
  995.5000   -59.3780     9.2080    11.9100     7.7390    86.8960     2.3710     0.1820     0.1560
  996.0000   -59.6950     9.1740    11.7340     7.7400    86.9940     2.3720     0.1930     0.1600
  996.5000   -60.0090     9.1550    11.5590     7.7410    85.1030     2.3620     0.2020     0.1690
  997.0000   -60.2450     9.1390    11.3830     7.7420    83.2090     2.3510     0.2070     0.1780
  997.5000   -60.1440     9.1220    11.2080     7.7430    82.3670     2.3480     0.2020     0.1720
