~VERSION INFORMATION
 VERS.                2.0:   CWLS LOG ASCII STANDARD - VERSION 2.0
 WRAP.                 NO:   ONE LINE PER DEPTH STEP
~WELL INFORMATION
#MNEM.UNIT      DATA TYPE    INFORMATION
#----------   ------------   ------------------------------
 STRT.F           93.0000:   START DEPTH
 STOP.F         1921.0000:   STOP DEPTH
 STEP.F            0.5000:   STEP LENGTH
 NULL.          -999.2500:   NO VALUE
 COMP. LAWRENCE-ALLISON &AS:   COMPANY
 WELL.  NPR 3 #15-1SHX2/T:   WELL
 FLD .             NPR #3:   :   FIELD
 LOC .       S2 T38N R78W:   LOCATION
 CNTY.            NATRONA:   COUNTY
 STAT.            WYOMING:   STATE
 CTRY. UNITED STATES OF AMERICA:   COUNTRY
 SRVC.       Schlumberger:   SERVICE COMPANY
 DATE.        10-JUN-1982:   LOGDATE
 API .       490251077600:   API NUMBER
~CURVE INFORMATION
#MNEM.UNIT       API CODE    CURVE DESCRIPTION
#----------   ------------   ------------------------------
 DEPT.F                  :   
 GR  .GAPI   70 310 01 00:   GAMMA RAY
 CALI.IN     70 280 01 00:   CALIPER
~PARAMETER INFORMATION
#MNEM.UNIT          VALUE    DESCRIPTION
#----------   ------------   ------------------------------
 PD  .                 GL:   PERMANENT DATUM
 EPD .F              5116:   ELEVATION PERMANENT DATUM
 LMF .                 KB:   LOG MEASURED FROM
 DAPD.F                10:   FEET ABOVE PERMANENT DATUM
 DMF .                 KB:   DRILLING MEASURED FROM
 EKB .F              5126:   KELLING BUSHING
 EGL .F              5116:   GROUND LEVEL
 DATE.        10-JUN-1982:   RUN DATE
 RUN .                  1:   RUN NUMBER
 DD  .F              2100:   DEPTH DRILLER
 DL  .F              1924:   DEPTH LOGGER
 BLI .F              1921:   BOTTOM LOG INTERVAL
 TLI .F               100:   TOP LOG INTERVAL
 CS  .IN            10.75:   CASING SIZE
 BS  .IN             8.75:   BIT SIZE
 BSD .F              2100:   BIT SIZE AT DEPTH
 DFT .                AIR:   DRILLING FLUID TYPE
 ENGI.        C. MARRINER:   RECORDING ENGINEER
 WITN.             SCOTTY:   WITNESSED BY
 CLNT.            A2DTECH:   CLIENT CODE
 ORIG.           5" PRINT:   ORIGIN OF DATA
 UWI .       490251077600:   UNIQUE WELL ID
 DICO. A2D Technologies, Inc.:   DIGITIZING COMPANY
~OTHER INFORMATION
~A   DEPT       GR       CALI   
# ...
 1429.5000   140.2344    14.3702
 1430.0000   137.1635    14.3419
 1430.5000   137.1809    14.6389
 1431.0000   138.7424    15.4517
 1431.5000   140.0833    15.8954
 1432.0000   140.9830    15.4844
 1432.5000   141.6622    14.8665
 1433.0000   142.1208    14.9419
 1433.5000   141.6927    15.2680
 1434.0000   139.4203    15.1771
 1434.5000   135.9354    14.1502
 1435.0000   135.5727    14.4325
 1435.5000   137.1385    14.9503
 1436.0000   138.9206    15.4239
 1436.5000   139.5997    15.6463
 1437.0000   140.7201    15.4713
 1437.5000   142.9433    14.6322
 1438.0000   145.3872    14.3827
 1438.5000   146.5075    14.7976
 1439.0000   146.9618    15.5662
 1439.5000   142.5717    16.1357
 1440.0000   139.2803    16.8418
 1440.5000   138.8559    17.2228
 1441.0000   138.6529    16.7528
 1441.5000   139.1119    16.0460
 1442.0000   139.1294    15.7984
 1442.5000   138.6621    15.1925
 1443.0000   135.9703    14.5843
 1443.5000   134.3284    14.1651
 1444.0000   136.7767    14.1515
 1444.5000   137.4558    14.1089
 1445.0000   138.3556    14.1109
 1445.5000   139.2553    14.4222
 1446.0000   140.3756    14.8810
 1446.5000   141.7165    14.8236
 1447.0000   142.3957    14.3827
 1447.5000   142.6337    13.8681
 1448.0000   139.3422    13.7513
 1448.5000   132.9625    13.7385
 1449.0000   131.4353    13.8139
 1449.5000   134.5414    14.6857
 1450.0000   141.3971    15.9263
 1450.5000   145.6243    16.2081
 1451.0000   144.5274    15.8602
 1451.5000   138.3794    15.3937
 1452.0000   132.2246    14.7384
 1452.5000   132.4669    14.5183
 1453.0000   133.3710    14.6236
 1453.5000   134.9369    14.7137
 1454.0000   137.3850    14.6858
 1454.5000   140.4950    14.4809
 1455.0000   144.0461    14.3350
 1455.5000   146.9355    14.0121
 1456.0000   147.6135    13.0402
 1456.5000   138.3760    12.2011
 1457.0000   138.6183    11.7602
 1457.5000   140.1841    12.0716
 1458.0000   141.0911    12.7369
 1458.5000   138.6333    12.9597
 1459.0000   136.9103    12.8092
 1459.5000   136.7470    12.6827
 1460.0000   133.0187    12.7437
 1460.5000   127.5257    13.0108
 1461.0000   130.4151    13.5138
 1461.5000   137.9368    14.1349
 1462.0000   142.1497    14.4610
 1462.5000   142.8277    14.4626
 1463.0000   132.9284    14.3314
 1463.5000   128.3177    13.9934
 1464.0000   127.6723    14.2162
 1464.5000   127.6994    14.1297
 1465.0000   126.8388    13.6446
 1465.5000   125.2180    13.7200
 1466.0000   124.4557    13.6773
 1466.5000   126.1008    12.8825
 1467.0000   129.7091    12.5596
 1467.5000   133.3498    13.1743
 1468.0000   136.4598    14.0380
 1468.5000   138.4668    14.0838
 1469.0000   137.3856    14.3066
 1469.5000   134.5396    14.6917
 1470.0000   135.8849    15.3718
 1470.5000   137.0920    15.5647
 1471.0000   137.6912    15.0653
 1471.5000   135.6905    14.3149
 1472.0000   132.0617    13.3136
 1472.5000   127.4888    12.4744
 1473.0000   125.4251    12.2249
 1473.5000   126.7758    12.9054
 1474.0000   132.9740    13.5117
 1474.5000   136.9663    13.7198
 1475.0000   138.5321    13.6329
 1475.5000   135.9068    13.6193
 1476.0000   134.3790    13.6947
 1476.5000   134.6267    13.5197
 1477.0000   136.1925    13.2825
 1477.5000   134.6701    13.8031
 1478.0000   133.3683    14.4389
 1478.5000   132.5077    14.4566
 1479.0000   135.8474    14.8707
 1479.5000   141.6577    15.7716
 1480.0000   143.3824    15.6994
 1480.5000   143.4088    14.9930
 1481.0000   141.1351    14.3305
 1481.5000   137.4339    14.6275
 1482.0000   133.1045    14.6582
 1482.5000   128.4884    14.2325
 1483.0000   133.8096    13.8649
 1483.5000   140.4490    13.7932
 1484.0000   145.7649    13.4408
 1484.5000   145.2808    13.2503
 1485.0000   139.0807    13.9307
 1485.5000   135.8322    14.3791
 1486.0000   134.8223    13.8307
 1486.5000   136.8347    13.5078
 1487.0000   137.0770    13.6158
 1487.5000   138.8635    13.5676
 1488.0000   143.9587    13.7785
 1488.5000   146.1863    14.3995
 1489.0000   144.4433    14.8731
 1489.5000   142.0385    14.8600
 1490.0000   140.7367    14.7432
 1490.5000   141.1996    14.8484
 1491.0000   141.6625    15.1893
 1491.5000   140.1401    15.1761
 1492.0000   135.9707    15.1924
 1492.5000   132.4521    15.4005
 1493.0000   131.6023    15.7414
 1493.5000   130.9243    14.9025
 1494.0000   131.4306    14.5206
 1494.5000   136.9670    14.5812
 1495.0000   142.2829    14.5238
 1495.5000   140.9810    14.4685
 1496.0000   132.6204    14.4529
 1496.5000   128.0098    14.5434
 1497.0000   126.7079    14.8543
 1497.5000   126.0679    14.6351
 1498.0000   127.4131    13.8255
 1498.5000   130.3025    13.3255
 1499.0000   132.9713    14.2121
 1499.5000   135.6400    15.7919
 1500.0000   137.4265    16.0739
 1500.5000   137.6690    15.5448
 1501.0000   137.0312    14.6323
 1501.5000   136.3934    14.3387
 1502.0000   136.8645    14.6361
 1502.5000   137.3296    15.3902
 1503.0000   138.4565    15.8362
 1503.5000   140.0245    15.6005
 1504.0000   141.5926    15.2041
 1504.5000   137.2048    15.2503
 1505.0000   134.3603    15.3712
 1505.5000   136.5909    15.5501
 1506.0000   140.5854    15.5347
 1506.5000   142.1535    15.3802
 1507.0000   138.7101    15.2598
 1507.5000   131.2602    15.4244
 1508.0000   125.4606    16.3408
 1508.5000   132.5494    17.1834
 1509.0000   138.0881    18.0403
 1509.5000   138.9884    17.8656
 1510.0000   136.8124    17.5426
 1510.5000   135.9480    17.7367
 1511.0000   137.7427    17.5616
 1511.5000   137.7666    16.0148
 1512.0000   139.9964    15.6770
 1512.5000   143.9910    16.1051
 1513.0000   146.6620    16.9938
 1513.5000   144.7006    16.9662
 1514.0000   140.0922    15.9360
 1514.5000   141.4397    15.9837
 1515.0000   144.3313    17.0385
 1515.5000   145.8994    19.3944
 1516.0000   145.2355    20.3636
 1516.5000   143.3002    20.6359
 1517.0000   144.4603    21.1245
 1517.5000   142.6923    21.5684
 1518.0000   138.9662    21.0104
 1518.5000   137.2195    20.1125
 1519.0000   137.0228    18.8308
 1519.5000   137.2734    19.5706
 1520.0000   138.8414    20.8852
 1520.5000   140.8507    21.5803
 1521.0000   142.6393    21.6117
 1521.5000   140.6780    21.5989
 1522.0000   140.0341    21.5418
 1522.5000   141.1670    21.5584
 1523.0000   141.8468    21.5898
 1523.5000   140.7738    21.5917
 1524.0000   140.5765    21.6084
 1524.5000   140.8236    21.5365
 1525.0000   141.0682    20.4765
 1525.5000   141.7539    19.5748
 1526.0000   143.1014    19.9051
 1526.5000   144.4488    20.9837
 1527.0000   140.2816    20.9708
 1527.5000   136.7761    20.8105
 1528.0000   134.1530    21.0973
 1528.5000   131.9534    21.3600
 1529.0000   129.7487    21.0207
 1529.5000   128.9307    20.2871
 1530.0000   133.5930    20.2747
 1530.5000   141.9993    20.1291
 1531.0000   147.5380    19.4378
 1531.5000   151.7531    19.7494
 1532.0000   152.2122    20.6215
 1532.5000   150.5301    20.2400
 1533.0000   148.1848    19.1947
 1533.5000   141.9244    19.5653
 1534.0000   139.0807    20.5997
 1534.5000   141.5311    21.1768
 1535.0000   142.8786    20.6035
 1535.5000   142.2408    19.8384
 1536.0000   137.1912    19.1323
 1536.5000   134.5681    18.0133
 1537.0000   134.3654    17.4547
 1537.5000   136.1601    16.1144
 1538.0000   138.8311    15.7478
 1538.5000   139.9580    15.3182
 1539.0000   139.3201    16.4151
 1539.5000   138.2412    17.1397
 1540.0000   136.9416    17.1269
 1540.5000   136.9655    16.7456
 1541.0000   137.8810    17.2195
 1541.5000   137.8342    18.1358
 1542.0000   134.7030    18.0640
 1542.5000   132.2144    16.1926
 1543.0000   132.0117    15.9437
 1543.5000   134.0269    15.4294
 1544.0000   137.1391    14.9856
 1544.5000   138.2660    15.5807
 1545.0000   134.9811    15.7601
 1545.5000   129.4904    14.9346
 1546.0000   127.0819    14.1998
 1546.5000   132.4059    15.5001
 1547.0000   134.1945    16.2246
 1547.5000   134.8743    17.7899
 1548.0000   132.2572    18.5314
 1548.5000   134.2664    17.6167
 1549.0000   141.7903    16.9549
 1549.5000   146.6672    17.2518
 1550.0000   148.0147    17.1652
 1550.5000   144.7337    16.4301
