~VERSION INFORMATION
 VERS.                2.0:   CWLS LOG ASCII STANDARD - VERSION 2.0
 WRAP.                 NO:   ONE LINE PER DEPTH STEP
~WELL INFORMATION
#MNEM.UNIT      DATA TYPE    INFORMATION
#----------   ------------   ------------------------------
 STRT.F           24.0000:   START DEPTH
 STOP.F          472.0000:   STOP DEPTH
 STEP.F            0.5000:   STEP LENGTH
 NULL.          -999.2500:   NO VALUE
 COMP. FENIX & SCISSON INC:   COMPANY
 WELL. 55-66 SX-3-FP #55-3:   WELL
 FLD .             WLDCAT:   FIELD
 LOC .       S3 T38N R78W:   LOCATION
 CNTY.            NATRONA:   COUNTY
 STAT.            WYOMING:   STATE
 CTRY. UNITED STATES OF AMERICA:   COUNTRY
 SRVC.              Welex:   SERVICE COMPANY
 DATE.        11-JUN-1980:   LOGDATE
 API .       490251082200:   API NUMBER
~CURVE INFORMATION
#MNEM.UNIT       API CODE    CURVE DESCRIPTION
#----------   ------------   ------------------------------
 DEPT.F                  :   
 SPR .MV     07 010 01 00:   SPONTANEOUS POTENTIAL
 GURD.OHMM   07 220 05 00:   GUARD RESISTIVITY
 ILD .OHMM   07 120 46 00:   INDUCTION LOG DEEP RESISTIVITY
 ILM .OHMM   07 120 44 00:   INDUCTION LOG MEDIUM
 DPHI.DEC    45 890 12 00:   DENSITY POROSITY SANDSTONE
 NPHI.DEC    42 890 03 00:   NEUTRON POROSITY SANDSTONE
 CORR.G/C3   45 356 01 00:   DENSITY CORRECTION
 RHOB.G/C3   45 350 01 00:   BULK DENSITY
 CALD.IN     45 280 60 00:   CALIPER
 GRD .GAPI   45 310 01 00:   GAMMA RAY FROM DENSITY LOG
~PARAMETER INFORMATION
#MNEM.UNIT          VALUE    DESCRIPTION
#----------   ------------   ------------------------------
 PD  .                 GL:   PERMANENT DATUM
 EPD .F              5169:   ELEVATION PERMANENT DATUM
 LMF .                 KB:   LOG MEASURED FROM
 DAPD.F                 5:   FEET ABOVE PERMANENT DATUM
 DMF .                 KB:   DRILLING MEASURED FROM
 EKB .F              5174:   KELLING BUSHING
 EGL .F              5169:   GROUND LEVEL
 DATE.            6-11-80:   RUN DATE
 RUN .                  1:   RUN NUMBER
 DD  .F               472:   DEPTH DRILLER
 DL  .F               472:   DEPTH LOGGER
 BLI .F               470:   BOTTOM LOG INTERVAL
 TLI .F                30:   TOP LOG INTERVAL
 BS  .IN            9.875:   BIT SIZE
 BSD .F               472:   BIT SIZE AT DEPTH
 DFT .                KCL:   DRILLING FLUID TYPE
 DFD .                9.5:   DRILLING FLUID DENSITY
 DFV .                 47:   DRILLING FLUID VISCOSITY
 DFPH.                 12:   DRILLING FLUID PH
 DFL .                7.2:   DRILLING FLUID LOSS
 MSS .           MUD TANK:   MUD SAMPLE SOURCE
 RMS .OHMM            .26:   RESISTIVITY MUD SAMPLE
 MST .F                75:   MUD SAMPLE TEMPERATURE
 RMF .OHMM            .21:   RESISTIVITY MUD FILTRATE SAMPLE
 MFST.F                75:   MUD FILTRATE SAMPLE TEMPERATURE
 RMC .OHMM            .31:   RESISTIVITY MUD CAKE
 MCST.F                75:   MUD CAKE SAMPLE TEMPERATURE
 MFSS.           MEASURED:   MUD FILTRATE SAMPLE SOURCE
 MCSS.           MEASURED:   MUD CAKE SAMPLE SOURCE
 RMB .OHMM            .26:   RESISTIVITY MUD AT BHT
 BHT .F                75:   BOTTOM HOLE TEMPERATURE
 TCS .HRS             1.5:   TIME CURCULATED STOPPED
 MRT .F                75:   MAXIMUM RECORDED TEMPERATURE
 LUN .               9685:   LOGGING UNIT NUMBER
 LUL .             CASPER:   LOGGING UNIT LOCATION
 ENGI.               REIN:   RECORDING ENGINEER
 WITN.          DINSMOORE:   WITNESSED BY
 CLNT.            A2DTECH:   CLIENT CODE
 ORIG.           5" PRINT:   ORIGIN OF DATA
 UWI .       490251082200:   UNIQUE WELL ID
 DICO. A2D Technologies, Inc.:   DIGITIZING COMPANY
~OTHER INFORMATION
~A   DEPT      SPR       GURD        ILD        ILM         DPHI       NPHI     CORR       RHOB        CALD       GRD   
# ...
  359.0000   -40.9430    29.9717    20.0283    18.0748     0.1856     0.2895     0.0961     2.3024    10.0627    71.7918
  359.5000   -40.6438    30.5305    20.8623    18.2419     0.1806     0.2903     0.1003     2.3078    10.0619    72.7511
  360.0000   -40.3446    30.8283    21.6021    17.1829     0.1802     0.2856     0.0913     2.3168    10.0612    73.3533
  360.5000   -40.0453    29.7070    22.1302    16.0371     0.1835     0.2873     0.0826     2.3111    10.0604    72.8726
  361.0000   -39.7461    30.3230    21.5945    17.2701     0.1868     0.2893     0.0900     2.3056    10.0597    72.0583
  361.5000   -39.4467    31.4265    21.0214    18.7330     0.1845     0.2912     0.0958     2.3051    10.0590    71.2360
  362.0000   -39.1475    32.5741    20.4635    19.6497     0.1811     0.2907     0.0901     2.3117    10.0582    71.4788
  362.5000   -38.8457    33.1841    19.9202    19.9834     0.1903     0.2880     0.0826     2.3026    10.0575    72.4108
  363.0000   -38.7110    30.7785    19.3914    20.3376     0.1901     0.2852     0.0900     2.2955    10.0568    72.1478
  363.5000   -38.6568    29.1063    18.8768    20.5598     0.1856     0.2835     0.1049     2.3051    10.0560    72.2075
  364.0000   -38.6038    27.5278    18.3758    20.3717     0.1750     0.2826     0.1200     2.3168    10.0553    73.0660
  364.5000   -38.5507    26.6015    18.0453    20.2351     0.1645     0.2814     0.1219     2.3361    10.0546    73.8932
  365.0000   -38.4976    27.0077    17.8895    20.0995     0.1548     0.2799     0.1118     2.3545    10.0538    74.7287
  365.5000   -38.4442    27.3046    17.7350    19.9648     0.1523     0.2784     0.1139     2.3722    10.0531    75.4482
  366.0000   -38.3911    27.5988    17.5819    19.8310     0.1595     0.2768     0.1024     2.3587    10.0523    74.6180
  366.5000   -38.3529    27.5997    17.4300    19.6981     0.1653     0.2770     0.0975     2.3516    10.0516    73.7829
  367.0000   -38.4048    27.2139    17.2795    19.5660     0.1581     0.2790     0.1036     2.3562    10.0509    73.9537
  367.5000   -38.4557    26.9271    17.1303    19.4349     0.1574     0.2797     0.1100     2.3562    10.0501    75.0918
  368.0000   -38.5062    26.3482    16.9823    19.3046     0.1630     0.2754     0.1095     2.3498    10.0494    74.7646
  368.5000   -38.5567    25.3867    16.8357    19.1752     0.1677     0.2711     0.0936     2.3434    10.0487    74.3621
  369.0000   -38.6072    24.4603    16.6903    19.0467     0.1724     0.2702     0.0677     2.3369    10.0479    75.1811
  369.5000   -38.6579    23.8460    16.5461    18.9190     0.1728     0.2733     0.0551     2.3354    10.0472    76.1149
  370.0000   -38.7079    28.6843    16.4032    18.7922     0.1529     0.2745     0.0671     2.3540    10.0464    76.3381
  370.5000   -38.7314    33.5351    16.2616    18.6663     0.1455     0.2752     0.0724     2.3786    10.0457    76.4211
  371.0000   -38.6662    29.6523    16.1211    18.4105     0.1405     0.2770     0.0729     2.3952    10.0450    76.9322
  371.5000   -38.6039    24.7137    15.9819    18.5880     0.1282     0.2797     0.0829     2.4246    10.0442    77.8295
  372.0000   -38.5418    24.5739    15.8902    18.8364     0.1358     0.2783     0.0832     2.4263    10.0435    78.7307
  372.5000   -38.4796    24.3797    15.9682    19.0882     0.1451     0.2760     0.0842     2.4036    10.0428    79.5474
  373.0000   -38.4175    24.1968    16.0276    19.3433     0.1486     0.2747     0.0983     2.3818    10.0420    79.5607
  373.5000   -38.3553    24.0418    16.0870    19.4555     0.1583     0.2754     0.0949     2.3665    10.0413    79.2006
  374.0000   -38.2932    24.2282    16.1464    19.4555     0.1362     0.2762     0.1168     2.3955    10.0406    78.5515
  374.5000   -38.2310    24.3982    16.2060    19.4555     0.1417     0.2785     0.1138     2.3804    10.0398    77.8994
  375.0000   -38.1689    24.7010    16.2659    19.4555     0.1520     0.2816     0.1007     2.3599    10.0391    77.8134
  375.5000   -38.1065    24.2648    16.3260    19.4575     0.1549     0.2836     0.1043     2.3664    10.0383    77.9654
  376.0000   -38.0445    23.8119    16.3863    19.4618     0.1576     0.2814     0.1099     2.3741    10.0376    78.4503
  376.5000   -37.9844    23.3863    16.4469    19.4632     0.1637     0.2801     0.0937     2.3545    10.0368    78.9282
  377.0000   -38.0567    23.7720    16.5076    19.2830     0.1697     0.2795     0.0755     2.3354    10.0378    79.4126
  377.5000   -38.3021    24.5029    16.5686    18.6441     0.1753     0.2785     0.0574     2.3220    10.0395    79.5540
  378.0000   -38.5452    23.1668    16.6383    18.2668     0.1755     0.2779     0.0622     2.3399    10.0412    79.5554
  378.5000   -38.7893    23.1788    16.4285    17.8971     0.1759     0.2789     0.0779     2.3310    10.0429    79.5449
  379.0000   -39.0332    23.1721    16.1172    17.5349     0.1755     0.2812     0.0823     2.3221    10.0447    79.9400
  379.5000   -39.2867    22.6387    15.8117    17.4217     0.1661     0.2832     0.0897     2.3404    10.0464    80.4135
  380.0000   -39.1981    21.9275    15.5121    17.7248     0.1491     0.2808     0.1022     2.3723    10.0481    80.8879
  380.5000   -38.9311    21.9324    15.2181    17.9318     0.1529     0.2778     0.1064     2.3814    10.0499    81.3619
  381.0000   -38.6589    21.8102    14.9297    18.1414     0.1603     0.2748     0.0946     2.3719    10.0516    81.8339
  381.5000   -38.5979    21.7273    14.6274    18.4128     0.1637     0.2738     0.0827     2.3398    10.0533    82.3176
  382.0000   -38.6824    21.3377    14.3345    18.3728     0.1570     0.2753     0.0766     2.3464    10.0551    82.1738
  382.5000   -38.7692    20.6287    14.1777    18.1032     0.1491     0.2765     0.0957     2.3667    10.0568    81.7756
  383.0000   -38.8563    20.0000    14.0163    17.8375     0.1435     0.2734     0.1059     2.3865    10.0585    81.3439
  383.5000   -38.9432    19.6489    13.8582    17.5757     0.1432     0.2730     0.1127     2.3920    10.0603    82.1179
  384.0000   -39.0301    19.1007    13.7019    17.3178     0.1472     0.2762     0.1138     2.3851    10.0620    83.1185
  384.5000   -39.1170    19.1563    13.5473    16.8379     0.1518     0.2767     0.0874     2.3753    10.0637    82.8236
  385.0000   -39.2038    19.2277    13.3945    16.1358     0.1455     0.2744     0.0761     2.3706    10.0655    82.3423
  385.5000   -39.2907    19.2993    13.2433    15.6005     0.1423     0.2722     0.0780     2.3907    10.0672    82.6609
  386.0000   -39.3776    19.3712    13.0939    16.0962     0.1469     0.2698     0.0921     2.3949    10.0689    83.1588
  386.5000   -39.4645    19.4443    12.9462    16.4860     0.1516     0.2729     0.0773     2.3740    10.0707    83.2012
  387.0000   -39.5513    19.4619    12.8001    16.3049     0.1542     0.2765     0.0694     2.3641    10.0724    82.7179
  387.5000   -39.6382    19.3156    12.6557    16.0371     0.1486     0.2779     0.0864     2.3770    10.0741    83.6647
  388.0000   -39.7251    18.0948    12.5129    15.5439     0.1468     0.2810     0.1001     2.3612    10.0706    84.9773
  388.5000   -39.8120    16.7983    12.3718    14.9840     0.1437     0.2828     0.0779     2.3729    10.0596    85.9821
  389.0000   -39.8988    16.6383    12.2322    14.4443     0.1386     0.2797     0.0895     2.3946    10.0488    84.5765
  389.5000   -39.9852    16.9674    12.0942    13.9697     0.1302     0.2764     0.1037     2.4162    10.0379    82.6576
  390.0000   -40.0728    17.2621    11.9577    13.8483     0.1361     0.2740     0.1080     2.4225    10.0270    81.1993
  390.5000   -40.1979    17.0632    11.8243    13.7378     0.1452     0.2735     0.0894     2.3874    10.0161    80.4982
  391.0000   -40.4844    16.7842    11.7048    13.6282     0.1542     0.2765     0.0690     2.3782    10.0054    79.7888
  391.5000   -40.7655    16.5097    11.5864    13.5194     0.1571     0.2731     0.0618     2.3585     9.9993    79.0799
  392.0000   -41.0484    16.2397    11.4692    13.4116     0.1498     0.2689     0.0499     2.3683    10.0036    78.9583
