~VERSION INFORMATION
 VERS.                2.0:   CWLS LOG ASCII STANDARD - VERSION 2.0
 WRAP.                 NO:   ONE LINE PER DEPTH STEP
~WELL INFORMATION
#MNEM.UNIT      DATA TYPE    INFORMATION
#----------   ------------   ------------------------------
 STRT.F           32.0000:   START DEPTH
 STOP.F          738.0000:   STOP DEPTH
 STEP.F            0.5000:   STEP LENGTH
 NULL.          -999.2500:   NO VALUE
 COMP. FENIX & SCISSON INC:   COMPANY
 WELL.       NPR-3 #43-34:   WELL
 FLD .             TEAPOT:   FIELD
 LOC .      S34 T39N R78W:   LOCATION
 CNTY.            NATRONA:   COUNTY
 STAT.            WYOMING:   STATE
 CTRY. UNITED STATES OF AMERICA:   COUNTRY
 SRVC.            Unknown:   SERVICE COMPANY
 DATE.        26-AUG-1978:   LOGDATE
 API .       490251069900:   API NUMBER
~CURVE INFORMATION
#MNEM.UNIT       API CODE    CURVE DESCRIPTION
#----------   ------------   ------------------------------
 DEPT.F                  :   
 GRD .GAPI   45 310 01 00:   GAMMA RAY FROM DENSITY LOG
 CALD.IN     45 280 60 00:   CALIPER
 RHOB.G/C3   45 350 01 00:   BULK DENSITY
 DPHI.DEC    45 890 12 00:   DENSITY POROSITY SANDSTONE
 CORR.G/C3   45 356 01 00:   DENSITY CORRECTION
 SPR .MV     05 010 01 00:   SPONTANEOUS POTENTIAL FROM RES.
 SN  .OHMM   05 040 16 00:   SHORT NORMAL 16"
 ILD .OHMM   05 120 46 00:   INDUCTION LOG DEEP
~PARAMETER INFORMATION
#MNEM.UNIT          VALUE    DESCRIPTION
#----------   ------------   ------------------------------
 PD  .                 GL:   PERMANENT DATUM
 EPD .F              5110:   ELEVATION PERMANENT DATUM
 LMF .                 KB:   LOG MEASURED FROM
 DAPD.F                 4:   FEET ABOVE PERMANENT DATUM
 DMF .                 KB:   DRILLING MEASURED FROM
 EKB .F              5114:   KELLING BUSHING
 EGL .F              5110:   GROUND LEVEL
 DATE.            8-26-78:   RUN DATE
 RUN .                  1:   RUN NUMBER
 DD  .F               748:   DEPTH DRILLER
 DL  .F               738:   DEPTH LOGGER
 BLI .F               732:   BOTTOM LOG INTERVAL
 TLI .F                40:   TOP LOG INTERVAL
 CS  .IN            8.625:   CASING SIZE
 CBD .F                40:   CASING BOTTOM DRILLER
 CBL .F                40:   CASING BOTTOM LOGGER
 BS  .IN            7.875:   BIT SIZE
 BSD .F               748:   BIT SIZE AT DEPTH
 DFT .                KCL:   DRILLING FLUID TYPE
 DFD .                8.7:   DRILLING FLUID DENSITY
 DFV .                 33:   DRILLING FLUID VISCOSITY
 DFPH.                  9:   DRILLING FLUID PH
 DFL .                 10:   DRILLING FLUID LOSS
 MSS .          FLOW LINE:   MUD SAMPLE SOURCE
 RMS .OHMM            .36:   RESISTIVITY MUD SAMPLE
 MST .F                80:   MUD SAMPLE TEMPERATURE
 RMF .OHMM             .3:   RESISTIVITY MUD FILTRATE SAMPLE
 MFST.F                80:   MUD FILTRATE SAMPLE TEMPERATURE
 RMC .OHMM            .48:   RESISTIVITY MUD CAKE
 MCST.F                82:   MUD CAKE SAMPLE TEMPERATURE
 MFSS.               MEAS:   MUD FILTRATE SAMPLE SOURCE
 MCSS.               MEAS:   MUD CAKE SAMPLE SOURCE
 TCS .HRS               2:   TIME CURCULATED STOPPED
 LUN .               2958:   LOGGING UNIT NUMBER
 LUL .               CASP:   LOGGING UNIT LOCATION
 ENGI.             MILLER:   RECORDING ENGINEER
 WITN.              AMEND:   WITNESSED BY
 CLNT.            A2DTECH:   CLIENT CODE
 ORIG.           5" PRINT:   ORIGIN OF DATA
 UWI .       490251069900:   UNIQUE WELL ID
 DICO. A2D Technologies, Inc.:   DIGITIZING COMPANY
~OTHER INFORMATION
~A   DEPT       GRD      CALD       RHOB       DPHI       CORR        SPR         SN        ILD   
# ...
  518.0000   109.4470     6.9389     2.4983     0.1029     0.0220   -38.4603     6.6678     6.4224
  518.5000   107.5050     6.9358     2.5082     0.1001     0.0193   -38.3018     6.7294     6.4865
  519.0000   105.4260     6.9358     2.5143     0.1036     0.0194   -38.1450     6.6771     6.3938
  519.5000   103.2639     6.9359     2.5050     0.1124     0.0195   -38.0695     6.6405     6.1792
  520.0000   102.1433     6.9359     2.4946     0.1144     0.0192   -37.9262     6.6085     5.9005
  520.5000   100.1249     6.9359     2.4841     0.1276     0.0248   -37.9195     6.4645     5.6344
  521.0000   104.2902     6.9359     2.4775     0.1416     0.0285   -37.9205     6.3083     5.3804
  521.5000   104.5050     6.9359     2.4580     0.1556     0.0323   -37.9208     6.0489     5.2504
  522.0000   106.2300     6.9359     2.4356     0.1600     0.0360   -37.9208     5.6474     5.2504
  522.5000    99.0548     6.9359     2.4133     0.1498     0.0396   -37.9208     5.2989     5.2133
  523.0000   113.7993     6.9359     2.4274     0.1379     0.0429   -37.9208     5.2989     5.1790
  523.5000   113.2639     6.9359     2.4651     0.1260     0.0408   -37.9208     5.4131     5.1547
  524.0000   115.4943     6.9359     2.4932     0.1157     0.0389   -37.9208     5.8309     5.1547
  524.5000   113.7932     6.9359     2.5043     0.1116     0.0378   -37.9208     6.2808     5.5216
  525.0000   109.9088     6.9359     2.5018     0.1068     0.0417   -37.9208     6.7714     5.8358
  525.5000   106.0521     6.9363     2.5002     0.1016     0.0443   -37.9208     7.0493     6.3706
  526.0000   102.1557     6.9379     2.5115     0.0983     0.0470   -37.9208     7.2375     7.0459
  526.5000   100.4030     6.9394     2.5240     0.0947     0.0452   -37.9208     7.4316     7.1957
  527.0000   100.3984     6.9409     2.5239     0.0912     0.0422   -37.9208     7.6328     7.4123
  527.5000   101.1754     6.9424     2.5220     0.0912     0.0392   -37.9208     7.8394     7.6536
  528.0000   101.9714     6.9439     2.5225     0.0917     0.0363   -37.9209     7.9402     7.7242
  528.5000   102.9147     6.9455     2.5240     0.0920     0.0333   -37.9210     7.8982     7.6464
  529.0000   103.9970     6.9470     2.5227     0.0933     0.0314   -37.9202     7.8666     7.6244
  529.5000   106.4901     6.9485     2.5152     0.0955     0.0313   -37.8701     7.8351     7.6034
  530.0000   106.9367     6.9500     2.5105     0.0978     0.0333   -37.7112     7.7956     7.5800
  530.5000   102.6090     6.9515     2.5029     0.1001     0.0356   -37.5547     7.8322     7.6569
  531.0000   102.2075     6.9530     2.4976     0.1020     0.0380   -37.3969     7.9003     7.6722
  531.5000   101.8764     6.9545     2.5002     0.1009     0.0405   -37.3278     7.9689     7.6977
  532.0000   100.5562     6.9561     2.5087     0.0988     0.0411   -37.3412     8.0135     7.7242
  532.5000    99.7391     6.9576     2.5167     0.0967     0.0406   -37.3672     7.9088     7.6779
  533.0000   100.6060     6.9591     2.5155     0.0964     0.0401   -37.3935     7.8323     7.6298
  533.5000   105.5005     6.9606     2.5085     0.0982     0.0395   -37.4197     7.7566     7.5819
  534.0000   105.7370     6.9621     2.5031     0.1000     0.0399   -37.4459     7.7242     7.5343
  534.5000   108.8427     6.9636     2.5048     0.1018     0.0433   -37.4721     7.8255     7.5139
  535.0000   104.0421     6.9652     2.5255     0.1036     0.0455   -37.4985     7.9002     7.6745
  535.5000    99.7145     6.9667     2.5106     0.1036     0.0447   -37.5233     7.9756     7.7937
  536.0000   100.5362     6.9682     2.4998     0.1032     0.0431   -37.5023     8.0517     7.9145
  536.5000   100.7870     6.9697     2.5045     0.0991     0.0485   -37.4790     8.1286     8.0132
  537.0000    97.6233     6.9712     2.5156     0.0954     0.0567   -37.4558     8.2062     8.0167
  537.5000    94.3851     6.9727     2.5271     0.0916     0.0636   -37.4327     8.2376     7.7956
  538.0000    92.8399     6.9743     2.5299     0.1081     0.0635   -37.4095     8.1138     7.4454
  538.5000    95.5775     6.9760     2.4973     0.1342     0.0633   -37.3864     7.9121     6.9580
  539.0000   102.3996     6.9698     2.4592     0.1766     0.0659   -37.3633     7.5712     6.5042
  539.5000   109.8019     6.9627     2.4211     0.1764     0.0665   -37.3403     7.0555     6.2523
  540.0000   116.3778     6.9556     2.3889     0.1625     0.0673   -37.3266     6.5733     6.2096
  540.5000   122.8046     6.9485     2.4403     0.1376     0.0667   -37.3268     6.2495     6.1577
  541.0000   121.0636     6.9414     2.5245     0.1127     0.0658   -37.3268     6.2495     6.1384
  541.5000   108.6018     6.9344     2.5347     0.0900     0.0648   -37.3278     6.3073     6.1384
  542.0000    94.3768     6.9273     2.5207     0.0926     0.0639   -37.3346     6.3027     6.1951
  542.5000    88.3542     6.9203     2.5384     0.0956     0.0642   -37.0159     8.3047     7.1252
  543.0000    88.6446     6.9146     2.5231     0.0956     0.0664   -36.7265     8.7209     8.1489
  543.5000    90.0450     6.9073     2.5185     0.0959     0.0685   -36.6782     9.2169     8.7754
  544.0000    90.5833     6.9002     2.5189     0.0964     0.0708   -36.5451     9.7198     9.1428
  544.5000    90.0409     6.8930     2.5190     0.0994     0.0714   -36.3917     9.7874     9.2790
  545.0000    90.0283     6.8858     2.5181     0.1047     0.0714   -35.9421     9.8521     9.3689
  545.5000    90.2404     6.8786     2.5111     0.1096     0.0714   -35.3659     9.9173     9.5056
  546.0000    93.4877     6.8761     2.5036     0.1096     0.0713   -34.7843     9.9829     9.6365
  546.5000    95.1715     6.8857     2.4988     0.1080     0.0738   -34.3696     9.9916     9.7691
  547.0000    96.8334     6.8957     2.5023     0.0995     0.0800   -34.4766    10.0838     9.9027
  547.5000    99.4802     6.9060     2.5144     0.0936     0.1004   -34.5290    10.2709    10.0386
  548.0000    94.0435     6.9143     2.5243     0.1009     0.1091   -33.5401    10.6902    10.4837
  548.5000    83.7260     6.8529     2.5186     0.1221     0.1033   -32.6283    11.3368    11.1453
  549.0000    73.3774     6.7861     2.4856     0.1452     0.0967   -31.7150    11.9130    11.7920
  549.5000    63.7770     6.7631     2.4532     0.1663     0.0901   -30.7966    12.3483    12.6576
  550.0000    61.7987     6.7486     2.4207     0.1663     0.0944   -29.8754    12.7141    13.5649
  550.5000    57.7610     6.7309     2.4043     0.1639     0.0980   -28.5163    12.7987    14.5703
  551.0000    56.7690     6.6895     2.4074     0.1604     0.0973   -26.6856    12.8838    14.5691
  551.5000    54.5830     6.6541     2.4122     0.1548     0.0934   -25.8531    12.9695    14.4466
  552.0000    52.4257     6.6198     2.4208     0.1520     0.0890   -25.4430    13.0557    14.3575
  552.5000    52.5777     6.5948     2.4268     0.1554     0.0858   -25.2179    13.1426    14.2995
  553.0000    53.9149     6.5927     2.4256     0.1631     0.0823   -25.1535    13.1642    14.2295
  553.5000    61.3414     6.5850     2.4205     0.1749     0.0778   -25.0843    12.9273    14.1686
  554.0000    66.3388     6.5778     2.3978     0.1874     0.0682   -24.7378    12.8277    14.2987
  554.5000    63.9026     6.5901     2.3753     0.1991     0.0584   -23.8837    12.7289    14.2350
  555.0000    60.8606     6.6215     2.3553     0.1991     0.0559   -23.0224    12.6307    14.1253
  555.5000    58.1250     6.6528     2.3533     0.1993     0.0603   -22.7840    12.5728    14.0390
  556.0000    57.8116     6.6841     2.3515     0.2007     0.0659   -22.3057    12.5563    14.0243
  556.5000    54.7089     6.7154     2.3502     0.2026     0.0714   -21.8419    12.5166    14.0062
  557.0000    53.3490     6.7485     2.3509     0.2043     0.0690   -21.4722    12.4771    13.9882
  557.5000    53.1448     6.7959     2.3404     0.2173     0.0584   -21.3628    12.4376    13.9702
  558.0000    50.9460     6.9267     2.3183     0.2291     0.0481   -21.2446    12.3983    13.9522
