~VERSION INFORMATION
 VERS.                2.0:   CWLS LOG ASCII STANDARD - VERSION 2.0
 WRAP.                 NO:   ONE LINE PER DEPTH STEP
~WELL INFORMATION
#MNEM.UNIT      DATA TYPE    INFORMATION
#----------   ------------   ------------------------------
 STRT.F           32.0000:   START DEPTH
 STOP.F         1006.0000:   STOP DEPTH
 STEP.F            0.5000:   STEP LENGTH
 NULL.          -999.2500:   NO VALUE
 COMP. FENIX & SCISSON INC:   COMPANY
 WELL.        NPR-3 #54-2:   WELL
 FLD .             TEAPOT:   FIELD
 LOC .       S2 T38N R78W:   LOCATION
 CNTY.            NATRONA:   COUNTY
 STAT.            WYOMING:   STATE
 CTRY. UNITED STATES OF AMERICA:   COUNTRY
 SRVC.              Welex:   SERVICE COMPANY
 DATE.        08-SEP-1977:   LOGDATE
 API .       490251041600:   API NUMBER
~CURVE INFORMATION
#MNEM.UNIT       API CODE    CURVE DESCRIPTION
#----------   ------------   ------------------------------
 DEPT.F                  :   
 CALD.IN     45 280 60 00:   CALIPER FROM DENSITY LOG
 GRD .GAPI   45 310 01 00:   GAMMA RAY FROM DENSITY LOG
 CORR.G/C3   45 356 01 00:   DENSITY CORRECTION
 DPHI.DEC    45 890 12 00:   DENSITY POROSITY SANDSTONE
 RHOB.G/C3   45 350 01 00:   BULK DENSITY
 SPR .MV     07 010 01 00:   SPONTANEOUS POTENTIAL
 ILD .OHMM   07 120 46 00:   INDUCTION LOG DEEP
 ILM .OHMM   07 120 44 00:   INDUCTION LOG MEDIUM
 SGRD.OHMM   07 221 05 00:   SHALLOW SHORT GUARD RESISTIVITY
~PARAMETER INFORMATION
#MNEM.UNIT          VALUE    DESCRIPTION
#----------   ------------   ------------------------------
 PD  .                 GL:   PERMANENT DATUM
 EPD .F              5160:   ELEVATION PERMANENT DATUM
 LMF .                 KB:   LOG MEASURED FROM
 DAPD.F                10:   FEET ABOVE PERMANENT DATUM
 DMF .                 KB:   DRILLING MEASURED FROM
 EKB .F              5170:   KELLING BUSHING
 EGL .F              5160:   GROUND LEVEL
 DATE.        08-SEP-1977:   RUN DATE
 RUN .                  1:   RUN NUMBER
 DD  .F              1000:   DEPTH DRILLER
 DL  .F              1008:   DEPTH LOGGER
 BLI .F              1006:   BOTTOM LOG INTERVAL
 TLI .F                47:   TOP LOG INTERVAL
 CS  .IN            8.625:   CASING SIZE
 BS  .IN             6.75:   BIT SIZE
 BSD .F              1000:   BIT SIZE AT DEPTH
 DFT .            KCL MUD:   DRILLING FLUID TYPE
 DFD .                9.1:   DRILLING FLUID DENSITY
 BHT .F               100:   BOTTOM HOLE TEMPERATURE
 TCS .HRS            0230:   TIME CURCULATED STOPPED
 MRT .F               100:   MAXIMUM RECORDED TEMPERATURE
 ENGI.          D. LAWSON:   RECORDING ENGINEER
 WITN.         HARRINGTON:   WITNESSED BY
 CLNT.            A2DTECH:   CLIENT CODE
 ORIG.           5" PRINT:   ORIGIN OF DATA
 UWI .       490251041600:   UNIQUE WELL ID
 DICO. A2D Technologies, Inc.:   DIGITIZING COMPANY
~OTHER INFORMATION
~A   DEPT     CALD         GRD       CORR      DPHI         RHOB      SPR        ILD        ILM       SGRD   
# ...
  470.0000     6.9344    84.6037    -0.0056     0.1424     2.4222   -44.3348     7.1382     7.3176    10.1041
  470.5000     6.9361    88.1449    -0.0084     0.1466     2.4222   -44.3191     7.2422     7.2711    10.4512
  471.0000     6.9377    90.8870    -0.0083     0.1451     2.4231   -44.4521     7.2467     7.1258    10.6765
  471.5000     6.9393    86.6708    -0.0052     0.1435     2.4254   -44.5850     7.1505     7.0804    10.8961
  472.0000     6.9409    84.6449    -0.0021     0.1414     2.4292   -44.5680     7.0566     6.9389    10.6358
  472.5000     6.9426    88.6987     0.0010     0.1387     2.4345   -44.5520     6.9171     6.8472     9.7533
  473.0000     6.9442    87.0883     0.0026     0.1351     2.4383   -44.5351     6.7792     6.7104     9.3059
  473.5000     6.9458    83.2223     0.0057     0.1315     2.4429   -44.5187     6.5983     6.6677     9.0592
  474.0000     6.9475    84.4765     0.0088     0.1281     2.4474   -44.3528     6.4580     6.5344     8.8190
  474.5000     6.9491    88.1257     0.0104     0.1248     2.4535   -44.3363     6.2858     6.4928     8.6449
  475.0000     6.9657    91.0306     0.0120     0.1209     2.4588   -44.3199     6.1252     6.4516     8.5924
  475.5000     6.9673    88.1639     0.0122     0.1193     2.4566   -44.1539     6.0389     6.4107     8.7788
  476.0000     6.9839    85.0166     0.0123     0.1265     2.4402   -46.3795     5.9195     6.3702     8.9694
  476.5000     6.9855    84.5075     0.0139     0.1272     2.4357   -45.4661     5.8062     6.3296     9.0380
  477.0000     7.0171    86.5382     0.0155     0.1226     2.4493   -44.4033     5.7300     6.3333     8.9817
  477.5000     7.0486    86.6361     0.0171     0.1178     2.4561   -44.2227     5.6921     6.3808     8.9881
  478.0000     7.0504    83.9158     0.0187     0.1150     2.4622   -44.5202     5.6583     6.5183     8.9944
  478.5000     7.0668    81.2908     0.0203     0.1135     2.4660   -44.6532     5.6619     6.7984     9.0632
  479.0000     7.0685    86.4479     0.0204     0.1114     2.4698   -44.7862     5.7048     7.0416     9.0695
  479.5000     7.0701    92.7897     0.0205     0.1102     2.4744   -44.9193     5.7480     7.1427     9.0758
  480.0000     7.0717    91.5592     0.0191     0.1101     2.4760   -44.9020     5.8317     6.8097     8.5334
  480.5000     7.0734    85.5618     0.0192     0.1110     2.4730   -44.8855     5.9167     6.5818     8.4204
  481.0000     7.0600    83.1743     0.0178     0.1122     2.4693   -44.7195     6.0029     6.5391     8.4277
  481.5000     7.0621    84.1450     0.0164     0.1142     2.4656   -44.7030     6.0904     6.5891     8.6106
  482.0000     7.0487    85.6562     0.0135     0.1169     2.4596   -44.5370     6.1365     6.6846     9.5598
  482.5000     7.0504    87.6332     0.0121     0.1183     2.4521   -44.3710     6.2692     6.7815     9.8352
  483.0000     7.0520    89.3747     0.0107     0.1213     2.4432   -44.3544     6.3167     6.9276     9.7724
  483.5000     7.0383    86.8367     0.0093     0.1248     2.4373   -44.0390     6.4532     7.0281     9.7117
  484.0000     7.0250    86.4211     0.0079     0.1269     2.4307   -43.8730     6.5927     7.0808     9.6531
  484.5000     6.9967    89.4906     0.0080     0.1272     2.4310   -43.8564     6.7352     7.1339     9.6598
  485.0000     6.9987    91.2402     0.0066     0.1250     2.4357   -43.9935     6.8808     7.1379     9.7337
  485.5000     6.9850    89.0937     0.0067     0.1220     2.4418   -44.2718     6.9811     7.1418     9.9450
  486.0000     6.9717    83.7846     0.0083     0.1181     2.4498   -44.2553     6.9854     7.1458    10.2314
  486.5000     6.9737    81.4286     0.0085     0.1148     2.4581   -44.3882     6.8927     7.1498    10.4516
  487.0000     6.9600    85.6377     0.0101     0.1118     2.4657   -44.5212     6.7563     7.1044    10.2457
  487.5000     6.9467    87.5930     0.0102     0.1099     2.4725   -44.6583     6.6217     7.0584     9.8355
  488.0000     6.9487    84.5860     0.0118     0.1078     2.4770   -44.6376     6.4897     6.9652     9.5074
  488.5000     6.9504    82.9611     0.0134     0.1063     2.4824   -44.6211     6.3603     6.8733     9.0638
  489.0000     6.9371    81.3363     0.0150     0.1045     2.4869   -44.4551     6.2759     6.8306     8.9438
  489.5000     6.9387    79.8819     0.0166     0.1029     2.4922   -44.5922     6.1935     6.7873     9.3962
  490.0000     6.9403    79.4616     0.0167     0.1017     2.4983   -44.4220     6.1546     6.7911     9.3363
  490.5000     6.9419    83.1239     0.0183     0.1005     2.5028   -44.4055     6.1160     6.7470     9.2159
  491.0000     6.9436    81.9761     0.0229     0.0963     2.5112   -44.2395     6.1208     6.7986     8.7252
  491.5000     6.9452    74.8565     0.0276     0.0917     2.5217   -44.2230     6.2745     7.1400     8.3182
  492.0000     6.9468    75.6180     0.0307     0.0974     2.5053   -44.2065     6.3233     7.4985     8.4400
  492.5000     6.9485    84.1034     0.0292     0.1045     2.4926   -44.0405     6.4613     7.9848     8.8654
  493.0000     6.9501    85.9968     0.0249     0.1063     2.4837   -44.0239     6.6481     8.3857     9.7748
  493.5000     6.9517    84.1889     0.0189     0.1083     2.4763   -43.8579     6.8404     8.5664    12.0402
  494.0000     6.9534    82.5889     0.0145     0.1116     2.4681   -43.8414     7.0382     8.6307    11.5582
  494.5000     6.9550    82.1643     0.0146     0.1145     2.4592   -43.8249     7.2417     8.6355     9.5938
  495.0000     6.9567    82.3319     0.0148     0.1193     2.4503   -43.9620     7.4511     8.4627     9.2721
  495.5000     6.9583    82.6578     0.0149     0.1234     2.4406   -43.9447     7.4573     8.2935     9.9692
  496.0000     6.9599    84.4762     0.0150     0.1267     2.4354   -43.9282     7.4105     8.1276    10.6028
  496.5000     6.9616    85.6741     0.0151     0.1273     2.4325   -44.0619     7.1164     7.9650    10.7460
  497.0000     6.9782    85.0852     0.0152     0.1242     2.4408   -44.1238     6.7856     7.7519    10.5238
  497.5000     6.9798    83.3033     0.0168     0.1206     2.4476   -44.3878     6.6058     7.6496    10.3877
  498.0000     6.9862    76.1451     0.0169     0.1179     2.4559   -44.6123     6.4308     7.2416    10.1836
  498.5000     6.9937    76.9361     0.0185     0.1155     2.4650   -44.5919     6.2604     6.9654     9.9619
  499.0000     6.9997    79.3363     0.0201     0.1140     2.4718   -44.7250     6.1782     6.5868     9.7402
  499.5000     7.0015    79.6532     0.0217     0.1133     2.4733   -44.8581     6.0996     6.4476     9.3321
  500.0000     7.0033    79.9701     0.0218     0.1142     2.4734   -44.8417     6.1046     6.3630     8.9578
  500.5000     7.0051    86.7244     0.0219     0.1163     2.4640   -44.5264     6.1097     6.2794     8.3637
  501.0000     7.0069    87.1908     0.0190     0.1186     2.4548   -44.3605     6.1147     6.2833     8.4270
  501.5000     6.9933    83.3342     0.0131     0.1204     2.4504   -44.1947     6.1623     6.2438     8.6691
  502.0000     6.9801    77.8215     0.0103     0.1227     2.4452   -44.1783     6.2102     6.2912     8.9181
  502.5000     6.9973    80.9903     0.0104     0.1239     2.4438   -44.3155     6.3457     6.3865     9.2381
  503.0000     7.0290    83.1069     0.0120     0.1236     2.4446   -44.2950     6.4842     6.5208     9.5695
  503.5000     7.0308    84.9245     0.0166     0.1224     2.4484   -44.2786     6.6717     6.6211    10.1912
  504.0000     7.0475    87.3400     0.0198     0.1197     2.4530   -44.2623     6.7703     6.7121    10.4839
  504.5000     7.0642    83.4775     0.0199     0.1175     2.4560   -44.2459     6.9180     6.8170    10.7090
  505.0000     7.0660    80.8108     0.0170     0.1163     2.4561   -44.2295     7.0690     6.9091    10.4245
  505.5000     7.0828    82.9273     0.0111     0.1172     2.4517   -44.2131     7.1734     7.0098    10.1460
  506.0000     7.0995    85.6418     0.0052     0.1204     2.4458   -44.0473     7.2794     7.1128     9.8750
