~VERSION INFORMATION
 VERS.                2.0:   CWLS LOG ASCII STANDARD - VERSION 2.0
 WRAP.                 NO:   ONE LINE PER DEPTH STEP
~WELL INFORMATION
#MNEM.UNIT      DATA TYPE    INFORMATION
#----------   ------------   ------------------------------
 STRT.F            3.5000:   START DEPTH
 STOP.F          523.0000:   STOP DEPTH
 STEP.F            0.5000:   STEP LENGTH
 NULL.          -999.2500:   NO VALUE
 COMP.       F D SERV INC:   COMPANY
 WELL.    88-8 SX 3 #88-3:   WELL
 FLD .             TEAPOT:   FIELD
 LOC .       S3 T38N R78W:   LOCATION
 CNTY.            NATRONA:   COUNTY
 STAT.            WYOMING:   STATE
 CTRY. UNITED STATES OF AMERICA:   COUNTRY
 SRVC.      Western Atlas:   SERVICE COMPANY
 DATE.        28-NOV-1992:   LOGDATE
 API .       490252256200:   API NUMBER
~CURVE INFORMATION
#MNEM.UNIT       API CODE    CURVE DESCRIPTION
#----------   ------------   ------------------------------
 DEPT.F                  :   
 GRR .GAPI   07 310 01 00:   GAMMA RAY
 RILD.OHMM   07 120 46 00:   INDUCTION LOG DEEP RESISTIVITY
 RILM.OHMM   07 120 44 00:   RESITIVITY LONG MEDIUM
 C13 .IN     45 280 13 00:   CALIPER X
 PORZ.DEC    45 890 12 00:   DENSITY POROSITY SANDSTONE
 NPHI.DEC    42 890 03 00:   NEUTRON POROSITY SANDSTONE
 ZCOR.G/C3   45 356 01 00:   DENSITY CORRECTION
 ZDEN.G/C3   45 350 01 00:   BULK DENSITY
~PARAMETER INFORMATION
#MNEM.UNIT          VALUE    DESCRIPTION
#----------   ------------   ------------------------------
 PD  .                 GL:   PERMANENT DATUM
 EPD .F              5126:   ELEVATION PERMANENT DATUM
 LMF .                 KB:   LOG MEASURED FROM
 DAPD.F                10:   FEET ABOVE PERMANENT DATUM
 DMF .                 KB:   DRILLING MEASURED FROM
 EKB .F              5136:   KELLING BUSHING
 EDF .F              5135:   DRILLING FLOOR
 EGL .F              5126:   GROUND LEVEL
 DATE.        28-NOV-1992:   RUN DATE
 RUN .                  1:   RUN NUMBER
 DD  .F               525:   DEPTH DRILLER
 DL  .F               525:   DEPTH LOGGER
 BLI .F               516:   BOTTOM LOG INTERVAL
 TLI .F                76:   TOP LOG INTERVAL
 CS  .IN            8.625:   CASING SIZE
 CBD .F                95:   CASING BOTTOM DRILLER
 CBL .F                76:   CASING BOTTOM LOGGER
 BS  .IN            7.875:   BIT SIZE
 BSD .F               525:   BIT SIZE AT DEPTH
 DFT .           AIR FOAM:   DRILLING FLUID TYPE
 MRT .F                70:   MAXIMUM RECORDED TEMPERATURE
 LUN .            HL-6274:   LOGGING UNIT NUMBER
 LUL .             CASPER:   LOGGING UNIT LOCATION
 ENGI.             RAUTIO:   RECORDING ENGINEER
 WITN.           ED REISH:   WITNESSED BY
 CLNT.            A2DTECH:   CLIENT CODE
 ORIG.           5" PRINT:   ORIGIN OF DATA
 UWI .       490252256200:   UNIQUE WELL ID
 DICO. A2D Technologies, Inc.:   DIGITIZING COMPANY
~OTHER INFORMATION
~A    DEPT     GRR       RILD       RILM        C13       PORZ       NPHI       ZCOR       ZDEN   
# ...
  327.5000   158.2675     6.0999     6.4239     8.2743     0.0735     0.2844     0.0254     2.5256
  328.0000   143.2045     6.3576     7.0290     8.3175     0.0693     0.2863     0.0299     2.5346
  328.5000   137.7806     6.7328     7.7984     8.3323     0.0708     0.2895     0.0315     2.5301
  329.0000   141.9940     8.2674     8.5924     8.3306     0.0741     0.2913     0.0329     2.5271
  329.5000   144.4000     9.1072     9.2725     8.3165     0.0747     0.2934     0.0343     2.5271
  330.0000   142.5900     9.8262    10.0064     8.3012     0.0772     0.2953     0.0388     2.5234
  330.5000   140.7799    10.0310    10.2165     8.2858     0.0802     0.2991     0.0433     2.5136
  331.0000   142.8855    10.0294    10.2165     8.2855     0.0832     0.3013     0.0448     2.5106
  331.5000   145.5928    10.0281    10.1460     8.3304     0.0823     0.3013     0.0388     2.5136
  332.0000   146.7948    10.0968    10.1460     8.3602     0.0793     0.3013     0.0358     2.5189
  332.5000   146.7919    10.3069    10.3589     8.3901     0.0766     0.3010     0.0328     2.5219
  333.0000   145.5843    10.6680    10.8735     8.4049     0.0760     0.2979     0.0297     2.5234
  333.5000   144.0747    11.1188    11.5727     8.4196     0.0790     0.2918     0.0282     2.5046
  334.0000   143.1683    11.7501    12.1475     8.4645     0.0949     0.2781     0.0252     2.4536
  334.5000   140.4546    12.5088    13.2919     8.4943     0.1262     0.2547     0.0207     2.3409
  335.0000   135.6325    14.3571    14.5440     8.5241     0.1621     0.2396     0.0477     2.2913
  335.5000   119.6651    16.7158    15.9141     8.5389     0.2199     0.2381     0.0642     2.2735
  336.0000    94.9634    20.2870    18.0267     8.5385     0.2295     0.2405     0.0656     2.2765
  336.5000    78.9968    22.9793    21.2862     8.5382     0.2271     0.2451     0.0593     2.2853
  337.0000    77.4879    25.4838    24.1120     8.5228     0.2217     0.2481     0.0536     2.2853
  337.5000    80.1952    27.1178    26.2013     8.5075     0.2208     0.2514     0.0626     2.2778
  338.0000    82.3008    28.0688    27.3129     8.5072     0.2241     0.2526     0.0656     2.2658
  338.5000    84.1052    28.0652    27.6939     8.5069     0.2295     0.2523     0.0506     2.2523
  339.0000    85.6084    27.6749    26.9373     8.5217     0.2367     0.2499     0.0625     2.2305
  339.5000    85.6048    27.2910    25.8409     8.5364     0.2446     0.2412     0.0640     2.2252
  340.0000    84.9996    26.7268    25.1350     8.5361     0.2554     0.2382     0.0520     2.2545
  340.5000    86.2016    27.0957    24.6182     8.5509     0.2515     0.2376     0.0445     2.2771
  341.0000    89.5120    27.4697    25.1350     8.5355     0.2349     0.2478     0.0535     2.2816
  341.5000    95.0150    27.4653    26.5667     8.5352     0.2259     0.2532     0.0655     2.2779
  342.0000    93.7225    27.0842    27.8863     8.5198     0.2241     0.2466     0.0670     2.2809
  342.5000    90.7076    27.2688    28.4717     8.4894     0.2259     0.2406     0.0699     2.2801
  343.0000    89.1987    27.4545    28.2752     8.4590     0.2238     0.2367     0.0714     2.2764
  343.5000    91.6055    27.6416    27.6939     8.4436     0.2253     0.2340     0.0729     2.2681
  344.0000    89.4935    27.8299    27.3129     8.3982     0.2316     0.2331     0.0684     2.2756
  344.5000    90.0931    28.0185    27.3129     8.3979     0.2268     0.2352     0.0519     2.2884
  345.0000    93.7047    28.2094    27.3129     8.3976     0.2181     0.2416     0.0459     2.2944
  345.5000    97.1856    28.2048    27.3129     8.4124     0.2155     0.2453     0.0549     2.2892
  346.0000    99.7231    28.2014    27.3129     8.3970     0.2193     0.2479     0.0580     2.2930
  346.5000    95.8039    28.0030    27.3129     8.4118     0.2154     0.2401     0.0608     2.3050
  347.0000    96.1023    27.6136    26.9373     8.3964     0.2076     0.2344     0.0608     2.3155
  347.5000    96.0994    27.2306    26.5667     8.3961     0.2025     0.2338     0.0548     2.3179
  348.0000    96.9995    27.2270    26.2013     8.3957     0.1979     0.2347     0.0563     2.3245
  348.5000    98.2015    27.4126    26.2013     8.3653     0.1940     0.2383     0.0578     2.3298
  349.0000   100.3071    28.1773    26.2013     8.3952     0.1959     0.2413     0.0593     2.3235
  349.5000   102.8446    28.9643    26.5667     8.3948     0.2109     0.2410     0.0562     2.3050
  350.0000   106.9279    29.7733    27.6939     8.3946     0.2350     0.2368     0.0517     2.2870
  350.5000   105.7196    30.6050    29.6796     8.3792     0.2509     0.2359     0.0472     2.2540
  351.0000   100.2951    31.8972    31.8078     8.3940     0.2591     0.2365     0.0427     2.2307
  351.5000    94.2239    33.0159    34.0886     8.3936     0.2648     0.2356     0.0412     2.2224
  352.0000    91.8557    33.7051    34.0886     8.4084     0.2621     0.2335     0.0532     2.2134
  352.5000    92.1540    33.4672    32.4755     8.4231     0.2500     0.2329     0.0651     2.2329
  353.0000    91.2468    32.7752    29.8859     8.4229     0.2402     0.2383     0.0726     2.2728
  353.5000    91.5993    32.0967    28.2752     8.4376     0.1983     0.2465     0.0741     2.3051
  354.0000    96.0598    31.2164    27.3129     8.4222     0.1730     0.2498     0.0696     2.3647
  354.5000    99.0690    29.7365    26.0205     8.4371     0.1664     0.2498     0.0561     2.3742
  355.0000    97.8613    28.4971    25.6626     8.4217     0.1724     0.2492     0.0546     2.3532
  355.5000    97.2560    26.9829    25.3096     8.4213     0.1878     0.2498     0.0561     2.3296
  356.0000    97.8556    25.7037    24.9615     8.3909     0.1947     0.2516     0.0575     2.3036
  356.5000    99.3581    24.8263    24.4483     8.4057     0.2122     0.2501     0.0635     2.2856
  357.0000   100.5601    23.9590    23.9456     8.3903     0.2239     0.2477     0.0723     2.2653
  357.5000   101.4810    23.0000    23.2914     8.3599     0.2345     0.2450     0.1325     2.2586
  358.0000   104.7706    22.0617    22.8125     8.3295     0.2375     0.2405     0.1879     2.2721
  358.5000   105.9733    21.1617    22.4987     8.2689     0.2315     0.2399     0.1924     2.3042
  359.0000   104.4637    20.5661    22.1893     8.2084     0.1896     0.2474     0.1624     2.3630
  359.5000   101.4368    20.2951    21.8841     8.1780     0.1639     0.2535     0.0964     2.3908
  360.0000   101.1441    20.2925    21.7330     8.1325     0.1520     0.2577     0.0874     2.4059
  360.5000   101.4431    20.4314    21.8841     8.1021     0.1424     0.2508     0.0889     2.4264
  361.0000   100.2348    21.0563    22.3435     8.1012     0.1280     0.2418     0.0844     2.4727
  361.5000    98.4166    23.7331    23.4532     8.1004     0.1041     0.2237     0.0708     2.5268
  362.0000    94.8067    25.9687    25.1350     8.0996     0.0726     0.2118     0.0574     2.5644
  362.5000    90.8882    27.6392    27.5027     8.0987     0.0377     0.1796     0.0543     2.6050
  363.0000    87.8733    29.2148    29.6796     8.0979     0.0202     0.1537     0.0483     2.6305
  363.5000    86.6657    30.0367    32.7012     8.1125     0.0094     0.1417     0.0423     2.6396
  364.0000    86.9633    30.4573    33.8533     8.1127     0.0040     0.1393     0.0378     2.6441
  364.5000    88.1653    30.4593    32.7012     8.1128     0.0049     0.1417     0.0303     2.6321
  365.0000    86.3552    30.0430    30.5133     8.1300     0.0203     0.1574     0.0213     2.5885
  365.5000    83.3403    28.4269    28.4717     8.1432     0.0546     0.1986     0.0273     2.4931
  366.0000    90.4775    26.8978    26.5376     8.1434     0.1098     0.2279     0.0437     2.4202
  366.5000   102.3081    26.1412    24.6182     8.1435     0.1494     0.2471     0.0543     2.3827
  367.0000   108.9403    25.1031    23.1307     8.1587     0.1663     0.2596     0.0602     2.3714
  367.5000   110.7532    24.2510    21.8841     8.1754     0.1714     0.2616     0.0587     2.3683
