~VERSION INFORMATION
 VERS.                2.0:   CWLS LOG ASCII STANDARD - VERSION 2.0
 WRAP.                 NO:   ONE LINE PER DEPTH STEP
~WELL INFORMATION
#MNEM.UNIT      DATA TYPE    INFORMATION
#----------   ------------   ------------------------------
 STRT.F            6.0000:   START DEPTH
 STOP.F          522.0000:   STOP DEPTH
 STEP.F            0.5000:   STEP LENGTH
 NULL.          -999.2500:   NO VALUE
 COMP.       F D SERV INC:   COMPANY
 WELL.    88-7 SX-3 #88-3:   WELL
 FLD .             TEAPOT:   FIELD
 LOC .       S3 T38N R78W:   LOCATION
 CNTY.            NATRONA:   COUNTY
 STAT.            WYOMING:   STATE
 CTRY. UNITED STATES OF AMERICA:   COUNTRY
 SRVC.      Western Atlas:   SERVICE COMPANY
 DATE.        30-NOV-1992:   LOGDATE
 API .       490252254100:   API NUMBER
~CURVE INFORMATION
#MNEM.UNIT       API CODE    CURVE DESCRIPTION
#----------   ------------   ------------------------------
 DEPT.F                  :   
 GRR .GAPI   07 310 01 00:   GAMMA RAY
 RILD.OHMM   07 120 46 00:   INDUCTION LOG DEEP RESISTIVITY
 RILM.OHMM   07 120 44 00:   INDUCTION LOG MEDIUM RESISTIVITY
 C13 .IN     45 280 13 00:   CALIPER 13
 ZCOR.G/C3   45 356 01 00:   DENSITY CORRECTION
 ZDEN.G/C3   45 350 01 00:   BULK DENSITY
 PORZ.DEC    45 890 00 00:   DENSITY POROSITY
 NPHI.DEC    42 890 03 00:   NEUTRON POROSITY SANDSTONE
~PARAMETER INFORMATION
#MNEM.UNIT          VALUE    DESCRIPTION
#----------   ------------   ------------------------------
 PD  .                 GL:   PERMANENT DATUM
 EPD .F              5155:   ELEVATION PERMANENT DATUM
 LMF .                 KB:   LOG MEASURED FROM
 DAPD.F                10:   FEET ABOVE PERMANENT DATUM
 DMF .                 KB:   DRILLING MEASURED FROM
 EKB .F              5165:   KELLING BUSHING
 EDF .F              5164:   DRILLING FLOOR
 EGL .F              5155:   GROUND LEVEL
 DATE.        30-NOV-1992:   RUN DATE
 RUN .                  1:   RUN NUMBER
 DD  .F               525:   DEPTH DRILLER
 DL  .F               525:   DEPTH LOGGER
 BLI .F               516:   BOTTOM LOG INTERVAL
 TLI .F                 6:   TOP LOG INTERVAL
 CS  .IN            8.625:   CASING SIZE
 CBD .F                95:   CASING BOTTOM DRILLER
 CBL .F                98:   CASING BOTTOM LOGGER
 BS  .IN            7.875:   BIT SIZE
 BSD .F               525:   BIT SIZE AT DEPTH
 DFT .           AIR FOAM:   DRILLING FLUID TYPE
 MRT .F                68:   MAXIMUM RECORDED TEMPERATURE
 LUN .           HL- 6774:   LOGGING UNIT NUMBER
 LUL .             CASPER:   LOGGING UNIT LOCATION
 ENGI.             RAUTIO:   RECORDING ENGINEER
 WITN.          BOB SYLER:   WITNESSED BY
 CLNT.            A2DTECH:   CLIENT CODE
 ORIG.           5" PRINT:   ORIGIN OF DATA
 UWI .       490252254100:   UNIQUE WELL ID
 DICO. A2D Technologies, Inc.:   DIGITIZING COMPANY
~OTHER INFORMATION
~A    DEPT     GRR       RILD       RILM        C13       ZCOR       ZDEN       PORZ       NPHI   
# ...
  208.5000   129.7893     5.3302     5.2324     8.3272     0.0032     2.4479     0.1224     0.3353
  209.0000   127.6043     5.1106     5.1636     8.3408     0.0031     2.4126     0.1376     0.3441
  209.5000   124.5617     5.0742     5.3088     8.3383     0.0090     2.3889     0.1515     0.3463
  210.0000   123.3429     5.3641     5.3450     8.3519     0.0345     2.3698     0.1721     0.3402
  210.5000   123.6438     5.4768     5.5724     8.3341     0.0284     2.3826     0.1715     0.3226
  211.0000   125.7685     5.5912     5.8910     8.3321     0.0160     2.4196     0.1531     0.3132
  211.5000   129.4129     5.8290     6.3593     8.3300     0.0025     2.4452     0.1279     0.3156
  212.0000   128.8020     6.2055     6.6762     8.3279     0.0099     2.4663     0.1130     0.3221
  212.5000   124.8476     6.6991     6.8642     8.3258     0.0068     2.4723     0.1121     0.3217
  213.0000   124.5406     7.1318     7.0569     8.3233    -0.0024     2.4655     0.1134     0.3172
  213.5000   128.4890     7.3835     7.2553     8.3212    -0.0025     2.4632     0.1137     0.3160
  214.0000   132.1334     7.4857     7.4078     8.3191     0.0034     2.4632     0.1134     0.3190
  214.5000   133.0430     7.5370     7.5107     8.3170     0.0093     2.4654     0.1119     0.3205
  215.0000   133.3431     7.6944     7.6150     8.3150     0.0077     2.4722     0.1076     0.3214
  215.5000   134.5559     7.8009     7.6672     8.3129     0.0061     2.4744     0.1061     0.3218
  216.0000   134.5529     7.8543     7.7737     8.3108     0.0075     2.4760     0.1055     0.3215
  216.5000   134.2460     7.9076     7.8814     8.3088     0.0121     2.4781     0.1049     0.3202
  217.0000   131.8113     7.9614     7.9354     8.3067     0.0208     2.4819     0.1028     0.3166
  217.5000   129.6806     8.0151     8.0457     8.3198     0.0252     2.4886     0.0970     0.3127
  218.0000   128.4618     8.1260     8.1008     8.3172     0.0235     2.5030     0.0916     0.3112
  218.5000   130.8904     8.1812     8.1563     8.3151     0.0204     2.5044     0.0895     0.3130
  219.0000   132.4072     8.2944     8.2125     8.3131     0.0143     2.4984     0.0917     0.3133
  219.5000   130.8844     8.3508     8.2688     8.3110     0.0081     2.4870     0.0995     0.3133
  220.0000   128.4498     8.4075     8.2673     8.3089     0.0020     2.4719     0.1098     0.3127
  220.5000   127.5349     8.4646     8.3243     8.3225    -0.0042     2.4719     0.1092     0.3112
  221.0000   127.8359     8.5221     8.3810     8.3199     0.0017     2.4742     0.1025     0.3085
  221.5000   129.9604     8.5203     8.4385     8.3179     0.0031     2.4824     0.1001     0.3024
  222.0000   131.7811     8.5185     8.4373     8.3158     0.0030     2.4809     0.1050     0.3000
  222.5000   132.0821     8.5167     8.4361     8.3136     0.0059     2.4779     0.1062     0.2994
  223.0000   132.0790     8.4554     8.4349     8.3111     0.0118     2.4778     0.1029     0.3042
  223.5000   134.2502     8.4536     8.4927     8.3091     0.0237     2.4921     0.0929     0.3058
  224.0000   135.1125     8.4519     8.4915     8.3070    -0.0005     2.5042     0.0904     0.3058
  224.5000   130.3840     8.4501     8.3729     8.3049    -0.0142     2.4994     0.0968     0.3055
  225.0000   127.5076     8.3896     8.3136     8.3029    -0.0053     2.4910     0.0995     0.3055
  225.5000   127.5040     8.3296     8.3109     8.3008    -0.0069     2.4845     0.1002     0.3067
  226.0000   128.1088     8.3278     8.2536     8.3139    -0.0070     2.4845     0.0996     0.3116
  226.5000   128.1058     8.2682     8.1951     8.3118     0.0004     2.4845     0.0996     0.3131
  227.0000   131.7502     8.2090     8.1879     8.3097     0.0003     2.4844     0.1008     0.3137
  227.5000   138.1302     8.1502     8.1360     8.3076     0.0002     2.4844     0.1020     0.3134
  228.0000   139.9516     8.0356     8.0784     8.3202     0.0196     2.4844     0.1014     0.3134
  228.5000   139.0360     7.8675     7.9552     8.3182     0.0225     2.4844     0.1008     0.3134
  229.0000   137.8172     7.7030     7.7453     8.3161     0.0230     2.4844     0.1014     0.3140
  229.5000   136.9023     7.5418     7.5314     8.3140     0.0235     2.4843     0.1029     0.3146
  230.0000   137.2032     7.3327     7.2220     8.3119    -0.0004     2.4836     0.1032     0.3171
  230.5000   139.0247     7.0306     6.9254     8.3099     0.0115     2.4798     0.1039     0.3204
  231.0000   134.4616     6.6013     6.3691     8.3078     0.0174     2.4737     0.1078     0.3247
  231.5000   129.5954     6.1123     5.7764     8.3057    -0.0008     2.4624     0.1127     0.3289
  232.0000   129.2884     5.4655     5.0595     8.3036    -0.0009     2.4571     0.1175     0.3362
  232.5000   129.2854     4.8194     4.3703     8.3015     0.0065     2.4502     0.1221     0.3408
  233.0000   128.6745     4.1908     3.9361     8.3293     0.0109     2.4377     0.1285     0.3499
  233.5000   128.3683     3.6954     3.6199     8.4030     0.0093     2.4172     0.1409     0.3584
  234.0000   130.7961     3.2134     3.2151     8.4009    -0.0015     2.3796     0.1623     0.3681
  234.5000   132.0097     2.9754     2.9568     8.3989    -0.0106     2.3367     0.1821     0.3842
  235.0000   132.0059     2.8133     2.8354     8.3968    -0.0017     2.2939     0.2031     0.3897
  235.5000   130.4831     2.7353     2.7958     8.3947     0.0208     2.2359     0.2342     0.3876
  236.0000   121.3616     2.7157     2.8149     8.3927     0.0584     2.2186     0.2628     0.3785
  236.5000   115.8874     2.7360     2.8741     8.3906     0.0764     2.2299     0.2550     0.3630
  237.0000   114.6686     2.8359     3.1025     8.3885     0.0521     2.2694     0.2368     0.3448
  237.5000   117.4012     3.0240     3.4678     8.3864     0.0460     2.3220     0.1973     0.3427
  238.0000   123.7811     3.4158     3.9033     8.3839     0.0383     2.3746     0.1613     0.3484
  238.5000   128.3374     3.8452     4.3630     8.3975     0.0322     2.4311     0.1382     0.3494
  239.0000   131.9878     4.3894     4.8430     8.3949     0.0275     2.4666     0.1164     0.3403
  239.5000   134.4104     4.9412     5.2280     8.3928     0.0033     2.4756     0.1046     0.3387
  240.0000   135.3192     5.4471     5.6044     8.3907     0.0032     2.4861     0.0997     0.3381
  240.5000   135.9828     5.8804     5.9248     8.3887     0.0030     2.4921     0.0991     0.3378
  241.0000   139.4184     6.2167     6.1769     8.3866     0.0029     2.4831     0.1010     0.3376
  241.5000   143.0517     6.4361     6.3506     8.3845     0.0028     2.4830     0.1016     0.3373
  242.0000   145.3941     6.6169     6.4388     8.4431     0.0027     2.4868     0.1010     0.3370
  242.5000   145.9424     6.6622     6.4829     8.4258     0.0026     2.4875     0.0997     0.3361
  243.0000   146.5473     6.6141     6.4820     8.4233     0.0024     2.4890     0.0985     0.3342
  243.5000   147.1514     6.4758     6.4361     8.4212     0.0023     2.4890     0.0972     0.3306
  244.0000   147.4531     6.2525     6.2572     8.4191     0.0022     2.4920     0.0955     0.3282
  244.5000   146.5375     5.9949     5.9166     8.4170     0.0021     2.4942     0.0968     0.3300
  245.0000   148.6621     5.7079     5.6700     8.4150     0.0020     2.4776     0.1004     0.3355
  245.5000   151.6986     5.4347     5.3973     8.4129     0.0018     2.4519     0.1225     0.3470
  246.0000   154.1272     5.2108     5.1421     8.4108     0.0077     2.4104     0.1511     0.3543
  246.5000   153.5163     5.0311     4.9991     8.4088     0.0197     2.3953     0.1577     0.3534
  247.0000   150.1698     4.9258     4.9000     8.4067     0.0301     2.3968     0.1514     0.3458
  247.5000   146.5194     4.8566     4.8652     8.3540     0.0165     2.4058     0.1462     0.3416
  248.0000   141.9571     4.8896     4.8985     8.3268     0.0269     2.4171     0.1423     0.3413
  248.5000   138.9146     4.9228     5.0013     8.3550     0.0524     2.4284     0.1358     0.3392
