~VERSION INFORMATION
 VERS.                2.0:   CWLS LOG ASCII STANDARD - VERSION 2.0
 WRAP.                 NO:   ONE LINE PER DEPTH STEP
~WELL INFORMATION
#MNEM.UNIT      DATA TYPE    INFORMATION
#----------   ------------   ------------------------------
 STRT.F          438.0000:   START DEPTH
 STOP.F         2175.0000:   STOP DEPTH
 STEP.F            0.5000:   STEP LENGTH
 NULL.          -999.2500:   NO VALUE
 COMP.   FLUOR DANIEL INC:   COMPANY
 WELL. NAVAL PETROLEUM RESERVE 3 X29 #74-29:   WELL
 FLD .            WLIDCAT:   FIELD
 LOC .      S29 T39N R78W:   LOCATION
 CNTY.            NATRONA:   COUNTY
 STAT.            WYOMING:   STATE
 CTRY. UNITED STATES OF AMERICA:   COUNTRY
 SRVC.            Unknown:   SERVICE COMPANY
 DATE.        05-JUN-1995:   LOGDATE
 API .       490252272900:   API NUMBER
~CURVE INFORMATION
#MNEM.UNIT       API CODE    CURVE DESCRIPTION
#----------   ------------   ------------------------------
 DEPT.F                  :   
 ROP .FT/HR  91 810 01 00:   RAT OF DRILLING PENETRATION
 TGAS.TC/CC  91 830 01 00:   TOTAL GAS UNIT
~PARAMETER INFORMATION
#MNEM.UNIT          VALUE    DESCRIPTION
#----------   ------------   ------------------------------
 EKB .F              5036:   KELLING BUSHING
 EGL .F              5026:   GROUND LEVEL
 DATE.        05-JUN-1995:   RUN DATE
 RUN .                  1:   RUN NUMBER
 BLI .F              2160:   BOTTOM LOG INTERVAL
 TLI .F               440:   TOP LOG INTERVAL
 ENGI.     R.HUSK/C.TOWER:   RECORDING ENGINEER
 CLNT.            A2DTECH:   CLIENT CODE
 ORIG.           5" PRINT:   ORIGIN OF DATA
 UWI .       490252272900:   UNIQUE WELL ID
 DICO. A2D Technologies, Inc.:   DIGITIZING COMPANY
~OTHER INFORMATION
~A   DEPT        ROP       TGAS 
# ...
 2017.5000     0.5596     6.3962
 2018.0000     0.5507     6.3840
 2018.5000     0.5505     6.3151
 2019.0000     0.5407     6.2451
 2019.5000     0.5406     6.2358
 2020.0000     0.5404     6.2246
 2020.5000     0.5388     6.2170
 2021.0000     0.5400     6.2075
 2021.5000     0.5494     6.1981
 2022.0000     0.5492     6.1880
 2022.5000     0.5490     6.1792
 2023.0000     0.5488     6.1698
 2023.5000     0.5486     6.1604
 2024.0000     0.5484     6.1492
 2024.5000     0.5290     6.1714
 2025.0000     0.5288     6.3219
 2025.5000     0.5287     6.3105
 2026.0000     0.5318     6.3019
 2026.5000     0.5379     6.4811
 2027.0000     0.5377     6.4710
 2027.5000     0.5375     6.4623
 2028.0000     0.5470     6.4528
 2028.5000     0.5467     6.4420
 2029.0000     0.5465     6.4340
 2029.5000     0.5459     6.4245
 2030.0000     0.5269     6.4146
 2030.5000     0.5267     6.4057
 2031.0000     0.5265     6.3948
 2031.5000     0.5263     6.3868
 2032.0000     0.5261     6.3766
 2032.5000     0.5260     6.3679
 2033.0000     0.5258     6.3568
 2033.5000     0.5256     6.3491
 2034.0000     0.5254     6.3393
 2034.5000     0.5252     6.3662
 2035.0000     0.5154     6.5094
 2035.5000     0.5152     6.6892
 2036.0000     0.5150     6.6778
 2036.5000     0.5052     6.6698
 2037.0000     0.5050     6.6587
 2037.5000     0.5048     6.6509
 2038.0000     0.5046     6.6415
 2038.5000     0.5044     6.6321
 2039.0000     0.5042     6.6226
 2039.5000     0.5137     6.6115
 2040.0000     0.5135     6.6038
 2040.5000     0.5133     6.5933
 2041.0000     0.5131     6.5841
 2041.5000     0.5129     6.5755
 2042.0000     0.5223     6.5660
 2042.5000     0.5221     6.5566
 2043.0000     0.5219     6.5453
 2043.5000     0.5217     6.5362
 2044.0000     0.5215     6.5270
 2044.5000     0.5213     6.5179
 2045.0000     0.5115     6.5087
 2045.5000     0.5113     6.4996
 2046.0000     0.5015     6.4905
 2046.5000     0.5013     6.4811
 2047.0000     0.5011     6.4699
 2047.5000     0.5009     6.4608
 2048.0000     0.5008     6.3830
 2048.5000     0.5006     6.2547
 2049.0000     0.5004     6.0560
 2049.5000     0.5098     6.0461
 2050.0000     0.5000     5.9749
 2050.5000     0.4808     5.8392
 2051.0000     0.4808     5.6398
 2051.5000     0.4808     5.6321
 2052.0000     0.4808     5.6208
 2052.5000     0.4808     5.6132
 2053.0000     0.4808     5.6038
 2053.5000     0.4808     5.5941
 2054.0000     0.5000     5.5849
 2054.5000     0.5192     5.5755
 2055.0000     0.5192     5.5660
 2055.5000     0.5288     5.5553
 2056.0000     0.5192     5.5462
 2056.5000     0.5000     5.5377
 2057.0000     0.4904     5.5283
 2057.5000     0.5385     5.5188
 2058.0000     0.5778     5.5094
 2058.5000     0.5962     5.5000
 2059.0000     0.5962     5.4906
 2059.5000     0.5962     5.4799
 2060.0000     0.5962     5.4700
 2060.5000     0.5962     5.4623
 2061.0000     0.6058     5.4528
 2061.5000     0.5962     5.4434
 2062.0000     0.5962     5.4340
 2062.5000     0.5962     5.4228
 2063.0000     0.5865     5.4151
 2063.5000     0.5865     5.4057
 2064.0000     0.5769     5.3954
 2064.5000     0.5769     5.3863
 2065.0000     0.5865     5.3774
 2065.5000     0.5865     5.4326
 2066.0000     0.5865     5.5624
 2066.5000     0.5769     5.7264
 2067.0000     0.5769     5.7157
 2067.5000     0.5769     5.7065
 2068.0000     0.5769     5.8883
 2068.5000     0.5769     5.5491
 2069.0000     0.5769     5.5335
 2069.5000     0.5769     5.7125
 2070.0000     0.5799     5.6964
 2070.5000     0.5865     5.8736
 2071.0000     0.5865     5.8604
 2071.5000     0.5865     5.8465
 2072.0000     0.5865     5.8336
 2072.5000     0.5865     5.8208
 2073.0000     0.5865     5.8075
 2073.5000     0.5865     5.7943
 2074.0000     0.5769     5.7789
 2074.5000     0.5769     5.7679
 2075.0000     0.5769     5.7547
 2075.5000     0.5769     5.7402
 2076.0000     0.5769     5.7274
 2076.5000     0.5769     5.7151
 2077.0000     0.5769     5.7019
 2077.5000     0.5769     5.6887
 2078.0000     0.5769     5.6755
 2078.5000     0.5769     5.6623
 2079.0000     0.5673     5.6491
 2079.5000     0.5577     5.6358
 2080.0000     0.5530     5.6211
 2080.5000     0.5481     5.6094
 2081.0000     0.5466     5.5954
 2081.5000     0.5385     5.5825
 2082.0000     0.5385     5.6592
 2082.5000     0.5385     5.7453
 2083.0000     0.5385     5.7321
 2083.5000     0.5481     5.7165
 2084.0000     0.5577     5.7057
 2084.5000     0.5577     5.6925
 2085.0000     0.5577     5.4906
 2085.5000     0.5769     5.4763
 2086.0000     0.5769     5.4634
 2086.5000     0.5769     5.2209
 2087.0000     0.5769     5.0603
 2087.5000     0.5769     5.0472
 2088.0000     0.5673     4.8427
 2088.5000     0.5577     4.8298
 2089.0000     0.5481     4.8189
 2089.5000     0.5481     4.6154
 2090.0000     0.5481     4.6025
 2090.5000     0.5481     4.5896
 2091.0000     0.5481     4.5767
 2091.5000     0.5481     4.5639
 2092.0000     0.5460     4.6466
 2092.5000     0.5481     4.9151
 2093.0000     0.5408     5.0881
 2093.5000     0.5385     5.2671
 2094.0000     0.5385     5.2510
 2094.5000     0.5385     5.2396
 2095.0000     0.5385     5.2264
 2095.5000     0.5481     5.2124
 2096.0000     0.5481     5.1995
 2096.5000     0.5481     4.9979
 2097.0000     0.5481     4.7962
 2097.5000     0.5481     4.7830
 2098.0000     0.5385     4.7698
 2098.5000     0.5288     4.7566
 2099.0000     0.5192     4.7434
 2099.5000     0.5192     4.7288
 2100.0000     0.5192     4.7170
 2100.5000     0.5192     4.7030
 2101.0000     0.5288     4.6902
 2101.5000     0.5192     4.6773
 2102.0000     0.5192     4.6642
 2102.5000     0.5192     4.6509
 2103.0000     0.5192     4.6377
 2103.5000     0.5192     4.6226
 2104.0000     0.5192     4.6097
 2104.5000     0.5192     4.5968
 2105.0000     0.5192     4.5839
 2105.5000     0.5288     4.5711
 2106.0000     0.5385     4.5582
 2106.5000     0.5385     4.5453
 2107.0000     0.5385     4.4538
 2107.5000     0.5385     4.2886
 2108.0000     0.5385     4.1880
 2108.5000     0.5385     4.1792
 2109.0000     0.5385     4.1698
 2109.5000     0.5385     4.3491
 2110.0000     0.5481     4.3396
 2110.5000     0.5351     4.4784
 2111.0000     0.5349     4.5309
 2111.5000     0.5155     4.8773
 2112.0000     0.5154     4.8665
 2112.5000     0.5152     5.0460
 2113.0000     0.5151     5.0738
 2113.5000     0.5149     5.2185
 2114.0000     0.5147     5.2075
 2114.5000     0.5146     5.1981
 2115.0000     0.5144     5.1885
 2115.5000     0.5239     5.1792
 2116.0000     0.5333     5.1698
 2116.5000     0.5331     5.1604
 2117.0000     0.5330     5.1492
 2117.5000     0.5328     5.1415
 2118.0000     0.5327     5.1321
 2118.5000     0.5325     5.1226
 2119.0000     0.5131     5.1123
 2119.5000     0.4937     5.1038
 2120.0000     0.4744     5.0938
 2120.5000     0.4646     5.0846
 2121.0000     0.4548     5.0754
 2121.5000     0.4546     5.0660
 2122.0000     0.4545     5.0566
 2122.5000     0.4640     5.0472
 2123.0000     0.4638     5.0377
 2123.5000     0.4636     5.0269
 2124.0000     0.4731     5.0189
 2124.5000     0.4729     5.0084
 2125.0000     0.4728     5.0000
 2125.5000     0.4726     4.9906
 2126.0000     0.4724     4.7920
 2126.5000     0.4722     4.7828
 2127.0000     0.4708     4.7736
 2127.5000     0.4527     4.6969
 2128.0000     0.4525     4.5660
 2128.5000     0.4524     4.5549
 2129.0000     0.4522     4.5472
 2129.5000     0.4521     4.5364
 2130.0000     0.4519     4.5271
 2130.5000     0.4583     4.5189
 2131.0000     0.4708     4.5087
 2131.5000     0.4707     4.4994
 2132.0000     0.4705     4.4902
 2132.5000     0.4704     4.4810
 2133.0000     0.4702     4.4717
 2133.5000     0.4700     4.4623
 2134.0000     0.4699     4.4510
 2134.5000     0.4601     4.4417
 2135.0000     0.4695     4.4340
 2135.5000     0.4694     4.4245
 2136.0000     0.4692     4.4140
 2136.5000     0.4691     4.4048
 2137.0000     0.4785     4.3962
 2137.5000     0.4879     4.3863
 2138.0000     0.4878     4.3774
 2138.5000     0.4876     4.3679
