~VERSION INFORMATION
 VERS.                2.0:   CWLS LOG ASCII STANDARD - VERSION 2.0
 WRAP.                 NO:   ONE LINE PER DEPTH STEP
~WELL INFORMATION
#MNEM.UNIT      DATA TYPE    INFORMATION
#----------   ------------   ------------------------------
 STRT.F           19.5000:   START DEPTH
 STOP.F          690.5000:   STOP DEPTH
 STEP.F            0.5000:   STEP LENGTH
 NULL.          -999.2500:   NO VALUE
 COMP. FENIX & SCISSON INC:   COMPANY
 WELL. 37-22 SX 11 WI #3-11:   WELL
 FLD .             TEAPOT:   FIELD
 LOC .      S11 T38N R78W:   LOCATION
 CNTY.            NATRONA:   COUNTY
 STAT.            WYOMING:   STATE
 CTRY. UNITED STATES OF AMERICA:   COUNTRY
 SRVC.      Dresser Atlas:   SERVICE COMPANY
 DATE.        11-AUG-1980:   LOGDATE
 API .       490251084400:   API NUMBER
~CURVE INFORMATION
#MNEM.UNIT       API CODE    CURVE DESCRIPTION
#----------   ------------   ------------------------------
 DEPT.F                  :   
 SPR .MV     07 010 01 00:   SPONTANEOUS POTENTIAL
 SFL .OHMM   07 220 01 00:   SHALLOW FOCUSED LOG RESISTIVITY
 ILD .OHMM   07 120 46 00:   INDUCTION LOG DEEP
 ILM .OHMM   07 120 44 00:   INDUCTION LOG MEDIUM
 GRD .GAPI   45 310 01 00:   GAMMA RAY FROM DENSITY LOG
 CALD.IN     45 280 60 00:   CALIPER
 CORR.G/C3   45 356 01 00:   DENSITY CORRECTION
 RHOB.G/C3   45 350 01 00:   BULK DENSITY
 NPHI.DEC    42 890 12 00:   NEUTRON POROSITY SANDSTONE
 DPHI.DEC    45 890 12 00:   DENSITY POROSITY SANDSTONE
~PARAMETER INFORMATION
#MNEM.UNIT          VALUE    DESCRIPTION
#----------   ------------   ------------------------------
 PD  .                 GL:   PERMANENT DATUM
 EPD .F              5191:   ELEVATION PERMANENT DATUM
 LMF .                 KB:   LOG MEASURED FROM
 DAPD.F                 5:   FEET ABOVE PERMANENT DATUM
 DMF .                 KB:   DRILLING MEASURED FROM
 EKB .F              5196:   KELLING BUSHING
 EGL .F              5191:   GROUND LEVEL
 DATE.            8-11-80:   RUN DATE
 RUN .                  1:   RUN NUMBER
 DD  .F               680:   DEPTH DRILLER
 DL  .F               689:   DEPTH LOGGER
 BLI .F               687:   BOTTOM LOG INTERVAL
 TLI .F                20:   TOP LOG INTERVAL
 CS  .IN            8.625:   CASING SIZE
 BS  .IN            7.875:   BIT SIZE
 BSD .F               680:   BIT SIZE AT DEPTH
 DFT .           CHEM GEL:   DRILLING FLUID TYPE
 DFD .                9.9:   DRILLING FLUID DENSITY
 DFV .                 52:   DRILLING FLUID VISCOSITY
 DFPH.               11.5:   DRILLING FLUID PH
 DFL .                104:   DRILLING FLUID LOSS
 MSS .           FLOWLINE:   MUD SAMPLE SOURCE
 RMS .OHMM             .2:   RESISTIVITY MUD SAMPLE
 MST .F                74:   MUD SAMPLE TEMPERATURE
 RMF .OHMM            .15:   RESISTIVITY MUD FILTRATE SAMPLE
 MFST.F                74:   MUD FILTRATE SAMPLE TEMPERATURE
 RMC .OHMM            .25:   RESISTIVITY MUD CAKE
 MCST.F                74:   MUD CAKE SAMPLE TEMPERATURE
 MFSS.               CALC:   MUD FILTRATE SAMPLE SOURCE
 MCSS.               CALC:   MUD CAKE SAMPLE SOURCE
 TCS .HRS               3:   TIME CURCULATED STOPPED
 LUN .             HL6150:   LOGGING UNIT NUMBER
 LUL .                 FM:   LOGGING UNIT LOCATION
 ENGI.            BRANNEY:   RECORDING ENGINEER
 WITN.           MCINTYRE:   WITNESSED BY
 CLNT.            A2DTECH:   CLIENT CODE
 ORIG.           5" PRINT:   ORIGIN OF DATA
 UWI .       490251084400:   UNIQUE WELL ID
 DICO. A2D Technologies, Inc.:   DIGITIZING COMPANY
~OTHER INFORMATION
~A   DEPT      SPR        SFL        ILD        ILM        GRD       CALD       CORR       RHOB       NPHI       DPHI   
# ...
  153.5000   -60.5790     7.0730     6.2850     5.8360   114.5310     8.0960     0.0360     2.4820     0.2910     0.1240
  154.0000   -60.6130     7.1060     6.3480     5.8660   112.2030     8.0960     0.0400     2.4890     0.2960     0.1210
  154.5000   -60.4620     7.1380     6.4100     5.8950   111.5780     8.0930     0.0290     2.4750     0.2920     0.1280
  155.0000   -60.2760     7.1700     6.4730     5.9240   115.0830     8.0880     0.0220     2.4610     0.2860     0.1340
  155.5000   -60.0880     7.2030     6.5350     5.9540   117.4500     8.0830     0.0270     2.4510     0.2800     0.1370
  156.0000   -59.9010     7.2350     6.5980     5.9830   116.4850     8.0780     0.0320     2.4600     0.2750     0.1320
  156.5000   -59.7150     7.2680     6.6600     6.0120   120.4470     8.0730     0.0380     2.4680     0.2690     0.1280
  157.0000   -59.5270     7.3000     6.7230     6.0420   117.8360     8.0680     0.0440     2.4720     0.2740     0.1270
  157.5000   -59.5710     7.3330     6.7850     6.0710   118.2370     8.0630     0.0320     2.4650     0.2680     0.1330
  158.0000   -59.8760     7.3650     6.8540     6.1000   116.0920     8.0590     0.0180     2.4540     0.2660     0.1400
  158.5000   -60.1780     7.3970     6.8360     6.1300   116.0710     8.0540     0.0040     2.4430     0.2670     0.1450
  159.0000   -60.4810     7.4450     6.8150     6.1380   116.1510     8.0490     0.0120     2.4400     0.2650     0.1380
  159.5000   -60.7860     7.4280     6.7940     6.1380   117.2360     8.0440     0.0220     2.4570     0.2590     0.1330
  160.0000   -61.0920     7.3940     6.7740     6.1380   112.7340     8.0390     0.0340     2.4700     0.2510     0.1270
  160.5000   -61.3850     7.3600     6.7530     6.1380   114.4980     8.0360     0.0450     2.4800     0.2540     0.1230
  161.0000   -61.0000     7.3270     6.7320     6.1380   113.7520     8.0360     0.0430     2.4680     0.2590     0.1300
  161.5000   -60.5740     7.2930     6.7120     6.1380   114.3040     8.0360     0.0350     2.4790     0.2620     0.1230
  162.0000   -60.2050     7.2590     6.6910     6.1380   112.2830     8.0360     0.0280     2.4670     0.2570     0.1320
  162.5000   -60.3070     7.2260     6.6700     6.1380   111.1710     8.0360     0.0200     2.4500     0.2610     0.1390
  163.0000   -60.4190     7.1920     6.6500     6.1380   113.2100     8.0360     0.0240     2.4440     0.2600     0.1430
  163.5000   -60.5270     7.1580     6.6290     6.1230   114.2370     8.0360     0.0390     2.4580     0.2530     0.1340
  164.0000   -60.5780     7.1250     6.6080     6.0880   113.7600     8.0360     0.0450     2.4690     0.2610     0.1260
  164.5000   -60.3940     7.0910     6.5880     6.0520   117.6030     8.0360     0.0390     2.4690     0.2710     0.1280
  165.0000   -60.2140     7.0460     6.5670     6.0160   118.6430     8.0360     0.0320     2.4660     0.2780     0.1310
  165.5000   -60.0360     7.0460     6.5460     5.9800   116.9310     8.0360     0.0260     2.4630     0.2700     0.1340
  166.0000   -59.8560     7.0460     6.5260     5.9450   114.7100     8.0360     0.0200     2.4550     0.2640     0.1380
  166.5000   -59.6720     7.0460     6.5050     5.9090   114.4740     8.0360     0.0130     2.4440     0.2600     0.1450
  167.0000   -59.6250     7.0460     6.4860     5.8630   116.3560     8.0360     0.0070     2.4340     0.2640     0.1540
  167.5000   -59.6230     7.0460     6.5020     5.8660   115.1030     8.0360     0.0040     2.4260     0.2720     0.1500
  168.0000   -59.6230     7.0460     6.5150     5.8720   112.8270     8.0360     0.0100     2.4370     0.2790     0.1430
  168.5000   -59.6230     7.0460     6.5290     5.8780   113.5490     8.0360     0.0180     2.4520     0.2850     0.1350
  169.0000   -59.6230     7.0460     6.5430     5.8850   112.3510     8.0360     0.0250     2.4670     0.2830     0.1290
  169.5000   -59.6230     7.0460     6.5560     5.8910   112.4740     8.0360     0.0330     2.4730     0.2790     0.1290
  170.0000   -59.6230     7.0450     6.5700     5.8970   112.8220     8.0360     0.0400     2.4800     0.2750     0.1250
  170.5000   -59.6230     7.0670     6.5840     5.9030   112.4010     8.0360     0.0480     2.4870     0.2720     0.1200
  171.0000   -59.6230     7.0930     6.5970     5.9100   114.7590     8.0360     0.0540     2.4930     0.2760     0.1120
  171.5000   -59.6230     7.1200     6.6110     5.9160   113.2700     8.0360     0.0500     2.5000     0.2840     0.1150
  172.0000   -59.6230     7.1470     6.6250     5.9220   110.6110     8.0360     0.0440     2.4870     0.2770     0.1210
  172.5000   -59.6180     7.1730     6.6380     5.9280   111.8370     8.0360     0.0390     2.4720     0.2780     0.1270
  173.0000   -59.5140     7.2000     6.6520     5.9350   113.3930     8.0360     0.0340     2.4630     0.2710     0.1300
  173.5000   -59.4090     7.2260     6.6650     5.9410   114.9390     8.0360     0.0290     2.4680     0.2750     0.1310
  174.0000   -59.3070     7.2530     6.6790     5.9470   116.4790     8.0360     0.0230     2.4740     0.2730     0.1320
  174.5000   -59.3060     7.2800     6.6930     5.9540   118.0310     8.0360     0.0180     2.4760     0.2690     0.1340
  175.0000   -59.6290     7.3060     6.7060     5.9600   118.5510     8.0360     0.0130     2.4570     0.2640     0.1350
  175.5000   -59.9420     7.3330     6.7200     5.9660   118.1160     8.0360     0.0080     2.4510     0.2600     0.1330
  176.0000   -60.1960     7.3600     6.7290     5.9710   120.2250     8.0360     0.0130     2.4610     0.2660     0.1290
  176.5000   -60.0510     7.3770     6.6410     5.8960   117.0070     8.0360     0.0290     2.4730     0.2630     0.1250
  177.0000   -59.9000     7.2800     6.5740     5.8280   118.3660     8.0360     0.0420     2.4830     0.2590     0.1260
  177.5000   -59.7510     7.1950     6.5080     5.7600   111.5000     8.0360     0.0350     2.4720     0.2670     0.1310
  178.0000   -59.6020     7.1090     6.4410     5.6930   112.3730     8.0360     0.0180     2.4610     0.2750     0.1350
  178.5000   -59.4520     7.0240     6.3740     5.6250   114.3870     8.0360     0.0180     2.4500     0.2770     0.1400
  179.0000   -59.3030     6.9380     6.3070     5.5580   116.3620     8.0370     0.0140     2.4390     0.2730     0.1450
  179.5000   -59.1540     6.8530     6.2400     5.4900   118.0600     8.0380     0.0040     2.4280     0.2770     0.1510
  180.0000   -59.0040     6.7670     6.1730     5.4230   118.3440     8.0390     0.0110     2.4240     0.2830     0.1560
  180.5000   -58.8530     6.6820     6.1070     5.3970   117.2310     8.0390     0.0250     2.4540     0.2800     0.1390
  181.0000   -58.9150     6.6680     6.0820     5.3970   115.7130     8.0400     0.0180     2.4470     0.2740     0.1450
  181.5000   -59.0440     6.7030     6.0820     5.3970   114.6750     8.0410     0.0090     2.4300     0.2710     0.1510
  182.0000   -59.1750     6.7310     6.0820     5.3970   115.8610     8.0420     0.0070     2.4390     0.2770     0.1430
  182.5000   -59.3050     6.7590     6.0820     5.3970   116.2300     8.0430     0.0220     2.4540     0.2710     0.1340
  183.0000   -59.4230     6.7870     6.0820     5.3970   115.4380     8.0440     0.0380     2.4700     0.2710     0.1280
  183.5000   -59.3850     6.8150     6.0820     5.3980   116.0570     8.0450     0.0400     2.4850     0.2740     0.1250
  184.0000   -59.3300     6.8430     6.0820     5.3960   115.4870     8.0460     0.0410     2.4740     0.2770     0.1220
  184.5000   -59.2740     6.8710     6.0820     5.4560   116.3180     8.0470     0.0520     2.4620     0.2790     0.1210
  185.0000   -59.2180     6.8990     6.0820     5.5010   115.3820     8.0470     0.0530     2.4810     0.2750     0.1250
  185.5000   -59.1630     6.9270     6.0820     5.5460   114.2550     8.0480     0.0420     2.4720     0.2780     0.1290
  186.0000   -59.1070     6.9550     6.0990     5.5910   117.3870     8.0490     0.0310     2.4600     0.2840     0.1360
  186.5000   -59.0510     6.9830     6.1460     5.6350   117.1020     8.0500     0.0190     2.4490     0.2780     0.1420
