~VERSION INFORMATION
 VERS.                2.0:   CWLS LOG ASCII STANDARD - VERSION 2.0
 WRAP.                 NO:   ONE LINE PER DEPTH STEP
~WELL INFORMATION
#MNEM.UNIT      DATA TYPE    INFORMATION
#----------   ------------   ------------------------------
 STRT.F           27.0000:   START DEPTH
 STOP.F          992.0000:   STOP DEPTH
 STEP.F            0.5000:   STEP LENGTH
 NULL.          -999.2500:   NO VALUE
 COMP. FENIX & SCISSON INC:   COMPANY
 WELL. NPR 3  77- S -27 #77-27:   WELL
 FLD .             TEAPOT:   FIELD
 LOC .      S27 T39N R78W:   LOCATION
 CNTY.            NATRONA:   COUNTY
 STAT.            WYOMING:   STATE
 CTRY. UNITED STATES OF AMERICA:   COUNTRY
 SRVC.            Unknown:   SERVICE COMPANY
 DATE.        09-SEP-1978:   LOGDATE
 API .       490251069700:   API NUMBER
~CURVE INFORMATION
#MNEM.UNIT       API CODE    CURVE DESCRIPTION
#----------   ------------   ------------------------------
 DEPT.F                  :   
 SPR .MV     05 010 01 00:   SPONTANEOUS POTENTIAL FROM RES.
 SN  .OHMM   05 040 16 00:   SHORT NORMAL 16"
 ILD .OHMM   05 120 46 00:   INDUCTION LOG DEEP
 CALD.IN     45 280 60 00:   CALIPER
 GRD .GAPI   45 310 01 00:   GAMMA RAY FROM DENSITY LOG
 RHOB.G/C3   45 350 01 00:   BULK DENSITY
 CORR.G/C3   45 356 01 00:   DENSITY CORRECTION
 DPHI.DEC    45 890 12 00:   DENSITY POROSITY SANDSTONE
~PARAMETER INFORMATION
#MNEM.UNIT          VALUE    DESCRIPTION
#----------   ------------   ------------------------------
 PD  .                 GL:   PERMANENT DATUM
 EPD .F              5069:   ELEVATION PERMANENT DATUM
 LMF .                 KB:   LOG MEASURED FROM
 DAPD.F                 4:   FEET ABOVE PERMANENT DATUM
 DMF .                 KB:   DRILLING MEASURED FROM
 EKB .F              5073:   KELLING BUSHING
 EGL .F              5069:   GROUND LEVEL
 DATE.           9-9-1978:   RUN DATE
 RUN .                  1:   RUN NUMBER
 DD  .F               990:   DEPTH DRILLER
 DL  .F               998:   DEPTH LOGGER
 BLI .F               992:   BOTTOM LOG INTERVAL
 TLI .F                50:   TOP LOG INTERVAL
 CS  .IN            8.625:   CASING SIZE
 CBD .F                40:   CASING BOTTOM DRILLER
 BS  .IN            7.875:   BIT SIZE
 BSD .F               990:   BIT SIZE AT DEPTH
 DFT .                KCL:   DRILLING FLUID TYPE
 DFD .                8.7:   DRILLING FLUID DENSITY
 DFV .                 34:   DRILLING FLUID VISCOSITY
 DFPH.                  9:   DRILLING FLUID PH
 DFL .                  8:   DRILLING FLUID LOSS
 MSS .          FLOW LINE:   MUD SAMPLE SOURCE
 RMS .OHMM             .4:   RESISTIVITY MUD SAMPLE
 MST .F                79:   MUD SAMPLE TEMPERATURE
 RMF .OHMM            .12:   RESISTIVITY MUD FILTRATE SAMPLE
 MFST.F                84:   MUD FILTRATE SAMPLE TEMPERATURE
 RMC .OHMM            .34:   RESISTIVITY MUD CAKE
 MCST.F                84:   MUD CAKE SAMPLE TEMPERATURE
 MFSS.               MEAS:   MUD FILTRATE SAMPLE SOURCE
 MCSS.               MEAS:   MUD CAKE SAMPLE SOURCE
 TCS .HRS               3:   TIME CURCULATED STOPPED
 LUN .               2958:   LOGGING UNIT NUMBER
 LUL .               CASP:   LOGGING UNIT LOCATION
 ENGI.             MILLER:   RECORDING ENGINEER
 WITN.              AMEND:   WITNESSED BY
 CLNT.            A2DTECH:   CLIENT CODE
 ORIG.           5" PRINT:   ORIGIN OF DATA
 UWI .       490251069700:   UNIQUE WELL ID
 DICO. A2D Technologies, Inc.:   DIGITIZING COMPANY
~OTHER INFORMATION
~A   DEPT      SPR         SN        ILD       CALD        GRD       RHOB       CORR       DPHI   
# ...
  108.0000   -66.6666     5.6582     5.3831     7.4647   126.7796     2.4221    -0.0002     0.1496
  108.5000   -66.6756     5.8326     5.6105     7.6204   126.9949     2.4271    -0.0006     0.1483
  109.0000   -66.6853     6.0120     6.1135     7.6872   126.0936     2.4288     0.0007     0.1458
  109.5000   -66.6928     6.1815     6.6617     7.7683   127.7370     2.4307     0.0071     0.1425
  110.0000   -66.6288     6.2745     6.9609     7.8161   129.6971     2.4355     0.0132     0.1393
  110.5000   -66.2992     6.3681     7.1398     7.8168   126.9436     2.4408     0.0194     0.1360
  111.0000   -65.9797     6.4932     7.2282     7.8233   124.9560     2.4463     0.0254     0.1344
  111.5000   -65.6598     6.6217     7.1606     7.8295   125.0721     2.4519     0.0286     0.1345
  112.0000   -65.3436     6.7526     7.1613     7.8363   126.3645     2.4521     0.0317     0.1347
  112.5000   -65.2903     6.8396     7.1620     7.8005   127.6476     2.4521     0.0348     0.1348
  113.0000   -65.2718     6.9029     7.3049     7.7476   127.8355     2.4520     0.0398     0.1337
  113.5000   -65.2534     6.8871     7.4995     7.6879   127.6044     2.4532     0.0453     0.1323
  114.0000   -65.2346     6.8595     7.6996     7.6280   125.3650     2.4550     0.0508     0.1309
  114.5000   -65.2157     6.8317     7.9042     7.5680   122.3289     2.4568     0.0563     0.1295
  115.0000   -65.1967     6.8041     8.0745     7.5067   122.0836     2.4587     0.0553     0.1318
  115.5000   -65.1778     6.7768     8.0743     7.4950   121.9732     2.4592     0.0531     0.1365
  116.0000   -65.1589     6.7424     8.0729     7.4945   121.8543     2.4524     0.0438     0.1411
  116.5000   -65.1400     6.7084     7.9827     7.4938   121.5893     2.4439     0.0338     0.1457
  117.0000   -65.1213     6.6745     7.8742     7.5231   121.2857     2.4355     0.0238     0.1462
  117.5000   -65.1122     6.6409     7.7673     7.5482   120.9791     2.4342     0.0134     0.1448
  118.0000   -65.1205     6.6074     7.6617     7.5729   120.6768     2.4392     0.0080     0.1434
  118.5000   -65.1285     6.5741     7.5575     7.5973   120.5584     2.4384     0.0053     0.1420
  119.0000   -65.1366     6.5409     7.4549     7.6217   121.5570     2.4376     0.0040     0.1406
  119.5000   -65.1447     6.5079     7.3626     7.6462   122.3322     2.4378     0.0035     0.1392
  120.0000   -65.1528     6.4719     7.3507     7.6706   122.6423     2.4438     0.0035     0.1401
  120.5000   -65.1609     6.4610     7.3399     7.6951   123.7131     2.4450     0.0035     0.1427
  121.0000   -65.1690     6.4490     7.3291     7.7194   126.2348     2.4404     0.0051     0.1444
  121.5000   -65.1770     6.4370     7.3183     7.7440   125.3187     2.4354     0.0072     0.1393
  122.0000   -65.1851     6.4251     7.3075     7.7532   122.3143     2.4393     0.0093     0.1338
  122.5000   -65.1932     6.4131     7.2967     7.7495   121.9971     2.4493     0.0115     0.1308
  123.0000   -65.2013     6.4012     7.2859     7.7456   122.7397     2.4598     0.0136     0.1306
  123.5000   -65.2094     6.3893     7.2752     7.7417   123.6952     2.4607     0.0157     0.1304
  124.0000   -65.2174     6.3774     7.2644     7.7378   124.0551     2.4594     0.0179     0.1290
  124.5000   -65.2255     6.3656     7.2537     7.7339   124.4328     2.4593     0.0200     0.1264
  125.0000   -65.2336     6.3538     7.2430     7.7300   124.5983     2.4622     0.0201     0.1237
  125.5000   -65.2417     6.3419     7.2321     7.7260   125.3303     2.4701     0.0150     0.1233
  126.0000   -65.2498     6.3302     7.2094     7.7221   127.7144     2.4742     0.0100     0.1279
  126.5000   -65.2578     6.3184     7.1790     7.7183   129.8273     2.4691     0.0051     0.1324
  127.0000   -65.2659     6.3066     7.1487     7.7171   129.2923     2.4636     0.0014     0.1352
  127.5000   -65.2740     6.2949     7.1186     7.7246   128.4917     2.4581     0.0014     0.1355
  128.0000   -65.2821     6.2832     7.0886     7.7317   128.5457     2.4532     0.0000     0.1352
  128.5000   -65.2902     6.2715     7.0586     7.7389   129.1868     2.4517    -0.0006     0.1350
  129.0000   -65.2985     6.2599     7.0289     7.7460   129.8390     2.4511    -0.0008     0.1347
  129.5000   -65.3085     6.2479     6.9992     7.7531   129.9857     2.4525    -0.0009     0.1345
  130.0000   -65.2286     6.2381     6.8396     7.7602   129.6328     2.4540    -0.0010     0.1338
  130.5000   -65.1261     6.2946     6.8545     7.7675   128.6444     2.4554    -0.0012     0.1330
  131.0000   -65.0231     6.3474     6.8758     7.7752   127.6941     2.4568    -0.0013     0.1322
  131.5000   -64.9203     6.4004     6.8969     7.7506   126.7488     2.4583    -0.0014     0.1329
  132.0000   -64.8176     6.4538     6.9186     7.7213   125.9716     2.4592    -0.0016     0.1381
  132.5000   -64.7146     6.5076     6.9401     7.6922   125.7859     2.4539    -0.0017     0.1408
  133.0000   -64.6115     6.5415     6.9616     7.6914   125.6066     2.4478    -0.0019     0.1404
  133.5000   -64.5148     6.5581     6.9832     7.7293   127.2798     2.4428    -0.0020     0.1400
  134.0000   -64.5059     6.5750     7.0049     7.7665   129.8120     2.4423    -0.0022     0.1405
  134.5000   -64.5001     6.5920     7.0267     7.7963   130.1503     2.4416    -0.0023     0.1415
  135.0000   -64.4939     6.6091     7.0485     7.7957   126.1776     2.4409    -0.0025     0.1424
  135.5000   -64.4876     6.6262     7.0704     7.7956   123.3195     2.4403    -0.0012     0.1424
  136.0000   -64.4814     6.6435     7.0924     7.7956   122.0156     2.4402     0.0007     0.1385
  136.5000   -64.4751     6.6531     7.1144     7.7956   121.6371     2.4430     0.0027     0.1330
  137.0000   -64.4689     6.6437     7.1365     7.7956   120.7798     2.4495     0.0047     0.1310
  137.5000   -64.4626     6.6369     7.1586     7.7956   119.2555     2.4564     0.0053     0.1316
  138.0000   -64.4563     6.6302     7.1809     7.7956   119.4257     2.4581     0.0050     0.1347
  138.5000   -64.4501     6.6235     7.2032     7.7956   121.7060     2.4523     0.0047     0.1380
  139.0000   -64.4438     6.6168     7.2255     7.7981   124.0290     2.4464     0.0044     0.1392
  139.5000   -64.4376     6.6101     7.2480     7.8023   126.3764     2.4433     0.0041     0.1405
  140.0000   -64.4313     6.6035     7.2705     7.8066   126.7322     2.4430     0.0038     0.1416
  140.5000   -64.4250     6.5967     7.2950     7.8108   124.9618     2.4433     0.0035     0.1359
  141.0000   -64.4188     6.5922     7.2715     7.8151   123.7234     2.4480     0.0043     0.1300
  141.5000   -64.4125     6.6734     7.2454     7.8193   123.4730     2.4549     0.0051     0.1302
  142.0000   -64.4062     6.7358     7.2194     7.8236   123.0110     2.4620     0.0059     0.1320
  142.5000   -64.4000     6.7988     7.1937     7.8279   121.8689     2.4618     0.0067     0.1324
  143.0000   -64.3937     6.8623     7.1622     7.8321   121.8091     2.4595     0.0075     0.1302
  143.5000   -64.3875     6.9213     7.3159     7.8341   122.7650     2.4591     0.0083     0.1280
  144.0000   -64.3812     6.9718     7.5230     7.8226   124.4628     2.4629     0.0091     0.1259
  144.5000   -64.3749     7.0226     7.7359     7.8111   126.1587     2.4669     0.0090     0.1227
  145.0000   -64.3687     7.0738     7.9989     7.7997   126.1661     2.4709     0.0081     0.1139
  145.5000   -64.3624     7.1254     7.9859     7.7883   125.5724     2.4811     0.0072     0.1050
  146.0000   -64.3561     7.1774     7.9698     7.7769   124.9638     2.4933     0.0063     0.0962
  146.5000   -64.3499     7.2282     7.9537     7.7655   124.8980     2.5056     0.0055     0.0874
  147.0000   -64.3436     7.2282     7.9376     7.7557   124.9896     2.5178     0.0046     0.0828
  147.5000   -64.3373     7.2282     7.9249     7.7593   124.6779     2.5300     0.0037     0.0945
  148.0000   -64.3311     7.1094     7.9277     7.7628   123.3076     2.5361     0.0028     0.1072
