~VERSION INFORMATION
 VERS.                2.0:   CWLS LOG ASCII STANDARD - VERSION 2.0
 WRAP.                 NO:   ONE LINE PER DEPTH STEP
~WELL INFORMATION
#MNEM.UNIT      DATA TYPE    INFORMATION
#----------   ------------   ------------------------------
 STRT.F           24.0000:   START DEPTH
 STOP.F          472.0000:   STOP DEPTH
 STEP.F            0.5000:   STEP LENGTH
 NULL.          -999.2500:   NO VALUE
 COMP. FENIX & SCISSON INC:   COMPANY
 WELL. 55-66 SX-3-FP #55-3:   WELL
 FLD .             WLDCAT:   FIELD
 LOC .       S3 T38N R78W:   LOCATION
 CNTY.            NATRONA:   COUNTY
 STAT.            WYOMING:   STATE
 CTRY. UNITED STATES OF AMERICA:   COUNTRY
 SRVC.              Welex:   SERVICE COMPANY
 DATE.        11-JUN-1980:   LOGDATE
 API .       490251082200:   API NUMBER
~CURVE INFORMATION
#MNEM.UNIT       API CODE    CURVE DESCRIPTION
#----------   ------------   ------------------------------
 DEPT.F                  :   
 SPR .MV     07 010 01 00:   SPONTANEOUS POTENTIAL
 GURD.OHMM   07 220 05 00:   GUARD RESISTIVITY
 ILD .OHMM   07 120 46 00:   INDUCTION LOG DEEP RESISTIVITY
 ILM .OHMM   07 120 44 00:   INDUCTION LOG MEDIUM
 DPHI.DEC    45 890 12 00:   DENSITY POROSITY SANDSTONE
 NPHI.DEC    42 890 03 00:   NEUTRON POROSITY SANDSTONE
 CORR.G/C3   45 356 01 00:   DENSITY CORRECTION
 RHOB.G/C3   45 350 01 00:   BULK DENSITY
 CALD.IN     45 280 60 00:   CALIPER
 GRD .GAPI   45 310 01 00:   GAMMA RAY FROM DENSITY LOG
~PARAMETER INFORMATION
#MNEM.UNIT          VALUE    DESCRIPTION
#----------   ------------   ------------------------------
 PD  .                 GL:   PERMANENT DATUM
 EPD .F              5169:   ELEVATION PERMANENT DATUM
 LMF .                 KB:   LOG MEASURED FROM
 DAPD.F                 5:   FEET ABOVE PERMANENT DATUM
 DMF .                 KB:   DRILLING MEASURED FROM
 EKB .F              5174:   KELLING BUSHING
 EGL .F              5169:   GROUND LEVEL
 DATE.            6-11-80:   RUN DATE
 RUN .                  1:   RUN NUMBER
 DD  .F               472:   DEPTH DRILLER
 DL  .F               472:   DEPTH LOGGER
 BLI .F               470:   BOTTOM LOG INTERVAL
 TLI .F                30:   TOP LOG INTERVAL
 BS  .IN            9.875:   BIT SIZE
 BSD .F               472:   BIT SIZE AT DEPTH
 DFT .                KCL:   DRILLING FLUID TYPE
 DFD .                9.5:   DRILLING FLUID DENSITY
 DFV .                 47:   DRILLING FLUID VISCOSITY
 DFPH.                 12:   DRILLING FLUID PH
 DFL .                7.2:   DRILLING FLUID LOSS
 MSS .           MUD TANK:   MUD SAMPLE SOURCE
 RMS .OHMM            .26:   RESISTIVITY MUD SAMPLE
 MST .F                75:   MUD SAMPLE TEMPERATURE
 RMF .OHMM            .21:   RESISTIVITY MUD FILTRATE SAMPLE
 MFST.F                75:   MUD FILTRATE SAMPLE TEMPERATURE
 RMC .OHMM            .31:   RESISTIVITY MUD CAKE
 MCST.F                75:   MUD CAKE SAMPLE TEMPERATURE
 MFSS.           MEASURED:   MUD FILTRATE SAMPLE SOURCE
 MCSS.           MEASURED:   MUD CAKE SAMPLE SOURCE
 RMB .OHMM            .26:   RESISTIVITY MUD AT BHT
 BHT .F                75:   BOTTOM HOLE TEMPERATURE
 TCS .HRS             1.5:   TIME CURCULATED STOPPED
 MRT .F                75:   MAXIMUM RECORDED TEMPERATURE
 LUN .               9685:   LOGGING UNIT NUMBER
 LUL .             CASPER:   LOGGING UNIT LOCATION
 ENGI.               REIN:   RECORDING ENGINEER
 WITN.          DINSMOORE:   WITNESSED BY
 CLNT.            A2DTECH:   CLIENT CODE
 ORIG.           5" PRINT:   ORIGIN OF DATA
 UWI .       490251082200:   UNIQUE WELL ID
 DICO. A2D Technologies, Inc.:   DIGITIZING COMPANY
~OTHER INFORMATION
~A   DEPT      SPR       GURD        ILD        ILM         DPHI       NPHI     CORR       RHOB        CALD       GRD   
# ...
  225.0000   -56.4128     8.7299     6.1538     7.8546     0.0974     0.3149     0.1085     2.4858    10.0770   109.7317
  225.5000   -56.4510     8.7476     6.1594     7.9798     0.0978     0.3141     0.1049     2.4757    10.0763   109.3348
  226.0000   -56.4893     8.7654     6.1266     8.1175     0.1057     0.3133     0.1088     2.4824    10.0756   109.6509
  226.5000   -56.5275     8.7832     6.1015     8.1066     0.1076     0.3125     0.0841     2.4697    10.0750   110.6862
  227.0000   -56.5657     8.8010     6.0765     8.0911     0.1112     0.3117     0.0812     2.4565    10.0745   111.9294
  227.5000   -56.6039     8.8189     6.0516     8.0756     0.1148     0.3112     0.0893     2.4637    10.0741   113.1807
  228.0000   -56.6422     8.8368     6.0268     8.0601     0.1094     0.3139     0.0963     2.4725    10.0737   114.3540
  228.5000   -56.6837     8.8548     6.0021     8.0432     0.1041     0.3164     0.0950     2.4771    10.0733   114.3875
  229.0000   -56.7400     8.8728     5.9775     8.0574     0.1018     0.3189     0.0947     2.4823    10.0728   112.9620
  229.5000   -56.7963     8.8908     5.9530     8.0856     0.0994     0.3193     0.1045     2.4922    10.0724   112.3030
  230.0000   -56.8526     8.8998     5.9286     8.1151     0.0931     0.3170     0.1119     2.5019    10.0720   113.1174
  230.5000   -56.9089     8.7490     5.9044     8.1177     0.0943     0.3146     0.1048     2.5033    10.0716   113.6813
  231.0000   -56.9651     8.6348     5.8827     7.9587     0.0972     0.3136     0.0987     2.4889    10.0711   114.4006
  231.5000   -57.0214     8.5220     5.7947     7.8829     0.1002     0.3153     0.1099     2.4824    10.0707   114.4316
  232.0000   -57.0776     8.4108     5.6986     7.8077     0.0996     0.3183     0.1113     2.4878    10.0703   113.4498
  232.5000   -57.1339     8.2767     5.6040     7.7332     0.0947     0.3227     0.1081     2.4968    10.0698   112.4657
  233.0000   -57.1901     8.3291     5.5110     7.6111     0.0939     0.3231     0.1111     2.4977    10.0694   111.6053
  233.5000   -57.2467     8.4235     5.4026     7.3403     0.0941     0.3235     0.1104     2.4812    10.0690   111.9028
  234.0000   -57.2704     7.4045     5.2797     6.7764     0.0982     0.3247     0.1027     2.4612    10.0686   114.0596
  234.5000   -57.2703     5.8997     5.1596     5.4125     0.1082     0.3278     0.0948     2.4408    10.0681   116.0694
  235.0000   -57.2731     6.3451     5.0423     5.7205     0.1142     0.3273     0.0868     2.4206    10.0677   116.0662
  235.5000   -57.3764     7.1633     4.9390     6.3897     0.1199     0.3260     0.0789     2.4002    10.0673   114.7039
  236.0000   -57.4872     7.6111     4.8713     6.7538     0.1412     0.3252     0.0709     2.3973    10.0668   113.3700
  236.5000   -57.5978     7.3409     4.7828     6.6033     0.1400     0.3244     0.0628     2.4024    10.0664   112.0478
  237.0000   -57.7083     7.2689     4.6891     6.5048     0.1377     0.3214     0.0685     2.4119    10.0660   110.7256
  237.5000   -57.8187     7.7169     4.5975     6.4622     0.1323     0.3179     0.0762     2.4240    10.0656   109.3911
  238.0000   -57.9296     7.9695     4.5078     6.1850     0.1243     0.3202     0.0838     2.4327    10.0651   108.0193
  238.5000   -58.0457     6.6970     4.4189     5.8259     0.1231     0.3241     0.0895     2.4306    10.0647   108.6399
  239.0000   -57.9644     5.7174     4.3308     5.3716     0.1296     0.3242     0.0921     2.4237    10.0643   110.2799
  239.5000   -57.8273     4.7790     4.2445     4.6233     0.1325     0.3222     0.0958     2.4132    10.0639   111.0906
  240.0000   -57.6888     5.6706     4.1468     4.3529     0.1341     0.3199     0.1048     2.4021    10.0634   110.1070
  240.5000   -57.5506     7.2885     4.2109     5.4509     0.1404     0.3214     0.1141     2.3888    10.0630   108.8401
  241.0000   -57.4124     7.6287     4.3417     6.1845     0.1432     0.3242     0.1158     2.4100    10.0626   107.8002
  241.5000   -57.2746     7.8062     4.4771     6.4363     0.1336     0.3228     0.1059     2.4306    10.0621   108.6693
  242.0000   -57.1367     7.9695     4.6324     6.6962     0.1217     0.3193     0.0856     2.4384    10.0617   110.1533
  242.5000   -57.1226     7.9524     4.8094     6.9668     0.1120     0.3164     0.0934     2.4646    10.0613   110.5941
  243.0000   -57.2791     7.9280     4.9931     7.3361     0.1045     0.3178     0.1031     2.4727    10.0609   110.0220
  243.5000   -57.4350     7.9037     5.1839     7.3129     0.0991     0.3183     0.1231     2.4940    10.0604   109.7327
  244.0000   -57.5910     7.8237     5.3819     7.2666     0.0951     0.3175     0.1163     2.5091    10.0600   110.5864
  244.5000   -57.7470     7.8902     5.5665     7.2206     0.0850     0.3176     0.1142     2.5032    10.0596   111.8796
  245.0000   -57.9029     7.9515     5.4818     7.1750     0.0912     0.3183     0.1156     2.4946    10.0591   111.6153
  245.5000   -58.0588     8.0124     5.3162     7.1296     0.0955     0.3174     0.0988     2.4751    10.0587   110.8693
  246.0000   -58.2148     8.0431     5.1557     7.0845     0.1109     0.3143     0.0807     2.4537    10.0583   110.1101
  246.5000   -58.3717     7.6462     4.9999     6.6503     0.1236     0.3134     0.0734     2.4320    10.0579   109.7165
  247.0000   -58.5278     6.6159     4.7825     5.8825     0.1249     0.3197     0.0793     2.4239    10.0574   110.3605
  247.5000   -58.6416     5.6619     4.5674     5.2033     0.1259     0.3307     0.0851     2.4208    10.0570   111.0899
  248.0000   -58.3912     5.0772     4.3621     4.6026     0.1293     0.3333     0.0864     2.4104    10.0566   112.5825
  248.5000   -58.1413     6.7920     4.3023     5.8855     0.1365     0.3336     0.0891     2.4014    10.0562   114.1936
  249.0000   -57.8930     7.6683     4.3889     5.9157     0.1365     0.3327     0.1013     2.4141    10.0557   112.3530
  249.5000   -57.6032     6.5806     4.4567     6.0553     0.1229     0.3291     0.1093     2.4260    10.0553   109.7404
  250.0000   -57.0677     7.4181     4.5662     6.4669     0.1166     0.3257     0.1075     2.4355    10.0549   107.1203
  250.5000   -56.6365     8.2101     4.7687     6.9074     0.1107     0.3179     0.1038     2.4649    10.0544   104.6953
  251.0000   -56.5401     8.5057     4.9801     7.3731     0.0964     0.3106     0.1147     2.4934    10.0540   103.7797
  251.5000   -56.4355     8.8170     5.2010     7.8336     0.0795     0.3094     0.1286     2.5216    10.0536   102.8106
  252.0000   -56.3324     8.8988     5.4316     7.9434     0.0694     0.3097     0.1378     2.5397    10.0532   101.8338
  252.5000   -56.2295     8.9884     5.6724     8.0102     0.0710     0.3087     0.1419     2.5347    10.0527   100.8633
  253.0000   -56.1259     9.0789     5.9239     8.0777     0.0678     0.3076     0.1480     2.5419    10.0523   100.6419
  253.5000   -56.0595     9.1704     6.1892     8.1483     0.0604     0.3065     0.1535     2.5543    10.0519   100.4538
  254.0000   -56.0254     9.2335     6.5729     8.2746     0.0580     0.3061     0.1516     2.5589    10.0514   100.2629
  254.5000   -55.9920     9.2081     6.5461     8.2704     0.0694     0.3068     0.1379     2.5467    10.0510   100.5587
  255.0000   -55.9588     9.1728     6.4778     8.3023     0.0667     0.3082     0.1275     2.5397    10.0506   100.8967
  255.5000   -55.9257     9.1376     6.4092     8.3201     0.0632     0.3099     0.1315     2.5507    10.0502   101.2393
  256.0000   -55.8921     9.1026     6.3801     8.3380     0.0663     0.3128     0.1161     2.5522    10.0497   102.7061
  256.5000   -55.8987     9.0651     6.3605     8.3559     0.0746     0.3123     0.1061     2.5315    10.0493   106.3532
  257.0000   -55.9399     9.0651     6.3410     8.3738     0.0798     0.3106     0.1131     2.5282    10.0489   107.9499
  257.5000   -55.9814     9.1157     6.3318     8.3918     0.0781     0.3093     0.1060     2.5188    10.0485   109.4804
  258.0000   -56.0231     9.2335     6.6296     8.4097     0.0811     0.3101     0.1147     2.5136    10.0480   110.3372
