~VERSION INFORMATION
 VERS.                2.0:   CWLS LOG ASCII STANDARD - VERSION 2.0
 WRAP.                 NO:   ONE LINE PER DEPTH STEP
~WELL INFORMATION
#MNEM.UNIT      DATA TYPE    INFORMATION
#----------   ------------   ------------------------------
 STRT.F            8.0000:   START DEPTH
 STOP.F          970.0000:   STOP DEPTH
 STEP.F            0.1000:   STEP LENGTH
 NULL.          -999.2500:   NO VALUE
 COMP.       F D SERV INC:   COMPANY
 WELL. N P R 3 STX-35 #15-35:   WELL
 FLD .             TEAPOT:   FIELD
 LOC .      S35 T39N R78W:   LOCATION
 CNTY.            NATRONA:   COUNTY
 STAT.            WYOMING:   STATE
 CTRY. UNITED STATES OF AMERICA:   COUNTRY
 SRVC.     Atlas Wireline:   SERVICE COMPANY
 DATE.        02-FEB-1992:   LOGDATE
 API .       490252250100:   API NUMBER
~CURVE INFORMATION
#MNEM.UNIT       API CODE    CURVE DESCRIPTION
#----------   ------------   ------------------------------
 DEPT.F                  :   
 GRR .GAPI   07 310 01 00:   GAMMA RAY
 RILD.OHMM   07 120 46 00:   INDUCTION LOG DEEP RESISTIVITY
 RILM.OHMM   07 120 44 00:   INDUCTION LOG MEDIUM RESISTIVITY
~PARAMETER INFORMATION
#MNEM.UNIT          VALUE    DESCRIPTION
#----------   ------------   ------------------------------
 PD  .                 GL:   PERMANENT DATUM
 EPD .F              5084:   ELEVATION PERMANENT DATUM
 LMF .                 KB:   LOG MEASURED FROM
 DAPD.F                10:   FEET ABOVE PERMANENT DATUM
 DMF .                 KB:   DRILLING MEASURED FROM
 EKB .F              5094:   KELLING BUSHING
 EDF .F              5093:   DRILLING FLOOR
 EGL .F              5084:   GROUND LEVEL
 DATE.        02-FEB-1982:   RUN DATE
 RUN .                  1:   RUN NUMBER
 DD  .F               980:   DEPTH DRILLER
 CS  .IN            8.625:   CASING SIZE
 BSD .F               980:   BIT SIZE AT DEPTH
 DFT .                AIR:   DRILLING FLUID TYPE
 LUN .            HL-6272:   LOGGING UNIT NUMBER
 LUL .             CASPER:   LOGGING UNIT LOCATION
 ENGI.       R. RASMLSSEN:   RECORDING ENGINEER
 WITN.          G. STRONG:   WITNESSED BY
 CLNT.            A2DTECH:   CLIENT CODE
 ORIG.           5" PRINT:   ORIGIN OF DATA
 UWI .       490252250100:   UNIQUE WELL ID
 DICO. A2D Technologies, Inc.:   DIGITIZING COMPANY
~OTHER INFORMATION
~A    DEPT      GRR      RILD       RILM   
# ...
  845.2000   116.1132    11.0127    10.9787
  845.3000   116.3666    10.9577    10.9794
  845.4000   116.4994    10.9361    10.9801
  845.5000   116.5030    10.9360    10.9809
  845.6000   116.4922    10.9359    10.9817
  845.7000   116.2078    10.9357    10.9825
  845.8000   115.9996    10.9355    10.9833
  845.9000   115.5952    10.9354    10.9294
  846.0000   115.2041    10.9352    10.8676
  846.1000   115.0097    10.9087    10.8060
  846.2000   115.0134    10.8593    10.7449
  846.3000   114.7683    10.8591    10.6864
  846.4000   114.7175    10.8589    10.6873
  846.5000   114.7212    10.8588    10.6372
  846.6000   114.6355    10.8586    10.6148
  846.7000   114.3892    10.8585    10.5904
  846.8000   114.1263    10.8584    10.5304
  846.9000   113.8967    10.8582    10.4707
  847.0000   113.8303    10.8580    10.4116
  847.1000   113.7073    10.8102    10.3998
  847.2000   113.5346    10.7826    10.4005
  847.3000   113.5587    10.7824    10.3788
  847.4000   113.8453    10.7823    10.3299
  847.5000   113.8485    10.7821    10.3308
  847.6000   113.8521    10.7238    10.3315
  847.7000   114.0776    10.7072    10.2878
  847.8000   114.6386    10.7070    10.2615
  847.9000   115.3926    10.7069    10.2424
  848.0000   116.2916    10.6999    10.1919
  848.1000   117.1004    10.6325    10.1928
  848.2000   117.9553    10.6323    10.1397
  848.3000   118.8990    10.6322    10.1237
  848.4000   120.1519    10.6020    10.1243
  848.5000   121.4608    10.5583    10.1078
  848.6000   122.1807    10.5582    10.0557
  848.7000   122.9345    10.5580    10.0566
  848.8000   123.6877    10.5579    10.0064
  848.9000   124.4406    10.5174     9.9498
  849.0000   125.1939    10.4845     9.9200
  849.1000   126.0283    10.4692     9.9059
  849.2000   126.2544    10.4089     9.8528
  849.3000   126.3382    10.3394     9.8536
  849.4000   126.2250    10.3393     9.8066
  849.5000   125.9787    10.3017     9.7511
  849.6000   125.7326    10.2424     9.7198
  849.7000   125.4443    10.1834     9.7082
  849.8000   125.0326    10.1248     9.6539
  849.9000   124.2284    10.0552     9.6547
  850.0000   123.4534    10.0183     9.6483
  850.1000   123.0040     9.9723     9.6403
  850.2000   122.9321     9.9264     9.6324
  850.3000   123.4388     9.8804     9.6244
  850.4000   123.9516     9.8345     9.6165
  850.5000   124.4514     9.7885     9.6085
  850.6000   124.9580     9.7426     9.6005
  850.7000   125.3185     9.6966     9.5843
  850.8000   125.6675     9.6507     9.5286
  850.9000   126.1311     9.6047     9.5294
  851.0000   126.3940     9.5779     9.5302
  851.1000   126.8842     9.5658     9.4692
  851.2000   127.0061     9.5116     9.4005
  851.3000   127.1500     9.5116     9.3927
  851.4000   127.3152     9.5116     9.3371
  851.5000   127.3182     9.4774     9.3378
  851.6000   127.3214     9.4458     9.2983
  851.7000   127.3242     9.4334     9.2749
  851.8000   127.1397     9.3788     9.2573
  851.9000   127.0273     9.3155     9.2049
  852.0000   127.0303     9.3155     9.1494
  852.1000   126.9997     9.2814     9.1501
  852.2000   126.7335     9.2510     9.1124
  852.3000   126.7364     9.2384     9.0884
  852.4000   126.7394     9.1870     9.0722
  852.5000   126.7424     9.1870     9.0270
  852.6000   126.7455     9.1424     9.0279
  852.7000   126.7484     9.1234     8.9811
  852.8000   126.7518     9.1234     8.9302
  852.9000   126.7545     9.1104     8.8797
  853.0000   126.7576     9.0602     8.8449
  853.1000   126.7606     9.0602     8.8457
  853.2000   126.7636     9.0158     8.8464
  853.3000   126.7667     8.9975     8.8015
  853.4000   126.7700     8.9739     8.7867
  853.5000   126.7727     8.9352     8.7627
  853.6000   126.7757     8.9322     8.7131
  853.7000   126.7788     8.8734     8.6678
  853.8000   126.7818     8.8734     8.6686
  853.9000   126.7660     8.8395     8.6256
  854.0000   126.4852     8.8120     8.6100
  854.1000   126.2684     8.7985     8.5875
  854.2000   126.0198     8.7510     8.5520
  854.3000   125.6544     8.7510     8.5496
  854.4000   125.2195     8.7510     8.4944
  854.5000   124.9566     8.7171     8.4531
  854.6000   124.3823     8.6904     8.4370
  854.7000   123.9560     8.6904     8.4377
  854.8000   123.4555     8.6904     8.4384
  854.9000   122.9551     8.6904     8.4390
  855.0000   122.5757     8.6904     8.4399
  855.1000   122.5974     8.6904     8.4405
  855.2000   123.1884     8.6904     8.4412
  855.3000   124.4490     8.6904     8.4630
  855.4000   125.6453     8.6904     8.5014
  855.5000   126.6551     8.6904     8.5020
  855.6000   127.6653     8.6904     8.5029
  855.7000   128.6621     8.6557     8.5438
  855.8000   128.9642     8.6302     8.5634
  855.9000   128.9666     8.6302     8.5641
  856.0000   128.9697     8.6302     8.5648
  856.1000   128.9727     8.6302     8.5655
  856.2000   129.0266     8.6302     8.5664
  856.3000   129.2818     8.6302     8.5669
  856.4000   129.5363     8.6052     8.5676
  856.5000   129.7910     8.5705     8.5684
  856.6000   130.0457     8.5653     8.5690
  856.7000   130.3979     8.5112     8.5698
  856.8000   130.8582     8.5112     8.5705
  856.9000   131.1182     8.5112     8.5712
  857.0000   131.1212     8.5112     8.5719
  857.1000   131.3194     8.4958     8.5726
  857.2000   131.5742     8.4523     8.5733
  857.3000   131.7363     8.4523     8.5741
  857.4000   131.7394     8.4523     8.5747
  857.5000   131.7425     8.4172     8.5755
  857.6000   131.5039     8.3938     8.5762
  857.7000   131.0650     8.3781     8.5769
  857.8000   130.2867     8.3297     8.5776
  857.9000   129.1070     8.2780     8.5784
  858.0000   127.6356     8.2780     8.5324
  858.1000   126.3062     8.2432     8.5205
  858.2000   125.1254     8.2207     8.4948
  858.3000   124.2404     8.2049     8.4630
  858.4000   123.7567     8.1638     8.4573
  858.5000   123.5081     8.1638     8.4059
  858.6000   123.2905     8.1196     8.4066
  858.7000   123.2942     8.1072     8.3723
  858.8000   123.5290     8.0819     8.3499
  858.9000   124.1452     8.0511     8.3354
  859.0000   124.9033     8.0511     8.2935
  859.1000   125.7396     8.0511     8.2943
  859.2000   126.7225     8.0511     8.2949
  859.3000   127.5548     8.0163     8.2956
  859.4000   128.4658     7.9954     8.2963
  859.5000   129.3004     7.9954     8.2829
  859.6000   129.9338     7.9954     8.2403
  859.7000   130.4400     7.9954     8.2411
  859.8000   130.9468     7.9954     8.1997
  859.9000   131.5125     7.9954     8.1855
  860.0000   132.1819     7.9954     8.1861
  860.1000   132.9398     7.9787     8.1737
  860.2000   133.4589     7.9401     8.1308
  860.3000   133.7137     7.9401     8.1317
  860.4000   133.9686     7.9401     8.1323
  860.5000   134.2580     7.9401     8.1018
  860.6000   134.2606     7.9140     8.0560
  860.7000   134.2636     7.8851     8.0223
  860.8000   134.2667     7.8772     8.0205
  860.9000   134.1429     7.8305     7.9682
  861.0000   133.6545     7.8305     7.9688
  861.1000   133.3671     7.8305     7.9398
  861.2000   132.9445     7.8305     7.9150
  861.3000   132.6053     7.8133     7.9048
  861.4000   132.3567     7.7763     7.8600
  861.5000   132.0494     7.7763     7.8080
  861.6000   131.5564     7.7763     7.8086
  861.7000   131.2642     7.7410     7.7811
  861.8000   130.8512     7.7225     7.7559
  861.9000   130.5073     7.7225     7.7467
  862.0000   130.2587     7.7139     7.7036
  862.1000   130.0099     7.6690     7.7043
  862.2000   129.7636     7.6250     7.7048
  862.3000   129.7673     7.6159     7.6786
  862.4000   129.7697     7.5896     7.6529
  862.5000   129.9243     7.5632     7.6447
  862.6000   130.1790     7.5544     7.6013
  862.7000   130.4825     7.5108     7.5584
  862.8000   130.9940     7.4589     7.5500
  862.9000   131.4954     7.4589     7.5251
  863.0000   132.0021     7.4327     7.4991
  863.1000   132.3619     7.4073     7.4997
  863.2000   132.7120     7.4073     7.5003
  863.3000   133.2186     7.4067     7.4588
