~VERSION INFORMATION
 VERS.                2.0:   CWLS LOG ASCII STANDARD - VERSION 2.0
 WRAP.                 NO:   ONE LINE PER DEPTH STEP
~WELL INFORMATION
#MNEM.UNIT      DATA TYPE    INFORMATION
#----------   ------------   ------------------------------
 STRT.F           40.0000:   START DEPTH
 STOP.F          512.0000:   STOP DEPTH
 STEP.F            0.5000:   STEP LENGTH
 NULL.          -999.2500:   NO VALUE
 COMP. FENIX & SCISSON INC:   COMPANY
 WELL.    SX 3FO 55 #52-3:   WELL
 FLD .             TEAPOT:   FIELD
 LOC .       S3 T38N R78W:   LOCATION
 CNTY.            NATRONA:   COUNTY
 STAT.            WYOMING:   STATE
 CTRY. UNITED STATES OF AMERICA:   COUNTRY
 SRVC.              Welex:   SERVICE COMPANY
 DATE.        28-JUN-1980:   LOGDATE
 API .       490251081600:   API NUMBER
~CURVE INFORMATION
#MNEM.UNIT       API CODE    CURVE DESCRIPTION
#----------   ------------   ------------------------------
 DEPT.F                  :   
 GRD .GAPI   45 310 01 00:   GAMMA RAY FROM DENSITY LOG
 CALD.IN     45 280 60 00:   CALIPER
 RHOB.G/C3   45 350 01 00:   BULK DENSITY
 DPHI.DEC    45 890 12 00:   DENSITY POROSITY SANDSTONE
 CORR.G/C3   45 356 01 00:   DENSITY CORRECTION
~PARAMETER INFORMATION
#MNEM.UNIT          VALUE    DESCRIPTION
#----------   ------------   ------------------------------
 PD  .                 GL:   PERMANENT DATUM
 EPD .F              5161:   ELEVATION PERMANENT DATUM
 LMF .                 KB:   LOG MEASURED FROM
 DAPD.F                 5:   FEET ABOVE PERMANENT DATUM
 DMF .                 KB:   DRILLING MEASURED FROM
 EKB .F              5166:   KELLING BUSHING
 EGL .F              5161:   GROUND LEVEL
 DATE.            6-28-80:   RUN DATE
 RUN .                  1:   RUN NUMBER
 DD  .F               514:   DEPTH DRILLER
 DL  .F               514:   DEPTH LOGGER
 BLI .F               512:   BOTTOM LOG INTERVAL
 TLI .F                46:   TOP LOG INTERVAL
 CS  .IN                7:   CASING SIZE
 BS  .IN             6.25:   BIT SIZE
 BSD .F               514:   BIT SIZE AT DEPTH
 DFT .        AIR DRILLED:   DRILLING FLUID TYPE
 BHT .F                74:   BOTTOM HOLE TEMPERATURE
 TCS .HRS               2:   TIME CURCULATED STOPPED
 MRT .F                74:   MAXIMUM RECORDED TEMPERATURE
 ENGI.            TOTHILL:   RECORDING ENGINEER
 WITN.              AMEND:   WITNESSED BY
 CLNT.            A2DTECH:   CLIENT CODE
 ORIG.           5" PRINT:   ORIGIN OF DATA
 UWI .       490251081600:   UNIQUE WELL ID
 DICO. A2D Technologies, Inc.:   DIGITIZING COMPANY
~OTHER INFORMATION
~A   DEPT       GRD        CALD       RHOB       DPHI       CORR 
# ...
  467.0000   102.3679     6.3645     2.4860     0.1123     0.0208
  467.5000   102.1886     6.3645     2.4907     0.1094     0.0236
  468.0000   101.9091     6.3645     2.4824     0.1127     0.0139
  468.5000   102.2461     6.3645     2.4726     0.1188     0.0040
  469.0000   101.9169     6.3645     2.4675     0.1238    -0.0021
  469.5000   100.5291     6.3645     2.4731     0.1210    -0.0020
  470.0000   100.1636     6.3645     2.4795     0.1176     0.0011
  470.5000   100.0847     6.3645     2.4901     0.1124     0.0096
  471.0000   100.3930     6.3645     2.5008     0.1059     0.0181
  471.5000   101.2518     6.3645     2.5071     0.1013     0.0212
  472.0000   102.7428     6.3645     2.5101     0.0982     0.0229
  472.5000   103.8327     6.3645     2.5115     0.0974     0.0253
  473.0000   104.4367     6.3645     2.5125     0.0963     0.0298
  473.5000   104.0228     6.3645     2.5210     0.0944     0.0341
  474.0000   103.5624     6.3645     2.5252     0.0926     0.0370
  474.5000   103.1062     6.3645     2.5158     0.0957     0.0297
  475.0000   102.6502     6.3645     2.5051     0.1001     0.0222
  475.5000   102.1665     6.3645     2.4968     0.1098     0.0147
  476.0000   102.5014     6.3645     2.4928     0.1070     0.0084
  476.5000   103.0683     6.3645     2.5121     0.1012     0.0186
  477.0000   104.0683     6.3645     2.5198     0.0958     0.0290
  477.5000   105.4361     6.3645     2.5245     0.0926     0.0313
  478.0000   106.2321     6.3645     2.5202     0.0942     0.0288
  478.5000   106.8555     6.3645     2.5139     0.0966     0.0265
  479.0000   107.4619     6.3645     2.5034     0.1046     0.0212
  479.5000   108.0664     6.3646     2.4964     0.1134     0.0186
  480.0000   108.4092     6.3646     2.5065     0.1030     0.0214
  480.5000   108.3345     6.3645     2.5119     0.0974     0.0238
  481.0000   108.2700     6.3621     2.5076     0.0986     0.0201
  481.5000   108.0290     6.3597     2.5033     0.1027     0.0162
  482.0000   108.1647     6.3573     2.4922     0.1074     0.0124
  482.5000   108.2855     6.3549     2.4868     0.1111     0.0108
  483.0000   108.4281     6.3525     2.4877     0.1109     0.0129
  483.5000   107.5657     6.3500     2.4882     0.1098     0.0150
  484.0000   106.4636     6.3476     2.4759     0.1143     0.0109
  484.5000   105.3469     6.3452     2.4645     0.1197     0.0020
  485.0000   104.7498     6.3428     2.4641     0.1253     0.0036
  485.5000   104.5753     6.3404     2.4683     0.1248     0.0099
  486.0000   104.4024     6.3380     2.4805     0.1190     0.0163
  486.5000   104.2299     6.3356     2.4963     0.1112     0.0211
  487.0000   104.0362     6.3332     2.4894     0.1087     0.0144
  487.5000   104.7399     6.3308     2.4825     0.1113     0.0075
  488.0000   105.7173     6.3284     2.4918     0.1102     0.0034
  488.5000   105.7421     6.3260     2.4947     0.1076     0.0023
  489.0000   104.7529     6.3253     2.4972     0.1067     0.0011
  489.5000   103.8973     6.3264     2.4998     0.1078     0.0000
  490.0000   103.9421     6.3275     2.4980     0.1058    -0.0011
  490.5000   103.8199     6.3286     2.4945     0.1069    -0.0018
  491.0000   103.0413     6.3298     2.4908     0.1080    -0.0007
  491.5000   102.2682     6.3309     2.4906     0.1090    -0.0022
  492.0000   101.5094     6.3321     2.4925     0.1098    -0.0072
  492.5000   101.1618     6.3332     2.4859     0.1106    -0.0120
  493.0000   101.6589     6.3343     2.4780     0.1146    -0.0155
  493.5000   102.0849     6.3355     2.4785     0.1170    -0.0128
  494.0000   102.1859     6.3366     2.4885     0.1111    -0.0029
  494.5000   102.5048     6.3377     2.4985     0.1057     0.0051
  495.0000   103.1684     6.3389     2.5024     0.1035     0.0077
  495.5000   103.8248     6.3400     2.5006     0.1030     0.0095
  496.0000   104.4949     6.3411     2.4956     0.1073     0.0064
  496.5000   104.2831     6.3423     2.4907     0.1110     0.0034
  497.0000   103.6688     6.3434     2.4899     0.1111     0.0046
  497.5000   103.0470     6.3446     2.4905     0.1102     0.0092
  498.0000   102.3950     6.3446     2.4969     0.1073     0.0137
  498.5000   102.5097     6.3446     2.5005     0.1038     0.0116
  499.0000   102.7463     6.3446     2.4852     0.1116     0.0036
  499.5000  -999.2500     6.3446     2.4692     0.1185    -0.0024
  500.0000  -999.2500     6.3446     2.4624     0.1246    -0.0045
  500.5000  -999.2500     6.3446     2.4556     0.1287    -0.0069
  501.0000  -999.2500     6.3446     2.4497     0.1327    -0.0092
  501.5000  -999.2500     6.3446     2.4438     0.1365    -0.0077
  502.0000  -999.2500     6.3446     2.4380     0.1403    -0.0041
  502.5000  -999.2500     6.3446     2.4329     0.1441    -0.0005
  503.0000  -999.2500     6.3446     2.4227     0.1489     0.0031
  503.5000  -999.2500     6.3446     2.4111     0.1558     0.0067
  504.0000  -999.2500     6.3446     2.4007     0.1626     0.0114
  504.5000  -999.2500     6.3446     2.3997     0.1647     0.0242
  505.0000  -999.2500     6.3446     2.3840     0.1734     0.0200
  505.5000  -999.2500     6.3446     2.3664     0.1833     0.0193
  506.0000  -999.2500     6.3422     2.3483     0.1931     0.0269
  506.5000  -999.2500     6.3363     2.3427     0.1992     0.0345
  507.0000  -999.2500     6.3304     2.3416     0.1982     0.0421
  507.5000  -999.2500     6.3246     2.3423     0.1972     0.0503
  508.0000  -999.2500     6.3187     2.3411     0.2004     0.0392
  508.5000  -999.2500     6.3128     2.3341     0.2036     0.0218
  509.0000  -999.2500     6.3074     2.3391     0.2000     0.0043
  509.5000  -999.2500     6.2696     2.3811     0.1760    -0.0080
  510.0000  -999.2500     6.2152     2.4231     0.1482    -0.0074
  510.5000  -999.2500     6.1601     2.4579     0.1327     0.0085
  511.0000  -999.2500     6.1249     2.4888     0.1173     0.0240
  511.5000  -999.2500     6.0811     2.5080     0.1005     0.0319
  512.0000  -999.2500     6.0772     2.5124     0.0946     0.0320
