~VERSION INFORMATION
 VERS.                2.0:   CWLS LOG ASCII STANDARD - VERSION 2.0
 WRAP.                 NO:   ONE LINE PER DEPTH STEP
~WELL INFORMATION
#MNEM.UNIT      DATA TYPE    INFORMATION
#----------   ------------   ------------------------------
 STRT.F           29.0000:   START DEPTH
 STOP.F          435.0000:   STOP DEPTH
 STEP.F            0.5000:   STEP LENGTH
 NULL.          -999.2500:   NO VALUE
 COMP. FENIX & SCISSON INC:   COMPANY
 WELL.    525 X 10 #52-10:   WELL
 FLD .             TEAPOT:   FIELD
 LOC .      S10 T38N R78W:   LOCATION
 CNTY.            NATRONA:   COUNTY
 STAT.            WYOMING:   STATE
 CTRY. UNITED STATES OF AMERICA:   COUNTRY
 SRVC.       Schlumberger:   SERVICE COMPANY
 DATE.        18-NOV-1978:   LOGDATE
 API .       490251077700:   API NUMBER
~CURVE INFORMATION
#MNEM.UNIT       API CODE    CURVE DESCRIPTION
#----------   ------------   ------------------------------
 DEPT.F                  :   
 NEUT.NAPI   35 330 01 00:   NEUTRON
 SPR .MV     07 010 01 00:   SPONTANEOUS POTENTIAL
 SFL .OHMM   07 220 01 00:   SHALLOW FOCUSED LOG RESISTIVITY
 ILD .OHMM   07 120 46 00:   INDUCTION LOG DEEP RESISTIVITY
 ILM .OHMM   07 120 44 00:   INDUCTION LOG MEDIUM
 CORR.G/C3   45 356 01 00:   DENSITY CORRECTION
 RHOB.G/C3   45 350 01 00:   BULK DENSITY
 DPHI.DEC    45 890 12 00:   DENSITY POROSITY SANDSTONE
 CALD.IN     45 280 60 00:   CALIPER
 GRD .GAPI   45 310 01 00:   GAMMA RAY FROM DENSITY LOG
~PARAMETER INFORMATION
#MNEM.UNIT          VALUE    DESCRIPTION
#----------   ------------   ------------------------------
 PD  .                 GL:   PERMANENT DATUM
 EPD .F              5176:   ELEVATION PERMANENT DATUM
 LMF .                 KB:   LOG MEASURED FROM
 DAPD.F                 4:   FEET ABOVE PERMANENT DATUM
 DMF .                 KB:   DRILLING MEASURED FROM
 EKB .F              5180:   KELLING BUSHING
 EGL .F              5176:   GROUND LEVEL
 DATE.           11-18-78:   RUN DATE
 RUN .                  1:   RUN NUMBER
 DD  .F               433:   DEPTH DRILLER
 DL  .F               435:   DEPTH LOGGER
 BLI .F               429:   BOTTOM LOG INTERVAL
 TLI .F                48:   TOP LOG INTERVAL
 CS  .IN            8.625:   CASING SIZE
 CBD .F                40:   CASING BOTTOM DRILLER
 CBL .F                48:   CASING BOTTOM LOGGER
 BS  .IN            7.875:   BIT SIZE
 BSD .F               433:   BIT SIZE AT DEPTH
 DFT .            KCL MUD:   DRILLING FLUID TYPE
 DFD .                8.5:   DRILLING FLUID DENSITY
 DFV .                 30:   DRILLING FLUID VISCOSITY
 DFPH.                9.6:   DRILLING FLUID PH
 DFL .                 16:   DRILLING FLUID LOSS
 MSS .             MUDPIT:   MUD SAMPLE SOURCE
 RMS .OHMM            .45:   RESISTIVITY MUD SAMPLE
 MST .F                50:   MUD SAMPLE TEMPERATURE
 RMF .OHMM            .37:   RESISTIVITY MUD FILTRATE SAMPLE
 MFST.F                50:   MUD FILTRATE SAMPLE TEMPERATURE
 RMC .OHMM            .43:   RESISTIVITY MUD CAKE
 MCST.F                50:   MUD CAKE SAMPLE TEMPERATURE
 MFSS.                  M:   MUD FILTRATE SAMPLE SOURCE
 MCSS.                  C:   MUD CAKE SAMPLE SOURCE
 RMB .OHMM            .42:   RESISTIVITY MUD AT BHT
 BHT .F                63:   BOTTOM HOLE TEMPERATURE
 TCS .HRS            2400:   TIME CURCULATED STOPPED
 TLAB.HRS            1300:   TIME LOGGER AT BOTTOM
 MRT .F                63:   MAXIMUM RECORDED TEMPERATURE
 LUN .               7663:   LOGGING UNIT NUMBER
 LUL .                GLT:   LOGGING UNIT LOCATION
 ENGI.        SATTERFIELD:   RECORDING ENGINEER
 WITN.              AMEND:   WITNESSED BY
 CLNT.            A2DTECH:   CLIENT CODE
 ORIG.     1", 2.5" PRINT:   ORIGIN OF DATA
 UWI .       490251077700:   UNIQUE WELL ID
 DICO. A2D Technologies, Inc.:   DIGITIZING COMPANY
~OTHER INFORMATION
~A   DEPT     NEUT        SPR        SFL        ILD        ILM       CORR       RHOB       DPHI       CALD         GRD  
# ...
  297.0000   270.8210   -17.8691    22.4727    21.8868    22.3299     0.0144     2.3783     0.1810     8.2357    86.7449
  297.5000   269.8146   -18.0802    22.7364    22.1222    22.4331     0.0121     2.3665     0.1878     8.2373    84.8350
  298.0000   269.6662   -18.3077    23.0033    22.3041    22.5368     0.0089     2.3575     0.1947     8.2388    84.6952
  298.5000   270.8883   -18.4509    23.1579    22.0572    22.6933     0.0094     2.3552     0.1984     8.2404    85.0668
  299.0000   272.1334   -18.4867    22.9279    21.7635    22.6490     0.0102     2.3645     0.1935     8.2420    85.8766
  299.5000   273.3650   -18.5370    22.5606    21.4735    22.3132     0.0112     2.3763     0.1858     8.2435    87.2186
  300.0000   273.9407   -18.5854    22.1929    21.1866    21.9824     0.0120     2.3815     0.1798     8.2451    88.7278
  300.5000   274.4348   -18.6318    21.8385    20.9042    21.6565     0.0129     2.3827     0.1802     8.2466    88.5013
  301.0000   274.9287   -18.6803    21.4898    20.6256    21.3355     0.0100     2.3842     0.1806     8.2482    88.6096
  301.5000   275.4540   -18.7273    21.1466    20.3507    21.0191     0.0044     2.3859     0.1778     8.2498    88.3296
  302.0000   276.6505   -18.7755    20.8090    20.0794    20.7075     0.0034     2.3859     0.1757     8.2513    87.6292
  302.5000   277.9469   -18.8270    20.4767    19.8118    20.4005     0.0058     2.3851     0.1765     8.2529    86.9771
  303.0000   279.2492   -18.9197    20.1581    19.5817    20.0981     0.0067     2.3847     0.1773     8.2544    86.2602
  303.5000   280.5307   -19.0195    19.9493    19.3294    19.8001     0.0059     2.3871     0.1773     8.2561    85.6959
  304.0000   281.1275   -19.1200    19.9493    19.1087    19.5066     0.0037     2.3922     0.1754     8.2550    84.4573
  304.5000   278.8396   -19.2197    19.9493    18.8905    19.2174     0.0024     2.3968     0.1700     8.2526    82.7546
  305.0000   276.5516   -19.3197    19.6255    18.6748    18.9324     0.0032     2.3860     0.1740     8.2503    82.2970
  305.5000   277.7130   -19.4198    19.2682    18.4616    18.6518     0.0048     2.3833     0.1822     8.2480    85.2799
  306.0000   280.0636   -19.5196    18.9174    18.2508    18.3752     0.0061     2.3948     0.1752     8.2457    87.0138
  306.5000   282.4020   -19.6197    18.5192    18.0424    18.1028     0.0063     2.4055     0.1636     8.2434    88.4491
  307.0000   284.4270   -19.7200    18.3410    17.8364    17.8431     0.0014     2.4042     0.1675     8.2411    89.5210
  307.5000   284.4284   -19.8184    18.1780    17.6301    17.8431    -0.0053     2.3907     0.1708     8.2388    90.0309
  308.0000   284.5080   -19.9216    18.1780    17.4815    17.8431    -0.0029     2.3950     0.1725     8.2365    89.6128
  308.5000   284.5947   -20.0225    18.1780    17.4090    17.8431     0.0030     2.4029     0.1665     8.2342    88.7685
  309.0000   284.6818   -20.2650    18.1780    17.3370    17.8431     0.0085     2.4038     0.1636     8.2319    87.6538
  309.5000   284.7690   -20.5529    18.1780    17.2655    17.8431     0.0109     2.4072     0.1628     8.2297    85.5845
  310.0000   284.8560   -20.8386    18.1780    17.1913    17.8431     0.0132     2.4172     0.1599     8.2274    83.6669
  310.5000   284.9432   -21.1248    18.1780    17.2289    17.8431     0.0155     2.4241     0.1522     8.2251    82.0185
  311.0000   285.0303   -21.4118    18.1677    17.2963    17.8431     0.0167     2.4288     0.1506     8.2228    80.6162
  311.5000   285.1167   -21.6564    18.1908    17.3605    17.8431     0.0156     2.4357     0.1483     8.2204    79.7666
  312.0000   285.1988   -21.7291    18.9923    17.4271    17.8431     0.0146     2.4438     0.1448     8.2183    80.4309
  312.5000   285.2901   -21.7944    19.9420    17.5143    17.8431     0.0121     2.4526     0.1369     8.2157    81.1743
  313.0000   285.7729   -21.8553    19.6680    17.2671    17.6538     0.0096     2.4545     0.1360     8.2177    82.8424
  313.5000   288.0713   -21.9182    18.6952    16.9182    17.3856     0.0071     2.4448     0.1394     8.2204    84.5069
  314.0000   290.3330   -21.9801    17.7713    16.5763    17.1214     0.0047     2.4339     0.1452     8.2233    85.3020
  314.5000   292.5906   -22.0445    16.8939    16.2588    16.8613     0.0046     2.4241     0.1510     8.2261    85.9828
  315.0000   294.8439   -22.0534    16.2589    16.0664    16.6051     0.0045     2.4230     0.1570     8.2289    87.8198
  315.5000   297.1136   -21.9987    16.3285    15.7739    16.3514     0.0039     2.4301     0.1525     8.2317    90.1002
  316.0000   299.2476   -21.9467    16.4120    15.4867    16.2081     0.0006     2.4363     0.1474     8.2345    92.3614
  316.5000   305.7416   -21.8947    16.4960    15.2048    15.9863     0.0026     2.4334     0.1485     8.2373    94.2586
  317.0000   314.6090   -21.8406    16.5639    15.0932    15.7679     0.0070     2.4316     0.1498     8.2401    94.7895
  317.5000   359.8054   -21.7887    16.2663    15.0932    15.5525     0.0111     2.4465     0.1445     8.2429    95.2410
  318.0000   280.8078   -21.7382    15.8970    15.0932    15.3759     0.0152     2.4563     0.1345     8.2457    95.7499
  318.5000   282.5537   -21.6752    15.5361    15.0932    15.3762     0.0199     2.4632     0.1295     8.2485    95.5307
  319.0000   282.7924   -21.7272    15.3765    15.0932    15.3765     0.0166     2.4693     0.1298     8.2513    94.5186
  319.5000   282.9337   -21.8769    15.5120    15.0932    15.3765     0.0100     2.4626     0.1333     8.2541    93.7162
  320.0000   283.1279   -22.0142    15.6312    15.0932    15.3765     0.0128     2.4566     0.1352     8.2561    92.7565
  320.5000   283.3189   -22.1521    15.8246    15.2106    15.4781     0.0111     2.4531     0.1376     8.2561    94.4792
  321.0000   283.5099   -22.2923    16.0499    15.3759    15.6209     0.0075     2.4487     0.1448     8.2561    95.1078
  321.5000   283.7008   -22.4305    16.2783    15.5429    15.7651     0.0035     2.4342     0.1514     8.2561    94.9503
  322.0000   283.8919   -22.5697    16.5100    15.7118    15.9106    -0.0005     2.4141     0.1580     8.2561    92.5592
  322.5000   284.0814   -22.7088    16.7450    15.8826    16.0574    -0.0045     2.4075     0.1644     8.2561    90.3291
  323.0000   284.2668   -22.8475    16.8749    16.0552    16.2588    -0.0085     2.4026     0.1692     8.2561    88.5082
  323.5000   284.4139   -22.9867    16.7848    16.2588    16.1220    -0.0065     2.4023     0.1684     8.2561    87.2503
  324.0000   285.2645   -23.1258    16.6994    16.2588    15.9118     0.0015     2.4070     0.1659     8.2561    87.1497
  324.5000   286.0991   -23.2632    16.6143    15.6652    15.6652     0.0099     2.4147     0.1611     8.2561    88.2010
  325.0000   286.9272   -23.4062    16.5639    15.4520    15.5734     0.0114     2.4210     0.1551     8.2561    88.5521
  325.5000   287.7546   -23.5398    16.3391    15.1927    15.3492     0.0164     2.4281     0.1441     8.2561    87.6439
  326.0000   288.5817   -23.6718    15.9681    14.9377    15.1281     0.0228     2.4413     0.1441     8.2561    86.4304
  326.5000   289.4173   -23.5841    15.6056    14.6871    14.9103     0.0146     2.4365     0.1461     8.2561    87.6596
  327.0000   290.2627   -23.4918    15.2512    14.4406    14.6956     0.0060     2.4359     0.1478     8.2561    89.7415
  327.5000   291.1528   -23.3860    15.0932    14.1983    14.4839     0.0057     2.4373     0.1455     8.2561    91.7383
  328.0000   293.5800   -23.2691    15.0932    13.9600    14.2754     0.0105     2.4503     0.1381     8.2561    93.7468
  328.5000   294.7718   -22.9462    15.0932    13.7531    14.0112     0.0119     2.4631     0.1304     8.2561    93.5790
  329.0000   345.1830   -22.5859    15.0932    13.7531    14.0443     0.0081     2.4558     0.1352     8.2561    92.5309
  329.5000   111.2760   -22.1902    15.2233    13.7531    14.1522     0.0092     2.4535     0.1324     8.2561    91.4374
  330.0000   407.0227   -21.9123    15.4877    13.7531    14.2743     0.0193     2.4601     0.1304     8.2560    91.2645
