~VERSION INFORMATION
 VERS.                2.0:   CWLS LOG ASCII STANDARD - VERSION 2.0
 WRAP.                 NO:   ONE LINE PER DEPTH STEP
~WELL INFORMATION
#MNEM.UNIT      DATA TYPE    INFORMATION
#----------   ------------   ------------------------------
 STRT.F          248.0000:   START DEPTH
 STOP.F         2495.0000:   STOP DEPTH
 STEP.F            0.5000:   STEP LENGTH
 NULL.          -999.2500:   NO VALUE
 COMP. FENIX & SCISSON INC:   COMPANY
 WELL.      85 SHX #28-28:   WELL
 FLD .             TEAPOT:   FIELD
 LOC .      S28 T39N R78W:   LOCATION
 CNTY.            NATRONA:   COUNTY
 STAT.            WYOMING:   STATE
 CTRY. UNITED STATES OF AMERICA:   COUNTRY
 SRVC.           BIRDWELL:   SERVICE COMPANY
 DATE.        18-AUG-1979:   LOGDATE
 API .       490251079700:   API NUMBER
~CURVE INFORMATION
#MNEM.UNIT       API CODE    CURVE DESCRIPTION
#----------   ------------   ------------------------------
 DEPT.F                  :   
 CALD.IN     45 280 60 00:   CALIPER
 CORR.G/C3   45 356 01 00:   DENSITY CORRECTION
 RHOB.G/C3   45 350 01 00:   BULK DENSITY
 DPHI.DEC    45 890 12 00:   DENSITY POROSITY SANDSTONE
 GRD .GAPI   45 310 01 00:   GAMMA RAY FROM DENSITY LOG
~PARAMETER INFORMATION
#MNEM.UNIT          VALUE    DESCRIPTION
#----------   ------------   ------------------------------
 PD  .                 GL:   PERMANENT DATUM
 EPD .F              5044:   ELEVATION PERMANENT DATUM
 LMF .                 DF:   LOG MEASURED FROM
 DMF .                 KB:   DRILLING MEASURED FROM
 EKB .F              5054:   KELLING BUSHING
 EDF .F              5052:   DRILLING FLOOR
 EGL .F              5044:   GROUND LEVEL
 DATE.            8-18-79:   RUN DATE
 RUN .                  1:   RUN NUMBER
 DD  .F              2500:   DEPTH DRILLER
 DL  .F              2495:   DEPTH LOGGER
 BLI .F              2495:   BOTTOM LOG INTERVAL
 CS  .IN            9.625:   CASING SIZE
 CBD .F               520:   CASING BOTTOM DRILLER
 CBL .F               505:   CASING BOTTOM LOGGER
 BS  .IN             8.75:   BIT SIZE
 BSD .F              2500:   BIT SIZE AT DEPTH
 DFT .                AIR:   DRILLING FLUID TYPE
 TCS .HRS               2:   TIME CURCULATED STOPPED
 ENGI.          B. MILLER:   RECORDING ENGINEER
 WITN.           DINSMORE:   WITNESSED BY
 CLNT.            A2DTECH:   CLIENT CODE
 ORIG.           5" PRINT:   ORIGIN OF DATA
 UWI .       490251079700:   UNIQUE WELL ID
 DICO. A2D Technologies, Inc.:   DIGITIZING COMPANY
~OTHER INFORMATION
~A   DEPT     CALD       CORR       RHOB       DPHI         GRD  
# ...
 1895.0000    10.0003     0.0572     2.4464     0.0597   174.8838
 1895.5000    10.0052     0.0232     2.4264     0.0689   173.5237
 1896.0000    10.0101     0.0081     2.4105     0.0736   179.7830
 1896.5000    10.0150    -0.0004     2.4041     0.0831   179.9652
 1897.0000    10.0199    -0.0008     2.4005     0.0847   174.0468
 1897.5000    10.0248     0.0007     2.3976     0.0868   172.5777
 1898.0000    10.0297     0.0023     2.3947     0.0891   175.0672
 1898.5000    10.0346     0.0038     2.3857     0.0911   179.9923
 1899.0000    10.0395     0.0113     2.3761     0.0941   180.2247
 1899.5000    10.0445     0.0225     2.3739     0.0978   175.5982
 1900.0000    10.0495     0.0306     2.3561     0.1049   172.5834
 1900.5000    10.0478     0.0303     2.3317     0.1207   172.5998
 1901.0000    10.0455     0.0336     2.3098     0.1364   177.8990
 1901.5000    10.0432     0.0818     2.2926     0.1415   181.0748
 1902.0000    10.0409     0.1735     2.3122     0.1313   179.0297
 1902.5000    10.0387     0.2651     2.3713     0.1004   179.1653
 1903.0000    10.0364     0.3565     2.4341     0.0627   179.4049
 1903.5000    10.0341     0.4499     2.4967     0.0216   178.3654
 1904.0000    10.0318     0.4957     2.5512    -0.0025   179.9112
 1904.5000    10.0296     0.4748     2.5623    -0.0074   189.3524
 1905.0000    10.0273     0.4398     2.5371     0.0066   187.6951
 1905.5000    10.0250     0.4043     2.5285     0.0107   191.3525
 1906.0000    10.0228     0.3689     2.5246     0.0153   187.6586
 1906.5000    10.0205     0.3336     2.5147     0.0204   183.1471
 1907.0000    10.0182     0.2979     2.5036     0.0283   182.2401
 1907.5000    10.0159     0.2628     2.4866     0.0381   192.1199
 1908.0000    10.0137     0.2274     2.4682     0.0515   188.9678
 1908.5000    10.0114     0.2037     2.4457     0.0596   187.4233
 1909.0000    10.0091     0.1822     2.4621     0.0479   183.6320
 1909.5000    10.0069     0.1478     2.4569     0.0547   172.3315
 1910.0000    10.0046     0.1137     2.4427     0.0618   174.9385
 1910.5000    10.0023     0.0809     2.4303     0.0657   177.5593
 1911.0000    10.0000     0.0707     2.4373     0.0649   176.4033
 1911.5000     9.9978     0.0666     2.4437     0.0599   177.2126
 1912.0000     9.9955     0.0547     2.4433     0.0596   183.0455
 1912.5000     9.9932     0.0461     2.4397     0.0624   180.8490
 1913.0000     9.9909     0.0348     2.4254     0.0680   178.7744
 1913.5000     9.9873     0.0238     2.4084     0.0792   186.3852
 1914.0000     9.9803     0.0173     2.3910     0.0932   187.8055
 1914.5000     9.9733     0.0346     2.3879     0.0896   181.5087
 1915.0000     9.9664     0.0522     2.3943     0.0858   178.0789
 1915.5000     9.9595     0.0584     2.3959     0.0878   178.5658
 1916.0000     9.9525     0.0644     2.3868     0.0937   183.4577
 1916.5000     9.9456     0.0987     2.3781     0.0945   183.9206
 1917.0000     9.9386     0.1426     2.3691     0.1022   182.4331
 1917.5000     9.9317     0.1776     2.3630     0.1048   185.7566
 1918.0000     9.9248     0.1759     2.3877     0.0904   182.2851
 1918.5000     9.9178     0.1116     2.3958     0.0860   177.3736
 1919.0000     9.9109     0.0818     2.3949     0.0860   172.4718
 1919.5000     9.9039     0.0870     2.3988     0.0836   169.2469
 1920.0000     9.8970     0.1061     2.4038     0.0848   169.2936
 1920.5000     9.8900     0.1102     2.3903     0.0948   172.4066
 1921.0000     9.8831     0.1216     2.3749     0.0909   175.6202
 1921.5000     9.8761     0.1591     2.4216     0.0774   177.4057
 1922.0000     9.8707     0.1893     2.4299     0.0695   178.8423
 1922.5000     9.8728     0.2123     2.4423     0.0634   180.0208
 1923.0000     9.8747     0.2431     2.4738     0.0454   180.0632
 1923.5000     9.8766     0.2297     2.4644     0.0503   175.1544
 1924.0000     9.8786     0.2069     2.4531     0.0531   170.2800
 1924.5000     9.8805     0.2104     2.4649     0.0464   173.8991
 1925.0000     9.8824     0.1965     2.4697     0.0496   177.8906
 1925.5000     9.8843     0.1816     2.4451     0.0590   180.7203
 1926.0000     9.8862     0.1704     2.4331     0.0660   185.2063
 1926.5000     9.8882     0.1707     2.4400     0.0607   188.6833
 1927.0000     9.8901     0.1664     2.4466     0.0556   187.1967
 1927.5000     9.8920     0.1586     2.4512     0.0568   190.8408
 1928.0000     9.8939     0.1392     2.4568     0.0516   193.2201
 1928.5000     9.8958     0.1173     2.4612     0.0516   185.8997
 1929.0000     9.8977     0.0954     2.4649     0.0484   179.6991
 1929.5000     9.8997     0.0735     2.4512     0.0564   176.5502
 1930.0000     9.9016     0.0516     2.4359     0.0642   180.7747
 1930.5000     9.9035     0.0312     2.4238     0.0712   186.7745
 1931.0000     9.9054     0.0189     2.4304     0.0677   188.0229
 1931.5000     9.9073     0.0181     2.4357     0.0642   181.5501
 1932.0000     9.9093     0.0095     2.4335     0.0668   176.3545
 1932.5000     9.9112     0.0020     2.4335     0.0668   171.1565
 1933.0000     9.9131     0.0003     2.4376     0.0629   166.5207
 1933.5000     9.9150    -0.0016     2.4416     0.0592   166.3292
 1934.0000     9.9169    -0.0035     2.4391     0.0632   181.1788
 1934.5000     9.9189    -0.0035     2.4308     0.0680   190.8440
 1935.0000     9.9208     0.0006     2.4226     0.0725   190.6480
 1935.5000     9.9227     0.0045     2.4149     0.0768   186.6837
 1936.0000     9.9246     0.0077     2.4106     0.0808   187.6992
 1936.5000     9.9265     0.0131     2.4086     0.0781   184.4046
 1937.0000     9.9285     0.0367     2.4280     0.0671   182.5867
 1937.5000     9.9302     0.0918     2.4539     0.0521   183.2807
 1938.0000     9.9290     0.1381     2.4812     0.0367   182.8178
 1938.5000     9.9261     0.1051     2.4491     0.0625   180.3417
 1939.0000     9.9232     0.0604     2.4076     0.0924   181.9963
 1939.5000     9.9204     0.0550     2.3876     0.0908   182.1197
 1940.0000     9.9175     0.0559     2.3911     0.0887   186.0280
 1940.5000     9.9146     0.0582     2.3921     0.0906   186.1440
 1941.0000     9.9118     0.0549     2.3805     0.0966   184.5130
 1941.5000     9.9089     0.0499     2.3690     0.1045   177.5795
 1942.0000     9.9060     0.0594     2.3632     0.1056   177.4078
 1942.5000     9.9032     0.0718     2.3754     0.0955   187.5795
 1943.0000     9.9003     0.0808     2.3820     0.0948   186.8285
 1943.5000     9.8975     0.0900     2.3879     0.0904   190.2465
 1944.0000     9.8946     0.0988     2.4004     0.0841   190.1731
 1944.5000     9.8918     0.1182     2.4121     0.0783   191.4395
 1945.0000     9.8889     0.1392     2.4170     0.0744   195.8817
 1945.5000     9.8860     0.1598     2.4098     0.0788   197.6811
 1946.0000     9.8832     0.1922     2.4205     0.0709   196.6634
 1946.5000     9.8803     0.2281     2.4404     0.0572   191.1802
 1947.0000     9.8775     0.2371     2.4590     0.0527   186.3067
 1947.5000     9.8746     0.2067     2.4562     0.0577   185.0893
 1948.0000     9.8718     0.1692     2.4313     0.0730   177.4770
 1948.5000     9.8551     0.1301     2.4012     0.0885   172.1763
 1949.0000     9.8288     0.1345     2.3969     0.0846   171.5865
 1949.5000     9.8023     0.1390     2.4236     0.0721   169.5174
 1950.0000     9.7758     0.1034     2.4558     0.0487   172.9831
 1950.5000     9.7494     0.0677     2.4735     0.0439   176.5145
 1951.0000     9.7229     0.0320     2.4673     0.0447   169.6589
 1951.5000     9.7114     0.0143     2.4564     0.0527   179.2303
 1952.0000     9.7115     0.0138     2.4506     0.0556   188.4631
 1952.5000     9.7127     0.0340     2.4683     0.0351   197.5963
 1953.0000     9.7139     0.0485     2.4880     0.0385   199.1896
 1953.5000     9.7150     0.0314     2.4725     0.0453   199.2340
 1954.0000     9.7161     0.0104     2.4473     0.0563   199.2393
 1954.5000     9.7172     0.0027     2.4341     0.0663   195.4985
 1955.0000     9.7184     0.0013     2.4258     0.0689   187.6879
 1955.5000     9.7195     0.0085     2.4254     0.0683   179.6626
