~VERSION INFORMATION
 VERS.                2.0:   CWLS LOG ASCII STANDARD - VERSION 2.0
 WRAP.                 NO:   ONE LINE PER DEPTH STEP
~WELL INFORMATION
#MNEM.UNIT      DATA TYPE    INFORMATION
#----------   ------------   ------------------------------
 STRT.F            4.0000:   START DEPTH
 STOP.F          584.0000:   STOP DEPTH
 STEP.F            0.1000:   STEP LENGTH
 NULL.          -999.2500:   NO VALUE
 COMP.       F D SERV INC:   COMPANY
 WELL. N P R 3 SX-3 #62-3:   WELL
 FLD .             TEAPOT:   FIELD
 LOC .       S3 T38N R78W:   LOCATION
 CNTY.            NATRONA:   COUNTY
 STAT.            WYOMING:   STATE
 CTRY. UNITED STATES OF AMERICA:   COUNTRY
 SRVC.     Atlas Wireline:   SERVICE COMPANY
 DATE.        17-APR-1992:   LOGDATE
 API .       490252251600:   API NUMBER
~CURVE INFORMATION
#MNEM.UNIT       API CODE    CURVE DESCRIPTION
#----------   ------------   ------------------------------
 DEPT.F                  :   
 GRR .GAPI   07 310 01 00:   GAMMA RAY
 RILD.OHMM   07 120 46 00:   INDUCTION LOG DEEP RESISTIVITY
 RILM.OHMM   07 120 44 00:   INDUCTION LOG MEDIUM RESISTIVITY
~PARAMETER INFORMATION
#MNEM.UNIT          VALUE    DESCRIPTION
#----------   ------------   ------------------------------
 PD  .                 GL:   PERMANENT DATUM
 EPD .F              5135:   ELEVATION PERMANENT DATUM
 LMF .                 KB:   LOG MEASURED FROM
 DAPD.F                 5:   FEET ABOVE PERMANENT DATUM
 DMF .                 KB:   DRILLING MEASURED FROM
 EKB .F              5140:   KELLING BUSHING
 EDF .F              5139:   DRILLING FLOOR
 EGL .F              5135:   GROUND LEVEL
 DATE.        17-APR-1992:   RUN DATE
 RUN .                  1:   RUN NUMBER
 DD  .F               589:   DEPTH DRILLER
 DL  .F               590:   DEPTH LOGGER
 BLI .F               584:   BOTTOM LOG INTERVAL
 TLI .F                48:   TOP LOG INTERVAL
 CS  .IN            8.625:   CASING SIZE
 CBD .F                48:   CASING BOTTOM DRILLER
 CBL .F                48:   CASING BOTTOM LOGGER
 BS  .IN            7.875:   BIT SIZE
 BSD .F               589:   BIT SIZE AT DEPTH
 DFT .                AIR:   DRILLING FLUID TYPE
 TCS .HRS               2:   TIME CURCULATED STOPPED
 MRT .F                85:   MAXIMUM RECORDED TEMPERATURE
 LUN .            HL-6274:   LOGGING UNIT NUMBER
 LUL .             CASPER:   LOGGING UNIT LOCATION
 ENGI.             RAUTIO:   RECORDING ENGINEER
 WITN.        GARY STRONG:   WITNESSED BY
 CLNT.            A2DTECH:   CLIENT CODE
 ORIG.           5" PRINT:   ORIGIN OF DATA
 UWI .       490252251600:   UNIQUE WELL ID
 DICO. A2D Technologies, Inc.:   DIGITIZING COMPANY
~OTHER INFORMATION
~A    DEPT      GRR      RILD       RILM   
# ...
  149.6000   125.6151     8.4728     8.5892
  149.7000   125.3160     8.4714     8.5884
  149.8000   125.3150     8.4700     8.5878
  149.9000   125.3137     8.4673     8.5869
  150.0000   125.3123     8.4595     8.5734
  150.1000   125.3106     8.4518     8.5567
  150.2000   125.3088     8.4441     8.5401
  150.3000   125.3069     8.4364     8.5234
  150.4000   125.3049     8.4286     8.5067
  150.5000   125.5489     8.4209     8.4900
  150.6000   125.8047     8.4132     8.4733
  150.7000   126.1962     8.4054     8.4588
  150.8000   126.8708     8.3977     8.4576
  150.9000   127.8729     8.3900     8.4565
  151.0000   128.7310     8.3823     8.4553
  151.1000   129.4143     8.3745     8.4541
  151.2000   130.0118     8.3668     8.4530
  151.3000   130.4065     8.3591     8.4518
  151.4000   130.7254     8.3514     8.4504
  151.5000   131.2383     8.3436     8.4494
  151.6000   131.8447     8.3345     8.4482
  151.7000   132.2648     8.3732     8.4471
  151.8000   132.6221     8.3913     8.4459
  151.9000   132.7769     8.3715     8.4447
  152.0000   132.7750     8.3309     8.4433
  152.1000   132.7731     8.3300     8.4423
  152.2000   132.7713     8.3291     8.4411
  152.3000   133.1560     8.3282     8.4399
  152.4000   133.6692     8.3273     8.4388
  152.5000   134.0990     8.3263     8.4376
  152.6000   134.3546     8.3254     8.4365
  152.7000   134.6367     8.3244     8.4352
  152.8000   135.0967     8.3235     8.4341
  152.9000   135.2581     8.3226     8.4329
  153.0000   135.3771     8.3217     8.4317
  153.1000   135.5010     8.3208     8.4305
  153.2000   135.2525     8.3199     8.4294
  153.3000   135.2503     8.3187     8.4282
  153.4000   135.0354     8.3179     8.4270
  153.5000   134.6178     8.3170     8.4259
  153.6000   134.2042     8.3161     8.4247
  153.7000   133.9931     8.3151     8.4233
  153.8000   133.9912     8.3142     8.4223
  153.9000   133.4875     8.3133     8.4211
  154.0000   133.3625     8.3124     8.4200
  154.1000   133.3606     8.3115     8.4188
  154.2000   133.3588     8.3265     8.4176
  154.3000   133.3878     8.3680     8.4162
  154.4000   133.6673     8.3668     8.3756
  154.5000   134.1325     8.3224     8.3555
  154.6000   134.8239     8.3068     8.3543
  154.7000   135.4710     8.3059     8.3532
  154.8000   135.9840     8.3177     8.3519
  154.9000   136.4840     8.3623     8.3508
  155.0000   136.7809     8.3612     8.3496
  155.1000   136.7794     8.3604     8.3753
  155.2000   136.7775     8.3594     8.4058
  155.3000   136.6698     8.3585     8.4046
  155.4000   136.3597     8.3576     8.4034
  155.5000   135.8344     8.3566     8.4023
  155.6000   135.5793     8.4032     8.4012
  155.7000   134.9230     8.4133     8.4000
  155.8000   134.2920     8.4124     8.3988
  155.9000   133.9518     8.4281     8.3976
  156.0000   133.9165     8.4696     8.3963
  156.1000   133.6355     8.4685     8.3953
  156.2000   133.6338     8.4676     8.3941
  156.3000   133.8127     8.5010     8.3929
  156.4000   133.9425     8.5251     8.3917
  156.5000   134.0114     8.5241     8.3906
  156.6000   134.2827     8.5231     8.3892
  156.7000   134.8741     8.5221     8.4280
  156.8000   135.3091     8.5213     8.4756
  156.9000   135.6589     8.5203     8.5039
  157.0000   135.9146     8.5194     8.5118
  157.1000   136.1702     8.5184     8.5611
  157.2000   136.4275     8.5175     8.5600
  157.3000   136.1698     8.5165     8.5966
  157.4000   135.7097     8.5539     8.6176
  157.5000   135.3386     8.6024     8.6164
  157.6000   134.8065     8.6511     8.6151
  157.7000   133.8107     8.6932     8.6139
  157.8000   132.9786     8.6920     8.6587
  157.9000   132.2618     8.7376     8.7076
  158.0000   131.6710     8.7511     8.7568
  158.1000   131.0258     8.7753     8.7915
  158.2000   130.2511     8.8250     8.7943
  158.3000   129.4952     8.8749     8.8506
  158.4000   128.9047     8.9323     8.8495
  158.5000   128.4614     8.9315     8.8483
  158.6000   127.9447     8.9305     8.8470
  158.7000   127.5386     8.9295     8.8458
  158.8000   127.2791     8.9397     8.8446
  158.9000   127.0198     8.9901     8.8431
  159.0000   126.7604     8.9891     8.8421
  159.1000   126.5010     8.9881     8.8409
  159.2000   126.3900     8.9871     8.8396
  159.3000   126.3881     8.9860     8.8384
  159.4000   126.4246     8.9851     8.8371
  159.5000   126.6968     8.9840     8.8359
  159.6000   126.9359     8.9831     8.8347
  159.7000   127.3773     8.9821     8.8334
  159.8000   127.8902     8.9811     8.8322
  159.9000   128.4791     8.9800     8.8309
  160.0000   129.2501     8.9790     8.8296
  160.1000   130.1229     8.9779     8.8285
  160.2000   130.7913     8.9770     8.8272
  160.3000   131.5619     8.9761     8.8260
  160.4000   132.4459     8.9751     8.8247
  160.5000   133.5913     8.9741     8.8235
  160.6000   135.1474     8.9730     8.8221
  160.7000   137.7197     8.9720     8.8211
  160.8000   139.4701     8.9710     8.8199
  160.9000   140.5606     8.9700     8.8186
  161.0000   141.2352     8.9690     8.8174
  161.1000   141.6672     8.9680     8.8162
  161.2000   141.6649     8.9670     8.8147
  161.3000   141.6631     8.9660     8.8137
  161.4000   141.4729     8.9650     8.8125
  161.5000   141.2135     8.9640     8.8112
  161.6000   140.9542     8.9630     8.8100
  161.7000   140.6245     8.9573     8.8087
  161.8000   139.4660     8.8985     8.8075
  161.9000   138.7871     8.8976     8.8063
  162.0000   138.3542     8.8966     8.8051
  162.1000   138.0948     8.8956     8.8039
  162.2000   137.9570     8.8946     8.8026
  162.3000   138.2069     8.8936     8.8013
  162.4000   138.2046     8.8924     8.8002
  162.5000   138.2031     8.8916     8.7989
  162.6000   138.2013     8.8906     8.7977
  162.7000   138.2977     8.8701     8.7964
  162.8000   138.5533     8.8267     8.7952
  162.9000   138.8205     8.8257     8.7938
  163.0000   138.8188     8.7765     8.7927
  163.1000   138.8169     8.7624     8.7915
  163.2000   138.6791     8.7348     8.7904
  163.3000   138.4198     8.6994     8.7774
  163.4000   138.1605     8.6984     8.7267
  163.5000   137.8717     8.6973     8.7252
  163.6000   137.4134     8.6964     8.7242
  163.7000   136.7230     8.6955     8.7230
  163.8000   135.8301     8.6945     8.7218
  163.9000   134.7985     8.6813     8.7206
  164.0000   133.7670     8.6321     8.7193
  164.1000   132.5478     8.6309     8.7181
  164.2000   131.4922     8.6301     8.7169
  164.3000   130.3584     8.6292     8.7157
  164.4000   129.4272     8.6088     8.7145
  164.5000   128.6990     8.5671     8.7132
  164.6000   128.1637     8.5661     8.7119
  164.7000   127.6652     8.5652     8.7108
  164.8000   127.3417     8.6014     8.6743
  164.9000   127.2206     8.6234     8.6477
  165.0000   127.2188     8.6064     8.6325
  165.1000   127.2169     8.5614     8.5851
  165.2000   127.2148     8.5603     8.5838
  165.3000   127.4439     8.5595     8.5402
  165.4000   127.5238     8.5585     8.5217
  165.5000   127.7636     8.5345     8.5206
  165.6000   128.3427     8.4846     8.5193
  165.7000   129.1131     8.4369     8.5182
  165.8000   130.0159     8.4358     8.5168
  165.9000   130.8676     8.4350     8.5158
  166.0000   131.7374     8.4044     8.4854
  166.1000   132.4047     8.3551     8.4353
  166.2000   132.9180     8.3062     8.3772
  166.3000   133.4443     8.2563     8.2764
  166.4000   133.9439     8.2093     8.2753
  166.5000   134.6530     8.1970     8.2382
  166.6000   135.1421     8.1961     8.1642
  166.7000   135.5692     8.1795     8.0847
  166.8000   136.2784     8.1316     8.0427
  166.9000   136.5580     8.0795     8.0414
  167.0000   136.7897     8.0367     8.0404
  167.1000   137.2237     7.9897     8.0068
  167.2000   137.4900     7.9648     7.9822
  167.3000   137.5564     7.9640     7.9682
  167.4000   137.7988     7.9631     7.9213
  167.5000   137.7966     7.9620     7.8680
  167.6000   137.7950     7.9230     7.8281
  167.7000   137.6322     7.8766     7.8111
