~VERSION INFORMATION
 VERS.                2.0:   CWLS LOG ASCII STANDARD - VERSION 2.0
 WRAP.                 NO:   ONE LINE PER DEPTH STEP
~WELL INFORMATION
#MNEM.UNIT      DATA TYPE    INFORMATION
#----------   ------------   ------------------------------
 STRT.F           20.0000:   START DEPTH
 STOP.F         2420.0000:   STOP DEPTH
 STEP.F            0.5000:   STEP LENGTH
 NULL.          -999.2500:   NO VALUE
 COMP. FENIX & SCISSON INC:   COMPANY
 WELL.    SHX 15 #71-1-15:   WELL
 FLD .             TEAPOT:   FIELD
 LOC .      S15 T38N R78W:   LOCATION
 CNTY.            NATRONA:   COUNTY
 STAT.            WYOMING:   STATE
 CTRY. UNITED STATES OF AMERICA:   COUNTRY
 SRVC.           BIRDWELL:   SERVICE COMPANY
 DATE.        03-SEP-1978:   LOGDATE
 API .       490251081800:   API NUMBER
~CURVE INFORMATION
#MNEM.UNIT       API CODE    CURVE DESCRIPTION
#----------   ------------   ------------------------------
 DEPT.F                  :   
 CALD.IN     45 280 60 00:   CALIPER
 GRD .GAPI   45 310 01 00:   GAMMA RAY FROM DENSITY LOG
 RHOB.G/C3   45 350 01 00:   BULK DENSITY
 DPHI.DEC    45 890 12 00:   DENSITY POROSITY SANDSTONE
 CORR.G/C3   45 356 01 00:   DENSITY CORRECTION
 NPHI.DEC    42 890 03 00:   NEUTRON POROSITY
~PARAMETER INFORMATION
#MNEM.UNIT          VALUE    DESCRIPTION
#----------   ------------   ------------------------------
 PD  .                 GL:   PERMANENT DATUM
 EPD .F              5249:   ELEVATION PERMANENT DATUM
 LMF .                 KB:   LOG MEASURED FROM
 DAPD.F                10:   FEET ABOVE PERMANENT DATUM
 DMF .                 KB:   DRILLING MEASURED FROM
 EKB .F              5259:   KELLING BUSHING
 EGL .F              5249:   GROUND LEVEL
 DATE.             9-3-78:   RUN DATE
 RUN .                  1:   RUN NUMBER
 DD  .F              2450:   DEPTH DRILLER
 DL  .F              2422:   DEPTH LOGGER
 BLI .F              2420:   BOTTOM LOG INTERVAL
 TLI .F                50:   TOP LOG INTERVAL
 CS  .IN            9.625:   CASING SIZE
 CBD .F               650:   CASING BOTTOM DRILLER
 CBL .F               676:   CASING BOTTOM LOGGER
 BS  .IN             8.75:   BIT SIZE
 BSD .F              2450:   BIT SIZE AT DEPTH
 DFT .           AIR MIST:   DRILLING FLUID TYPE
 LUN .               2958:   LOGGING UNIT NUMBER
 LUL .               CASP:   LOGGING UNIT LOCATION
 ENGI.             MILLER:   RECORDING ENGINEER
 WITN.           MCGINLEY:   WITNESSED BY
 CLNT.            A2DTECH:   CLIENT CODE
 ORIG.         2.5" PRINT:   ORIGIN OF DATA
 UWI .       490251081800:   UNIQUE WELL ID
 DICO. A2D Technologies, Inc.:   DIGITIZING COMPANY
~OTHER INFORMATION
~A   DEPT     CALD        GRD       RHOB       DPHI       CORR         NPHI 
# ...
 1268.0000    13.6200   128.9846     2.5101     0.0944     0.0439  -999.2500
 1268.5000    13.6200   128.6496     2.4980     0.0986     0.0498  -999.2500
 1269.0000    13.6200   127.6083     2.4826     0.1046     0.0614  -999.2500
 1269.5000    13.6200   125.3740     2.4866     0.1009     0.0809  -999.2500
 1270.0000    13.6200   125.2874     2.5084     0.0888     0.0938  -999.2500
 1270.5000    13.6200   126.3111     2.5199     0.0828     0.1007  -999.2500
 1271.0000    13.6200   126.6062     2.5186     0.0786     0.1083  -999.2500
 1271.5000    13.6200   125.6553     2.5215     0.0806     0.1125  -999.2500
 1272.0000    13.6200   124.2390     2.5261     0.0892     0.1063  -999.2500
 1272.5000    13.6200   122.8629     2.5204     0.0852     0.1092  -999.2500
 1273.0000    13.6200   121.2897     2.5287     0.0812     0.1118  -999.2500
 1273.5000    13.6200   121.4568     2.5302     0.0799     0.1128  -999.2500
 1274.0000    13.6200   122.8309     2.5284     0.0843     0.1080  -999.2500
 1274.5000    13.6200   123.9894     2.5188     0.0956     0.1024  -999.2500
 1275.0000    13.6200   125.1139     2.5092     0.0956     0.0995  -999.2500
 1275.5000    13.6200   124.1159     2.5002     0.0986     0.0955  -999.2500
 1276.0000    13.6200   123.8814     2.4923     0.1004     0.0963  -999.2500
 1276.5000    13.6200   124.8452     2.4850     0.1004     0.1034  -999.2500
 1277.0000    13.6200   124.6417     2.4895     0.0961     0.1098  -999.2500
 1277.5000    13.6200   122.9313     2.4998     0.0924     0.1163  -999.2500
 1278.0000    13.6200   121.2815     2.5261     0.0839     0.1142  -999.2500
 1278.5000    13.6200   121.6375     2.5204     0.0789     0.1096  -999.2500
 1279.0000    13.6200   122.2286     2.5145     0.0781     0.1031  -999.2500
 1279.5000    13.6200   122.6662     2.5216     0.0797     0.1080  -999.2500
 1280.0000    13.6200   120.4466     2.5089     0.0918     0.1053  -999.2500
 1280.5000    13.6200   120.0852     2.4982     0.0984     0.1016  -999.2500
 1281.0000    13.6200   121.1712     2.4948     0.1020     0.0973  -999.2500
 1281.5000    13.6200   124.5942     2.4917     0.1020     0.0945  -999.2500
 1282.0000    13.6200   127.1383     2.4984     0.0963     0.1001  -999.2500
 1282.5000    13.6200   125.7030     2.4962     0.0913     0.1044  -999.2500
 1283.0000    13.6200   123.3309     2.4937     0.0861     0.1094  -999.2500
 1283.5000    13.6200   120.4713     2.5022     0.0890     0.1017  -999.2500
 1284.0000    13.6200   119.0056     2.5161     0.0924     0.0943  -999.2500
 1284.5000    13.6200   118.1746     2.5112     0.0924     0.0864  -999.2500
 1285.0000    13.6200   117.0841     2.5005     0.0924     0.0778  -999.2500
 1285.5000    13.6200   115.3091     2.5024     0.0921     0.0733  -999.2500
 1286.0000    13.6200   115.3517     2.5036     0.0914     0.0728  -999.2500
 1286.5000    13.6200   117.1469     2.5058     0.0908     0.0719  -999.2500
 1287.0000    13.6200   117.6902     2.5071     0.0948     0.0711  -999.2500
 1287.5000    13.6200   117.6919     2.5066     0.0964     0.0702  -999.2500
 1288.0000    13.6199   118.3742     2.5047     0.0981     0.0685  -999.2500
 1288.5000    13.6199   119.0416     2.4974     0.0996     0.0667  -999.2500
 1289.0000    13.6202   119.4407     2.4857     0.1004     0.0752  -999.2500
 1289.5000    13.6191   119.0701     2.4763     0.1004     0.0833  -999.2500
 1290.0000    13.6275   116.5941     2.4871     0.0996     0.0862  -999.2500
 1290.5000    13.6411   113.5575     2.4971     0.0935     0.0860  -999.2500
 1291.0000    13.6528   115.0086     2.5029     0.0884     0.0861  -999.2500
 1291.5000    13.6748   119.4405     2.5033     0.0902     0.0845  -999.2500
 1292.0000    13.7090   126.4479     2.4999     0.0988     0.0807  -999.2500
 1292.5000    13.7421   125.6191     2.4946     0.0997     0.0772  -999.2500
 1293.0000    13.7749   124.9323     2.4932     0.0999     0.0736  -999.2500
 1293.5000    13.8085   124.4724     2.5004     0.0979     0.0702  -999.2500
 1294.0000    13.8243   125.0387     2.4967     0.0964     0.0664  -999.2500
 1294.5000    13.8295   125.8792     2.4938     0.0943     0.0702  -999.2500
 1295.0000    13.8355   126.2843     2.5008     0.0918     0.0751  -999.2500
 1295.5000    13.8416   125.8007     2.5083     0.0894     0.0802  -999.2500
 1296.0000    13.8467   121.1114     2.5102     0.0884     0.0822  -999.2500
 1296.5000    13.8540   118.4086     2.5088     0.0884     0.0820  -999.2500
 1297.0000    13.8606   118.0763     2.5091     0.0884     0.0815  -999.2500
 1297.5000    13.9135   118.0576     2.5176     0.0884     0.0887  -999.2500
 1298.0000    13.9847   118.1209     2.5373     0.0700     0.1019  -999.2500
 1298.5000    14.0236   118.5773     2.5376     0.0722     0.0987  -999.2500
 1299.0000    14.0191   119.0004     2.5365     0.0768     0.0948  -999.2500
 1299.5000    14.0201   119.2320     2.5343     0.0813     0.0909  -999.2500
 1300.0000    14.0204   118.7356     2.5271     0.0825     0.0864  -999.2500
 1300.5000    14.0199   118.2517     2.5195     0.0837     0.0844  -999.2500
 1301.0000    14.0202   118.0151     2.5227     0.0847     0.0821  -999.2500
 1301.5000    14.0200   118.0565     2.5257     0.0856     0.0699  -999.2500
 1302.0000    14.0200   118.1500     2.5280     0.0866     0.0539  -999.2500
 1302.5000    14.0200   119.4601     2.5154     0.0882     0.0522  -999.2500
 1303.0000    14.0200   120.8165     2.5038     0.0900     0.0559  -999.2500
 1303.5000    14.0200   122.3400     2.4960     0.0918     0.0609  -999.2500
 1304.0000    14.0200   122.2687     2.4886     0.0936     0.0688  -999.2500
 1304.5000    14.0200   122.1829     2.4892     0.0942     0.0772  -999.2500
 1305.0000    14.0200   122.1100     2.5025     0.0922     0.0850  -999.2500
 1305.5000    14.0200   123.1687     2.5159     0.0902     0.0933  -999.2500
 1306.0000    14.0200   124.1026     2.5183     0.0882     0.0906  -999.2500
 1306.5000    14.0200   125.1781     2.5147     0.0871     0.0873  -999.2500
 1307.0000    14.0200   125.4523     2.5073     0.0879     0.0834  -999.2500
 1307.5000    14.0200   124.8530     2.5054     0.0884     0.0800  -999.2500
 1308.0000    14.0200   124.3334     2.5122     0.0867     0.0747  -999.2500
 1308.5000    14.0200   122.7033     2.5199     0.0847     0.0664  -999.2500
 1309.0000    14.0200   121.2868     2.5096     0.0845     0.0605  -999.2500
 1309.5000    14.0200   120.5049     2.5113     0.0884     0.0534  -999.2500
 1310.0000    14.0200   120.9377     2.5180     0.0921     0.0474  -999.2500
 1310.5000    14.0200   122.4654     2.5109     0.0959     0.0388  -999.2500
 1311.0000    14.0200   123.8812     2.5043     0.0980     0.0403  -999.2500
 1311.5000    14.0200   122.9790     2.4957     0.0992     0.0427  -999.2500
 1312.0000    14.0200   122.0526     2.5010     0.0972     0.0457  -999.2500
 1312.5000    14.0200   121.0298     2.5089     0.0952     0.0485  -999.2500
 1313.0000    14.0200   120.0043     2.5108     0.0932     0.0483  -999.2500
 1313.5000    14.0199   119.8331     2.5022     0.0923     0.0432  -999.2500
 1314.0000    14.0201   120.2199     2.4951     0.0920     0.0372  -999.2500
 1314.5000    14.0197   121.1642     2.4903     0.0918     0.0494  -999.2500
 1315.0000    14.0199   122.6236     2.4963     0.0906     0.0662  -999.2500
 1315.5000    14.0205   123.6800     2.4964     0.0879     0.0738  -999.2500
 1316.0000    14.0175   124.4320     2.5148     0.0871     0.0824  -999.2500
 1316.5000    14.0443   125.5542     2.5257     0.0900     0.0899  -999.2500
 1317.0000    14.0850   127.1154     2.5252     0.0930     0.0883  -999.2500
 1317.5000    14.1174   126.9687     2.5204     0.0960     0.0875  -999.2500
 1318.0000    14.1501   126.6265     2.5124     0.0989     0.0866  -999.2500
 1318.5000    14.1838   125.9256     2.5070     0.0900     0.0891  -999.2500
 1319.0000    14.2162   125.2812     2.5037     0.0954     0.0856  -999.2500
 1319.5000    14.2499   124.9193     2.5008     0.1002     0.0723  -999.2500
