~VERSION INFORMATION
 VERS.                2.0:   CWLS LOG ASCII STANDARD - VERSION 2.0
 WRAP.                 NO:   ONE LINE PER DEPTH STEP
~WELL INFORMATION
#MNEM.UNIT      DATA TYPE    INFORMATION
#----------   ------------   ------------------------------
 STRT.F           48.0000:   START DEPTH
 STOP.F          650.0000:   STOP DEPTH
 STEP.F            0.5000:   STEP LENGTH
 NULL.          -999.2500:   NO VALUE
 COMP. FENIX & SCISSON INC:   COMPANY
 WELL.    36 SX 34 #36-34:   WELL
 FLD .             TEAPOT:   FIELD
 LOC .      S34 T39N R78W:   LOCATION
 CNTY.            NATRONA:   COUNTY
 STAT.            WYOMING:   STATE
 CTRY. UNITED STATES OF AMERICA:   COUNTRY
 SRVC.            Unknown:   SERVICE COMPANY
 DATE.        19-JAN-1979:   LOGDATE
 API .       490251076800:   API NUMBER
~CURVE INFORMATION
#MNEM.UNIT       API CODE    CURVE DESCRIPTION
#----------   ------------   ------------------------------
 DEPT.F                  :   
 SPR .MV     05 010 01 00:   SPONTANEOUS POTENTIAL FROM RES.
 SN  .OHMM   05 040 16 00:   SHORT NORMAL 16"
 IL  .OHMM   05 120 00 00:   INDUCTION LOG
 CALD.IN     45 280 60 00:   CALIPER
 GRD .GAPI   45 310 01 00:   GAMMA RAY FROM DENSITY LOG
 RHOB.G/C3   45 350 01 00:   BULK DENSITY
 DPHI.DEC    45 890 12 00:   DENSITY POROSITY SANDSTONE
 CORR.G/C3   45 356 01 00:   DENSITY CORRECTION
~PARAMETER INFORMATION
#MNEM.UNIT          VALUE    DESCRIPTION
#----------   ------------   ------------------------------
 PD  .                 GL:   PERMANENT DATUM
 EPD .F              5125:   ELEVATION PERMANENT DATUM
 LMF .                 KB:   LOG MEASURED FROM
 DAPD.F                 4:   FEET ABOVE PERMANENT DATUM
 DMF .                 KB:   DRILLING MEASURED FROM
 EKB .F              5129:   KELLING BUSHING
 EGL .F              5125:   GROUND LEVEL
 DATE.            1-19-79:   RUN DATE
 RUN .                  1:   RUN NUMBER
 DD  .F               650:   DEPTH DRILLER
 DL  .F               650:   DEPTH LOGGER
 BLI .F               643:   BOTTOM LOG INTERVAL
 TLI .F                50:   TOP LOG INTERVAL
 CS  .IN            8.625:   CASING SIZE
 CBD .F                40:   CASING BOTTOM DRILLER
 CBL .F                36:   CASING BOTTOM LOGGER
 BS  .IN            7.875:   BIT SIZE
 BSD .F               650:   BIT SIZE AT DEPTH
 DFT .                KCL:   DRILLING FLUID TYPE
 DFD .                8.8:   DRILLING FLUID DENSITY
 DFV .                 34:   DRILLING FLUID VISCOSITY
 DFL .                8.8:   DRILLING FLUID LOSS
 MSS .           FLOWLINE:   MUD SAMPLE SOURCE
 RMS .OHMM            .17:   RESISTIVITY MUD SAMPLE
 MST .F                62:   MUD SAMPLE TEMPERATURE
 RMF .OHMM            .15:   RESISTIVITY MUD FILTRATE SAMPLE
 MFST.F                62:   MUD FILTRATE SAMPLE TEMPERATURE
 RMC .OHMM            .22:   RESISTIVITY MUD CAKE
 MCST.F                63:   MUD CAKE SAMPLE TEMPERATURE
 MFSS.           MEASURED:   MUD FILTRATE SAMPLE SOURCE
 MCSS.           MEASURED:   MUD CAKE SAMPLE SOURCE
 RMB .OHMM            .18:   RESISTIVITY MUD AT BHT
 BHT .F                60:   BOTTOM HOLE TEMPERATURE
 TCS .HRS               3:   TIME CURCULATED STOPPED
 MRT .F                60:   MAXIMUM RECORDED TEMPERATURE
 LUN .                 30:   LOGGING UNIT NUMBER
 LUL .             CASPER:   LOGGING UNIT LOCATION
 ENGI.         B. ROLLINS:   RECORDING ENGINEER
 WITN.           DINSMORE:   WITNESSED BY
 CLNT.            A2DTECH:   CLIENT CODE
 ORIG.           5" PRINT:   ORIGIN OF DATA
 UWI .       490251076800:   UNIQUE WELL ID
 DICO. A2D Technologies, Inc.:   DIGITIZING COMPANY
~OTHER INFORMATION
~A   DEPT      SPR           SN        IL      CALD        GRD       RHOB       DPHI       CORR   
# ...
  453.0000   -53.1120     8.0820     8.9330     8.1740   111.0430     2.5260     0.0850     0.0350
  453.5000   -52.2400     8.3540     9.1260     8.2000   111.2420     2.5230     0.0870     0.0350
  454.0000   -51.6430     8.6250     9.4310     8.2450   111.2500     2.5190     0.0890     0.0350
  454.5000   -51.0370     8.8960    10.1300     8.2890   110.5300     2.5160     0.0910     0.0340
  455.0000   -50.4310     9.1670    10.8300     8.2930   105.5310     2.5150     0.0960     0.0340
  455.5000   -49.7740     9.4390    11.5290     8.2950    98.0800     2.4960     0.1090     0.0280
  456.0000   -47.9040     9.7150    12.2280     8.2970    90.5970     2.4530     0.1330     0.0210
  456.5000   -45.9340     9.8310    12.9270     8.2990    83.0870     2.4120     0.1580     0.0150
  457.0000   -44.7430     9.9800    13.6260     8.3010    75.9880     2.3710     0.1820     0.0230
  457.5000   -44.2030    10.1300    14.3250     8.3030    71.0320     2.3300     0.2070     0.0280
  458.0000   -43.6590    10.2790    15.0240     8.3050    70.1400     2.2920     0.2190     0.0260
  458.5000   -43.1180    10.4280    15.7230     8.3070    70.9850     2.2900     0.2190     0.0240
  459.0000   -42.3330    10.5770    16.4220     8.3090    71.8070     2.2790     0.2290     0.0220
  459.5000   -41.2920    10.7260    16.6400     8.2910    69.5160     2.2590     0.2440     0.0270
  460.0000   -40.2550    10.8750    16.6690     8.2480    67.2450     2.2510     0.2390     0.0320
  460.5000   -39.2670    11.0240    16.6970     8.2060    65.5860     2.2940     0.2280     0.0370
  461.0000   -38.7510    11.1730    16.7250     8.1630    72.0320     2.3300     0.2080     0.0410
  461.5000   -38.2610    11.3220    16.7540     8.1200    77.5150     2.3650     0.1820     0.0410
  462.0000   -37.7720    11.4710    16.8130     8.0880    80.7870     2.4000     0.1560     0.0390
  462.5000   -37.3870    11.6200    16.9590     8.0770    79.9670     2.4140     0.1490     0.0370
  463.0000   -37.1660    11.7690    17.1050     8.0640    80.1170     2.4110     0.1510     0.0360
  463.5000   -36.9430    11.9180    17.2520     8.0000    80.9930     2.4070     0.1530     0.0340
  464.0000   -36.7210    12.0670    17.3980     7.5980    82.7350     2.4040     0.1550     0.0320
  464.5000   -36.5000    12.2170    17.5440     7.5770    85.3210     2.3920     0.1610     0.0310
  465.0000   -36.2780    12.2450    17.6910     7.6580    83.6200     2.3760     0.1730     0.0290
  465.5000   -36.0570    12.2570    17.8370     7.8210    80.0800     2.3590     0.1840     0.0270
  466.0000   -35.8350    12.3160    18.2870     7.9750    76.5340     2.3390     0.1970     0.0250
  466.5000   -35.6140    12.3760    18.9530     7.9740    73.0000     2.3040     0.2120     0.0260
  467.0000   -35.3920    12.4360    19.6180     7.9310    69.4970     2.2690     0.2270     0.0350
  467.5000   -35.1710    12.4950    20.2830     7.8910    67.2000     2.2560     0.2330     0.0430
  468.0000   -34.9490    12.5550    20.9490     7.8990    69.7240     2.2790     0.2280     0.0510
  468.5000   -34.7280    12.6150    21.6140     7.9530    73.8810     2.3130     0.2130     0.0590
  469.0000   -34.5070    12.6740    22.2790     7.9350    78.4580     2.3700     0.1830     0.0920
  469.5000   -34.2850    12.7340    22.9450     7.8800    76.8950     2.4270     0.1410     0.1450
  470.0000   -34.0640    12.7940    23.8900     7.8760    74.7980     2.4750     0.1220     0.1340
  470.5000   -33.8420    12.8530    25.4780     8.0190    72.7840     2.4380     0.1430     0.1110
  471.0000   -33.6210    12.9440    27.0650     8.1660    72.7320     2.3990     0.1610     0.0880
  471.5000   -33.4000    12.8720    28.6530     8.1690    75.7790     2.3730     0.1730     0.0710
  472.0000   -33.1770    12.7200    29.8440     8.1590    81.8800     2.3790     0.1680     0.0600
  472.5000   -32.9490    12.5680    26.7060     8.1500    87.8640     2.3890     0.1630     0.0490
  473.0000   -33.0240    12.4160    26.0380     8.1420    93.2250     2.3820     0.1610     0.0380
  473.5000   -33.1760    12.2640    25.3690     8.1330    92.2550     2.3670     0.1720     0.0320
  474.0000   -33.3310    12.1130    24.7010     8.1240    91.0130     2.3520     0.1810     0.0360
  474.5000   -33.4940    11.9610    24.0320     8.1160    88.7750     2.3370     0.1900     0.0440
  475.0000   -33.7040    11.8090    23.3640     8.1070    82.3140     2.3160     0.2040     0.0400
  475.5000   -33.9250    11.6570    22.6950     8.0980    75.8820     2.2950     0.2180     0.0410
  476.0000   -33.9860    11.5050    22.0270     8.0970    69.4580     2.2780     0.2270     0.0500
  476.5000   -33.5250    11.3530    21.3580     8.1070    71.4280     2.3070     0.2070     0.0590
  477.0000   -33.1360    11.2010    20.6900     8.1180    76.2450     2.3370     0.1870     0.0600
  477.5000   -33.6390    11.0490    20.0210     8.1280    81.0090     2.3670     0.1670     0.0520
  478.0000   -34.1560    10.8970    19.3530     8.1390    85.7780     2.3990     0.1560     0.0440
  478.5000   -34.6730    10.8400    18.6840     8.1500    89.3950     2.3980     0.1580     0.0340
  479.0000   -35.1940    10.8180    18.1250     8.1130    91.6730     2.3940     0.1610     0.0350
  479.5000   -35.1780    10.7960    17.7950     8.0580    91.3120     2.3900     0.1630     0.0410
  480.0000   -35.0490    10.7730    17.4660     8.0020    89.0260     2.3950     0.1590     0.0510
  480.5000   -34.9060    10.7510    17.1360     7.9470    87.1840     2.4130     0.1480     0.0600
  481.0000   -35.3350    10.7290    16.8060     7.9230    86.6700     2.4070     0.1510     0.0530
  481.5000   -35.8990    10.7070    16.4760     7.9570    84.3390     2.3940     0.1570     0.0450
  482.0000   -36.2880    10.6840    16.1460     7.9910    81.8650     2.3890     0.1610     0.0430
  482.5000   -36.2760    10.6620    15.8170     8.0250    82.7230     2.3840     0.1650     0.0430
  483.0000   -36.1620    10.6400    15.4870     8.0560    84.2810     2.3770     0.1690     0.0430
  483.5000   -35.7200    10.6170    15.4340     8.0620    83.8100     2.3660     0.1750     0.0440
  484.0000   -35.2890    10.5950    15.8830     8.0700    84.0980     2.3560     0.1820     0.0430
  484.5000   -34.8940    10.5730    16.4260     8.0980    84.2170     2.3460     0.1890     0.0390
  485.0000   -34.7950    10.5550    16.9690     8.1410    81.4640     2.3420     0.1900     0.0340
  485.5000   -34.7060    10.5430    17.4070     8.1560    81.1540     2.3420     0.1890     0.0300
  486.0000   -34.6170    10.5310    16.8020     8.0930    81.5370     2.3450     0.1880     0.0310
  486.5000   -34.5280    10.5190    16.2940     8.0320    81.7730     2.3500     0.1850     0.0350
  487.0000   -34.4400    10.5070    15.8680     7.9720    82.9280     2.3550     0.1810     0.0400
  487.5000   -34.3520    10.4960    16.2130     7.9180    82.7240     2.3590     0.1790     0.0410
  488.0000   -34.4420    10.4840    16.5720     7.8970    80.8650     2.3620     0.1780     0.0380
  488.5000   -34.8270    10.4720    16.9310     7.9100    80.4930     2.3650     0.1740     0.0370
  489.0000   -35.2090    10.4600    17.2010     7.9210    84.4210     2.3750     0.1690     0.0400
  489.5000   -35.5920    10.4480    16.6290     7.9330    87.6880     2.3860     0.1640     0.0420
  490.0000   -35.8890    10.4360    16.0780     7.9890    89.5240     2.3930     0.1600     0.0410
  490.5000   -36.1630    10.4250    15.5770     8.0790    88.2520     2.3890     0.1620     0.0390
  491.0000   -36.4340    10.4130    15.5770     8.1700    86.5420     2.3840     0.1640     0.0370
  491.5000   -36.6820    10.4010    15.7300     8.2110    84.8340     2.3810     0.1660     0.0350
  492.0000   -37.0360    10.3890    16.2920     8.2110    84.9520     2.3800     0.1680     0.0330
  492.5000   -37.4280    10.3770    16.8530     8.2060    85.0740     2.3780     0.1690     0.0320
  493.0000   -37.8180    10.3650    17.7320     8.1620    84.4540     2.3770     0.1690     0.0320
