~VERSION INFORMATION
 VERS.                2.0:   CWLS LOG ASCII STANDARD - VERSION 2.0
 WRAP.                 NO:   ONE LINE PER DEPTH STEP
~WELL INFORMATION
#MNEM.UNIT      DATA TYPE    INFORMATION
#----------   ------------   ------------------------------
 STRT.F            2.0000:   START DEPTH
 STOP.F          548.0000:   STOP DEPTH
 STEP.F            0.1000:   STEP LENGTH
 NULL.          -999.2500:   NO VALUE
 COMP.       F D SERV INC:   COMPANY
 WELL. NAVAL PETROLEUM RESERVE 3 SX-3 #88-10-3:   WELL
 FLD .             TEAPOT:   FIELD
 LOC .       S3 T38N R78W:   LOCATION
 CNTY.            NATRONA:   COUNTY
 STAT.            WYOMING:   STATE
 CTRY. UNITED STATES OF AMERICA:   COUNTRY
 SRVC.     Atlas Wireline:   SERVICE COMPANY
 DATE.        19-OCT-1992:   LOGDATE
 API .       490252254600:   API NUMBER
~CURVE INFORMATION
#MNEM.UNIT       API CODE    CURVE DESCRIPTION
#----------   ------------   ------------------------------
 DEPT.F                  :   
 GRR .GAPI   07 310 01 00:   GAMMA RAY
 ILD .OHMM   07 120 46 00:   INDUCTION LOG DEEP
 ILM .OHMM   07 120 44 00:   INDUCTION LOG MEDIUM
~PARAMETER INFORMATION
#MNEM.UNIT          VALUE    DESCRIPTION
#----------   ------------   ------------------------------
 PD  .                 GL:   PERMANENT DATUM
 EPD .F              5126:   ELEVATION PERMANENT DATUM
 LMF .                 KB:   LOG MEASURED FROM
 DAPD.F                10:   FEET ABOVE PERMANENT DATUM
 DMF .                 KB:   DRILLING MEASURED FROM
 EKB .F              5136:   KELLING BUSHING
 EDF .F              5135:   DRILLING FLOOR
 EGL .F              5126:   GROUND LEVEL
 DATE.        19-OCT-1992:   RUN DATE
 RUN .                  1:   RUN NUMBER
 DD  .F               566:   DEPTH DRILLER
 DL  .F               558:   DEPTH LOGGER
 BLI .F               550:   BOTTOM LOG INTERVAL
 TLI .F                98:   TOP LOG INTERVAL
 CS  .IN            8.625:   CASING SIZE
 CBD .F                85:   CASING BOTTOM DRILLER
 CBL .F                98:   CASING BOTTOM LOGGER
 BS  .IN            7.875:   BIT SIZE
 BSD .F               566:   BIT SIZE AT DEPTH
 DFT .           AIR FOAM:   DRILLING FLUID TYPE
 TCS .HRS               2:   TIME CURCULATED STOPPED
 MRT .F                73:   MAXIMUM RECORDED TEMPERATURE
 LUN .            HL-6274:   LOGGING UNIT NUMBER
 LUL .             CASPER:   LOGGING UNIT LOCATION
 ENGI.             RAUTIO:   RECORDING ENGINEER
 WITN.        GARY STRONG:   WITNESSED BY
 CLNT.            A2DTECH:   CLIENT CODE
 ORIG.           5" PRINT:   ORIGIN OF DATA
 UWI .       490252254600:   UNIQUE WELL ID
 DICO. A2D Technologies, Inc.:   DIGITIZING COMPANY
~OTHER INFORMATION
~A    DEPT     GRR        ILD        ILM   
# ...
  293.2000   147.5582     5.5691     5.6135
  293.3000   147.5552     5.5143     5.5951
  293.4000   147.5522     5.4715     5.5524
  293.5000   147.5764     5.4275     5.4962
  293.6000   147.8484     5.3658     5.4958
  293.7000   148.2802     5.3023     5.4681
  293.8000   148.6088     5.2445     5.4570
  293.9000   148.8521     5.2066     5.4567
  294.0000   149.1437     5.1768     5.4564
  294.1000   149.6489     5.1391     5.4561
  294.2000   150.5997     5.0837     5.4558
  294.3000   151.5818     5.0834     5.4555
  294.4000   152.5639     5.0833     5.4552
  294.5000   153.5461     5.1005     5.4637
  294.6000   154.5282     5.1294     5.4928
  294.7000   155.6818     5.1585     5.4924
  294.8000   156.2892     5.1900     5.4922
  294.9000   156.8781     5.1898     5.4919
  295.0000   157.3676     5.2102     5.5031
  295.1000   157.8227     5.2397     5.5341
  295.2000   158.0875     5.2694     5.5681
  295.3000   158.0847     5.2992     5.5679
  295.4000   158.0817     5.3293     5.5892
  295.5000   157.8548     5.3595     5.6062
  295.6000   157.4148     5.3899     5.6132
  295.7000   157.1649     5.4204     5.6449
  295.8000   156.9162     5.4511     5.7090
  295.9000   156.6669     5.4856     5.7487
  296.0000   156.4175     5.5410     5.7634
  296.1000   156.0913     5.6042     5.7734
  296.2000   155.5956     5.6542     5.8059
  296.3000   155.0283     5.6996     5.8435
  296.4000   154.6046     5.7996     5.8717
  296.5000   154.1090     5.8317     5.9048
  296.6000   153.7114     5.9154     5.9382
  296.7000   153.5038     5.9810     5.9775
  296.8000   153.5006     6.0252     6.0494
  296.9000   153.4977     6.0913     6.0816
  297.0000   153.4947     6.1312     6.1159
  297.1000   153.3724     6.2204     6.1675
  297.2000   153.1861     6.2826     6.2285
  297.3000   153.1831     6.3325     6.2646
  297.4000   153.1800     6.4046     6.3359
  297.5000   152.9803     6.4821     6.4080
  297.6000   152.7310     6.4819     6.4599
  297.7000   152.4817     6.5613     6.4963
  297.8000   152.2324     6.6369     6.5372
  297.9000   151.9543     6.6745     6.6202
  298.0000   151.9516     6.7136     6.6198
  298.1000   151.4637     6.8051     6.6692
  298.2000   150.6165     6.8362     6.7451
  298.3000   149.5794     6.8523     6.8063
  298.4000   148.3085     6.8658     6.8058
  298.5000   147.8276     6.8998     6.8431
  298.6000   147.5147     6.8994     6.8818
  298.7000   147.3918     6.9346     6.9206
  298.8000   147.3888     6.9739     6.9596
  298.9000   147.3858     6.9956     6.9967
  299.0000   147.3822     6.9953     6.9962
  299.1000   147.3310     6.9950     6.9959
  299.2000   147.2692     6.9947     6.9955
  299.3000   147.2074     6.9944     6.9951
  299.4000   147.1456     6.9941     6.9947
  299.5000   147.0838     6.9938     6.9943
  299.6000   147.0548     6.9935     6.9939
  299.7000   147.1276     6.9932     6.9664
  299.8000   147.3550     6.9929     6.9265
  299.9000   147.3535     6.9424     6.8780
  300.0000   147.3525     6.8359     6.7998
  300.1000   147.2078     6.6899     6.7767
  300.2000   146.8773     6.5439     6.7108
  300.3000   146.3606     6.3980     6.6017
  300.4000   145.5321     6.2535     6.5193
  300.5000   144.6798     6.1173     6.4203
  300.6000   143.8560     6.0366     6.2880
  300.7000   143.2182     5.9519     6.1465
  300.8000   142.7663     5.8318     6.0080
  300.9000   142.5004     5.7008     5.8693
  301.0000   142.7232     5.5767     5.7725
  301.1000   142.8006     5.4728     5.6511
  301.2000   142.7994     5.4173     5.5399
  301.3000   142.8472     5.3361     5.4460
  301.4000   143.0995     5.2334     5.3536
  301.5000   143.3333     5.1213     5.2471
  301.6000   143.7531     5.0316     5.1740
  301.7000   144.1220     4.9768     5.1206
  301.8000   144.4251     4.9004     5.0913
  301.9000   144.9125     4.8176     5.0622
  302.0000   145.4000     4.7431     5.0304
  302.1000   145.6994     4.6909     5.0045
  302.2000   146.3309     4.7181     4.9949
  302.3000   147.2357     4.7232     4.9946
  302.4000   147.9802     4.7230     4.9943
  302.5000   149.1374     4.7315     4.9940
  302.6000   150.1308     4.7607     4.9938
  302.7000   151.3511     4.8221     5.0148
  302.8000   152.6537     4.8455     5.0430
  302.9000   154.0460     4.8554     5.0631
  303.0000   154.8803     4.8770     5.0645
  303.1000   155.0892     4.9276     5.0980
  303.2000   155.1806     4.9573     5.0978
  303.3000   155.1794     4.9832     5.0975
  303.4000   155.0729     4.9915     5.1078
  303.5000   154.2692     4.9913     5.1327
  303.6000   153.6049     4.9910     5.1323
  303.7000   152.8707     4.9907     5.1851
  303.8000   151.9277     4.9904     5.2039
  303.9000   150.5206     5.0117     5.2168
  304.0000   148.2117     5.0248     5.2398
  304.1000   147.2818     5.0413     5.2395
  304.2000   146.6513     5.0966     5.2686
  304.3000   146.2772     5.1303     5.2757
  304.4000   146.0890     5.1541     5.3068
  304.5000   146.0877     5.2006     5.3581
  304.6000   145.8432     5.2487     5.3883
  304.7000   145.7827     5.2858     5.4238
  304.8000   145.7815     5.3858     5.5010
  304.9000   145.7803     5.4403     5.5760
  305.0000   145.7690     5.5019     5.6393
  305.1000   145.4751     5.5642     5.7125
  305.2000   145.4741     5.6334     5.8552
  305.3000   145.3352     5.7336     5.9157
  305.4000   145.0101     5.7958     5.9829
  305.5000   144.5203     5.8615     6.0664
  305.6000   143.9562     5.9446     6.1624
  305.7000   143.7480     6.0370     6.2333
  305.8000   143.0559     6.1062     6.3387
  305.9000   142.0776     6.2106     6.3919
  306.0000   141.0670     6.2602     6.4667
  306.1000   139.7142     6.3355     6.5551
  306.2000   137.5308     6.4316     6.5944
  306.3000   135.7267     6.5044     6.6818
  306.4000   134.4630     6.5888     6.7132
  306.5000   133.4845     6.6205     6.7511
  306.6000   132.4465     6.6577     6.8036
  306.7000   132.4454     6.6951     6.8752
  306.8000   132.7863     6.7327     6.9173
  306.9000   133.1609     6.7736     6.9529
  307.0000   133.4583     6.8087     6.9921
  307.1000   133.9534     6.8738     7.0315
  307.2000   134.6735     6.9337     7.0711
  307.3000   135.0408     6.9726     7.1113
  307.4000   135.2839     7.0123     7.1510
  307.5000   135.5270     7.0512     7.2225
  307.6000   135.7628     7.0909     7.2825
  307.7000   135.7616     7.1307     7.3111
  307.8000   135.5671     7.1708     7.3135
  307.9000   135.4566     7.2111     7.3615
  308.0000   135.3021     7.2590     7.3611
  308.1000   134.8124     7.2924     7.4117
  308.2000   134.2425     7.3334     7.4638
  308.3000   133.8327     7.3746     7.4696
  308.4000   133.3430     7.4111     7.5152
  308.5000   132.8532     7.4106     7.5148
  308.6000   132.3929     7.4850     7.5437
  308.7000   132.1185     7.5140     7.5667
  308.8000   131.9020     7.5314     7.5759
  308.9000   131.4994     7.5659     7.6188
  309.0000   131.2073     7.5654     7.6615
  309.1000   131.1250     7.5650     7.6714
  309.2000   130.5996     7.5954     7.6941
  309.3000   130.3720     7.6171     7.7243
  309.4000   130.1265     7.6275     7.7238
  309.5000   129.4412     7.6704     7.7233
  309.6000   128.3219     7.7135     7.7230
  309.7000   127.5679     7.7225     7.7493
  309.8000   126.8539     7.7462     7.7930
  309.9000   126.4785     7.7758     7.8369
  310.0000   126.5961     7.7790     7.8846
  310.1000   127.0835     7.8293     7.8842
  310.2000   127.5796     7.8289     7.9147
  310.3000   128.5555     7.8834     7.9386
  310.4000   129.1505     7.9382     7.9382
  310.5000   129.7701     7.9444     7.9377
  310.6000   130.5017     7.9929     7.9823
  310.7000   131.2331     7.9924     7.9924
  310.8000   132.0930     7.9920     8.0163
  310.9000   132.6965     8.0119     8.0476
  311.0000   133.4281     8.0471     8.0505
  311.1000   134.1597     8.0466     8.1030
  311.2000   134.8648     8.0910     8.1026
  311.3000   135.4153     8.1365     8.1021
