~VERSION INFORMATION
 VERS.                2.0:   CWLS LOG ASCII STANDARD - VERSION 2.0
 WRAP.                 NO:   ONE LINE PER DEPTH STEP
~WELL INFORMATION
#MNEM.UNIT      DATA TYPE    INFORMATION
#----------   ------------   ------------------------------
 STRT.F            2.0000:   START DEPTH
 STOP.F          602.0000:   STOP DEPTH
 STEP.F            0.1000:   STEP LENGTH
 NULL.          -999.2500:   NO VALUE
 COMP.       F D SERV INC:   COMPANY
 WELL.    63-1 SX-3 #63-3:   WELL
 FLD .             TEAPOT:   FIELD
 LOC .       S3 T38N R78W:   LOCATION
 CNTY.            NATRONA:   COUNTY
 STAT.            WYOMING:   STATE
 CTRY. UNITED STATES OF AMERICA:   COUNTRY
 SRVC.     Atlas Wireline:   SERVICE COMPANY
 DATE.        20-APR-1992:   LOGDATE
 API .       490252251300:   API NUMBER
~CURVE INFORMATION
#MNEM.UNIT       API CODE    CURVE DESCRIPTION
#----------   ------------   ------------------------------
 DEPT.F                  :   
 GRR .GAPI   07 310 01 00:   GAMMA RAY
 RILD.OHMM   07 120 46 00:   INDUCTION LOG DEEP RESISTIVITY
 RILM.OHMM   07 120 44 00:   INDUCTION LOG MEDIUM RESISTIVITY
~PARAMETER INFORMATION
#MNEM.UNIT          VALUE    DESCRIPTION
#----------   ------------   ------------------------------
 PD  .                 GL:   PERMANENT DATUM
 EPD .F              5176:   ELEVATION PERMANENT DATUM
 LMF .                 KB:   LOG MEASURED FROM
 DAPD.F                 5:   FEET ABOVE PERMANENT DATUM
 DMF .                 KB:   DRILLING MEASURED FROM
 EKB .F              5181:   KELLING BUSHING
 EDF .F              5180:   DRILLING FLOOR
 EGL .F              5176:   GROUND LEVEL
 DATE.        20-APR-1992:   RUN DATE
 RUN .                  1:   RUN NUMBER
 DD  .F               608:   DEPTH DRILLER
 DL  .F               608:   DEPTH LOGGER
 BLI .F               602:   BOTTOM LOG INTERVAL
 CS  .IN            8.625:   CASING SIZE
 CBD .F                48:   CASING BOTTOM DRILLER
 CBL .F                50:   CASING BOTTOM LOGGER
 BS  .IN            7.875:   BIT SIZE
 BSD .F               608:   BIT SIZE AT DEPTH
 DFT .                AIR:   DRILLING FLUID TYPE
 TCS .HRS               2:   TIME CURCULATED STOPPED
 MRT .F                85:   MAXIMUM RECORDED TEMPERATURE
 LUN .           HL- 6274:   LOGGING UNIT NUMBER
 LUL .             CASPER:   LOGGING UNIT LOCATION
 ENGI.             RAUTIO:   RECORDING ENGINEER
 WITN.        GARY STRONG:   WITNESSED BY
 CLNT.            A2DTECH:   CLIENT CODE
 ORIG.           5" PRINT:   ORIGIN OF DATA
 UWI .       490252251300:   UNIQUE WELL ID
 DICO. A2D Technologies, Inc.:   DIGITIZING COMPANY
~OTHER INFORMATION
~A    DEPT      GRR      RILD       RILM   
# ...
  548.0000   115.9860    10.9716    10.6038
  548.1000   116.6672    10.9127    10.5437
  548.2000   117.0654    10.8502    10.4376
  548.3000   117.3154    10.7880    10.3499
  548.4000   117.5797    10.7094    10.2720
  548.5000   118.0483    10.5902    10.1596
  548.6000   118.5445    10.5193    10.0932
  548.7000   119.0406    10.4195    10.0429
  548.8000   119.5366    10.3366     9.9850
  548.9000   120.0327    10.2544     9.9512
  549.0000   120.6222    10.1471     9.9505
  549.1000   121.0250    10.0860     9.9497
  549.2000   121.5211     9.9767     9.8940
  549.3000   122.0173     9.9455     9.8791
  549.4000   122.4808     9.9452     9.8784
  549.5000   122.7545     9.9285     9.8777
  549.6000   122.9811     9.8754     9.8727
  549.7000   123.0643     9.8751     9.8075
  549.8000   123.2914     9.8748     9.8069
  549.9000   123.7318     9.8745     9.8062
  550.0000   123.9819     9.8743     9.7828
  550.1000   123.0948     9.8845     9.7366
  550.2000   122.2078     9.9429     9.7358
  550.3000   121.3207     9.9427     9.7352
  550.4000   120.3620     9.9424     9.6937
  550.5000   120.1356     9.9124     9.6661
  550.6000   119.7184     9.8726     9.6494
  550.7000   118.9946     9.8724     9.5974
  550.8000   118.2504     9.8720     9.5966
  550.9000   118.2400     9.8231     9.5500
  551.0000   117.7475     9.8027     9.5286
  551.1000   117.4510     9.8025     9.5064
  551.2000   117.4861     9.7910     9.4609
  551.3000   117.9033     9.7337     9.4602
  551.4000   118.6421     9.6790     9.4085
  551.5000   119.4570     9.6654     9.3542
  551.6000   119.8995     9.6353     9.3270
  551.7000   120.2262     9.5800     9.3115
  551.8000   120.2515     9.5304     9.2578
  551.9000   119.9500     9.5301     9.1955
  552.0000   119.4570     9.4821     9.1950
  552.1000   119.4570     9.4277     9.1625
  552.2000   119.0747     9.3971     9.1296
  552.3000   118.7179     9.3852     9.1206
  552.4000   118.4716     9.3311     9.0648
  552.5000   118.2504     9.2777     9.0642
  552.6000   118.2504     9.2656     9.0267
  552.7000   117.8179     9.2360     8.9998
  552.8000   117.6471     9.1830     8.9855
  552.9000   117.5415     9.1363     8.9359
  553.0000   117.3956     9.1360     8.9351
  553.1000   117.6471     9.0892     8.9346
  553.2000   118.6123     9.0719     8.9340
  553.3000   119.9700     9.0481     8.9334
  553.4000   121.4479     9.0082     8.9327
  553.5000   122.6242     9.0080     8.9321
  553.6000   123.0769     9.0078     8.9315
  553.7000   123.0769     9.0074     8.9308
  553.8000   123.4994     8.9778     8.9302
  553.9000   123.6802     8.9442     8.9296
  554.0000   123.7807     8.9440     8.9290
  554.1000   124.0272     8.9437     8.9282
  554.2000   124.2836     8.9435     8.9277
  554.3000   124.2836     8.9080     8.9271
  554.4000   124.1025     8.8807     8.9265
  554.5000   123.7305     8.8804     8.9259
  554.6000   123.1672     8.8802     8.9252
  554.7000   122.4124     8.8799     8.9246
  554.8000   121.2670     8.8797     8.9240
  554.9000   120.6485     8.8795     8.9234
  555.0000   119.9095     8.8792     8.9227
  555.1000   119.2660     8.8790     8.9221
  555.2000   118.7735     8.8787     8.9215
  555.3000   118.2504     8.8316     8.8804
  555.4000   118.0192     8.8164     8.8581
  555.5000   117.7728     8.8162     8.8575
  555.6000   117.4059     8.8159     8.8569
  555.7000   117.0437     8.8157     8.8562
  555.8000   117.0437     8.8154     8.8101
  555.9000   117.0437     8.8152     8.7934
  556.0000   117.2449     8.8150     8.7927
  556.1000   117.7828     8.8147     8.7921
  556.2000   118.6120     8.8145     8.7915
  556.3000   119.5275     8.8142     8.7909
  556.4000   120.0603     8.8140     8.7903
  556.5000   120.5131     8.8137     8.7897
  556.6000   121.0056     8.8135     8.7891
  556.7000   121.4982     8.8132     8.7884
  556.8000   121.9910     8.8130     8.7878
  556.9000   122.4840     8.8127     8.7872
  557.0000   122.9765     8.8125     8.7866
  557.1000   123.0769     8.8122     8.7860
  557.2000   123.2176     8.8120     8.7743
  557.3000   123.3786     8.8118     8.7236
  557.4000   123.4086     8.8115     8.7230
  557.5000   123.6802     8.8113     8.7224
  557.6000   123.6802     8.8110     8.7218
  557.7000   123.6802     8.7849     8.7212
  557.8000   123.9012     8.7491     8.7205
  557.9000   124.2836     8.7489     8.7199
  558.0000   124.2836     8.7486     8.7193
  558.1000   124.2836     8.7484     8.6861
  558.2000   124.2836     8.7481     8.6574
  558.3000   124.2836     8.7479     8.6568
  558.4000   124.2836     8.7477     8.6562
  558.5000   124.2333     8.7474     8.6556
  558.6000   123.6802     8.6987     8.6174
  558.7000   122.8152     8.6860     8.5677
  558.8000   121.8299     8.6858     8.5183
  558.9000   120.8446     8.6702     8.4692
  559.0000   119.7089     8.6248     8.4140
  559.1000   117.9487     8.6245     8.3719
  559.2000   117.2248     8.6243     8.3236
  559.3000   116.8577     8.5921     8.2756
  559.4000   116.7421     8.5638     8.2279
  559.5000   116.6668     8.5534     8.1793
  559.6000   116.4404     8.5037     8.1333
  559.7000   116.4404     8.4556     8.0864
  559.8000   116.4404     8.4440     8.0398
  559.9000   116.5963     8.4175     7.9934
  560.0000   117.8476     8.3847     7.9511
  560.1000   120.2415     8.3794     7.9504
  560.2000   121.2670     8.3258     7.9111
  560.3000   121.5033     8.2836     7.8940
  560.4000   121.5686     8.2674     7.8935
  560.5000   121.5686     8.2463     7.8929
  560.6000   121.5686     8.2094     7.8923
  560.7000   121.5686     8.2091     7.8485
  560.8000   121.5686     8.1620     7.8363
  560.9000   121.7748     8.1515     7.8357
  561.0000   121.8703     8.1252     7.8352
  561.1000   122.0613     8.0943     7.8347
  561.2000   122.4736     8.0885     7.8340
  561.3000   122.4736     8.0375     7.8335
  561.4000   122.4736     8.0373     7.8330
  561.5000   122.6496     8.0059     7.8325
  561.6000   122.8959     7.9809     7.8319
  561.7000   123.0769     7.9698     7.8313
  561.8000   123.0769     7.9240     7.8308
  561.9000   123.0769     7.8786     7.8303
  562.0000   123.0769     7.8692     7.8297
  562.1000   123.0769     7.8431     7.8292
  562.2000   122.8057     7.8140     7.8261
  562.3000   122.1367     7.8077     7.7735
  562.4000   121.8703     7.7591     7.7730
  562.5000   121.4176     7.7589     7.7724
  562.6000   120.9251     7.7279     7.7719
  562.7000   120.2012     7.7045     7.7641
  562.8000   119.4570     7.7042     7.7167
  562.9000   119.4518     7.7026     7.7162
  563.0000   119.2056     7.6501     7.7156
  563.1000   119.1554     7.6500     7.6934
  563.2000   119.0147     7.6239     7.6490
  563.3000   118.8537     7.5962     7.6070
  563.4000   118.8537     7.5961     7.6064
  563.5000   118.8537     7.5958     7.5703
  563.6000   118.8537     7.5956     7.5524
  563.7000   118.8537     7.5954     7.5357
  563.8000   119.0747     7.5739     7.4988
  563.9000   119.7879     7.5304     7.4982
  564.0000   121.2670     7.4894     7.4581
  564.1000   122.7460     7.4891     7.4151
  564.2000   123.8416     7.4536     7.3723
  564.3000   124.6908     7.4108     7.3298
  564.4000   125.3493     7.3846     7.2875
  564.5000   125.8170     7.3773     7.2377
  564.6000   126.0935     7.3327     7.2038
  564.7000   126.5260     7.2929     7.1622
  564.8000   127.0187     7.2511     7.1210
  564.9000   127.3001     7.2096     7.0742
  565.0000   127.3503     7.1682     6.9867
  565.1000   127.6018     7.1270     6.9135
  565.2000   127.8431     7.0797     6.8616
  565.3000   128.2756     7.0116     6.8220
  565.4000   128.5068     6.9316     6.7732
  565.5000   128.5821     6.8682     6.6958
  565.6000   128.8283     6.8288     6.6040
  565.7000   129.1101     6.7881     6.5436
  565.8000   129.3214     6.7137     6.4901
  565.9000   129.5676     6.6652     6.4527
  566.0000   129.7134     6.6269     6.4108
  566.1000   129.6681     6.5777     6.3307
