~VERSION INFORMATION
 VERS.                2.0:   CWLS LOG ASCII STANDARD - VERSION 2.0
 WRAP.                 NO:   ONE LINE PER DEPTH STEP
~WELL INFORMATION
#MNEM.UNIT      DATA TYPE    INFORMATION
#----------   ------------   ------------------------------
 STRT.F           50.0000:   START DEPTH
 STOP.F         1152.0000:   STOP DEPTH
 STEP.F            0.5000:   STEP LENGTH
 NULL.          -999.2500:   NO VALUE
 COMP. FENIX & SCISSON INC:   COMPANY
 WELL.  NPR 3 #65 SX14-14:   WELL
 FLD .             TEAPOT:   FIELD
 LOC .      S14 T38N R78W:   LOCATION
 CNTY.            NATRONA:   COUNTY
 STAT.            WYOMING:   STATE
 CTRY. UNITED STATES OF AMERICA:   COUNTRY
 SRVC.              Welex:   SERVICE COMPANY
 DATE.        13-JAN-1979:   LOGDATE
 API .       490251073800:   API NUMBER
~CURVE INFORMATION
#MNEM.UNIT       API CODE    CURVE DESCRIPTION
#----------   ------------   ------------------------------
 DEPT.F                  :   
 SPR .MV     07 010 01 00:   SPONTANEOUS POTENTIAL
 SGRD.OHMM   07 220 05 00:   SHALLOW GUARD RESISTIVITY
 ILD .OHMM   07 120 46 00:   INDUCTION LOG DEEP
 ILM .OHMM   07 120 44 00:   INDUCTION LOG MEDIUM
 CALD.IN     45 280 60 00:   CALIPER
 GRD .GAPI   45 310 01 00:   GAMMA RAY FROM DENSITY LOG
 RHOB.G/C3   45 350 01 00:   BULK DENSITY
 DPHI.DEC    45 890 12 00:   DENSITY POROSITY SANDSTONE
 CORR.G/C3   45 356 01 00:   DENSITY CORRECTION
~PARAMETER INFORMATION
#MNEM.UNIT          VALUE    DESCRIPTION
#----------   ------------   ------------------------------
 PD  .                 GL:   PERMANENT DATUM
 EPD .F              5312:   ELEVATION PERMANENT DATUM
 LMF .                 KB:   LOG MEASURED FROM
 DAPD.F                 4:   FEET ABOVE PERMANENT DATUM
 DMF .                 KB:   DRILLING MEASURED FROM
 EKB .F              5316:   KELLING BUSHING
 EGL .F              5312:   GROUND LEVEL
 DATE.            1-13-79:   RUN DATE
 RUN .                  1:   RUN NUMBER
 DD  .F              1167:   DEPTH DRILLER
 DL  .F              1154:   DEPTH LOGGER
 BLI .F              1152:   BOTTOM LOG INTERVAL
 TLI .F                50:   TOP LOG INTERVAL
 CS  .IN            8.625:   CASING SIZE
 CBD .F                40:   CASING BOTTOM DRILLER
 CBL .F                60:   CASING BOTTOM LOGGER
 BS  .IN            7.875:   BIT SIZE
 BSD .F              1167:   BIT SIZE AT DEPTH
 DFT .            KCL MUD:   DRILLING FLUID TYPE
 DFD .                8.8:   DRILLING FLUID DENSITY
 DFV .                 42:   DRILLING FLUID VISCOSITY
 DFPH.                8.2:   DRILLING FLUID PH
 DFL .                7.7:   DRILLING FLUID LOSS
 MSS .                PIT:   MUD SAMPLE SOURCE
 RMS .OHMM            .29:   RESISTIVITY MUD SAMPLE
 MST .F                40:   MUD SAMPLE TEMPERATURE
 RMF .OHMM            .19:   RESISTIVITY MUD FILTRATE SAMPLE
 MFST.F                40:   MUD FILTRATE SAMPLE TEMPERATURE
 RMC .OHMM            .87:   RESISTIVITY MUD CAKE
 MCST.F                40:   MUD CAKE SAMPLE TEMPERATURE
 MFSS.           MEASURED:   MUD FILTRATE SAMPLE SOURCE
 MCSS.           MEASURED:   MUD CAKE SAMPLE SOURCE
 RMB .OHMM           .119:   RESISTIVITY MUD AT BHT
 BHT .F                97:   BOTTOM HOLE TEMPERATURE
 TCS .HRS              30:   TIME CURCULATED STOPPED
 MRT .F                97:   MAXIMUM RECORDED TEMPERATURE
 LUN .               8611:   LOGGING UNIT NUMBER
 LUL .             CASPER:   LOGGING UNIT LOCATION
 ENGI.            BENTSEN:   RECORDING ENGINEER
 WITN.              AMEND:   WITNESSED BY
 CLNT.            A2DTECH:   CLIENT CODE
 ORIG.       2", 5" PRINT:   ORIGIN OF DATA
 UWI .       490251073800:   UNIQUE WELL ID
 DICO. A2D Technologies, Inc.:   DIGITIZING COMPANY
~OTHER INFORMATION
~A   DEPT      SPR       SGRD        ILD        ILM       CALD        GRD       RHOB       DPHI       CORR   
# ...
  123.0000   -24.6444     6.2757     5.9428     6.1661     8.1215   113.0417     2.4445     0.1341    -0.0072
  123.5000   -24.3643     6.4123     5.8777     6.2303     8.0948   111.6205     2.4565     0.1280    -0.0052
  124.0000   -24.0846     6.6121     5.8339     6.2751     8.0683   110.2346     2.4686     0.1233    -0.0032
  124.5000   -23.8023     6.8249     5.8540     6.3201     8.0390   108.8636     2.4674     0.1245    -0.0026
  125.0000   -23.5148     7.3284     5.9805     6.3656     7.9433   107.7287     2.4626     0.1282    -0.0058
  125.5000   -23.7143     7.9994     6.1098     6.4113     7.8463   108.0223     2.4576     0.1319    -0.0089
  126.0000   -23.9607     7.0750     6.2419     6.4573     7.7486   109.1684     2.4527     0.1345    -0.0120
  126.5000   -24.2811     7.2755     6.3769     6.5037     7.6913   110.2996     2.4554     0.1328    -0.0129
  127.0000   -24.0674     7.4160     6.5147     6.5839     7.7577   111.4228     2.4593     0.1305    -0.0057
  127.5000   -23.8685     7.1472     6.5775     6.6788     7.8889   112.0798     2.4588     0.1295     0.0015
  128.0000   -23.6726     7.6242     6.4647     6.7751     8.0244   110.8125     2.4523     0.1347     0.0079
  128.5000   -23.4766     7.4535     6.3225     6.8730     8.0830   111.1908     2.4439     0.1398     0.0017
  129.0000   -23.2803     7.1849     6.1831     6.8889     8.0751   112.8471     2.4358     0.1449    -0.0055
  129.5000   -23.0832     6.8882     6.0469     6.7893     7.9023   110.0195     2.4170     0.1597    -0.0126
  130.0000   -22.9000     6.9456     5.9138     6.7120     7.7057   106.9574     2.3933     0.1663    -0.0197
  130.5000   -22.9008     7.0165     5.7836     6.6354     7.5994   107.7936     2.3972     0.1671    -0.0236
  131.0000   -23.4495     6.7605     5.6562     6.5592     7.6300   110.0962     2.4050     0.1604    -0.0126
  131.5000   -24.0651     6.6385     5.5317     6.5159     7.7371   108.9890     2.4261     0.1468    -0.0012
  132.0000   -24.6810     6.8242     5.4689     6.6037     7.8496   107.4579     2.4480     0.1332     0.0101
  132.5000   -25.2925     6.9520     5.4200     6.6888     7.9626   109.8201     2.4643     0.1257     0.0200
  133.0000   -25.9247     6.8288     5.3648     6.7626     8.0762   112.9885     2.4693     0.1230     0.0220
  133.5000   -25.6159     6.7113     5.3196     6.5439     8.0528   113.9956     2.4688     0.1269     0.0220
  134.0000   -25.3246     6.5730     5.4960     6.2807     7.9954   111.0575     2.4694     0.1269     0.0204
  134.5000   -25.3451     6.7143     5.6511     6.6135     7.9459   107.0971     2.4785     0.1188     0.0141
  135.0000   -25.3742     7.0424     5.8811     7.0774     8.0009   106.7648     2.4740     0.1235     0.0080
  135.5000   -25.4045     8.0745     6.1332     7.5739     8.0563   108.8641     2.4672     0.1253     0.0019
  136.0000   -25.4338     9.3046     6.3962     8.1330     8.0951   108.9471     2.4668     0.1249    -0.0043
  136.5000   -25.4627    10.1551     6.6705     8.3571     8.0580   107.4885     2.4620     0.1289    -0.0104
  137.0000   -25.4827    10.1577     6.9520     8.5960     8.0229   107.5143     2.4564     0.1337    -0.0169
  137.5000   -25.9821     8.9978     7.0843     8.5960     8.0335   111.3697     2.4606     0.1243    -0.0091
  138.0000   -26.6174     8.4611     7.2169     8.2989     8.0546   115.1927     2.4841     0.1119     0.0021
  138.5000   -26.3288     8.1799     7.4160     8.0967     8.0756   117.8764     2.5022     0.1018     0.0090
  139.0000   -26.0603     7.9081     7.3912     7.9000     8.0967   116.4611     2.4966     0.1086     0.0048
  139.5000   -25.9715     7.6453     7.3449     7.7082     8.1177   113.7686     2.4852     0.1189     0.0009
  140.0000   -25.8590     7.3912     7.2989     7.5210     8.1255   111.5502     2.4773     0.1155    -0.0030
  140.5000   -25.6143     7.3478     7.2533     7.3460     8.1313   115.6635     2.4951     0.1084    -0.0060
  141.0000   -25.3702     7.5521     7.2079     7.2788     8.1372   112.4322     2.5078     0.1014    -0.0050
  141.5000   -25.1264     7.8698     7.1628     7.6265     8.1431   108.4681     2.5120     0.0999    -0.0041
  142.0000   -24.8825     8.2009     7.1179     7.9091     8.1491   107.6190     2.5164     0.0984    -0.0032
  142.5000   -24.6389     8.5458     7.0816     8.2019     8.1546   109.4598     2.5151     0.0969    -0.0023
  143.0000   -24.3938     8.7879     7.1002     8.4388     8.1429   111.0257     2.5019     0.0971    -0.0014
  143.5000   -24.2637     8.8659     7.1160     8.5154     8.0312   108.6338     2.4878     0.1008    -0.0004
  144.0000   -24.2015     8.9446     7.1318     8.5910     7.9189   106.1056     2.4736     0.1044    -0.0022
  144.5000   -24.1408     9.0240     7.1476     8.6672     7.8673   105.2408     2.4594     0.1081    -0.0020
  145.0000   -24.0800     9.1041     7.1635     8.7442     7.9301   110.9057     2.4475     0.1116    -0.0020
  145.5000   -24.0191     9.1697     7.1794     8.8373     7.9911   115.3691     2.4653     0.1084    -0.0020
  146.0000   -23.9581     9.0580     7.1951     8.7701     8.0517   119.5032     2.4830     0.1041    -0.0018
  146.5000   -23.8972     8.9650     7.2097     8.6868     8.0648   117.9678     2.5006     0.0994     0.0027
  147.0000   -23.8362     8.8730     7.3140     8.6043     8.0708   114.9715     2.5019     0.1014     0.0073
  147.5000   -23.7753     8.7819     7.4306     8.5224     8.0765   112.5695     2.5000     0.1074     0.0119
  148.0000   -23.7143     8.6918     7.5498     8.4410     8.0823   114.0545     2.5029     0.1044     0.0164
  148.5000   -23.6536     8.6026     7.6708     8.3613     8.0881   113.1447     2.5086     0.1007     0.0209
  149.0000   -23.5927     8.5170     7.7937     8.4207     8.0939   111.6967     2.5130     0.0990     0.0235
  149.5000   -23.5297     8.6860     7.9186     8.4807     8.0997   110.7244     2.5094     0.1002     0.0200
  150.0000   -23.3952     8.8530     8.0455     8.5411     8.1056   112.6057     2.5057     0.1038     0.0166
  150.5000   -23.1780     9.0235     8.1744     8.6019     8.1114   113.1500     2.5021     0.1050     0.0131
  151.0000   -22.9616     9.1973     8.2892     8.6632     8.1170   110.9949     2.4984     0.1061     0.0097
  151.5000   -22.7445     9.3741     8.3187     8.7249     8.1125   110.5625     2.4948     0.1072     0.0062
  152.0000   -22.5276     9.5545     8.3487     8.7870     8.0794   113.1574     2.4912     0.1083     0.0027
  152.5000   -22.3098     9.6917     8.3785     8.8499     8.0469   110.5234     2.4875     0.1094    -0.0007
  153.0000   -22.0921     9.4839     8.4084     8.9126     8.0143   108.0943     2.4839     0.1138    -0.0071
  153.5000   -21.9073     9.3405     8.4385     9.0469     7.9835   109.4513     2.4805     0.1201    -0.0151
  154.0000   -22.0356     9.9049     8.4687     9.1917     7.9941   111.7513     2.4703     0.1265    -0.0232
  154.5000   -22.1602    10.3385     8.4990     9.3387     8.0065   114.0868     2.4589     0.1329    -0.0311
  155.0000   -22.2829     9.9782     8.5170     9.5145     8.0199   114.5971     2.4472     0.1381    -0.0375
  155.5000   -22.4073     9.5425     8.3120     9.4271     7.9920   113.3706     2.4438     0.1392    -0.0328
  156.0000   -22.5991     9.0039     8.1693     9.1987     7.9516   111.8122     2.4425     0.1399    -0.0283
  156.5000   -23.0520     9.2356     8.0291     8.9405     7.9788   110.9626     2.4413     0.1407    -0.0239
  157.0000   -23.4947     9.6005     7.8913     8.6883     8.0265   112.7560     2.4402     0.1414    -0.0200
  157.5000   -23.7332     9.0540     7.7558     8.4434     8.0750   114.6413     2.4389     0.1421    -0.0233
  158.0000   -23.8059     8.5048     7.6226     8.2056     8.0966   116.5322     2.4391     0.1421    -0.0269
  158.5000   -23.8744     8.1581     7.4918     7.9745     8.0889   117.4511     2.4561     0.1315    -0.0310
  159.0000   -23.9427     8.0423     7.3632     7.7624     8.0813   115.4800     2.4738     0.1199    -0.0237
