~VERSION INFORMATION
 VERS.                2.0:   CWLS LOG ASCII STANDARD - VERSION 2.0
 WRAP.                 NO:   ONE LINE PER DEPTH STEP
~WELL INFORMATION
#MNEM.UNIT      DATA TYPE    INFORMATION
#----------   ------------   ------------------------------
 STRT.F            0.0000:   START DEPTH
 STOP.F          523.0000:   STOP DEPTH
 STEP.F            0.1000:   STEP LENGTH
 NULL.          -999.2500:   NO VALUE
 COMP.       F D SERV INC:   COMPANY
 WELL. NAVAL PETROLEUM RESERVE 3 SX-3 #87-3:   WELL
 FLD .             TEAPOT:   FIELD
 LOC .       S3 T38N R78W:   LOCATION
 CNTY.            NATRONA:   COUNTY
 STAT.            WYOMING:   STATE
 CTRY. UNITED STATES OF AMERICA:   COUNTRY
 SRVC.      Western Atlas:   SERVICE COMPANY
 DATE.        22-NOV-1992:   LOGDATE
 API .       490252254300:   API NUMBER
~CURVE INFORMATION
#MNEM.UNIT       API CODE    CURVE DESCRIPTION
#----------   ------------   ------------------------------
 DEPT.F                  :   
 GRR .GAPI   07 310 01 00:   GAMMA RAY
 RILD.OHMM   07 120 46 00:   INDUCTION LOG DEEP RESISTIVITY
 RILM.OHMM   07 120 44 00:   INDUCTION LOG MEDIUM RESISTIVITY
~PARAMETER INFORMATION
#MNEM.UNIT          VALUE    DESCRIPTION
#----------   ------------   ------------------------------
 PD  .                 GL:   PERMANENT DATUM
 EPD .F              5129:   ELEVATION PERMANENT DATUM
 LMF .                 KB:   LOG MEASURED FROM
 DAPD.F                10:   FEET ABOVE PERMANENT DATUM
 DMF .                 KB:   DRILLING MEASURED FROM
 EKB .F              5139:   KELLING BUSHING
 EDF .F              5138:   DRILLING FLOOR
 EGL .F              5129:   GROUND LEVEL
 DATE.        22-NOV-1992:   RUN DATE
 RUN .                  1:   RUN NUMBER
 DD  .F               530:   DEPTH DRILLER
 DL  .F               531:   DEPTH LOGGER
 BLI .F               530:   BOTTOM LOG INTERVAL
 TLI .F                58:   TOP LOG INTERVAL
 CS  .IN            8.625:   CASING SIZE
 CBD .F                58:   CASING BOTTOM DRILLER
 CBL .F                58:   CASING BOTTOM LOGGER
 BS  .IN            7.875:   BIT SIZE
 BSD .F               530:   BIT SIZE AT DEPTH
 DFT .           AIR FOAM:   DRILLING FLUID TYPE
 MRT .F                73:   MAXIMUM RECORDED TEMPERATURE
 LUN .            HL-6274:   LOGGING UNIT NUMBER
 LUL .             CASPER:   LOGGING UNIT LOCATION
 ENGI.       P. RASMUSSEN:   RECORDING ENGINEER
 WITN.          G. STRONG:   WITNESSED BY
 CLNT.            A2DTECH:   CLIENT CODE
 ORIG.           5" PRINT:   ORIGIN OF DATA
 UWI .       490252254300:   UNIQUE WELL ID
 DICO. A2D Technologies, Inc.:   DIGITIZING COMPANY
~OTHER INFORMATION
~A    DEPT      GRR      RILD       RILM   
# ...
  418.6000    99.5108    22.1096    24.7432
  418.7000    99.5092    22.1078    24.6029
  418.8000    99.5074    22.0304    24.2527
  418.9000    99.6092    21.9035    23.8398
  419.0000    99.8527    21.7955    23.4736
  419.1000   100.1070    21.7932    23.1957
  419.2000   100.8098    21.7913    22.7417
  419.3000   101.8996    21.7891    22.6301
  419.4000   103.1253    21.7870    22.4994
  419.5000   104.1605    21.7849    22.3193
  419.6000   104.6430    21.7828    22.1067
  419.7000   104.8868    21.7807    22.1041
  419.8000   105.1304    21.7785    22.1018
  419.9000   105.2363    21.7764    22.0993
  420.0000   105.2345    21.7340    22.0969
  420.1000   105.2091    21.6210    22.0944
  420.2000   104.9280    21.6186    22.0919
  420.3000   104.7145    21.6168    22.0890
  420.4000   104.3122    21.6146    22.0870
  420.5000   103.6236    21.6126    22.0846
  420.6000   102.6401    21.6105    22.0821
  420.7000   101.5908    21.6083    22.0632
  420.8000   100.6725    21.6063    21.9235
  420.9000   100.2050    21.6041    21.9213
  421.0000    99.9577    21.6020    21.9188
  421.1000    99.7103    21.5999    21.9164
  421.2000    99.4619    21.5978    21.9139
  421.3000    98.9693    21.5953    21.9115
  421.4000    98.4767    21.5936    21.9091
  421.5000    97.8517    21.5915    21.9066
  421.6000    97.2634    21.5894    21.9042
  421.7000    97.0343    21.5873    21.9017
  421.8000    97.3347    21.5850    21.8993
  421.9000    97.7459    21.5831    21.8965
  422.0000    98.2351    21.5809    21.8944
  422.1000    98.7243    21.5788    21.8920
  422.2000    99.1782    21.5767    21.8896
  422.3000    99.4437    21.5747    21.8640
  422.4000    99.4421    21.5726    21.7325
  422.5000    99.2739    21.5705    21.7302
  422.6000    99.0266    21.5683    21.7278
  422.7000    98.7269    21.5269    21.6629
  422.8000    98.2245    21.4144    21.5377
  422.9000    97.7413    21.4121    21.4197
  423.0000    97.2486    21.3052    21.4169
  423.1000    96.8823    21.1826    21.4149
  423.2000    96.7738    21.1099    21.4125
  423.3000    97.0174    21.1078    21.3646
  423.4000    97.3056    21.1057    21.2590
  423.5000    97.5048    21.1037    21.2565
  423.6000    97.7485    21.0144    21.1432
  423.7000    97.9922    20.9531    21.0211
  423.8000    98.2653    20.9184    20.8996
  423.9000    98.8095    20.8035    20.8073
  424.0000    99.4615    20.8012    20.8032
  424.1000   100.1960    20.6072    20.6830
  424.2000   100.7233    20.5097    20.6559
  424.3000   100.9671    20.5077    20.5877
  424.4000   101.2211    20.5057    20.4298
  424.5000   101.2194    20.5035    20.2215
  424.6000   101.2175    20.3961    20.2190
  424.7000   101.2157    20.3574    20.2171
  424.8000   101.1501    20.3030    20.1395
  424.9000   100.9095    20.1861    20.0721
  425.0000   100.9077    20.0698    20.0236
  425.1000   100.7108    19.9544    19.7897
  425.2000   100.4636    19.9266    19.6780
  425.3000   100.2971    19.9246    19.6478
  425.4000   100.2715    19.8869    19.5872
  425.5000    99.9907    19.7824    19.4740
  425.6000    99.5648    19.7802    19.3535
  425.7000    99.0718    19.6821    19.0986
  425.8000    98.6770    19.5689    19.0968
  425.9000    98.4298    19.4562    19.0277
  426.0000    98.1663    19.3441    18.9599
  426.1000    97.9352    19.2274    18.9222
  426.2000    97.8602    19.1220    18.6930
  426.3000    97.8584    18.9343    18.5916
  426.4000    97.8566    18.8243    18.5591
  426.5000    97.8548    18.7937    18.5571
  426.6000    97.8529    18.6855    18.5276
  426.7000    97.8511    18.5580    18.4170
  426.8000    97.8493    18.4710    18.1665
  426.9000    97.9979    18.3647    18.0818
  427.0000    98.4690    18.2963    17.9773
  427.1000    98.7513    18.2945    17.8378
  427.2000    99.3696    18.2925    17.6466
  427.3000   100.2534    18.2909    17.5345
  427.4000   101.2335    18.2190    17.3543
  427.5000   102.2847    18.1141    17.1563
  427.6000   103.8861    18.0098    16.9605
  427.7000   104.3320    17.9055    16.8088
  427.8000   104.4877    17.8030    16.8069
  427.9000   104.5954    17.7778    16.7103
  428.0000   104.7867    17.7760    16.7595
  428.1000   104.7848    17.7743    16.8013
  428.2000   104.7831    17.7640    16.7994
  428.3000   104.5974    17.6472    16.8061
  428.4000   104.4769    17.6457    16.9129
  428.5000   104.4054    17.6440    16.9113
  428.6000   104.1581    17.6423    16.9094
  428.7000   103.8659    17.6231    16.9075
  428.8000   103.6635    17.5163    16.9233
  428.9000   103.4162    17.4208    17.0219
  429.0000   103.0822    17.3205    17.0201
  429.1000   102.6190    17.2690    17.0891
  429.2000   102.3441    17.2672    17.1846
  429.3000   102.1244    17.2655    17.2805
  429.4000   101.7162    17.2636    17.3722
  429.5000   101.3273    17.2622    17.3698
  429.6000   101.1268    17.2605    17.3682
  429.7000   101.1249    17.2588    17.3663
  429.8000   100.8881    17.2572    17.3279
  429.9000   100.6408    17.2553    17.2417
  430.0000   100.3935    17.2538    17.2397
  430.1000   100.1462    17.2521    17.1483
  430.2000    99.9055    17.2070    17.1162
  430.3000    99.9038    17.1290    17.1143
  430.4000    99.7066    17.1273    17.0893
  430.5000    99.5976    17.1257    16.9917
  430.6000    99.5958    17.1240    16.9897
  430.7000    99.5939    17.1223    16.9878
  430.8000    99.5919    17.1207    16.9860
  430.9000    99.8027    17.1112    16.9841
  431.0000    99.8911    16.9982    16.9822
  431.1000    99.8893    16.9968    16.9800
  431.2000    99.9286    16.9952    16.9783
  431.3000   100.1881    16.9553    16.9765
  431.4000   100.4160    16.8576    16.9746
  431.5000   100.8321    16.7550    16.9727
  431.6000   101.2059    16.7535    16.9707
  431.7000   101.6248    16.7518    16.9689
  431.8000   102.6034    16.7040    16.8952
  431.9000   103.3378    16.6078    16.8472
  432.0000   104.0727    16.5121    16.8173
  432.1000   105.6023    16.3986    16.7136
  432.2000   107.5079    16.3226    16.4927
  432.3000   108.7340    16.2819    16.4911
  432.4000   110.1528    16.2803    16.4319
  432.5000   112.0123    16.2674    16.3012
  432.6000   113.0223    16.1639    16.1296
  432.7000   113.1734    15.9994    16.0303
  432.8000   113.1715    15.8771    15.9437
  432.9000   113.1696    15.8251    15.8516
  433.0000   113.1680    15.8045    15.7171
  433.1000   113.1661    15.7122    15.5826
  433.2000   112.9449    15.6231    15.5783
  433.3000   112.4522    15.5332    15.4705
  433.4000   111.9503    15.4438    15.3988
  433.5000   111.4666    15.3812    15.2600
  433.6000   110.7896    15.3797    15.1455
  433.7000   109.7976    15.3780    15.1333
  433.8000   108.4293    15.3030    15.0368
  433.9000   106.7594    15.2149    14.9590
  434.0000   105.8877    15.1273    14.8725
  434.1000   105.0816    15.0402    14.7865
  434.2000   104.0979    14.9482    14.7191
  434.3000   103.2011    14.9468    14.7175
  434.4000   102.5225    14.9454    14.6333
  434.5000   102.2479    14.9031    14.4859
  434.6000   102.2463    14.8173    14.3641
  434.7000   102.0834    14.7296    14.3063
  434.8000   101.9401    14.5287    14.3048
  434.9000   101.9854    14.5275    14.3029
  435.0000   102.2390    14.5261    14.3016
  435.1000   102.4728    14.4963    14.2488
  435.2000   102.8948    14.4128    14.1990
  435.3000   103.2625    14.3208    14.1974
  435.4000   103.4420    14.3196    14.1958
  435.5000   103.4402    14.2645    14.1942
  435.6000   103.4385    14.1823    14.1927
  435.7000   103.4366    14.1172    14.1911
  435.8000   103.4348    14.1158    14.1895
  435.9000   103.3517    14.1145    14.1879
  436.0000   103.1286    14.1132    14.1861
  436.1000   103.1265    14.1118    14.1848
  436.2000   103.1250    14.1104    14.1832
  436.3000   103.2787    14.1090    14.1816
  436.4000   103.4239    14.1074    14.1800
  436.5000   103.4634    14.1062    14.1783
  436.6000   103.7227    14.1048    14.1034
  436.7000   103.9507    14.1035    14.0768
