~VERSION INFORMATION
 VERS.                2.0:   CWLS LOG ASCII STANDARD - VERSION 2.0
 WRAP.                 NO:   ONE LINE PER DEPTH STEP
~WELL INFORMATION
#MNEM.UNIT      DATA TYPE    INFORMATION
#----------   ------------   ------------------------------
 STRT.F           30.0000:   START DEPTH
 STOP.F          770.5000:   STOP DEPTH
 STEP.F            0.5000:   STEP LENGTH
 NULL.          -999.2500:   NO VALUE
 COMP. FENIX & SCISSON INC:   COMPANY
 WELL. TEAPOT DOME 63 SX 34 #63-34:   WELL
 FLD .             TEAPOT:   FIELD
 LOC .      S34 T39N R78W:   LOCATION
 CNTY.            NATRONA:   COUNTY
 STAT.            WYOMING:   STATE
 CTRY. UNITED STATES OF AMERICA:   COUNTRY
 SRVC.           BIRDWELL:   SERVICE COMPANY
 DATE.        18-AUG-1978:   LOGDATE
 API .       490251070300:   API NUMBER
~CURVE INFORMATION
#MNEM.UNIT       API CODE    CURVE DESCRIPTION
#----------   ------------   ------------------------------
 DEPT.F                  :   
 SPR .MV     05 010 01 00:   SPONTANEOUS POTENTIAL
 SN  .OHMM   05 040 16 00:   SHORT NORMAL 16'
 ILD .OHMM   05 120 46 00:   INDUCTION LOG DEEP RESISTIVITY
 CALD.IN     45 280 60 00:   CALIPER
 GRD .GAPI   45 310 01 00:   GAMMA RAY FROM DENSITY LOG
 RHOB.G/C3   45 350 01 00:   BULK DENSITY
 DPHI.DEC    45 890 12 00:   DENSITY POROSITY SANDSTONE
 CORR.G/C3   45 356 01 00:   DENSITY CORRECTION
~PARAMETER INFORMATION
#MNEM.UNIT          VALUE    DESCRIPTION
#----------   ------------   ------------------------------
 PD  .                 GL:   PERMANENT DATUM
 EPD .F              5063:   ELEVATION PERMANENT DATUM
 LMF .                 KB:   LOG MEASURED FROM
 DAPD.F                 4:   FEET ABOVE PERMANENT DATUM
 DMF .                 KB:   DRILLING MEASURED FROM
 EKB .F              5067:   KELLING BUSHING
 EGL .F              5063:   GROUND LEVEL
 DATE.          8-18-1978:   RUN DATE
 RUN .                  1:   RUN NUMBER
 DD  .F               760:   DEPTH DRILLER
 DL  .F               770:   DEPTH LOGGER
 BLI .F               763:   BOTTOM LOG INTERVAL
 TLI .F                40:   TOP LOG INTERVAL
 CS  .IN            8.625:   CASING SIZE
 CBD .F                40:   CASING BOTTOM DRILLER
 CBL .F                40:   CASING BOTTOM LOGGER
 BS  .IN            7.875:   BIT SIZE
 BSD .F               760:   BIT SIZE AT DEPTH
 DFT .            MUD KCL:   DRILLING FLUID TYPE
 DFL .               10.6:   DRILLING FLUID LOSS
 MSS .          FLOW LINE:   MUD SAMPLE SOURCE
 RMS .OHMM             .2:   RESISTIVITY MUD SAMPLE
 MST .F                56:   MUD SAMPLE TEMPERATURE
 RMF .OHMM             .2:   RESISTIVITY MUD FILTRATE SAMPLE
 MFST.F                64:   MUD FILTRATE SAMPLE TEMPERATURE
 RMC .OHMM            .36:   RESISTIVITY MUD CAKE
 MCST.F                64:   MUD CAKE SAMPLE TEMPERATURE
 MFSS.               MEAS:   MUD FILTRATE SAMPLE SOURCE
 MCSS.               MEAS:   MUD CAKE SAMPLE SOURCE
 TCS .HRS               3:   TIME CURCULATED STOPPED
 MRT .F                72:   MAXIMUM RECORDED TEMPERATURE
 LUN .               3006:   LOGGING UNIT NUMBER
 LUL .               CASP:   LOGGING UNIT LOCATION
 ENGI.           REYNOLDS:   RECORDING ENGINEER
 WITN.              AMEND:   WITNESSED BY
 CLNT.            A2DTECH:   CLIENT CODE
 ORIG.           5" PRINT:   ORIGIN OF DATA
 UWI .       490251070300:   UNIQUE WELL ID
 DICO. A2D Technologies, Inc.:   DIGITIZING COMPANY
~OTHER INFORMATION
~A   DEPT      SPR         SN        ILD       CALD         GRD      RHOB       DPHI       CORR   
# ...
  111.0000   -84.9127     6.2523     5.0541     6.6737    82.6925     2.5053     0.1107     0.1476
  111.5000   -85.0554     6.2523     5.0474     6.5653    86.6380     2.4781     0.1367     0.1023
  112.0000   -85.1992     6.2523     5.0407     6.4508    87.4292     2.4340     0.1630     0.0562
  112.5000   -85.2809     6.2523     5.0340     6.4316    81.6609     2.3899     0.1847     0.0398
  113.0000   -85.3055     6.2523     5.0273     6.4067    75.2084     2.3593     0.1832     0.0355
  113.5000   -85.3289     6.2523     5.0208     6.4342    74.4153     2.3646     0.1801     0.0387
  114.0000   -85.3521     6.2523     5.0139     6.5334    74.4460     2.3710     0.1742     0.0426
  114.5000   -85.3754     6.2523     5.0570     6.6313    73.4517     2.3820     0.1628     0.0461
  115.0000   -85.3987     6.2522     5.0959     6.7280    72.6342     2.3975     0.1574     0.0479
  115.5000   -85.4220     6.2527     5.1350     6.8246    72.3722     2.4065     0.1509     0.0496
  116.0000   -85.4439     6.2608     5.1745     6.9213    71.4024     2.4128     0.1539     0.0513
  116.5000   -85.4597     6.2686     5.2126     7.0175    69.7658     2.4073     0.1605     0.0531
  117.0000   -85.7984     6.2764     5.2470     7.1132    69.7327     2.4001     0.1613     0.0602
  117.5000   -86.1771     6.2842     5.2815     7.1697    70.8369     2.3930     0.1697     0.0726
  118.0000   -86.3465     6.2919     5.3163     7.1703    71.5396     2.3777     0.1807     0.0934
  118.5000   -86.4528     6.2999     5.3515     7.1680    71.6524     2.3591     0.1868     0.1134
  119.0000   -86.5574     6.3099     5.3866     7.1032    71.7674     2.3539     0.1876     0.1331
  119.5000   -86.6628     6.3128     5.4220     7.0435    71.8738     2.3520     0.1985     0.1475
  120.0000   -86.7683     5.9872     5.4470     6.9843    71.9794     2.3249     0.2085     0.1377
  120.5000   -86.8746     5.7811     4.9096     6.9251    72.1346     2.2861     0.2419     0.1203
  121.0000   -86.9820     5.5822     4.3742     6.8660    72.6908     2.2471     0.2791     0.0966
  121.5000   -87.0603     5.3233     3.7686     6.8068    74.9868     2.2087     0.3162     0.0718
  122.0000   -86.7420     4.9307     3.2468     6.7477    81.4780     2.1356     0.3422     0.0480
  122.5000   -86.4350     4.5063     2.7973     6.6885    88.0244     2.0722     0.3536     0.0376
  123.0000   -86.1293     4.0636     2.4100     6.6293    93.9952     2.0652     0.3648     0.0295
  123.5000   -85.8112     3.6644     2.0763     6.5703    92.4264     2.0666     0.3590     0.0330
  124.0000   -84.9984     3.3044     1.7889     6.5294    89.2569     2.0703     0.3533     0.0428
  124.5000   -83.6378     2.9798     1.6603     6.5361    87.7280     2.0979     0.3232     0.0742
  125.0000   -82.2939     2.6594     1.6489     6.5895    87.8280     2.1574     0.2803     0.0995
  125.5000   -80.9354     2.6351     1.6718     7.3694    87.8797     2.2620     0.2032     0.0569
  126.0000   -80.2253     2.6509     1.7504     6.7780    85.5303     2.3355     0.1705     0.0259
  126.5000   -80.1171     2.6594     1.9486     6.6657    77.7567     2.3603     0.1685     0.0327
  127.0000   -80.0196     2.8082     2.3063     6.7490    70.1997     2.3852     0.1650     0.0435
  127.5000   -79.9289     2.9507     2.6839     6.8271    63.1905     2.3954     0.1597     0.0426
  128.0000   -79.9572     3.1888     3.3291     6.8939    62.4856     2.4052     0.1545     0.0411
  128.5000   -80.3638     3.5443     4.0495     6.9476    62.1467     2.4153     0.1492     0.0404
  129.0000   -80.7519     4.0521     4.9288     7.0012    62.2879     2.4233     0.1437     0.0471
  129.5000   -81.1398     4.7626     5.9776     7.0547    64.6424     2.4248     0.1425     0.0546
  130.0000   -81.5286     5.6003     6.8648     7.1087    66.0284     2.4251     0.1417     0.0708
  130.5000   -81.9156     6.6035     7.2763     7.1676    64.8422     2.4255     0.1430     0.0876
  131.0000   -82.2818     7.0384     7.3098     7.1746    63.8605     2.4255     0.1467     0.0974
  131.5000   -82.4028     7.2148     7.1739     7.1808    65.0313     2.4171     0.1504     0.1051
  132.0000   -82.5281     7.3773     6.9841     7.1873    66.9013     2.4108     0.1525     0.1127
  132.5000   -82.6557     7.4307     6.7047     7.1891    67.7105     2.4120     0.1513     0.1203
  133.0000   -82.7737     7.4454     6.2277     7.1836    67.3142     2.4130     0.1516     0.1279
  133.5000   -82.6347     7.3660     5.7878     7.1778    66.8715     2.4132     0.1519     0.1322
  134.0000   -81.6785     7.2097     5.3731     7.1722    68.0101     2.4013     0.1482     0.1351
  134.5000   -80.7642     7.0567     5.1024     7.1302    71.0221     2.4296     0.1425     0.1287
  135.0000   -79.8509     6.9070     5.1526     7.0599    74.0700     2.4203     0.1514     0.1004
  135.5000   -78.9371     6.7604     5.2176     6.9879    76.2853     2.4081     0.1582     0.0729
  136.0000   -78.0263     6.6169     5.2834     6.9529    76.2529     2.3993     0.1651     0.0455
  136.5000   -77.1066     6.4865     5.3500     6.9286    74.2727     2.3854     0.1720     0.0299
  137.0000   -76.4949     6.4865     5.4797     6.9050    72.2861     2.3718     0.1784     0.0213
  137.5000   -76.1517     6.8574     5.7638     6.8812    70.3035     2.3685     0.1796     0.0199
  138.0000   -75.8200     7.2130     6.1414     6.8566    69.6589     2.3661     0.1814     0.0182
  138.5000   -75.4857     7.5870     6.7922     6.8501    69.3353     2.3599     0.1852     0.0166
  139.0000   -75.0041     7.9463     7.4833     6.8499    69.1367     2.3525     0.1891     0.0149
  139.5000   -74.0173     8.1190     7.9229     6.8669    68.8132     2.3489     0.1920     0.0132
  140.0000   -73.0695     8.2889     8.0347     6.8864    67.2854     2.3477     0.1932     0.0116
  140.5000   -72.1174     8.4593     8.1481     6.9058    65.8773     2.3470     0.1944     0.0103
  141.0000   -71.6451     8.6082     8.2630     6.9252    66.8814     2.3452     0.1971     0.0079
  141.5000   -71.6226     8.7336     8.3796     6.9446    68.6681     2.3333     0.2041     0.0104
  142.0000   -71.6077     8.8609     8.4979     6.9640    69.5788     2.3194     0.2112     0.0181
  142.5000   -71.5946     8.9900     8.6178     6.9835    70.0301     2.3075     0.2183     0.0264
  143.0000   -71.5807     9.1211     8.7394     7.0028    70.3015     2.3111     0.2090     0.0345
  143.5000   -71.5667     9.2540     8.8627     7.0225    70.3480     2.3300     0.2006     0.0391
  144.0000   -71.5528     9.3889     8.9878     7.0120    68.8078     2.3361     0.1971     0.0331
  144.5000   -71.5389     9.5257     9.1146     6.9823    66.9738     2.3431     0.1936     0.0272
  145.0000   -71.5250     9.6646     9.2432     6.9756    64.9272     2.3509     0.1901     0.0214
  145.5000   -71.5111     9.8050     9.3736     6.9843    66.2988     2.3529     0.1866     0.0180
  146.0000   -71.4972     9.9502     9.5059     6.9933    68.6487     2.3608     0.1832     0.0184
  146.5000   -71.4832    10.0079     9.6400     7.0023    69.2514     2.3640     0.1800     0.0211
  147.0000   -71.4695    10.0313     9.7761     7.0068    68.5089     2.3682     0.1768     0.0237
  147.5000   -71.4564    10.0548     9.9001     6.9847    69.2179     2.3763     0.1721     0.0179
  148.0000   -71.4357    10.0783     9.9149     6.9627    71.1757     2.3812     0.1774     0.0112
  148.5000   -71.3061    10.1019     9.9313     6.9406    71.9369     2.3655     0.1875     0.0138
  149.0000   -71.1800    10.1255     9.9478     6.9297    67.6273     2.3529     0.1913     0.0246
  149.5000   -71.0561    10.1492     9.9643     6.9465    65.1396     2.3470     0.1926     0.0335
  150.0000   -70.8022    10.1730     9.9808     6.9693    66.8329     2.3466     0.1911     0.0378
  150.5000   -70.5367    10.1968     9.9973     6.9923    69.2734     2.3542     0.1869     0.0419
  151.0000   -70.2698    10.2206    10.0139     7.0153    70.8842     2.3608     0.1848     0.0419
