~VERSION INFORMATION
 VERS.                2.0:   CWLS LOG ASCII STANDARD - VERSION 2.0
 WRAP.                 NO:   ONE LINE PER DEPTH STEP
~WELL INFORMATION
#MNEM.UNIT      DATA TYPE    INFORMATION
#----------   ------------   ------------------------------
 STRT.F           30.0000:   START DEPTH
 STOP.F          515.0000:   STOP DEPTH
 STEP.F            0.5000:   STEP LENGTH
 NULL.          -999.2500:   NO VALUE
 COMP. FENIX & SCISSON INC:   COMPANY
 WELL.      FP SX-3 #63-3:   WELL
 FLD .              NPR 3:   FIELD
 LOC .       S3 T38N R78W:   LOCATION
 CNTY.            NATRONA:   COUNTY
 STAT.            WYOMING:   STATE
 CTRY. UNITED STATES OF AMERICA:   COUNTRY
 SRVC.              Welex:   SERVICE COMPANY
 DATE.        21-JUN-1980:   LOGDATE
 API .       490251082100:   API NUMBER
~CURVE INFORMATION
#MNEM.UNIT       API CODE    CURVE DESCRIPTION
#----------   ------------   ------------------------------
 DEPT.F                  :   
 SPR .MV     07 010 01 00:   SPONTANEOUS POTENTIAL
 SGRD.OHMM   07 220 05 00:   SHALLOW GUARD RESISTIVITY
 ILD .OHMM   07 120 46 00:   INDUCTION LOG DEEP RESISTIVITY
 ILM .OHMM   07 120 44 00:   INDUCTION LOG MEDIUM
 CALD.IN     45 280 60 00:   CALIPER
 GRD .GAPI   45 310 01 00:   GAMMA RAY FROM DENSITY LOG
 CORR.G/C3   45 356 01 00:   DENSITY CORRECTION
 RHOB.G/C3   45 350 01 00:   BULK DENSITY
 DPHI.DEC    45 890 12 00:   DENSITY POROSITY SANDSTONE
 NPHI.DEC    42 890 03 00:   NEUTRON POROSITY SANDSTONE
~PARAMETER INFORMATION
#MNEM.UNIT          VALUE    DESCRIPTION
#----------   ------------   ------------------------------
 PD  .                 GL:   PERMANENT DATUM
 EPD .F              5160:   ELEVATION PERMANENT DATUM
 LMF .                 KB:   LOG MEASURED FROM
 DAPD.F                 5:   FEET ABOVE PERMANENT DATUM
 DMF .                 KB:   DRILLING MEASURED FROM
 EKB .F              5165:   KELLING BUSHING
 EGL .F              5160:   GROUND LEVEL
 DATE.            6-21-80:   RUN DATE
 RUN .                  1:   RUN NUMBER
 DD  .F               508:   DEPTH DRILLER
 DL  .F               517:   DEPTH LOGGER
 BLI .F               515:   BOTTOM LOG INTERVAL
 TLI .F                35:   TOP LOG INTERVAL
 BS  .IN            9.875:   BIT SIZE
 BSD .F               508:   BIT SIZE AT DEPTH
 DFT .            KCL MUD:   DRILLING FLUID TYPE
 DFD .                9.2:   DRILLING FLUID DENSITY
 DFV .                 50:   DRILLING FLUID VISCOSITY
 DFPH.                8.5:   DRILLING FLUID PH
 DFL .                  8:   DRILLING FLUID LOSS
 MSS .           FLOWLINE:   MUD SAMPLE SOURCE
 RMS .OHMM            .42:   RESISTIVITY MUD SAMPLE
 MST .F                63:   MUD SAMPLE TEMPERATURE
 RMF .OHMM            .34:   RESISTIVITY MUD FILTRATE SAMPLE
 MFST.F                63:   MUD FILTRATE SAMPLE TEMPERATURE
 RMC .OHMM             .5:   RESISTIVITY MUD CAKE
 MCST.F                63:   MUD CAKE SAMPLE TEMPERATURE
 MFSS.           MEASURED:   MUD FILTRATE SAMPLE SOURCE
 MCSS.           MEASURED:   MUD CAKE SAMPLE SOURCE
 RMB .OHMM            .35:   RESISTIVITY MUD AT BHT
 BHT .F                75:   BOTTOM HOLE TEMPERATURE
 TCS .HRS             1.5:   TIME CURCULATED STOPPED
 MRT .F                75:   MAXIMUM RECORDED TEMPERATURE
 LUN .               9685:   LOGGING UNIT NUMBER
 LUL .             CASPER:   LOGGING UNIT LOCATION
 ENGI.            TOTHILL:   RECORDING ENGINEER
 WITN.           DINSMORE:   WITNESSED BY
 CLNT.            A2DTECH:   CLIENT CODE
 ORIG.           5" PRINT:   ORIGIN OF DATA
 UWI .       490251082100:   UNIQUE WELL ID
 DICO. A2D Technologies, Inc.:   DIGITIZING COMPANY
~OTHER INFORMATION
~A   DEPT      SPR       SGRD        ILD        ILM        CALD       GRD         CORR       RHOB       DPHI       NPHI 
# ...
   97.0000   -44.9483     6.9259     4.9472     5.4434    10.2007   100.7267     0.0686     2.4698     0.1172     0.3006
   97.5000   -44.6603     7.0477     4.9472     5.4718    10.2037   100.7446     0.0785     2.4823     0.1129     0.3030
   98.0000   -45.1232     6.7008     4.9462     5.5003    10.2067   101.9851     0.0878     2.4870     0.1125     0.3058
   98.5000   -45.8193     6.4794     4.9458     5.5289    10.2097   103.3670     0.0961     2.4869     0.1100     0.3070
   99.0000   -46.4525     6.6316     5.0510     5.5320    10.2128   104.7285     0.0974     2.4908     0.1076     0.3022
   99.5000   -46.4608     6.9478     5.1704     5.5338    10.2154   105.7241     0.0989     2.4950     0.1054     0.3040
  100.0000   -46.4582     7.2812     5.1830     5.5294    10.2171   105.7038     0.1005     2.4981     0.1054     0.3056
  100.5000   -46.4574     7.3295     5.1830     5.8981    10.2379   105.1202     0.1020     2.4991     0.1054     0.3018
  101.0000   -46.4581     7.3498     5.2315     6.0721    10.2383   103.9556     0.1001     2.5003     0.1046     0.3106
  101.5000   -46.3331     7.3702     5.3777     6.0721    10.2385   102.8651     0.0977     2.5024     0.1026     0.3137
  102.0000   -46.0979     7.4696     5.5245     6.1977    10.2385   104.3279     0.0954     2.5048     0.1004     0.3111
  102.5000   -45.8117     7.7356     5.6752     6.3719    10.2385   106.3099     0.0954     2.5131     0.0906     0.3050
  103.0000   -45.3798     7.7356     5.8301     6.5510    10.2385   107.5233     0.1070     2.5221     0.0952     0.3011
  103.5000   -44.8987     7.7356     5.9950     6.6647    10.2385   105.8330     0.1024     2.5156     0.1015     0.2999
  104.0000   -44.4182     7.8511     6.1915     6.6647    10.2385   103.5197     0.0916     2.5052     0.1046     0.2962
  104.5000   -44.2346     8.0005     6.3944     6.6647    10.2385   101.1125     0.0862     2.5000     0.1009     0.2993
  105.0000   -44.2351     8.2063     6.6036     6.6099    10.2364    99.8232     0.0897     2.5059     0.0951     0.2992
  105.5000   -44.2053     8.5461     6.8129     6.5559    10.2335    98.8134     0.0968     2.5140     0.0909     0.2991
  106.0000   -43.5300     9.1473     7.0149     6.5024    10.2305    97.8278     0.1039     2.5226     0.0864     0.2963
  106.5000   -42.8416     8.0247     7.2161     6.4493    10.2276    96.4629     0.1110     2.5312     0.0795     0.2905
  107.0000   -42.2114     8.9719     7.4205     6.4210    10.2247    94.7088     0.1163     2.5398     0.0727     0.2830
  107.5000   -42.4129    11.2521     7.6306     6.4363    10.2218    92.9409     0.1202     2.5466     0.0659     0.2729
  108.0000   -42.7232    10.1274     7.8467     6.4485    10.2188    91.1949     0.1252     2.5489     0.0707     0.2632
  108.5000   -42.8120     8.7375     8.0689     6.4607    10.2159    89.9786     0.1300     2.5509     0.0775     0.2584
  109.0000   -42.8132     8.8138     8.2566     6.4730    10.2130    89.9866     0.1162     2.5482     0.0879     0.2587
  109.5000   -42.8176     8.8966     8.1605     6.4811    10.2101    90.7345     0.1006     2.5312     0.0979     0.2642
  110.0000   -43.1926     8.7876     7.9795     6.3660    10.2071    91.7305     0.0852     2.5142     0.1065     0.2715
  110.5000   -44.4480     8.4761     7.8024     6.2445    10.2042    92.7274     0.0740     2.4990     0.1074     0.2789
  111.0000   -44.4177     8.1715     7.6293     6.1253    10.2013    93.6068     0.0750     2.4987     0.1057     0.2820
  111.5000   -44.2278     7.8780     7.4527     6.0083    10.1984    93.6154     0.0820     2.5016     0.1026     0.2845
  112.0000   -44.0029     7.8782     7.3274     5.9304    10.1954    93.6415     0.0891     2.5044     0.1006     0.2875
  112.5000   -43.7829     8.2602     7.2558     5.8798    10.1925    93.6706     0.0962     2.5071     0.1073     0.2894
  113.0000   -43.5634     8.0529     7.1849     5.8295    10.1896    93.6987     0.0981     2.5043     0.1140     0.2869
  113.5000   -43.3403     7.6615     7.1147     5.7798    10.1867    93.7268     0.0950     2.4911     0.1188     0.2832
  114.0000   -42.9649     7.6651     7.0477     5.7410    10.1837    93.7671     0.0838     2.4797     0.1221     0.2805
  114.5000   -42.3686     7.8011     7.0477     5.7958    10.1809    94.4485     0.0783     2.4720     0.1250     0.2799
  115.0000   -41.7768     7.9547     7.1685     5.8050    10.1788    96.4024     0.0783     2.4650     0.1188     0.2763
  115.5000   -41.1833     7.9088     7.2474     5.8139    10.2002    98.3303     0.0787     2.4673     0.1158     0.2736
  116.0000   -41.3102     7.8385     7.1732     5.8227    10.2201    99.9924     0.0804     2.4737     0.1144     0.2725
  116.5000   -41.9556     7.7702     7.0892     5.8316    10.2390    99.9325     0.0819     2.4802     0.1187     0.2728
  117.0000   -42.1725     7.7347     7.0061     5.8405    10.2271    98.2661     0.0814     2.4811     0.1193     0.2743
  117.5000   -39.8984     7.7393     6.9176     5.8496    10.2070    96.3324     0.0711     2.4728     0.1156     0.2736
  118.0000   -39.5153     7.7711     6.9294     5.8416    10.1869    94.3981     0.0724     2.4768     0.1110     0.2711
  118.5000   -40.5857     7.8030     6.9458     5.8324    10.1671    92.4654     0.0781     2.4850     0.1177     0.2663
  119.0000   -41.6739     7.8351     6.9623     5.8232    10.1598    90.5284     0.0795     2.4890     0.1224     0.2690
  119.5000   -42.7545     7.8810     6.9835     5.8141    10.1389    88.5949     0.0702     2.4763     0.1236     0.2735
  120.0000   -42.5375     7.7753     6.9837     5.8050    10.1398    87.4340     0.0668     2.4691     0.1257     0.2749
  120.5000   -41.8371     7.5942     6.8005     5.7954    10.1481    88.9236     0.0645     2.4686     0.1293     0.2798
  121.0000   -42.6697     7.4174     6.6198     5.7580    10.1567    91.3712     0.0634     2.4619     0.1285     0.2860
  121.5000   -43.5472     7.3152     6.4439     5.7410    10.1584    93.8270     0.0624     2.4566     0.1257     0.2889
  122.0000   -44.2520     7.3152     6.2726     5.7421    10.1509    96.2887     0.0652     2.4622     0.1239     0.2918
  122.5000   -43.8746     7.3152     6.1054     5.8942    10.1384    98.7162     0.0711     2.4640     0.1209     0.2978
  123.0000   -43.3209     7.3152     6.0136     5.9917    10.1259    98.9658     0.0770     2.4676     0.1205     0.2982
  123.5000   -43.0149     7.3162     6.0040     6.0908    10.1203    97.2426     0.0822     2.4725     0.1205     0.2921
  124.0000   -43.0168     7.3165     5.9946     6.1916    10.1332    94.9616     0.0784     2.4721     0.1176     0.2872
  124.5000   -43.0156     7.1570     5.9851     6.2443    10.1458    96.1154     0.0795     2.4723     0.1149     0.2853
  125.0000   -42.9838     7.0472     5.9758     6.2375    10.1583    98.0325     0.0859     2.4764     0.1120     0.2837
  125.5000   -42.8485     7.0476     5.9665     6.2241    10.1708    99.7174     0.0924     2.4806     0.1159     0.2815
  126.0000   -42.7202     7.0464     5.9386     6.2108    10.1782    99.6378     0.0927     2.4846     0.1223     0.2742
  126.5000   -42.6905     7.5928     5.8717     6.1975    10.1717    97.9304     0.0873     2.4811     0.1236     0.2720
  127.0000   -43.3228     7.4527     5.8057     6.1843    10.1650    96.2532     0.0820     2.4675     0.1225     0.2747
  127.5000   -43.9609     7.3338     5.7404     6.1710    10.1582    94.5752     0.0782     2.4662     0.1233     0.2777
  128.0000   -44.2414     7.1784     5.6758     6.1578    10.1516    92.9079     0.0811     2.4677     0.1297     0.2793
  128.5000   -43.6136     7.0262     5.6361     6.1447    10.1449    91.5839     0.0866     2.4692     0.1340     0.2751
  129.0000   -42.8181     6.8773     5.7024     6.1315    10.1382    91.1820     0.0857     2.4623     0.1355     0.2806
  129.5000   -42.0225     6.7900     5.8166     6.1289    10.1315    91.1954     0.0767     2.4505     0.1348     0.2839
  130.0000   -41.3322     6.8899     5.9333     6.2526    10.1248    91.1967     0.0723     2.4455     0.1288     0.2868
