~VERSION INFORMATION
 VERS.                2.0:   CWLS LOG ASCII STANDARD - VERSION 2.0
 WRAP.                 NO:   ONE LINE PER DEPTH STEP
~WELL INFORMATION
#MNEM.UNIT      DATA TYPE    INFORMATION
#----------   ------------   ------------------------------
 STRT.F           20.0000:   START DEPTH
 STOP.F          508.0000:   STOP DEPTH
 STEP.F            0.5000:   STEP LENGTH
 NULL.          -999.2500:   NO VALUE
 COMP. FENIX & SCISSON INC:   COMPANY
 WELL.      NPR #3 #45-10:   WELL
 FLD .             TEAPOT:   FIELD
 LOC .      S10 T38N R78W:   LOCATION
 CNTY.            NATRONA:   COUNTY
 STAT.            WYOMING:   STATE
 CTRY. UNITED STATES OF AMERICA:   COUNTRY
 SRVC.              Welex:   SERVICE COMPANY
 DATE.        09-MAY-1980:   LOGDATE
 API .       490251081000:   API NUMBER
~CURVE INFORMATION
#MNEM.UNIT       API CODE    CURVE DESCRIPTION
#----------   ------------   ------------------------------
 DEPT.F                  :   
 SPR .MV     07 010 01 00:   SPONTANEOUS POTENTIAL
 SGRD.OHMM   07 220 05 00:   SHALLOW GUARD RESISTIVITY
 ILD .OHMM   07 120 46 00:   INDUCTION LOG DEEP RESISTIVITY
 ILM .OHMM   07 120 44 00:   INDUCTION LOG MEDIUM
 GRD .GAPI   45 310 01 00:   GAMMA RAY FROM DENSITY LOG
 CALD.IN     45 280 60 00:   CALIPER
 CORR.G/C3   45 356 01 00:   DENSITY CORRECTION
 RHOB.G/C3   45 350 01 00:   BULK DENSITY
 DPHI.DEC    45 890 12 00:   DENSITY POROSITY SANDSTONE
~PARAMETER INFORMATION
#MNEM.UNIT          VALUE    DESCRIPTION
#----------   ------------   ------------------------------
 PD  .                 GL:   PERMANENT DATUM
 EPD .F              5228:   ELEVATION PERMANENT DATUM
 LMF .                 KB:   LOG MEASURED FROM
 DAPD.F                 5:   FEET ABOVE PERMANENT DATUM
 DMF .                 KB:   DRILLING MEASURED FROM
 EKB .F              5233:   KELLING BUSHING
 EGL .F              5228:   GROUND LEVEL
 DATE.             5-9-80:   RUN DATE
 RUN .                  1:   RUN NUMBER
 DD  .F               507:   DEPTH DRILLER
 DL  .F               510:   DEPTH LOGGER
 BLI .F               508:   BOTTOM LOG INTERVAL
 TLI .F                20:   TOP LOG INTERVAL
 BS  .IN            7.875:   BIT SIZE
 BSD .F               507:   BIT SIZE AT DEPTH
 DFT .                KCL:   DRILLING FLUID TYPE
 DFD .                8.9:   DRILLING FLUID DENSITY
 DFV .                 42:   DRILLING FLUID VISCOSITY
 MSS .                PIT:   MUD SAMPLE SOURCE
 RMS .OHMM            .36:   RESISTIVITY MUD SAMPLE
 MST .F                75:   MUD SAMPLE TEMPERATURE
 RMF .OHMM            .29:   RESISTIVITY MUD FILTRATE SAMPLE
 MFST.F                75:   MUD FILTRATE SAMPLE TEMPERATURE
 RMC .OHMM            .43:   RESISTIVITY MUD CAKE
 MCST.F                75:   MUD CAKE SAMPLE TEMPERATURE
 MFSS.           MEASURED:   MUD FILTRATE SAMPLE SOURCE
 MCSS.           MEASURED:   MUD CAKE SAMPLE SOURCE
 TCS .HRS               2:   TIME CURCULATED STOPPED
 MRT .F               100:   MAXIMUM RECORDED TEMPERATURE
 LUN .               9685:   LOGGING UNIT NUMBER
 LUL .             CASPER:   LOGGING UNIT LOCATION
 ENGI.            TOTHILL:   RECORDING ENGINEER
 WITN.           DINSMORE:   WITNESSED BY
 CLNT.            A2DTECH:   CLIENT CODE
 ORIG.         2.5" PRINT:   ORIGIN OF DATA
 UWI .       490251081000:   UNIQUE WELL ID
 DICO. A2D Technologies, Inc.:   DIGITIZING COMPANY
~OTHER INFORMATION
~A   DEPT      SPR       SGRD        ILD        ILM         GRD        CALD       CORR       RHOB       DPHI 
# ...
  458.0000   -48.7563    10.2430     8.1992     8.6180    97.6372     7.8970     0.0217     2.4511     0.1333
  458.5000   -49.3120    10.1229     8.1270     8.5103    98.8208     7.8944     0.0174     2.4420     0.1362
  459.0000   -49.8590     9.9681     8.0512     8.4039   100.0382     7.8918     0.0091     2.4344     0.1443
  459.5000   -50.0058    10.6968     7.9654     8.2989   100.9708     7.8892     0.0072     2.4261     0.1333
  460.0000   -50.0016    13.1698     7.8804     8.1952   101.4950     7.8865     0.0139     2.4292     0.1361
  460.5000   -50.0013     9.4279     7.7964     8.1264   102.0783     7.8839     0.0202     2.4328     0.1390
  461.0000   -50.0004     9.2545     7.7133     8.0176   102.6522     7.8812     0.0267     2.4355     0.1419
  461.5000   -50.0034     9.1299     7.6311     7.8210   103.1592     7.8786     0.0274     2.4353     0.1429
  462.0000   -49.9946     9.0191     7.5492     7.6293   103.6785     7.8760     0.0332     2.4392     0.1418
  462.5000   -49.9824     8.9165     7.4687     7.4422   104.1954     7.8733     0.0331     2.4408     0.1406
  463.0000   -49.6500     8.6639     7.3204     7.2597   104.5628     7.8708     0.0274     2.4330     0.1433
  463.5000   -49.3265     8.4185     6.9314     7.0817   104.8859     7.8681     0.0224     2.4254     0.1476
  464.0000   -49.2097     8.1813     6.5630     6.9081   104.7074     7.8718     0.0079     2.4143     0.1520
  464.5000   -50.0634     7.9526     6.2141     6.7492   103.8827     7.8779     0.0034     2.4186     0.1555
  465.0000   -51.0715     7.6997     5.8839     6.3915   103.0705     7.8840     0.0050     2.4294     0.1483
  465.5000   -52.1113     7.4423     5.5707     6.0019   101.1159     7.8900     0.0066     2.4410     0.1427
  466.0000   -52.4266     6.9668     5.2742     5.6361    99.1158     7.8960     0.0039     2.4454     0.1394
  466.5000   -52.3093     6.0741     4.9934     5.2925    97.1087     7.9021    -0.0032     2.4517     0.1361
  467.0000   -52.1940     4.9591     4.9035     5.0476    95.3077     7.9081    -0.0112     2.4521     0.1330
  467.5000   -52.0807     4.0487     4.8800     4.8316    94.9421     7.9141    -0.0114     2.4470     0.1374
  468.0000   -51.9449     3.0373     4.8567     4.9598    94.5989     7.9201    -0.0065     2.4510     0.1394
  468.5000   -51.7727     4.5868     4.8322     5.3234    94.3093     7.9262    -0.0021     2.4593     0.1314
  469.0000   -51.5920     9.2545     4.9333     5.7137    93.9977     7.9322    -0.0046     2.4611     0.1295
  469.5000   -51.0711     9.3304     5.2047     6.1326    93.6872     7.9382     0.0010     2.4636     0.1274
  470.0000   -50.6088     8.9171     5.4883     6.5822    93.4126     7.9443     0.0032     2.4666     0.1253
  470.5000   -50.0536     8.9989     5.7874     6.9072    93.2422     7.9503     0.0030     2.4679     0.1260
  471.0000   -50.7622     9.1272     6.1028     7.0337    93.0727     7.9563     0.0030     2.4678     0.1314
  471.5000   -51.6092     9.2572     6.4353     7.1625    92.8972     7.9623     0.0031     2.4681     0.1238
  472.0000   -52.3804     9.3883     6.7492     7.2936    92.8388     7.9684     0.0030     2.4710     0.1228
  472.5000   -52.2565     9.2939     7.0359     7.4271    92.8475     7.9745     0.0028     2.4733     0.1207
  473.0000   -52.1505     9.1079     7.2697     7.5447    92.8346     7.9804    -0.0014     2.4656     0.1232
  473.5000   -52.0088     8.9171     7.4128     7.8302    92.8338     7.9864    -0.0049     2.4582     0.1276
  474.0000   -51.8106     9.2435     7.4004     7.8302    92.1756     7.9844    -0.0088     2.4534     0.1322
  474.5000   -51.6016     9.5990     7.5753     7.8302    91.2394     7.9791    -0.0047     2.4580     0.1299
  475.0000   -51.1719     9.9681     7.7181     7.9769    91.0619     7.9739    -0.0004     2.4625     0.1276
  475.5000   -50.7324    10.3452     7.8637     8.0856    91.1346     7.9688     0.0016     2.4640     0.1265
  476.0000   -50.4573    10.4163     8.0124     8.2229    91.2015     7.9637    -0.0031     2.4566     0.1297
  476.5000   -50.6861    10.4867     8.1644     8.3626    91.2579     7.9585    -0.0083     2.4532     0.1322
  477.0000   -50.9014    10.5391     8.2787     8.5047    91.3215     7.9534     0.0027     2.4585     0.1269
  477.5000   -51.1347    10.8117     8.2956     8.6492    91.3827     7.9483     0.0162     2.4736     0.1207
  478.0000   -51.2126    11.1351     8.3312     8.9171    91.4450     7.9432     0.0311     2.4860     0.1146
  478.5000   -51.2065    11.4683     8.3670     8.9394    91.5083     7.9380     0.0421     2.4958     0.1084
  479.0000   -51.1976    11.5645     8.4030     8.9839    91.5661     7.9329     0.0478     2.5045     0.1025
  479.5000   -51.2213    11.5645     8.4339     9.0286    91.6318     7.9278     0.0543     2.5132     0.0944
  480.0000   -51.1950    11.6291     8.2788     9.0736    91.6354     7.9227     0.0575     2.5192     0.0975
  480.5000   -51.1152    11.8134     8.4277     9.1187    91.8977     7.9175     0.0484     2.5098     0.1030
  481.0000   -49.9683    12.0039     8.6969     9.1641    92.2314     7.9124     0.0398     2.4938     0.1084
  481.5000   -49.2268    11.9283     8.9267     9.2097    92.5680     7.9077     0.0313     2.4836     0.1138
  482.0000   -49.1928    11.5592     8.9736     9.2545    92.9002     7.9064     0.0253     2.4795     0.1177
  482.5000   -49.3370    11.1444     9.0207     9.3582    93.2341     7.9051     0.0263     2.4828     0.1167
  483.0000   -50.0038    11.1413     9.0681     9.5252    93.5681     7.9039     0.0346     2.4950     0.1089
  483.5000   -50.6159    11.9966     9.1158     9.6951    93.9017     7.9027     0.0432     2.5076     0.0957
  484.0000   -51.1460    12.1171     9.1637     9.7847    94.2357     7.9015     0.0435     2.5122     0.0983
  484.5000   -50.7533    12.4447     9.2118     9.7502    94.5692     7.9003     0.0298     2.5040     0.1037
  485.0000   -50.4520    12.1693     9.2527     9.6359    94.9028     7.8991     0.0227     2.4968     0.1064
  485.5000   -50.7854    11.8603     9.2182     9.5230    95.2368     7.8979     0.0287     2.4940     0.1069
  486.0000   -51.1265    11.5590     9.1878     9.4113    95.5696     7.8967     0.0332     2.5041     0.1020
  486.5000   -51.0229    11.2654     9.1574     9.3010    95.9038     7.8955     0.0387     2.5066     0.0988
  487.0000   -50.4117    11.1429     9.1268     9.1920    96.2398     7.8943     0.0349     2.4994     0.1021
  487.5000   -49.8853    11.3217     9.0962     9.0842    96.5298     7.8931     0.0296     2.4925     0.1072
  488.0000   -49.2598    11.5528     9.0657     9.0842    96.7208     7.8919     0.0245     2.4858     0.1109
  488.5000   -49.4395    11.7812     9.0352     9.0658    96.9152     7.8907     0.0122     2.4741     0.1169
  489.0000   -50.0545    11.6637     9.0048     9.0433    97.1077     7.8895    -0.0043     2.4614     0.1267
  489.5000   -50.9532    11.5645     8.9745     9.0209    97.3008     7.8883    -0.0145     2.4503     0.1329
  490.0000   -51.2257    11.5645     8.9443     8.9985    97.4931     7.8871    -0.0079     2.4550     0.1361
  490.5000   -51.2003    11.4321     8.9171     8.9762    97.6856     7.8859     0.0021     2.4618     0.1314
  491.0000   -51.2124    11.1452     8.7650     8.9539    97.8821     7.8847     0.0115     2.4765     0.1209
  491.5000   -51.3239    10.8569     8.6283     8.9318    98.0670     7.8835     0.0212     2.4899     0.1107
  492.0000   -51.4451    10.5761     8.4937     8.8712    98.2739     7.8823     0.0306     2.5052     0.1038
  492.5000   -51.5908    10.3452     8.3612     8.7368  -999.2500     7.8811     0.0391     2.5097     0.0992
  493.0000   -51.3867    10.2205     8.2307     8.6045  -999.2500     7.8798     0.0404     2.5102     0.1000
  493.5000   -50.7216    10.1139     8.1024     8.4742  -999.2500     7.8786     0.0417     2.5102     0.1008
  494.0000   -50.0796    10.0084     7.9759     8.3459  -999.2500     7.8774     0.0432     2.5084     0.1012
