~VERSION INFORMATION
 VERS.                2.0:   CWLS LOG ASCII STANDARD - VERSION 2.0
 WRAP.                 NO:   ONE LINE PER DEPTH STEP
~WELL INFORMATION
#MNEM.UNIT      DATA TYPE    INFORMATION
#----------   ------------   ------------------------------
 STRT.F           25.0000:   START DEPTH
 STOP.F          681.0000:   STOP DEPTH
 STEP.F            0.5000:   STEP LENGTH
 NULL.          -999.2500:   NO VALUE
 COMP. FENIX & SCISSON INC:   COMPANY
 WELL.    56-SX-34 #56-34:   WELL
 FLD .             TEAPOT:   FIELD
 LOC .      S34 T39N R78W:   LOCATION
 CNTY.            NATRONA:   COUNTY
 STAT.            WYOMING:   STATE
 CTRY. UNITED STATES OF AMERICA:   COUNTRY
 SRVC.            Unknown:   SERVICE COMPANY
 DATE.        28-JAN-1979:   LOGDATE
 API .       490251077200:   API NUMBER
~CURVE INFORMATION
#MNEM.UNIT       API CODE    CURVE DESCRIPTION
#----------   ------------   ------------------------------
 DEPT.F                  :   
 SPR .MV     05 010 01 00:   SPONTANEOUS POTENTIAL FROM RES.
 DRHO.G/C3   45 356 01 00:   DENSITY CORRECTION
 RHOB.G/C3   45 350 01 00:   BULK DENSITY
 DPHI.DEC    45 890 12 00:   DENSITY POROSITY SANDSTONE
 CALD.IN     45 280 60 00:   CALIPER
 GRD .GAPI   45 310 01 00:   GAMMA RAY FROM DENSITY LOG
 SN  .OHMM   05 040 16 00:   SHORT NORMAL 16'
 ILD .OHMM   05 120 46 00:   INDUCTION LOG DEEP RESISTIVITY
~PARAMETER INFORMATION
#MNEM.UNIT          VALUE    DESCRIPTION
#----------   ------------   ------------------------------
 PD  .                 GL:   PERMANENT DATUM
 EPD .F              5088:   ELEVATION PERMANENT DATUM
 LMF .                 KB:   LOG MEASURED FROM
 DAPD.F                 4:   FEET ABOVE PERMANENT DATUM
 DMF .                 KB:   DRILLING MEASURED FROM
 EKB .F              5092:   KELLING BUSHING
 EGL .F              5088:   GROUND LEVEL
 DATE.            1-28-79:   RUN DATE
 RUN .                  1:   RUN NUMBER
 DD  .F               680:   DEPTH DRILLER
 DL  .F               681:   DEPTH LOGGER
 BLI .F               679:   BOTTOM LOG INTERVAL
 TLI .F                40:   TOP LOG INTERVAL
 CS  .IN            8.625:   CASING SIZE
 CBD .F                40:   CASING BOTTOM DRILLER
 CBL .F                40:   CASING BOTTOM LOGGER
 BS  .IN            7.875:   BIT SIZE
 BSD .F               680:   BIT SIZE AT DEPTH
 DFT .                KCL:   DRILLING FLUID TYPE
 DFD .                8.9:   DRILLING FLUID DENSITY
 DFV .                 43:   DRILLING FLUID VISCOSITY
 DFPH.                8.5:   DRILLING FLUID PH
 DFL .                9.8:   DRILLING FLUID LOSS
 MSS .           FLOWLINE:   MUD SAMPLE SOURCE
 RMS .OHMM            1.5:   RESISTIVITY MUD SAMPLE
 MST .F                66:   MUD SAMPLE TEMPERATURE
 RMF .OHMM            1.3:   RESISTIVITY MUD FILTRATE SAMPLE
 MFST.F                76:   MUD FILTRATE SAMPLE TEMPERATURE
 RMC .OHMM            1.3:   RESISTIVITY MUD CAKE
 MCST.F                78:   MUD CAKE SAMPLE TEMPERATURE
 MFSS.           MEASURED:   MUD FILTRATE SAMPLE SOURCE
 MCSS.           MEASURED:   MUD CAKE SAMPLE SOURCE
 RMB .OHMM            1.3:   RESISTIVITY MUD AT BHT
 BHT .F                76:   BOTTOM HOLE TEMPERATURE
 TCS .HRS               3:   TIME CURCULATED STOPPED
 MRT .F                76:   MAXIMUM RECORDED TEMPERATURE
 LUN .               3006:   LOGGING UNIT NUMBER
 LUL .             CASPER:   LOGGING UNIT LOCATION
 ENGI.            ROLLINS:   RECORDING ENGINEER
 WITN.              AMEND:   WITNESSED BY
 CLNT.            A2DTECH:   CLIENT CODE
 ORIG.       2", 5" PRINT:   ORIGIN OF DATA
 UWI .       490251077200:   UNIQUE WELL ID
 DICO. A2D Technologies, Inc.:   DIGITIZING COMPANY
~OTHER INFORMATION
~A   DEPT      SPR       DRHO       RHOB       DPHI       CALD         GRD        SN        ILD   
# ...
  146.5000   -41.9317     0.0459     2.4626     0.1353     8.2782    94.6960     7.4012     8.6287
  147.0000   -41.8894     0.0464     2.4536     0.1352     8.2695    92.4303     7.4012     8.6652
  147.5000   -41.8695     0.0472     2.4536     0.1352     8.2565    92.4246     7.4012     8.7019
  148.0000   -41.8548     0.0469     2.4534     0.1351     8.2437    92.5303     7.4011     8.7387
  148.5000   -41.8402     0.0449     2.4532     0.1350     8.2313    94.0995     7.4006     8.7757
  149.0000   -41.8256     0.0430     2.4530     0.1349     8.2256    96.9338     7.4170     8.8228
  149.5000   -41.8111     0.0416     2.4522     0.1358     8.2196    99.4815     7.4451     8.7904
  150.0000   -41.7965     0.0423     2.4468     0.1389     8.2135    98.7064     7.4739     8.7292
  150.5000   -41.7819     0.0437     2.4417     0.1393     8.2074    96.7724     7.5026     8.6641
  151.0000   -41.7673     0.0450     2.4408     0.1373     8.2014    98.1914     7.5314     8.7388
  151.5000   -41.7527     0.0463     2.4463     0.1337     8.1952   101.2381     7.5604     8.7617
  152.0000   -41.7381     0.0476     2.4607     0.1302     8.1973   101.2826     7.5895     8.7877
  152.5000   -41.7235     0.0473     2.4656     0.1266     8.2037   100.8479     7.6186     8.8129
  153.0000   -41.7089     0.0469     2.4701     0.1243     8.2101   100.4293     7.6479     8.8379
  153.5000   -41.6943     0.0465     2.4742     0.1238     8.2090    98.9799     7.6773     8.8631
  154.0000   -41.6797     0.0461     2.4749     0.1233     8.2028    97.3077     7.7068     8.8883
  154.5000   -41.6651     0.0457     2.4757     0.1229     8.1964    97.2308     7.7365     8.9135
  155.0000   -41.6505     0.0456     2.4765     0.1234     8.2190   100.3854     7.7662     8.9388
  155.5000   -41.6359     0.0456     2.4769     0.1249     8.2672   101.4084     7.7955     8.9642
  156.0000   -41.6213     0.0456     2.4706     0.1289     8.2776   102.3861     7.8257     8.9875
  156.5000   -41.6067     0.0456     2.4634     0.1317     8.2491   101.0696     7.7061     8.8451
  157.0000   -41.5921     0.0479     2.4561     0.1331     8.2207    99.0385     7.5470     8.7170
  157.5000   -41.5775     0.0507     2.4554     0.1337     8.1935    98.5367     7.3911     8.5904
  158.0000   -41.5629     0.0534     2.4560     0.1337     8.1862   100.8469     7.2380     8.4654
  158.5000   -41.5483     0.0558     2.4566     0.1337     8.1799   103.3110     7.0883     8.3424
  159.0000   -41.5337     0.0551     2.4551     0.1352     8.1741   104.6523     6.9362     8.2211
  159.5000   -41.5191     0.0544     2.4501     0.1365     8.1533   102.2676     6.9379     8.1650
  160.0000   -41.5045     0.0536     2.4491     0.1346     8.1280    99.7585     6.9305     8.1280
  160.5000   -41.4894     0.0585     2.4520     0.1320     8.1021    99.2360     6.9244     8.0912
  161.0000   -41.4853     0.0656     2.4564     0.1301     8.0751    98.7269     6.9185     8.0546
  161.5000   -41.4851     0.0673     2.4576     0.1333     8.0899    96.7159     6.9126     8.0181
  162.0000   -41.4851     0.0661     2.4546     0.1341     8.1124    95.3801     6.9067     7.9818
  162.5000   -41.4851     0.0648     2.4530     0.1331     8.1331    95.0035     6.9008     7.9456
  163.0000   -41.4851     0.0633     2.4578     0.1305     8.1371    94.9728     6.8949     7.9096
  163.5000   -41.4851     0.0612     2.4627     0.1281     8.1409    96.9644     6.8889     7.8962
  164.0000   -41.4851     0.0591     2.4677     0.1283     8.1447    97.3120     6.8830     7.9575
  164.5000   -41.4851     0.0576     2.4667     0.1286     8.1485    97.3676     6.8766     8.0083
  165.0000   -41.4851     0.0577     2.4657     0.1289     8.1524    99.2132     6.8736     8.0593
  165.5000   -41.4851     0.0577     2.4653     0.1292     8.1340    99.9980     6.9922     8.1107
  166.0000   -41.4851     0.0577     2.4649     0.1273     8.0996    97.0498     7.0959     8.1624
  166.5000   -41.4851     0.0577     2.4672     0.1257     8.0639    93.1386     7.2012     8.2145
  167.0000   -41.4851     0.0576     2.4699     0.1257     8.0710    92.2475     7.3080     8.2669
  167.5000   -41.4851     0.0558     2.4707     0.1268     8.1043    92.7113     7.4164     8.3196
  168.0000   -41.4851     0.0523     2.4660     0.1283     8.1128    93.3721     7.5264     8.3727
  168.5000   -41.4851     0.0481     2.4619     0.1286     8.0955    91.6428     7.6381     8.4242
  169.0000   -41.4851     0.0438     2.4638     0.1259     8.0788    91.5024     7.7263     8.6994
  169.5000   -41.4851     0.0437     2.4706     0.1220     8.0345    89.5267     7.8005     8.9739
  170.0000   -41.4851     0.0439     2.4776     0.1201     7.9856    87.8817     7.8754     9.2570
  170.5000   -41.4851     0.0441     2.4784     0.1208     7.9908    88.8123     7.9511     9.5003
  171.0000   -41.4851     0.0443     2.4792     0.1215     7.9731    88.0026     7.9695     9.4592
  171.5000   -41.4851     0.0445     2.4801     0.1231     7.9437    86.4395     7.9695     9.3854
  172.0000   -41.4851     0.0447     2.4733     0.1267     7.9942    84.8383     7.9408     9.3124
  172.5000   -41.4851     0.0449     2.4625     0.1315     8.0931    83.9688     7.8855     9.2398
  173.0000   -41.4851     0.0450     2.4550     0.1329     8.0843    92.6214     7.8306     9.1678
  173.5000   -41.4851     0.0452     2.4553     0.1327     8.0632    96.6888     7.7105     9.0964
  174.0000   -41.4851     0.0455     2.4557     0.1325     8.0424    98.0850     7.5826     8.9386
  174.5000   -41.4851     0.0457     2.4549     0.1323     8.0537    99.2610     7.4568     8.7380
  175.0000   -41.4851     0.0498     2.4554     0.1321     8.0987    98.6163     7.3331     8.5419
  175.5000   -41.4851     0.0578     2.4644     0.1265     8.1441    96.4063     7.3983     8.4030
  176.0000   -41.4851     0.0638     2.4739     0.1214     8.1448    94.2910     7.4642     8.3486
  176.5000   -41.4851     0.0629     2.4834     0.1193     8.1308    93.1421     7.5306     8.2947
  177.0000   -41.4851     0.0621     2.4861     0.1189     8.1164    95.4348     7.5976     8.2698
  177.5000   -41.4851     0.0603     2.4836     0.1217     8.1020    98.2114     7.6652     8.4512
  178.0000   -41.4851     0.0530     2.4706     0.1275     8.0875   100.9555     7.7334     8.6151
  178.5000   -41.4851     0.0459     2.4645     0.1292     8.0746   101.0053     7.8022     8.7820
  179.0000   -41.4851     0.0439     2.4637     0.1298     8.1024    99.8661     7.8717     8.9516
  179.5000   -41.4851     0.0417     2.4631     0.1301     8.1346    98.3806     7.9386     9.1263
  180.0000   -41.4851     0.0397     2.4624     0.1294     8.1530    94.4678     8.0044     9.3789
  180.5000   -41.4851     0.0418     2.4618     0.1283     8.1377    91.8609     8.0708     9.6538
  181.0000   -41.4851     0.0462     2.4636     0.1271     8.0559    97.9807     8.1377     9.7675
  181.5000   -41.4851     0.0506     2.4668     0.1260     8.0662    97.0931     8.1937     9.6081
  182.0000   -41.4851     0.0550     2.4699     0.1249     8.1209    95.6070     8.0723     9.4487
  182.5000   -41.4851     0.0578     2.4728     0.1241     8.1048    94.9425     7.9440     9.2920
  183.0000   -41.4851     0.0581     2.4732     0.1252     8.0540    96.3621     7.8177     9.1274
  183.5000   -41.4851     0.0584     2.4694     0.1291     8.0027    96.0600     7.6934     8.8869
  184.0000   -41.4851     0.0587     2.4615     0.1309     8.0030    94.1430     7.5711     8.6527
  184.5000   -41.4851     0.0590     2.4579     0.1309     8.0528    96.6947     7.4510     8.4247
  185.0000   -41.4851     0.0593     2.4578     0.1304     8.0289    99.0159     7.3328     8.3466
  185.5000   -41.4851     0.0596     2.4611     0.1288     7.9735    97.3138     7.2645     8.3466
  186.0000   -41.4851     0.0588     2.4655     0.1271     7.8756    96.3372     7.3213     8.3466
  186.5000   -41.4851     0.0576     2.4690     0.1269     7.7776    96.3375     7.4123     8.3466
