~VERSION INFORMATION
 VERS.                2.0:   CWLS LOG ASCII STANDARD - VERSION 2.0
 WRAP.                 NO:   ONE LINE PER DEPTH STEP
~WELL INFORMATION
#MNEM.UNIT      DATA TYPE    INFORMATION
#----------   ------------   ------------------------------
 STRT.F           24.5000:   START DEPTH
 STOP.F          506.0000:   STOP DEPTH
 STEP.F            0.5000:   STEP LENGTH
 NULL.          -999.2500:   NO VALUE
 COMP. FENIX & SCISSON INC:   COMPANY
 WELL.    NPR 3 SX #44-10:   WELL
 FLD .        TEAPOT DOME:   FIELD
 LOC .      S10 T38N R78W:   LOCATION
 CNTY.            NATRONA:   COUNTY
 STAT.            WYOMING:   STATE
 CTRY. UNITED STATES OF AMERICA:   COUNTRY
 SRVC.           BIRDWELL:   SERVICE COMPANY
 DATE.        14-NOV-1978:   LOGDATE
 API .       490251074700:   API NUMBER
~CURVE INFORMATION
#MNEM.UNIT       API CODE    CURVE DESCRIPTION
#----------   ------------   ------------------------------
 DEPT.F                  :   
 SPR .MV     05 010 01 00:   SPONTANEOUS POTENTIAL FROM RES.
 IL  .OHMM   05 120 00 00:   INDUCTION LOG
 SN  .OHMM   05 040 16 00:   SHORT NORMAL 16"
 CALD.IN     45 280 60 00:   CALIPER
 GRD .GAPI   45 310 01 00:   GAMMA RAY FROM DENSITY LOG
 RHOB.G/C3   45 350 01 00:   BULK DENSITY
 DPHI.DEC    45 890 12 00:   DENSITY POROSITY SANDSTONE
 DRHO.G/C3   45 356 01 00:   DENSITY CORRECTION
~PARAMETER INFORMATION
#MNEM.UNIT          VALUE    DESCRIPTION
#----------   ------------   ------------------------------
 PD  .                 GL:   PERMANENT DATUM
 EPD .F              5211:   ELEVATION PERMANENT DATUM
 LMF .                 KB:   LOG MEASURED FROM
 DAPD.F                 4:   FEET ABOVE PERMANENT DATUM
 DMF .                 KB:   DRILLING MEASURED FROM
 EKB .F              5215:   KELLING BUSHING
 EGL .F              5211:   GROUND LEVEL
 DATE.           11-14-78:   RUN DATE
 RUN .                  1:   RUN NUMBER
 DD  .F               510:   DEPTH DRILLER
 DL  .F               506:   DEPTH LOGGER
 BLI .F               500:   BOTTOM LOG INTERVAL
 TLI .F                45:   TOP LOG INTERVAL
 CS  .IN            8.625:   CASING SIZE
 CBD .F                40:   CASING BOTTOM DRILLER
 CBL .F                40:   CASING BOTTOM LOGGER
 BS  .IN            7.875:   BIT SIZE
 BSD .F               510:   BIT SIZE AT DEPTH
 DFT .            SEA MUD:   DRILLING FLUID TYPE
 DFD .                8.7:   DRILLING FLUID DENSITY
 DFV .                 35:   DRILLING FLUID VISCOSITY
 DFPH.               10.5:   DRILLING FLUID PH
 MSS .            MUD PIT:   MUD SAMPLE SOURCE
 RMS .OHMM            .51:   RESISTIVITY MUD SAMPLE
 MST .F                54:   MUD SAMPLE TEMPERATURE
 RMF .OHMM            .45:   RESISTIVITY MUD FILTRATE SAMPLE
 MFST.F                54:   MUD FILTRATE SAMPLE TEMPERATURE
 RMC .OHMM             .5:   RESISTIVITY MUD CAKE
 MCST.F                60:   MUD CAKE SAMPLE TEMPERATURE
 MFSS.           MEASURED:   MUD FILTRATE SAMPLE SOURCE
 MCSS.           MEASURED:   MUD CAKE SAMPLE SOURCE
 RMB .OHMM            .49:   RESISTIVITY MUD AT BHT
 BHT .F                56:   BOTTOM HOLE TEMPERATURE
 TCS .HRS               2:   TIME CURCULATED STOPPED
 MRT .F                56:   MAXIMUM RECORDED TEMPERATURE
 LUN .               2958:   LOGGING UNIT NUMBER
 LUL .               CASP:   LOGGING UNIT LOCATION
 ENGI.             MILLER:   RECORDING ENGINEER
 WITN.           DINSMORE:   WITNESSED BY
 CLNT.            A2DTECH:   CLIENT CODE
 ORIG.       2", 5" PRINT:   ORIGIN OF DATA
 UWI .       490251074700:   UNIQUE WELL ID
 DICO. A2D Technologies, Inc.:   DIGITIZING COMPANY
~OTHER INFORMATION
~A   DEPT      SPR         IL         SN       CALD         GRD      RHOB       DPHI       DRHO   
# ...
  308.0000   -19.5710    26.6700    25.3990     7.8260    64.0380     2.3650     0.1870     0.0180
  308.5000   -19.3850    26.8020    25.4170     7.8160    64.2820     2.3600     0.1910     0.0190
  309.0000   -19.2000    26.9750    25.4370     7.8200    64.4250     2.3540     0.1960     0.0190
  309.5000   -19.0170    27.1850    25.5820     7.8790    63.9690     2.3480     0.1880     0.0180
  310.0000   -18.9530    27.3950    25.7270     7.9390    62.9370     2.3800     0.1670     0.0140
  310.5000   -19.1890    27.6170    25.8720     7.9980    60.8680     2.4140     0.1460     0.0070
  311.0000   -19.4190    27.6420    26.0170     8.0580    58.8100     2.4480     0.1250     0.0030
  311.5000   -19.6610    27.6760    26.1620     8.0690    56.7540     2.4700     0.1200     0.0020
  312.0000   -19.0390    27.7110    26.3070     8.0690    55.1120     2.4790     0.1190     0.0020
  312.5000   -19.0420    27.7450    26.3920     8.0680    56.6820     2.4410     0.1530     0.0010
  313.0000   -22.5460    27.7790    26.4280     8.0670    58.6840     2.4080     0.1870     0.0000
  313.5000   -19.4860    27.8140    26.4630     8.0670    59.9580     2.3760     0.2010    -0.0010
  314.0000   -19.7470    27.8480    26.4990     8.0660    60.1230     2.3430     0.2100    -0.0010
  314.5000   -20.1920    27.8820    26.5350     8.0650    61.1000     2.3150     0.2190    -0.0020
  315.0000   -20.5780    27.9170    26.5700     8.0650    61.9470     2.3060     0.2250    -0.0020
  315.5000   -20.6950    27.9510    26.6060     8.0640    62.0550     2.3060     0.2170    -0.0020
  316.0000   -19.2900    27.9850    26.6410     8.0630    62.8460     2.3380     0.1960    -0.0020
  316.5000   -18.0900    28.0200    26.6770     8.0630    63.6850     2.3620     0.1770    -0.0030
  317.0000   -18.4190    28.0540    26.7130     8.0620    63.8900     2.3790     0.1760    -0.0020
  317.5000   -18.7260    28.0890    26.7480     8.0610    63.7590     2.3660     0.1850     0.0000
  318.0000   -19.0270    28.1310    26.7840     8.0610    63.6220     2.3520     0.1940     0.0030
  318.5000   -19.1320    28.1120    26.8200     8.0600    63.4840     2.3370     0.2040     0.0050
  319.0000   -19.1900    28.0600    26.8550     8.0590    63.3400     2.3470     0.1910     0.0080
  319.5000   -19.2470    28.0080    26.8910     8.0590    63.5000     2.3720     0.1760     0.0110
  320.0000   -19.2940    27.9570    26.9260     8.0580    63.9460     2.3960     0.1610     0.0130
  320.5000   -19.4280    27.9050    26.9620     8.0570    64.9610     2.4210     0.1470     0.0110
  321.0000   -19.6560    27.8540    26.9980     8.0560    65.4400     2.4510     0.1250     0.0090
  321.5000   -19.8830    27.8020    27.0340     8.0560    65.1850     2.4870     0.1040     0.0080
  322.0000   -20.1130    27.7510    27.0690     8.0550    64.8310     2.5230     0.0830     0.0060
  322.5000   -20.3410    27.6990    27.1120     8.0540    64.5110     2.5760     0.0660     0.0070
  323.0000   -20.5660    27.6480    26.5450     8.0540    64.5130     2.5600     0.0740     0.0100
  323.5000   -21.2960    27.4440    25.8280     8.0530    65.2540     2.5240     0.0920     0.0140
  324.0000   -23.3250    26.5540    25.1110     8.0520    67.3910     2.4880     0.1260     0.0140
  324.5000   -21.0220    25.6640    24.3940     8.0520    69.2820     2.4520     0.1640     0.0110
  325.0000   -20.6820    24.7740    23.6770     8.0510    69.5040     2.4160     0.1720     0.0090
  325.5000   -21.1310    23.8840    22.9610     8.0510    69.6840     2.3910     0.1660     0.0090
  326.0000   -21.4140    22.9940    22.2440     8.0250    69.8680     2.3990     0.1580     0.0090
  326.5000   -20.8130    22.1040    21.5310     8.0140    70.0580     2.4160     0.1500     0.0080
  327.0000   -20.2340    21.9320    21.2690     8.0030    70.1200     2.4320     0.1420     0.0080
  327.5000   -22.0860    21.9320    21.0090     7.9920    72.0460     2.4450     0.1390     0.0070
  328.0000   -20.3530    21.9320    20.7510     7.9800    74.1980     2.4480     0.1400     0.0070
  328.5000   -18.9580    21.9320    20.7510     7.9680    74.3240     2.4450     0.1430     0.0070
  329.0000   -20.2520    21.9320    20.7510     7.9550    74.5170     2.4380     0.1470     0.0060
  329.5000   -21.0250    21.9320    20.7510     7.9420    75.7830     2.4320     0.1500     0.0060
  330.0000   -21.3380    21.9320    20.7510     7.9290    77.1860     2.4280     0.1530     0.0050
  330.5000   -21.3890    21.9320    20.7510     7.9160    77.1090     2.4240     0.1570     0.0050
  331.0000   -21.4390    21.9320    20.7510     7.9030    76.6210     2.4170     0.1600     0.0050
  331.5000   -21.4870    21.9320    20.7510     7.8900    76.7090     2.4080     0.1630     0.0040
  332.0000   -21.5360    21.9320    20.7510     7.8770    77.4010     2.4020     0.1660     0.0040
  332.5000   -21.5840    21.9320    20.7510     7.8640    78.0750     2.4010     0.1670     0.0030
  333.0000   -21.6330    21.9320    20.7510     7.8500    77.4210     2.4000     0.1680     0.0030
  333.5000   -21.6820    21.9320    20.7510     7.8370    76.2070     2.3980     0.1690     0.0030
  334.0000   -21.7760    21.9780    20.7510     7.8240    76.1060     2.3950     0.1700     0.0020
  334.5000   -22.0510    22.0860    20.7500     7.8110    76.8030     2.3930     0.1710     0.0020
  335.0000   -22.3780    22.1940    20.7470     7.7980    77.4370     2.3920     0.1710     0.0020
  335.5000   -24.0160    22.3010    20.8760     7.7900    76.2070     2.3930     0.1700     0.0040
  336.0000   -24.6260    22.5570    21.0230     7.8020    75.0660     2.3930     0.1690     0.0060
  336.5000   -23.8860    23.0460    21.1710     7.8340    75.0910     2.3930     0.1670     0.0090
  337.0000   -23.2960    23.6100    21.3190     7.8650    75.0950     2.3970     0.1600     0.0110
  337.5000   -23.2290    23.5020    21.4670     7.8960    74.7090     2.4220     0.1380     0.0140
  338.0000   -23.1520    23.3360    21.6150     7.9280    73.7020     2.4500     0.1160     0.0140
  338.5000   -23.0710    23.1690    21.7630     7.9590    72.7730     2.4780     0.0940     0.0120
  339.0000   -22.9920    23.0030    21.9100     7.9900    72.2790     2.5070     0.0800     0.0090
  339.5000   -22.9630    22.8360    21.9320     8.0220    71.3840     2.5350     0.0710     0.0060
  340.0000   -23.1190    22.6700    21.7900     8.0530    68.8300     2.5630     0.0620     0.0040
  340.5000   -23.2720    22.3690    21.5750     8.0850    67.8710     2.5800     0.0520     0.0010
  341.0000   -23.4230    21.6900    21.3590     8.0900    69.8930     2.5870     0.0680     0.0020
  341.5000   -23.5380    21.0100    21.1440     8.0910    72.1420     2.5560     0.0860     0.0020
  342.0000   -23.4560    20.3310    20.9440     8.0920    73.1410     2.5210     0.1050     0.0020
  342.5000   -23.3640    19.6510    20.4740     8.0920    73.3370     2.4860     0.1240     0.0020
  343.0000   -23.2710    18.9720    20.0350     8.0930    73.1120     2.4510     0.1430     0.0030
  343.5000   -23.1790    18.2920    19.5950     8.0940    72.8910     2.4270     0.1620     0.0030
  344.0000   -23.1650    18.0460    19.1550     8.0950    72.9900     2.4080     0.1690     0.0030
  344.5000   -23.8270    18.0080    18.7500     8.0950    74.2930     2.3920     0.1750     0.0030
  345.0000   -24.4740    17.9700    18.6120     8.0960    75.4630     2.3840     0.1780     0.0030
  345.5000   -24.9580    17.9320    18.4550     8.0970    75.2780     2.3790     0.1790     0.0040
  346.0000   -24.9660    17.9050    18.2970     8.0970    75.0660     2.3770     0.1800     0.0040
  346.5000   -26.1820    17.8100    18.1400     8.0980    75.0200     2.3770     0.1820     0.0040
  347.0000   -27.5560    17.6120    17.9830     8.0990    75.5370     2.3760     0.1790     0.0040
  347.5000   -28.5530    17.4140    17.8250     8.0990    76.0370     2.3830     0.1710     0.0050
  348.0000   -26.4710    17.2170    17.6680     8.1000    76.2090     2.3960     0.1630     0.0050
