~VERSION INFORMATION
 VERS.                2.0:   CWLS LOG ASCII STANDARD - VERSION 2.0
 WRAP.                 NO:   ONE LINE PER DEPTH STEP
~WELL INFORMATION
#MNEM.UNIT      DATA TYPE    INFORMATION
#----------   ------------   ------------------------------
 STRT.F            2.0000:   START DEPTH
 STOP.F          548.0000:   STOP DEPTH
 STEP.F            0.1000:   STEP LENGTH
 NULL.          -999.2500:   NO VALUE
 COMP.       F D SERV INC:   COMPANY
 WELL. NAVAL PETROLEUM RESERVE 3 SX-3 #88-10-3:   WELL
 FLD .             TEAPOT:   FIELD
 LOC .       S3 T38N R78W:   LOCATION
 CNTY.            NATRONA:   COUNTY
 STAT.            WYOMING:   STATE
 CTRY. UNITED STATES OF AMERICA:   COUNTRY
 SRVC.     Atlas Wireline:   SERVICE COMPANY
 DATE.        19-OCT-1992:   LOGDATE
 API .       490252254600:   API NUMBER
~CURVE INFORMATION
#MNEM.UNIT       API CODE    CURVE DESCRIPTION
#----------   ------------   ------------------------------
 DEPT.F                  :   
 GRR .GAPI   07 310 01 00:   GAMMA RAY
 ILD .OHMM   07 120 46 00:   INDUCTION LOG DEEP
 ILM .OHMM   07 120 44 00:   INDUCTION LOG MEDIUM
~PARAMETER INFORMATION
#MNEM.UNIT          VALUE    DESCRIPTION
#----------   ------------   ------------------------------
 PD  .                 GL:   PERMANENT DATUM
 EPD .F              5126:   ELEVATION PERMANENT DATUM
 LMF .                 KB:   LOG MEASURED FROM
 DAPD.F                10:   FEET ABOVE PERMANENT DATUM
 DMF .                 KB:   DRILLING MEASURED FROM
 EKB .F              5136:   KELLING BUSHING
 EDF .F              5135:   DRILLING FLOOR
 EGL .F              5126:   GROUND LEVEL
 DATE.        19-OCT-1992:   RUN DATE
 RUN .                  1:   RUN NUMBER
 DD  .F               566:   DEPTH DRILLER
 DL  .F               558:   DEPTH LOGGER
 BLI .F               550:   BOTTOM LOG INTERVAL
 TLI .F                98:   TOP LOG INTERVAL
 CS  .IN            8.625:   CASING SIZE
 CBD .F                85:   CASING BOTTOM DRILLER
 CBL .F                98:   CASING BOTTOM LOGGER
 BS  .IN            7.875:   BIT SIZE
 BSD .F               566:   BIT SIZE AT DEPTH
 DFT .           AIR FOAM:   DRILLING FLUID TYPE
 TCS .HRS               2:   TIME CURCULATED STOPPED
 MRT .F                73:   MAXIMUM RECORDED TEMPERATURE
 LUN .            HL-6274:   LOGGING UNIT NUMBER
 LUL .             CASPER:   LOGGING UNIT LOCATION
 ENGI.             RAUTIO:   RECORDING ENGINEER
 WITN.        GARY STRONG:   WITNESSED BY
 CLNT.            A2DTECH:   CLIENT CODE
 ORIG.           5" PRINT:   ORIGIN OF DATA
 UWI .       490252254600:   UNIQUE WELL ID
 DICO. A2D Technologies, Inc.:   DIGITIZING COMPANY
~OTHER INFORMATION
~A    DEPT     GRR        ILD        ILM   
# ...
  147.6000   112.5649    11.4114    11.5301
  147.7000   111.7823    11.4672    11.5953
  147.8000   109.7366    11.5318    11.6608
  147.9000   109.5361    11.5705    11.7267
  148.0000   109.4303    11.5700    11.7930
  148.1000   109.5962    11.5695    11.8082
  148.2000   110.1378    11.6301    11.8438
  148.3000   111.2428    11.6496    11.9107
  148.4000   112.0977    11.6796    11.9738
  148.5000   112.9212    11.7454    11.9736
  148.6000   113.5568    11.8120    11.9734
  148.7000   114.0459    11.8115    12.0134
  148.8000   114.5672    11.8618    12.0570
  148.9000   114.1068    11.8933    12.0568
  149.0000   113.9576    11.8928    12.0566
  149.1000   113.9558    11.8923    12.0565
  149.2000   113.8974    11.8917    12.0563
  149.3000   113.6491    11.8913    12.0562
  149.4000   113.8917    11.8908    12.0560
  149.5000   114.5091    11.8903    12.0558
  149.6000   115.1144    11.8898    11.9917
  149.7000   115.6752    11.8892    11.9716
  149.8000   116.4097    11.8888    11.9714
  149.9000   117.2742    11.8883    11.9713
  150.0000   117.8788    11.8878    11.9711
  150.1000   118.4689    11.8875    11.9704
  150.2000   118.9580    11.8871    11.9698
  150.3000   119.4470    11.8499    11.9691
  150.4000   119.9925    11.8038    11.9684
  150.5000   120.4253    11.8034    11.9678
  150.6000   121.0740    11.8031    11.9671
  150.7000   121.7065    11.8028    11.9664
  150.8000   122.1511    11.8024    11.9657
  150.9000   122.4078    11.8021    11.9651
  151.0000   121.9414    11.8018    11.9644
  151.1000   121.2740    11.8014    11.9637
  151.2000   120.6530    11.8011    11.9631
  151.3000   120.2794    11.8008    11.9624
  151.4000   120.2776    11.8005    11.9617
  151.5000   120.2758    11.8001    11.9610
  151.6000   120.4639    11.7998    11.9604
  151.7000   120.5752    11.7994    11.9597
  151.8000   120.6481    11.7991    11.9591
  151.9000   120.8747    11.7988    11.9452
  152.0000   120.8724    11.7985    11.8745
  152.1000   120.8709    11.7881    11.8087
  152.2000   120.8691    11.7157    11.7906
  152.3000   120.8673    11.7154    11.7899
  152.4000   120.8331    11.7151    11.7700
  152.5000   120.5604    11.6835    11.7066
  152.6000   120.5588    11.6329    11.7058
  152.7000   120.5570    11.6326    11.7053
  152.8000   120.4501    11.6323    11.6642
  152.9000   120.1554    11.6319    11.6225
  153.0000   119.6423    11.6316    11.6219
  153.1000   119.4053    11.6313    11.6212
  153.2000   119.1580    11.6310    11.5593
  153.3000   118.7905    11.6306    11.5391
  153.4000   118.2978    11.5719    11.5073
  153.5000   117.8000    11.5491    11.4575
  153.6000   117.0618    11.5487    11.4568
  153.7000   116.3236    11.5484    11.4562
  153.8000   115.7208    11.5481    11.4556
  153.9000   115.3059    11.5478    11.4179
  154.0000   115.0788    11.4982    11.3746
  154.1000   115.0767    11.4668    11.3739
  154.2000   114.8671    11.4276    11.3732
  154.3000   114.7703    11.3071    11.3727
  154.4000   114.7685    11.3067    11.3720
  154.5000   114.7667    11.2522    11.3714
  154.6000   114.7647    11.2275    11.3572
  154.7000   114.9863    11.2272    11.2910
  154.8000   115.2299    11.2162    11.2904
  154.9000   115.3655    11.1484    11.2897
  155.0000   115.4141    11.1481    11.2891
  155.1000   115.6648    11.1478    11.2885
  155.2000   115.9014    11.1475    11.2879
  155.3000   115.9642    11.1307    11.2871
  155.4000   116.0857    11.0671    11.2320
  155.5000   116.3293    10.9919    11.1677
  155.6000   116.5729    10.9917    11.1288
  155.7000   116.8166    10.9914    11.1282
  155.8000   117.0602    10.9689    11.1275
  155.9000   117.3038    10.9143    11.0672
  156.0000   117.6283    10.9139    11.0489
  156.1000   118.0711    10.9137    11.0483
  156.2000   118.0688    10.9133    11.0477
  156.3000   118.0673    10.8853    11.0471
  156.4000   117.9119    10.8368    11.0463
  156.5000   117.6646    10.8365    10.9948
  156.6000   117.4174    10.7750    10.9318
  156.7000   117.1508    10.7135    10.8691
  156.8000   116.4703    10.6524    10.8068
  156.9000   115.7321    10.6107    10.7391
  157.0000   115.2161    10.6104    10.7386
  157.1000   115.0224    10.6100    10.7380
  157.2000   115.0206    10.6098    10.7374
  157.3000   115.0188    10.6095    10.7368
  157.4000   115.0170    10.6092    10.7362
  157.5000   115.1414    10.6089    10.7356
  157.6000   115.3850    10.6086    10.7350
  157.7000   115.6287    10.6083    10.7344
  157.8000   115.9184    10.6080    10.7338
  157.9000   115.9170    10.6077    10.7332
  158.0000   116.1980    10.6074    10.7325
  158.1000   116.6871    10.6071    10.7320
  158.2000   117.1499    10.6068    10.7314
  158.3000   117.4246    10.6065    10.7308
  158.4000   117.8513    10.6062    10.7302
  158.5000   118.3404    10.6059    10.7296
  158.6000   118.9285    10.6056    10.7290
  158.7000   119.6217    10.6053    10.7284
  158.8000   120.1429    10.6050    10.7278
  158.9000   120.1412    10.6047    10.7272
  159.0000   120.1394    10.6044    10.7266
  159.1000   120.0234    10.6041    10.7259
  159.2000   119.7762    10.6039    10.7254
  159.3000   119.5279    10.6036    10.7248
  159.4000   119.2816    10.6033    10.7242
  159.5000   118.8475    10.6030    10.7236
  159.6000   118.4840    10.6027    10.7229
  159.7000   118.0216    10.6024    10.6661
  159.8000   116.9389    10.6020    10.6472
  159.9000   113.7591    10.6018    10.6466
  160.0000   113.5556    10.6015    10.6312
  160.1000   113.3083    10.5755    10.5702
  160.2000   113.2347    10.5271    10.5096
  160.3000   113.5369    10.5268    10.4966
  160.4000   114.3562    10.5265    10.4960
  160.5000   115.0061    10.4816    10.4752
  160.6000   115.7406    10.4218    10.4218
  160.7000   116.4752    10.3623    10.4212
  160.8000   117.2097    10.3072    10.4206
  160.9000   117.9835    10.3068    10.3810
  161.0000   118.2141    10.2573    10.3470
  161.1000   118.6325    10.2346    10.3222
  161.2000   119.1216    10.1892    10.2023
  161.3000   119.6107    10.0828    10.1450
  161.4000   120.0978    10.0216    10.1302
  161.5000   120.3414    10.0213    10.0993
  161.6000   120.5851     9.9807    10.0586
  161.7000   120.6964     9.9510    10.0580
  161.8000   120.9188     9.9362    10.0574
  161.9000   121.6019     9.8812    10.0569
  162.0000   121.2967     9.8809    10.0563
  162.1000   120.6800     9.8807    10.0558
  162.2000   119.9419     9.8804    10.0552
  162.3000   119.3834     9.8999    10.0546
  162.4000   119.1038     9.9491    10.0541
  162.5000   118.5604     9.9488    10.0535
  162.6000   118.3386     9.9485    10.0530
  162.7000   117.7661     9.9864    10.0524
  162.8000   117.2380    10.0177    10.0519
  162.9000   117.0382    10.0174    10.0512
  163.0000   117.0363    10.0171    10.0507
  163.1000   116.7992    10.0168    10.0502
  163.2000   116.5519    10.0165    10.0496
  163.3000   116.3046    10.0163    10.0490
  163.4000   116.1200    10.0160    10.0484
  163.5000   116.1182    10.0157    10.0479
  163.6000   116.1164    10.0154    10.0088
  163.7000   115.9216     9.9663     9.9769
  163.8000   115.8097     9.9452     9.9763
  163.9000   115.7301     9.9220     9.9758
  164.0000   115.4627     9.8653     9.9752
  164.1000   114.8949     9.8064     9.9747
  164.2000   114.2690     9.8061     9.9433
  164.3000   113.5309     9.8059     9.9041
  164.4000   112.5139     9.7778     9.9036
  164.5000   111.1101     9.7371     9.9030
  164.6000   110.0374     9.7368     9.9025
  164.7000   109.3661     9.7365     9.8661
  164.8000   109.2905     9.6909     9.8325
  164.9000   109.5341     9.6683     9.8319
  165.0000   109.7778     9.6478     9.8314
  165.1000   110.0284     9.5927     9.7773
  165.2000   110.7419     9.5334     9.7619
  165.3000   111.6572     9.5331     9.7333
  165.4000   112.5139     9.4956     9.6775
  165.5000   113.3141     9.4662     9.6249
  165.6000   114.2941     9.4660     9.6243
  165.7000   115.2741     9.4657     9.5787
