~VERSION INFORMATION
 VERS.                2.0:   CWLS LOG ASCII STANDARD - VERSION 2.0
 WRAP.                 NO:   ONE LINE PER DEPTH STEP
~WELL INFORMATION
#MNEM.UNIT      DATA TYPE    INFORMATION
#----------   ------------   ------------------------------
 STRT.F           20.0000:   START DEPTH
 STOP.F          632.0000:   STOP DEPTH
 STEP.F            0.5000:   STEP LENGTH
 NULL.          -999.2500:   NO VALUE
 COMP. FENIX & SCISSON INC:   COMPANY
 WELL.    58 SX 34 #34-34:   WELL
 FLD .             TEAPOT:   FIELD
 LOC .      S34 T39N R78W:   LOCATION
 CNTY.            NATRONA:   COUNTY
 STAT.            WYOMING:   STATE
 CTRY. UNITED STATES OF AMERICA:   COUNTRY
 SRVC.            Unknown:   SERVICE COMPANY
 DATE.        30-JAN-1979:   LOGDATE
 API .       490251077300:   API NUMBER
~CURVE INFORMATION
#MNEM.UNIT       API CODE    CURVE DESCRIPTION
#----------   ------------   ------------------------------
 DEPT.F                  :   
 SPR .MV     05 010 01 00:   SPONTANEOUS POTENTIAL FROM RES.
 SN  .OHMM   05 040 16 00:   SHORT NORMAL 16"
 ILD .OHMM   05 120 46 00:   INDUCTION LOG DEEP
 CALD.IN     45 280 60 00:   CALIPER
 CORR.G/C3   45 356 01 00:   DENSITY CORRECTION
 RHOB.G/C3   45 350 01 00:   BULK DENSITY
 GRD .GAPI   45 310 01 00:   GAMMA RAY FROM DENSITY LOG
 DPHI.DEC    45 890 12 00:   DENSITY POROSITY SANDSTONE
~PARAMETER INFORMATION
#MNEM.UNIT          VALUE    DESCRIPTION
#----------   ------------   ------------------------------
 PD  .                 GL:   PERMANENT DATUM
 LMF .                 KB:   LOG MEASURED FROM
 DAPD.F                 4:   FEET ABOVE PERMANENT DATUM
 DMF .                 KB:   DRILLING MEASURED FROM
 DATE.            1-30-79:   RUN DATE
 RUN .                  1:   RUN NUMBER
 DD  .F               635:   DEPTH DRILLER
 DL  .F               632:   DEPTH LOGGER
 BLI .F               626:   BOTTOM LOG INTERVAL
 TLI .F                35:   TOP LOG INTERVAL
 CS  .IN            8.625:   CASING SIZE
 CBD .F                40:   CASING BOTTOM DRILLER
 CBL .F                35:   CASING BOTTOM LOGGER
 BS  .IN            7.875:   BIT SIZE
 BSD .F               635:   BIT SIZE AT DEPTH
 DFT .                KCL:   DRILLING FLUID TYPE
 DFD .                8.9:   DRILLING FLUID DENSITY
 DFV .                230:   DRILLING FLUID VISCOSITY
 DFPH.                  8:   DRILLING FLUID PH
 DFL .                 30:   DRILLING FLUID LOSS
 MSS .           FLOWLINE:   MUD SAMPLE SOURCE
 RMS .OHMM            .18:   RESISTIVITY MUD SAMPLE
 MST .F                62:   MUD SAMPLE TEMPERATURE
 RMF .OHMM            .14:   RESISTIVITY MUD FILTRATE SAMPLE
 MFST.F                59:   MUD FILTRATE SAMPLE TEMPERATURE
 RMC .OHMM            .24:   RESISTIVITY MUD CAKE
 MCST.F                60:   MUD CAKE SAMPLE TEMPERATURE
 MFSS.           MEASURED:   MUD FILTRATE SAMPLE SOURCE
 MCSS.           MEASURED:   MUD CAKE SAMPLE SOURCE
 RMB .OHMM            .17:   RESISTIVITY MUD AT BHT
 BHT .F                70:   BOTTOM HOLE TEMPERATURE
 TCS .HRS               4:   TIME CURCULATED STOPPED
 MRT .F                70:   MAXIMUM RECORDED TEMPERATURE
 LUN .               3006:   LOGGING UNIT NUMBER
 LUL .             CASPER:   LOGGING UNIT LOCATION
 ENGI.            ROLLINS:   RECORDING ENGINEER
 WITN.              AMEND:   WITNESSED BY
 CLNT.            A2DTECH:   CLIENT CODE
 ORIG.         2.5" PRINT:   ORIGIN OF DATA
 UWI .       490251077300:   UNIQUE WELL ID
 DICO. A2D Technologies, Inc.:   DIGITIZING COMPANY
~OTHER INFORMATION
~A   DEPT      SPR         SN        ILD       CALD       CORR       RHOB         GRD      DPHI   
# ...
  344.0000   -46.9323     5.0043     5.3725     8.2223     0.0314     2.3831   116.7859     0.1785
  344.5000   -46.9132     4.8951     5.2382     8.2149     0.0345     2.3770   117.2156     0.1833
  345.0000   -46.8963     4.8628     5.1072     8.2065     0.0377     2.3747   118.4339     0.1803
  345.5000   -46.8786     4.8628     5.0472     8.2173     0.0407     2.3896   119.5741     0.1775
  346.0000   -46.8608     4.8628     4.9542     8.2297     0.0440     2.4193   120.7564     0.1696
  346.5000   -46.8432     5.0092     5.0472     8.2431     0.0455     2.4474   121.4538     0.1587
  347.0000   -46.8256     5.2685     5.0472     8.2442     0.0471     2.4601   121.7431     0.1478
  347.5000   -46.8079     5.5413     5.2849     8.2416     0.0482     2.4649   122.0723     0.1385
  348.0000   -46.7901     5.8282     5.5261     8.2390     0.0483     2.4664   122.3970     0.1357
  348.5000   -46.7724     6.1299     5.7783     8.2366     0.0482     2.4679   122.6909     0.1333
  349.0000   -46.7547     6.4473     6.0421     8.2341     0.0479     2.4689   123.2526     0.1333
  349.5000   -46.7370     6.7811     6.3179     8.2316     0.0434     2.4682   123.9771     0.1345
  350.0000   -46.7192     7.0551     6.6721     8.2291     0.0394     2.4675   124.8213     0.1356
  350.5000   -46.7015     7.1876     6.7974     8.2267     0.0351     2.4668   124.8997     0.1366
  351.0000   -46.6838     7.1754     6.7807     8.2242     0.0310     2.4635   124.8780     0.1376
  351.5000   -46.6660     7.1565     6.7549     8.2217     0.0268     2.4603   124.7768     0.1387
  352.0000   -46.6483     7.1378     6.7292     8.2192     0.0225     2.4552   123.0759     0.1397
  352.5000   -46.6305     7.1190     6.7037     8.2167     0.0184     2.4538   121.5204     0.1408
  353.0000   -46.6127     7.1003     6.6782     8.2142     0.0142     2.4528   119.9110     0.1418
  353.5000   -46.5951     7.0817     6.6529     8.2118     0.0098     2.4530   118.2858     0.1430
  354.0000   -46.5769     7.0631     6.6276     8.2093     0.0082     2.4532   116.5924     0.1430
  354.5000   -46.5595     7.0446     6.6024     8.2069     0.0091     2.4533   115.5013     0.1430
  355.0000   -46.5451     7.0261     6.5774     8.2039     0.0099     2.4535   115.5227     0.1430
  355.5000   -46.5430     7.0076     6.5524     8.2004     0.0105     2.4536   116.9581     0.1430
  356.0000   -46.5614     6.9892     6.5275     8.1971     0.0113     2.4538   120.8569     0.1430
  356.5000   -46.5945     6.9709     6.5027     8.1937     0.0120     2.4540   124.7277     0.1430
  357.0000   -46.6256     6.9526     6.4780     8.1903     0.0127     2.4541   126.7793     0.1428
  357.5000   -46.6561     6.9343     6.4534     8.1870     0.0135     2.4543   124.8819     0.1425
  358.0000   -46.6874     6.9160     6.4284     8.1836     0.0142     2.4544   123.1268     0.1422
  358.5000   -46.7184     6.8977     6.4082     8.1802     0.0149     2.4546   121.7075     0.1422
  359.0000   -46.7494     6.8794     6.3877     8.1769     0.0156     2.4550   122.4430     0.1422
  359.5000   -46.7804     6.8614     6.3672     8.1735     0.0173     2.4523   123.3703     0.1422
  360.0000   -46.8113     6.8439     6.3468     8.1701     0.0203     2.4456   124.2826     0.1442
  360.5000   -46.8423     6.8265     6.3264     8.1668     0.0233     2.4394   125.2696     0.1462
  361.0000   -46.8733     6.8091     6.3099     8.1634     0.0263     2.4330   124.5797     0.1481
  361.5000   -46.9042     6.7229     6.1425     8.1600     0.0293     2.4306   122.3333     0.1501
  362.0000   -46.9352     6.5419     6.0048     8.1567     0.0323     2.4281   118.7541     0.1521
  362.5000   -46.9662     6.3670     5.8701     8.1533     0.0353     2.4267   117.0939     0.1542
  363.0000   -46.9971     6.1967     5.7385     8.1499     0.0385     2.4270   117.7072     0.1542
  363.5000   -47.0281     6.0310     5.6098     8.1465     0.0399     2.4308   121.0624     0.1509
  364.0000   -47.0591     5.8697     5.4840     8.1432     0.0385     2.4344   124.7104     0.1480
  364.5000   -47.0900     5.7493     5.4372     8.1398     0.0374     2.4385   126.1600     0.1451
  365.0000   -47.1210     5.7158     5.4593     8.1363     0.0363     2.4412   124.0396     0.1422
  365.5000   -47.1521     5.6766     5.5073     8.1331     0.0372     2.4386   121.6834     0.1398
  366.0000   -47.1831     5.6440     5.5558     8.1298     0.0384     2.4339   119.7357     0.1390
  366.5000   -47.2141     5.6017     5.6047     8.1257     0.0396     2.4297   120.3609     0.1432
  367.0000   -47.2456     5.4903     5.6433     8.1300     0.0407     2.4260   120.9458     0.1474
  367.5000   -47.2758     5.3813     5.6024     8.1402     0.0419     2.4136   120.8048     0.1549
  368.0000   -47.3071     5.2745     5.5535     8.1497     0.0430     2.3996   119.5156     0.1637
  368.5000   -47.3428     5.1399     5.5051     8.1591     0.0441     2.3871   118.1765     0.1726
  369.0000   -47.3381     5.1435     5.4571     8.1687     0.0429     2.4208   118.4797     0.1791
  369.5000   -47.2713     5.2042     5.4372     8.1782     0.0417     2.4498   121.1604     0.1767
  370.0000   -47.2046     5.2403     5.5393     8.1878     0.0405     2.4601   123.5807     0.1573
  370.5000   -47.1342     5.3559     5.7082     8.1972     0.0392     2.4673   123.4576     0.1269
  371.0000   -47.0853     5.4691     5.8756     8.2054     0.0380     2.4684   122.8676     0.1253
  371.5000   -46.9957     5.5842     6.0480     8.2056     0.0369     2.4685   122.4296     0.1245
  372.0000   -46.8832     5.7016     6.2254     8.2058     0.0344     2.4676   122.8014     0.1246
  372.5000   -45.9248     5.8218     6.4081     8.2057     0.0308     2.4653   122.8097     0.1256
  373.0000   -45.2790     5.9625     6.5961     8.2057     0.0273     2.4604   122.6301     0.1285
  373.5000   -44.9974     6.0794     6.7896     8.2057     0.0238     2.4557   122.4767     0.1328
  374.0000   -44.8901     6.0332     6.9251     8.2020     0.0204     2.4515   122.3045     0.1389
  374.5000   -44.8749     5.8895     6.7044     8.1966     0.0168     2.4417   122.1353     0.1449
  375.0000   -44.8483     5.7493     6.4750     8.1912     0.0160     2.4269   122.2050     0.1514
  375.5000   -44.8207     5.6124     6.2536     8.1859     0.0162     2.4131   122.6033     0.1586
  376.0000   -44.7966     5.4788     6.0396     8.1805     0.0210     2.3971   123.7163     0.1670
  376.5000   -44.7716     5.3484     5.8331     8.1751     0.0268     2.4017   125.6935     0.1647
  377.0000   -44.7463     5.2210     5.6335     8.1698     0.0331     2.4133   127.6688     0.1601
  377.5000   -44.7209     5.1420     5.4372     8.1644     0.0359     2.4241   128.4912     0.1551
  378.0000   -44.6951     5.1420     5.4372     8.1590     0.0341     2.4360   128.8517     0.1494
  378.5000   -44.6694     5.1420     5.4372     8.1537     0.0328     2.4406   125.4251     0.1436
  379.0000   -44.6434     5.1420     5.5951     8.1483     0.0314     2.4455   121.1951     0.1390
  379.5000   -44.6179     5.4034     5.8417     8.1430     0.0300     2.4494   116.8290     0.1382
  380.0000   -44.5922     5.7124     6.0990     8.1376     0.0285     2.4594   112.5964     0.1363
  380.5000   -44.5651     6.0390     6.3678     8.1322     0.0286     2.4678   109.2745     0.1349
  381.0000   -44.5422     6.3843     6.6484     8.1270     0.0295     2.4768   110.0638     0.1334
  381.5000   -44.5159     6.7868     6.9413     8.1227     0.0304     2.4827   110.7194     0.1301
  382.0000   -44.5953     6.8898     7.2471     8.1188     0.0313     2.4889   111.4914     0.1238
  382.5000   -44.6897     6.8830     7.4601     8.1151     0.0322     2.4917   111.9305     0.1222
  383.0000   -44.7871     7.0360     7.6002     8.1114     0.0331     2.4915   109.9696     0.1190
  383.5000   -44.8824     6.9447     7.6271     8.1077     0.0339     2.4880   107.9062     0.1181
  384.0000   -44.9781     7.1989     7.6501     8.1040     0.0348     2.4852   107.1084     0.1173
