~VERSION INFORMATION
 VERS.                2.0:   CWLS LOG ASCII STANDARD - VERSION 2.0
 WRAP.                 NO:   ONE LINE PER DEPTH STEP
~WELL INFORMATION
#MNEM.UNIT      DATA TYPE    INFORMATION
#----------   ------------   ------------------------------
 STRT.F           12.0000:   START DEPTH
 STOP.F          563.5000:   STOP DEPTH
 STEP.F            0.5000:   STEP LENGTH
 NULL.          -999.2500:   NO VALUE
 COMP.       F D SERV INC:   COMPANY
 WELL. N P R 3 SX-3 #52-3:   WELL
 FLD .             TEAPOT:   FIELD
 LOC .       S3 T38N R78W:   LOCATION
 CNTY.            NATRONA:   COUNTY
 STAT.            WYOMING:   STATE
 CTRY. UNITED STATES OF AMERICA:   COUNTRY
 SRVC.     Atlas Wireline:   SERVICE COMPANY
 DATE.        27-APR-1992:   LOGDATE
 API .       490252252000:   API NUMBER
~CURVE INFORMATION
#MNEM.UNIT       API CODE    CURVE DESCRIPTION
#----------   ------------   ------------------------------
 DEPT.F                  :   
 PORZ.DEC    45 890 12 00:   DENSITY POROSITY
 CNC .DEC    42 890 03 00:   NEUTRON POROSITY SANDSTONE
 CALD.IN     45 280 60 00:   CALIPER FROM DENSITY
 GRD .GAPI   45 310 01 00:   GAMMA RAY FROM DENSITY LOG
 ZCOR.G/C3   45 356 01 00:   DENSITY CORRECTION
 ZDEN.G/C3   45 350 01 00:   BULK DENSITY
 RILD.OHMM   07 120 46 00:   INDUCTION LOG DEEP RESISTIVITY
 RILM.OHMM   07 120 44 00:   INDUCTION LOG MEDIUM RESISTIVITY
 RFOC.OHMM   07 220 04 00:   RESISTIVITY FOCUSED LOG
~PARAMETER INFORMATION
#MNEM.UNIT          VALUE    DESCRIPTION
#----------   ------------   ------------------------------
 PD  .                 GL:   PERMANENT DATUM
 EPD .F              5145:   ELEVATION PERMANENT DATUM
 LMF .                 KB:   LOG MEASURED FROM
 DAPD.F                 5:   FEET ABOVE PERMANENT DATUM
 DMF .                 KB:   DRILLING MEASURED FROM
 EKB .F              5150:   KELLING BUSHING
 EDF .F              5149:   DRILLING FLOOR
 EGL .F              5145:   GROUND LEVEL
 DATE.        27-APR-1992:   RUN DATE
 RUN .                  1:   RUN NUMBER
 DD  .F               565:   DEPTH DRILLER
 DL  .F               565:   DEPTH LOGGER
 BLI .F               563:   BOTTOM LOG INTERVAL
 CS  .IN            8.625:   CASING SIZE
 CBD .F                48:   CASING BOTTOM DRILLER
 CBL .F                51:   CASING BOTTOM LOGGER
 BS  .IN            7.875:   BIT SIZE
 BSD .F               565:   BIT SIZE AT DEPTH
 DFT .              WATER:   DRILLING FLUID TYPE
 TCS .HRS            0200:   TIME CURCULATED STOPPED
 MRT .F                88:   MAXIMUM RECORDED TEMPERATURE
 LUN .           HL- 6274:   LOGGING UNIT NUMBER
 LUL .             CASPER:   LOGGING UNIT LOCATION
 ENGI.             RAUTIO:   RECORDING ENGINEER
 WITN.        GARY STRONG:   WITNESSED BY
 CLNT.            A2DTECH:   CLIENT CODE
 ORIG.           5" PRINT:   ORIGIN OF DATA
 UWI .       490252252000:   UNIQUE WELL ID
 DICO. A2D Technologies, Inc.:   DIGITIZING COMPANY
~OTHER INFORMATION
~A   DEPT     PORZ        CNC       CALD        GRD       ZCOR       ZDEN       RILD       RILM       RFOC   
# ...
  486.5000     0.1027     0.2855     8.0580    93.9093     0.0315     2.4769    11.4310    11.2009    10.8470
  487.0000     0.0986     0.2849     8.0579    93.3213     0.0316     2.4861    11.1919    10.8926    10.7684
  487.5000     0.0983     0.2870     8.0577    94.2374     0.0271     2.4868    11.0341    10.6665    10.6156
  488.0000     0.1013     0.2922     8.0576    95.7488     0.0257     2.4839    10.8034    10.4452    10.4658
  488.5000     0.1007     0.2997     8.0574    97.3144     0.0273     2.4824    10.4308    10.2997    10.3899
  489.0000     0.0974     0.3009     8.0572    99.0745     0.0304     2.4839    10.1421    10.2161    10.1725
  489.5000     0.0947     0.2984     8.0571   100.2865     0.0366     2.4878     9.9991    10.0145    10.0289
  490.0000     0.0950     0.3024     8.0570   101.4984     0.0382     2.4931     9.7900     9.8750     9.8098
  490.5000     0.0974     0.3100     8.0568   102.4110     0.0307     2.4939     9.6512     9.6701     9.6796
  491.0000     0.0974     0.3139     8.0567   101.5272     0.0263     2.4894     9.3840     9.4039     9.5430
  491.5000     0.0959     0.3181     8.0565    99.1137     0.0264     2.4894     9.0612     8.6323     9.4739
  492.0000     0.0950     0.3214     8.0564    96.1702     0.0280     2.4925     8.2200     7.5274     9.3402
  492.5000     0.0974     0.3253     8.0562    97.0828     0.0311     2.4941     6.9573     6.8672     9.1383
  493.0000     0.1046     0.3449     8.0561   103.3846     0.0327     2.4908     6.3088     6.1529     8.7681
  493.5000     0.1227     0.3712     8.0559   110.5846     0.0313     2.4670     6.0938     5.1352     8.3495
  494.0000     0.1516     0.3968     8.0258   114.1918     0.0313     2.4114     5.9664     4.9592     5.6981
  494.5000     0.1504     0.3941     8.0106   114.8049     0.0390     2.3971     5.8822     5.1338     4.9236
  495.0000     0.1350     0.3799     7.9655   109.4336     0.0498     2.4054     5.8803     5.3591     5.1005
  495.5000     0.1079     0.3537     7.9204   103.1606     0.0482     2.4371     6.0065     5.8158     6.3605
  496.0000     0.0872     0.3208     7.8753    92.9953     0.0393     2.4811     6.3418     6.6817     8.6293
  496.5000     0.0827     0.3205     7.8751    91.5091     0.0333     2.5095     6.9861     7.3631     9.8433
  497.0000     0.0857     0.3199     7.8749    93.6228     0.0319     2.5080     7.6959     7.8916     9.5698
  497.5000     0.0841     0.3178     7.8898    97.9642     0.0350     2.5073     8.3033     8.3533     9.4983
  498.0000     0.0782     0.3130     7.9046   100.5414     0.0396     2.5126     9.0202     9.4508     9.4309
  498.5000     0.0758     0.3093     7.9045    99.9569     0.0442     2.5194     9.4658     9.7835     9.4277
  499.0000     0.0752     0.3069     7.9193    98.4743     0.0428     2.5270     9.7966    10.0581     9.9627
  499.5000     0.0761     0.3066     7.9192    98.1856     0.0369     2.5271    10.1389    10.4119    10.2398
  500.0000     0.0779     0.3107     7.9340   100.5988     0.0324     2.5245    10.3487    10.6297    10.2364
  500.5000     0.0796     0.3190     7.9235   100.9054     0.0304     2.5208    10.5619    10.7134    10.0933
  501.0000     0.0815     0.3238     7.9184   100.0129     0.0326     2.5181    10.7068    10.7972     9.9502
  501.5000     0.0836     0.3242     7.9181    99.4184     0.0371     2.5100    10.9274    10.9211     9.8769
  502.0000     0.0845     0.3196     7.9178    98.2279     0.0402     2.5115    11.0773    11.1476    10.8052
  502.5000     0.0833     0.3118     7.9175    97.9341     0.0433     2.5153    11.2313    11.3006    11.0297
  503.0000     0.0794     0.3061     7.9172    97.6406     0.0464     2.5214    11.5385    11.4558    11.1019
  503.5000     0.0743     0.2970     7.9319    98.2466     0.0479     2.5282    11.6967    11.6131    11.2533
  504.0000     0.0737     0.2934     7.9316    99.4499     0.0480     2.5230    11.8446    11.8547    11.4068
  504.5000     0.0782     0.2898     7.9313   101.5514     0.0481     2.5155    12.0184    12.1005    11.6428
  505.0000     0.0827     0.2865     7.9310   104.2518     0.0466     2.5103    12.1922    12.2667    12.2184
  505.5000     0.0839     0.2835     7.9157   105.7545     0.0452     2.5134    12.3378    12.4359    12.4713
  506.0000     0.0824     0.2799     7.9154   104.5150     0.0422     2.5164    12.5052    12.6060    12.5539
  506.5000     0.0800     0.2763     7.9151   102.1746     0.0408     2.5164    12.6736    12.6905    12.5486
  507.0000     0.0803     0.2787     7.9148    97.3899     0.0333     2.5143    12.8453    12.7831    12.6329
  507.5000     0.0806     0.2860     7.9145    95.2998     0.0273     2.5128    13.0182    12.9512    12.6276
  508.0000     0.0812     0.2866     7.9142    95.6050     0.0319     2.5129    13.1948    13.0382    12.7123
  508.5000     0.0824     0.2869     7.9139    97.7246     0.0395     2.5114    13.3737    13.1257    12.3590
  509.0000     0.0836     0.2869     7.9136    98.0116     0.0443     2.5100    13.3683    13.2139    12.1002
  509.5000     0.0845     0.2872     7.9133    96.8212     0.0457     2.5108    13.4562    13.2097    12.0116
  510.0000     0.0845     0.2884     7.9130    95.0305     0.0457     2.5131    13.3576    13.2064    12.3456
  510.5000     0.0827     0.2957     7.9127    93.5392     0.0442     2.5162    13.0635    13.2031    12.6888
  511.0000     0.0806     0.2950     7.9124    91.7486     0.0413     2.5185    12.8016    13.1996    12.7729
  511.5000     0.0800     0.2893     7.9121    92.3952     0.0368     2.5193    12.7965    13.1956    12.8587
  512.0000     0.0797     0.2866     7.9118    95.0549     0.0291     2.5193    12.9700    13.1922    12.5884
  512.5000     0.0797     0.2897     7.9115    98.3540     0.0279     2.5194    13.0550    13.1889    11.9874
  513.0000     0.0797     0.2761     7.9112    98.3597     0.0340     2.5194    13.1406    13.1856    11.5745
  513.5000     0.0797     0.2716     7.9109    96.8685     0.0371     2.5187    13.0445    13.1822    11.8132
  514.0000     0.0800     0.2803     7.9106    95.9760     0.0341     2.5173    12.9479    12.9071    12.2262
  514.5000     0.0800     0.2915     7.9103    95.0835     0.0281     2.5174    12.7644    12.8145    12.5662
  515.0000     0.0803     0.2894     7.9100    94.4904     0.0252     2.5174    12.5836    12.7225    12.6505
  515.5000     0.0806     0.2870     7.8947    95.6952     0.0283     2.5167    12.4916    12.6306    12.6452
  516.0000     0.0821     0.2858     7.8944    99.5932     0.0313     2.5107    12.4866    12.5400    12.6410
  516.5000     0.0851     0.2920     7.9092   101.0959     0.0344     2.5093    12.4816    12.4500    12.4624
  517.0000     0.0839     0.2967     7.9088   100.4309     0.0345     2.5118    12.3902    12.2752    12.2856
  517.5000     0.0799     0.2973     7.9085    97.5160     0.0345     2.5177    12.2135    12.1028    12.1121
  518.0000     0.0743     0.2982     7.9082    94.8257     0.0346     2.5260    12.0404    11.9328    11.8586
  518.5000     0.0749     0.2898     7.9079    96.0304     0.0347     2.5261    11.7878    11.7652    11.6912
  519.0000     0.0800     0.2859     7.9076    98.7308     0.0347     2.5223    11.5404    11.5130    11.3672
  519.5000     0.0815     0.2875     7.9073   100.8443     0.0348     2.5178    11.3769    11.2785    11.0523
  520.0000     0.0812     0.3049     7.9070   103.2347     0.0364     2.5157    11.1382    11.1976    10.8963
  520.5000     0.0790     0.3085     7.9067   103.8378     0.0364     2.5202    11.0450    10.9639    10.8172
  521.0000     0.0752     0.3103     7.9064   103.5441     0.0274     2.5241    10.8236    10.8100    10.6637
  521.5000     0.0743     0.3129     7.9061   103.5513     0.0214     2.5256    10.5965    10.7324    10.5863
  522.0000     0.0755     0.3224     7.9058   104.1558     0.0260     2.5242    10.4463    10.5817    10.4369
  522.5000     0.0764     0.3327     7.9055   105.1198     0.0306     2.5235    10.2271    10.4331    10.3612
