~VERSION INFORMATION
 VERS.                2.0:   CWLS LOG ASCII STANDARD - VERSION 2.0
 WRAP.                 NO:   ONE LINE PER DEPTH STEP
~WELL INFORMATION
#MNEM.UNIT      DATA TYPE    INFORMATION
#----------   ------------   ------------------------------
 STRT.F          298.0000:   START DEPTH
 STOP.F         1126.0000:   STOP DEPTH
 STEP.F            0.5000:   STEP LENGTH
 NULL.          -999.2500:   NO VALUE
 COMP. BROWN JOHN E&C INC:   COMPANY
 WELL.   52 SHX 15 #52-15:   WELL
 FLD .             TEAPOT:   FIELD
 LOC .      S15 T38N R78W:   LOCATION
 CNTY.            NATRONA:   COUNTY
 STAT.            WYOMING:   STATE
 CTRY. UNITED STATES OF AMERICA:   COUNTRY
 SRVC.              Welex:   SERVICE COMPANY
 DATE.        09-AUG-1979:   LOGDATE
 API .       490251078900:   API NUMBER
~CURVE INFORMATION
#MNEM.UNIT       API CODE    CURVE DESCRIPTION
#----------   ------------   ------------------------------
 DEPT.F                  :   
 CALD.IN     45 280 60 00:   CALIPER
 GRD .GAPI   45 310 01 00:   GAMMA RAY FROM DENSITY LOG
 RHOB.G/C3   45 350 01 00:   BULK DENSITY
 CORR.G/C3   45 356 01 00:   DENSITY CORRECTION
 DPHI.DEC    45 890 12 00:   DENSITY POROSITY SANDSTONE
~PARAMETER INFORMATION
#MNEM.UNIT          VALUE    DESCRIPTION
#----------   ------------   ------------------------------
 PD  .                 GL:   PERMANENT DATUM
 EPD .F              5222:   ELEVATION PERMANENT DATUM
 LMF .                 KB:   LOG MEASURED FROM
 DAPD.F                10:   FEET ABOVE PERMANENT DATUM
 DMF .                 KB:   DRILLING MEASURED FROM
 EKB .F              5232:   KELLING BUSHING
 EGL .F              5222:   GROUND LEVEL
 DATE.             8-9-79:   RUN DATE
 RUN .                  1:   RUN NUMBER
 DD  .F              1130:   DEPTH DRILLER
 DL  .F              1128:   DEPTH LOGGER
 BLI .F              1126:   BOTTOM LOG INTERVAL
 TLI .F               300:   TOP LOG INTERVAL
 CS  .IN            9.625:   CASING SIZE
 CBD .F               676:   CASING BOTTOM DRILLER
 BS  .IN             8.75:   BIT SIZE
 BSD .F              1130:   BIT SIZE AT DEPTH
 DFT .                OIL:   DRILLING FLUID TYPE
 DFD .                9.1:   DRILLING FLUID DENSITY
 TCS .HRS             2.5:   TIME CURCULATED STOPPED
 MRT .F               102:   MAXIMUM RECORDED TEMPERATURE
 ENGI.               REIN:   RECORDING ENGINEER
 WITN.           DINSMORE:   WITNESSED BY
 CLNT.            A2DTECH:   CLIENT CODE
 ORIG.         2.5" PRINT:   ORIGIN OF DATA
 UWI .       490251078900:   UNIQUE WELL ID
 DICO. A2D Technologies, Inc.:   DIGITIZING COMPANY
~OTHER INFORMATION
~A   DEPT     CALD         GRD      RHOB       CORR       DPHI   
# ...
  664.0000  -999.2500    68.7048  -999.2500  -999.2500  -999.2500
  664.5000  -999.2500    68.6435  -999.2500  -999.2500  -999.2500
  665.0000  -999.2500    68.8411  -999.2500  -999.2500  -999.2500
  665.5000  -999.2500    69.0522  -999.2500  -999.2500  -999.2500
  666.0000  -999.2500    69.2579  -999.2500  -999.2500  -999.2500
  666.5000  -999.2500    69.4565  -999.2500  -999.2500  -999.2500
  667.0000  -999.2500    69.6789  -999.2500  -999.2500  -999.2500
  667.5000  -999.2500    69.9122  -999.2500  -999.2500  -999.2500
  668.0000  -999.2500    70.7415  -999.2500  -999.2500  -999.2500
  668.5000  -999.2500    71.5537  -999.2500  -999.2500  -999.2500
  669.0000  -999.2500    72.4241  -999.2500  -999.2500  -999.2500
  669.5000  -999.2500    73.1081  -999.2500  -999.2500  -999.2500
  670.0000     9.2863    74.7612     2.3276     0.0202     0.0858
  670.5000     9.2863    77.0766     2.3524     0.0283     0.0792
  671.0000     9.2863    79.3473     2.4026     0.0402     0.0638
  671.5000     9.2863    81.6023     2.4695     0.0454     0.0330
  672.0000     9.2863    83.8843     2.5406     0.0506    -0.0008
  672.5000     9.3864    86.1401     2.4635     0.0530     0.0264
  673.0000     9.4725    88.1868     2.4678     0.0537     0.0705
  673.5000     9.5309    88.5382     2.4775     0.0541     0.0656
  674.0000     9.5992    88.2811     2.4833     0.0547     0.0533
  674.5000     9.6861    88.3710     2.4918     0.0554     0.0411
  675.0000     9.7727    89.0372     2.4873     0.0560     0.0436
  675.5000     9.8530    89.6528     2.4814     0.0567     0.0486
  676.0000     9.9665    90.2297     2.4757     0.0574     0.0534
  676.5000    10.1786    91.4527     2.4724     0.0580     0.0596
  677.0000    10.4999    93.4045     2.4693     0.0587     0.0617
  677.5000    10.9750    95.3136     2.4662     0.0594     0.0640
  678.0000    11.5196    97.2063     2.4637     0.0600     0.0665
  678.5000    12.0977    99.1121     2.4649     0.0605     0.0653
  679.0000    12.4084    99.9549     2.4652     0.0575     0.0632
  679.5000    12.1576    99.9629     2.4645     0.0541     0.0672
  680.0000    11.9920    99.8197     2.4627     0.0504     0.0664
  680.5000    11.4182    99.6333     2.4949     0.0484     0.0376
  681.0000    10.6384    99.4432     2.5125     0.0486     0.0253
  681.5000     9.8529    99.2607     2.5144     0.0486     0.0264
  682.0000     9.7527    99.0748     2.5170     0.0486     0.0216
  682.5000     9.6491    98.8783     2.5175     0.0486     0.0227
  683.0000     9.5877    98.7468     2.5149     0.0491     0.0250
  683.5000     9.5661    98.7715     2.5131     0.0496     0.0246
  684.0000     9.5634    99.3854     2.5148     0.0500     0.0238
  684.5000     9.5723   100.0128     2.5163     0.0505     0.0229
  685.0000     9.5344   100.6578     2.5161     0.0510     0.0238
  685.5000     9.5285   101.2841     2.5175     0.0514     0.0214
  686.0000     9.5269   101.9489     2.5232     0.0519     0.0165
  686.5000     9.5288   102.5462     2.5288     0.0524     0.0116
  687.0000     9.5281   103.1169     2.5344     0.0527     0.0067
  687.5000     9.5281   101.9568     2.5420     0.0526     0.0014
  688.0000     9.5283   100.7417     2.5535     0.0526    -0.0049
  688.5000     9.5281    99.3334     2.5605     0.0526    -0.0137
  689.0000     9.5282    98.9309     2.5566     0.0526    -0.0119
  689.5000     9.5283    99.7488     2.5524     0.0526    -0.0081
  690.0000     9.5279    99.4162     2.5478     0.0526    -0.0097
  690.5000     9.5284    98.0030     2.5434     0.0526    -0.0016
  691.0000     9.5293    97.6647     2.5389     0.0526     0.0034
  691.5000     9.5458    98.1352     2.5352     0.0526     0.0081
  692.0000     9.5598    98.5662     2.5328     0.0526     0.0093
  692.5000     9.5750    98.4553     2.5302     0.0526     0.0108
  693.0000     9.5897    97.6942     2.5276     0.0526     0.0122
  693.5000     9.6043    96.9829     2.5250     0.0526     0.0136
  694.0000     9.6196    96.1888     2.5224     0.0526     0.0160
  694.5000     9.6336    96.1500     2.5199     0.0526     0.0202
  695.0000     9.6479    96.9055     2.5153     0.0526     0.0243
  695.5000     9.6354    96.7762     2.5077     0.0526     0.0284
  696.0000     9.6218    96.0035     2.5004     0.0526     0.0324
  696.5000     9.6070    95.3413     2.4925     0.0526     0.0361
  697.0000     9.5929    94.6632     2.4856     0.0526     0.0412
  697.5000     9.5786    95.1085     2.4740     0.0526     0.0480
  698.0000     9.5642    95.8924     2.4674     0.0526     0.0547
  698.5000     9.5501    96.6102     2.4638     0.0526     0.0615
  699.0000     9.5353    97.3118     2.4672     0.0526     0.0672
  699.5000     9.5216    96.7821     2.4719     0.0526     0.0582
  700.0000     9.5075    95.5902     2.4788     0.0526     0.0542
  700.5000     9.4909    95.5485     2.4707     0.0526     0.0612
  701.0000     9.5116    96.3327     2.4600     0.0526     0.0698
  701.5000     9.5516    97.0757     2.4483     0.0526     0.0785
  702.0000     9.6151    97.0862     2.4311     0.0526     0.0871
  702.5000     9.6992    96.6211     2.4360     0.0526     0.0915
  703.0000     9.7758    96.0348     2.4866     0.0526     0.0533
  703.5000     9.8024    95.4014     2.5255     0.0526     0.0186
  704.0000     9.6291    95.1767     2.5336     0.0526     0.0081
  704.5000     9.4853    95.5468     2.5360     0.0526     0.0061
  705.0000     9.3341    95.8467     2.5379     0.0526     0.0041
  705.5000     9.3267    95.2088     2.5406     0.0526     0.0020
  706.0000     9.3210    94.6330     2.5430     0.0526    -0.0001
  706.5000     9.3204    93.9212     2.5444     0.0526    -0.0016
  707.0000     9.3174    94.5363     2.5431     0.0526    -0.0001
  707.5000     9.3147    95.2952     2.5422     0.0526     0.0018
  708.0000     9.3127    96.0969     2.5408     0.0526     0.0036
  708.5000     9.3103    96.8596     2.5448     0.0526     0.0009
  709.0000     9.3080    97.6467     2.5515     0.0526    -0.0035
  709.5000     9.3055    98.4345     2.5536     0.0526    -0.0079
  710.0000     9.3031    98.7113     2.5487     0.0526    -0.0097
  710.5000     9.3006    97.9868     2.5441     0.0526    -0.0053
  711.0000     9.2982    97.3867     2.5431     0.0526    -0.0016
  711.5000     9.2957    96.7305     2.5446     0.0526    -0.0008
  712.0000     9.2933    96.5180     2.5417     0.0526     0.0015
  712.5000     9.2908    97.1688     2.5358     0.0526     0.0049
  713.0000     9.2884    97.8276     2.5284     0.0526     0.0104
  713.5000     9.2859    96.5520     2.5171     0.0526     0.0205
  714.0000     9.2835    95.1310     2.5048     0.0526     0.0305
  714.5000     9.2811    93.6222     2.4990     0.0526     0.0354
  715.0000     9.2786    92.1331     2.5005     0.0526     0.0348
  715.5000     9.2762    91.0471     2.5081     0.0526     0.0319
  716.0000     9.2737    91.0918     2.5151     0.0526     0.0257
  716.5000     9.2713    92.1976     2.5230     0.0526     0.0194
  717.0000     9.2688    93.3408     2.5247     0.0526     0.0131
  717.5000     9.2664    94.4767     2.5196     0.0526     0.0154
  718.0000     9.2639    95.3852     2.5148     0.0526     0.0190
  718.5000     9.2615    94.5527     2.5107     0.0526     0.0226
  719.0000     9.2590    93.8187     2.5115     0.0526     0.0257
  719.5000     9.2566    92.8911     2.5285     0.0526     0.0165
  720.0000     9.2541    93.2013     2.5413     0.0526     0.0086
  720.5000     9.2516    94.4073     2.5396     0.0526     0.0024
  721.0000     9.2493    95.5100     2.5316     0.0526     0.0046
  721.5000     9.2464    96.6008     2.5238     0.0526     0.0137
  722.0000     9.2490    97.7117     2.5185     0.0526     0.0187
  722.5000     9.2545    98.8256     2.5252     0.0526     0.0129
  723.0000     9.2598    99.4063     2.5327     0.0526     0.0071
  723.5000     9.2648    99.7442     2.5406     0.0526     0.0013
  724.0000     9.2700   100.0875     2.5427     0.0526    -0.0024
  724.5000     9.2754   100.3672     2.5426     0.0526    -0.0008
