~VERSION INFORMATION
 VERS.                2.0:   CWLS LOG ASCII STANDARD - VERSION 2.0
 WRAP.                 NO:   ONE LINE PER DEPTH STEP
~WELL INFORMATION
#MNEM.UNIT      DATA TYPE    INFORMATION
#----------   ------------   ------------------------------
 STRT.F          484.0000:   START DEPTH
 STOP.F         2291.5000:   STOP DEPTH
 STEP.F            0.5000:   STEP LENGTH
 NULL.          -999.2500:   NO VALUE
 COMP. FENIX & SCISSON INC:   COMPANY
 WELL.     45 SHX 3 #45-3:   WELL
 FLD .             TEAPOT:   FIELD
 LOC .       S3 T38N R78W:   LOCATION
 CNTY.            NATRONA:   COUNTY
 STAT.            WYOMING:   STATE
 CTRY. UNITED STATES OF AMERICA:   COUNTRY
 SRVC.              Welex:   SERVICE COMPANY
 DATE.        20-APR-1980:   LOGDATE
 API .       490251080400:   API NUMBER
~CURVE INFORMATION
#MNEM.UNIT       API CODE    CURVE DESCRIPTION
#----------   ------------   ------------------------------
 DEPT.F                  :   
 CALD.IN     45 280 60 00:   CALIPER
 GRD .GAPI   45 310 01 00:   GAMMA RAY FROM DENSITY LOG
 CORR.G/C3   45 356 01 00:   DENSITY CORRECTION
 RHOB.G/C3   45 350 01 00:   BULK DENSITY
 DPHI.DEC    45 890 12 00:   DENSITY POROSITY SANDSTONE
~PARAMETER INFORMATION
#MNEM.UNIT          VALUE    DESCRIPTION
#----------   ------------   ------------------------------
 PD  .                 GL:   PERMANENT DATUM
 EPD .F              5186:   ELEVATION PERMANENT DATUM
 LMF .                 KB:   LOG MEASURED FROM
 DAPD.F                10:   FEET ABOVE PERMANENT DATUM
 DMF .                 KB:   DRILLING MEASURED FROM
 EKB .F              5196:   KELLING BUSHING
 EGL .F              5186:   GROUND LEVEL
 DATE.            4-20-80:   RUN DATE
 RUN .                  1:   RUN NUMBER
 DD  .F              2341:   DEPTH DRILLER
 DL  .F              2293:   DEPTH LOGGER
 BLI .F              2291:   BOTTOM LOG INTERVAL
 TLI .F               500:   TOP LOG INTERVAL
 CS  .IN            9.625:   CASING SIZE
 BS  .IN             8.75:   BIT SIZE
 BSD .F              2341:   BIT SIZE AT DEPTH
 DFT .                OIL:   DRILLING FLUID TYPE
 TCS .HRS               2:   TIME CURCULATED STOPPED
 MRT .F               218:   MAXIMUM RECORDED TEMPERATURE
 ENGI.            TOTHILL:   RECORDING ENGINEER
 WITN.           DINSMORE:   WITNESSED BY
 CLNT.            A2DTECH:   CLIENT CODE
 ORIG.           5" PRINT:   ORIGIN OF DATA
 UWI .       490251080400:   UNIQUE WELL ID
 DICO. A2D Technologies, Inc.:   DIGITIZING COMPANY
~OTHER INFORMATION
~A   DEPT     CALD         GRD      CORR       RHOB       DPHI   
# ...
 1521.0000     8.8771    68.9182    -0.0017     2.5343     0.0606
 1521.5000     8.8530    68.6617     0.0090     2.5410     0.0572
 1522.0000     8.8446    68.9996     0.0115     2.5433     0.0578
 1522.5000     8.8368    69.7653     0.0154     2.5477     0.0552
 1523.0000     8.8332    70.5274     0.0233     2.5544     0.0498
 1523.5000     8.8446    71.2899     0.0169     2.5460     0.0550
 1524.0000     8.8560    71.2331     0.0125     2.5373     0.0609
 1524.5000     8.8673    71.0864     0.0029     2.5319     0.0651
 1525.0000     8.8724    70.8504     0.0028     2.5345     0.0615
 1525.5000     8.8713    70.5972    -0.0068     2.5266     0.0684
 1526.0000     8.8701    70.3424    -0.0201     2.5174     0.0736
 1526.5000     8.8689    70.0890    -0.0158     2.5221     0.0662
 1527.0000     8.8678    69.8564    -0.0058     2.5326     0.0605
 1527.5000     8.8666    69.8111     0.0016     2.5431     0.0561
 1528.0000     8.8655    69.7612     0.0032     2.5469     0.0546
 1528.5000     8.8643    69.7104    -0.0033     2.5402     0.0581
 1529.0000     8.8632    69.6595    -0.0022     2.5464     0.0555
 1529.5000     8.8620    69.6089    -0.0010     2.5464     0.0548
 1530.0000     8.8609    69.5728    -0.0061     2.5378     0.0603
 1530.5000     8.8597    69.6143    -0.0149     2.5291     0.0659
 1531.0000     8.8586    69.6546    -0.0217     2.5205     0.0715
 1531.5000     8.8574    69.6946    -0.0289     2.5133     0.0748
 1532.0000     8.8562    69.7347    -0.0176     2.5235     0.0666
 1532.5000     8.8551    69.7747    -0.0050     2.5395     0.0585
 1533.0000     8.8538    69.8147     0.0069     2.5524     0.0514
 1533.5000     8.8535    69.8548     0.0016     2.5479     0.0554
 1534.0000     8.8702    69.8948    -0.0099     2.5326     0.0603
 1534.5000     8.8873    69.9348    -0.0267     2.5178     0.0740
 1535.0000     8.9042    69.9749    -0.0272     2.5157     0.0768
 1535.5000     8.9212    70.0149    -0.0338     2.5015     0.0848
 1536.0000     8.9381    70.0549    -0.0401     2.4862     0.0921
 1536.5000     8.9550    70.0952    -0.0389     2.4848     0.0913
 1537.0000     8.9720    70.1360    -0.0293     2.4945     0.0865
 1537.5000     8.9889    70.1650    -0.0215     2.5028     0.0816
 1538.0000     9.0059    70.0528    -0.0267     2.5072     0.0821
 1538.5000     8.9792    69.9430    -0.0203     2.5123     0.0751
 1539.0000     8.9118    69.8342    -0.0125     2.5200     0.0705
 1539.5000     8.8440    69.7257    -0.0067     2.5177     0.0744
 1540.0000     8.8222    69.6157    -0.0174     2.5123     0.0732
 1540.5000     8.8496    69.5711    -0.0320     2.5067     0.0787
 1541.0000     8.8717    69.7329    -0.0319     2.5077     0.0812
 1541.5000     8.8584    69.9090    -0.0225     2.5190     0.0694
 1542.0000     8.8455    70.0849    -0.0130     2.5312     0.0631
 1542.5000     8.8335    70.2608    -0.0076     2.5435     0.0566
 1543.0000     8.8468    70.4400    -0.0051     2.5484     0.0536
 1543.5000     8.8614    70.4727    -0.0021     2.5519     0.0516
 1544.0000     8.8702    70.4737     0.0033     2.5649     0.0450
 1544.5000     8.8526    70.4697     0.0162     2.5731     0.0389
 1545.0000     8.8350    70.7251     0.0177     2.5715     0.0413
 1545.5000     8.8474    71.1275     0.0075     2.5540     0.0485
 1546.0000     8.8652    71.5333    -0.0012     2.5430     0.0558
 1546.5000     8.8832    71.9394    -0.0049     2.5337     0.0627
 1547.0000     8.8939    72.3455    -0.0082     2.5277     0.0698
 1547.5000     8.8954    72.7579    -0.0228     2.5090     0.0800
 1548.0000     8.8969    72.8691    -0.0282     2.5075     0.0788
 1548.5000     8.8985    72.5044    -0.0319     2.5015     0.0838
 1549.0000     8.9000    72.1389    -0.0347     2.4980     0.0853
 1549.5000     8.9016    71.7729    -0.0270     2.5052     0.0788
 1550.0000     8.9031    71.3973    -0.0181     2.5142     0.0740
 1550.5000     8.9046    71.3747    -0.0092     2.5257     0.0674
 1551.0000     8.9062    71.3998    -0.0006     2.5371     0.0600
 1551.5000     8.9077    71.5832     0.0030     2.5475     0.0542
 1552.0000     8.9093    71.7672     0.0043     2.5448     0.0573
 1552.5000     8.9108    71.9510     0.0019     2.5438     0.0586
 1553.0000     8.9123    72.1345     0.0063     2.5467     0.0544
 1553.5000     8.9113    72.2924     0.0154     2.5581     0.0471
 1554.0000     8.9056    72.0946     0.0212     2.5707     0.0397
 1554.5000     8.9000    71.8535     0.0183     2.5637     0.0452
 1555.0000     8.8944    71.6119     0.0076     2.5551     0.0506
 1555.5000     8.8888    71.3706     0.0031     2.5533     0.0510
 1556.0000     8.8832    71.1294     0.0072     2.5565     0.0484
 1556.5000     8.8777    70.8879     0.0111     2.5579     0.0466
 1557.0000     8.8721    70.6458     0.0082     2.5526     0.0510
 1557.5000     8.8665    70.4564     0.0048     2.5475     0.0553
 1558.0000     8.8609    70.9037     0.0022     2.5458     0.0575
 1558.5000     8.8553    71.3947     0.0097     2.5500     0.0514
 1559.0000     8.8497    71.8878     0.0104     2.5505     0.0519
 1559.5000     8.8441    72.3793     0.0094     2.5490     0.0539
 1560.0000     8.8385    72.8628     0.0053     2.5424     0.0587
 1560.5000     8.8329    73.0655     0.0003     2.5376     0.0604
 1561.0000     8.8353    72.6734    -0.0057     2.5348     0.0626
 1561.5000     8.8382    72.2915    -0.0183     2.5244     0.0692
 1562.0000     8.8410    71.9128    -0.0320     2.5139     0.0748
 1562.5000     8.8439    71.7660    -0.0320     2.5164     0.0722
 1563.0000     8.8467    72.2925    -0.0301     2.5198     0.0696
 1563.5000     8.8496    73.0114    -0.0280     2.5210     0.0700
 1564.0000     8.8525    73.7343    -0.0172     2.5278     0.0666
 1564.5000     8.8486    74.4557    -0.0042     2.5390     0.0589
 1565.0000     8.8435    75.1769     0.0035     2.5503     0.0512
 1565.5000     8.8383    75.8986     0.0100     2.5580     0.0486
 1566.0000     8.8331    76.6235     0.0140     2.5610     0.0482
 1566.5000     8.8381    77.3447     0.0152     2.5598     0.0458
 1567.0000     8.8443    77.1895     0.0094     2.5524     0.0510
 1567.5000     8.8505    76.9338     0.0020     2.5451     0.0557
 1568.0000     8.8567    76.6772    -0.0043     2.5402     0.0559
 1568.5000     8.8629    76.4219    -0.0082     2.5345     0.0631
 1569.0000     8.8690    76.1644    -0.0126     2.5260     0.0681
 1569.5000     8.8721    75.9213    -0.0188     2.5172     0.0736
 1570.0000     8.8660    76.1977    -0.0159     2.5171     0.0733
 1570.5000     8.8600    76.5069    -0.0128     2.5177     0.0721
 1571.0000     8.8539    76.8173    -0.0118     2.5184     0.0708
 1571.5000     8.8528    77.0882    -0.0094     2.5258     0.0674
 1572.0000     8.8528    76.6001    -0.0011     2.5325     0.0641
 1572.5000     8.8528    76.0846     0.0030     2.5351     0.0608
 1573.0000     8.8528    75.6100     0.0069     2.5433     0.0574
 1573.5000     8.8528    75.6124     0.0106     2.5462     0.0567
 1574.0000     8.8528    75.8722     0.0140     2.5422     0.0565
 1574.5000     8.8528    76.1342     0.0169     2.5495     0.0545
 1575.0000     8.8528    76.2042     0.0131     2.5409     0.0585
 1575.5000     8.8574    75.7503    -0.0017     2.5308     0.0652
 1576.0000     8.8625    75.2399    -0.0030     2.5263     0.0657
 1576.5000     8.8677    74.7350     0.0017     2.5277     0.0641
 1577.0000     8.8730    74.3667     0.0069     2.5305     0.0636
 1577.5000     8.8634    74.2994     0.0068     2.5346     0.0631
 1578.0000     8.8507    74.2257    -0.0011     2.5279     0.0664
 1578.5000     8.8379    74.1547    -0.0054     2.5227     0.0696
 1579.0000     8.8251    74.1056    -0.0047     2.5269     0.0650
 1579.5000     8.8126    73.5862     0.0062     2.5404     0.0572
 1580.0000     8.8365    72.9548     0.0151     2.5520     0.0527
 1580.5000     8.8712    72.5845     0.0142     2.5513     0.0522
 1581.0000     8.8486    72.5062     0.0134     2.5532     0.0505
 1581.5000     8.8243    72.4102     0.0113     2.5550     0.0495
