~VERSION INFORMATION
 VERS.                2.0:   CWLS LOG ASCII STANDARD - VERSION 2.0
 WRAP.                 NO:   ONE LINE PER DEPTH STEP
~WELL INFORMATION
#MNEM.UNIT      DATA TYPE    INFORMATION
#----------   ------------   ------------------------------
 STRT.F          484.0000:   START DEPTH
 STOP.F         2291.5000:   STOP DEPTH
 STEP.F            0.5000:   STEP LENGTH
 NULL.          -999.2500:   NO VALUE
 COMP. FENIX & SCISSON INC:   COMPANY
 WELL.     45 SHX 3 #45-3:   WELL
 FLD .             TEAPOT:   FIELD
 LOC .       S3 T38N R78W:   LOCATION
 CNTY.            NATRONA:   COUNTY
 STAT.            WYOMING:   STATE
 CTRY. UNITED STATES OF AMERICA:   COUNTRY
 SRVC.              Welex:   SERVICE COMPANY
 DATE.        20-APR-1980:   LOGDATE
 API .       490251080400:   API NUMBER
~CURVE INFORMATION
#MNEM.UNIT       API CODE    CURVE DESCRIPTION
#----------   ------------   ------------------------------
 DEPT.F                  :   
 CALD.IN     45 280 60 00:   CALIPER
 GRD .GAPI   45 310 01 00:   GAMMA RAY FROM DENSITY LOG
 CORR.G/C3   45 356 01 00:   DENSITY CORRECTION
 RHOB.G/C3   45 350 01 00:   BULK DENSITY
 DPHI.DEC    45 890 12 00:   DENSITY POROSITY SANDSTONE
~PARAMETER INFORMATION
#MNEM.UNIT          VALUE    DESCRIPTION
#----------   ------------   ------------------------------
 PD  .                 GL:   PERMANENT DATUM
 EPD .F              5186:   ELEVATION PERMANENT DATUM
 LMF .                 KB:   LOG MEASURED FROM
 DAPD.F                10:   FEET ABOVE PERMANENT DATUM
 DMF .                 KB:   DRILLING MEASURED FROM
 EKB .F              5196:   KELLING BUSHING
 EGL .F              5186:   GROUND LEVEL
 DATE.            4-20-80:   RUN DATE
 RUN .                  1:   RUN NUMBER
 DD  .F              2341:   DEPTH DRILLER
 DL  .F              2293:   DEPTH LOGGER
 BLI .F              2291:   BOTTOM LOG INTERVAL
 TLI .F               500:   TOP LOG INTERVAL
 CS  .IN            9.625:   CASING SIZE
 BS  .IN             8.75:   BIT SIZE
 BSD .F              2341:   BIT SIZE AT DEPTH
 DFT .                OIL:   DRILLING FLUID TYPE
 TCS .HRS               2:   TIME CURCULATED STOPPED
 MRT .F               218:   MAXIMUM RECORDED TEMPERATURE
 ENGI.            TOTHILL:   RECORDING ENGINEER
 WITN.           DINSMORE:   WITNESSED BY
 CLNT.            A2DTECH:   CLIENT CODE
 ORIG.           5" PRINT:   ORIGIN OF DATA
 UWI .       490251080400:   UNIQUE WELL ID
 DICO. A2D Technologies, Inc.:   DIGITIZING COMPANY
~OTHER INFORMATION
~A   DEPT     CALD         GRD      CORR       RHOB       DPHI   
# ...
 1216.0000     9.1315    68.9031    -0.0038     2.5128     0.0744
 1216.5000     9.0640    69.1726    -0.0002     2.5195     0.0711
 1217.0000     8.9928    69.1490    -0.0030     2.5183     0.0727
 1217.5000     8.9383    68.9720    -0.0030     2.5179     0.0715
 1218.0000     8.9040    68.7944    -0.0055     2.5178     0.0725
 1218.5000     8.8863    68.7277    -0.0089     2.5152     0.0744
 1219.0000     8.8741    69.0393    -0.0072     2.5145     0.0737
 1219.5000     8.8972    69.3381    -0.0046     2.5224     0.0709
 1220.0000     8.9199    69.6363    -0.0003     2.5227     0.0682
 1220.5000     8.9427    69.9345     0.0068     2.5286     0.0654
 1221.0000     8.9435    70.2327     0.0072     2.5268     0.0658
 1221.5000     8.9248    70.5310     0.0005     2.5175     0.0724
 1222.0000     8.9065    70.8301    -0.0078     2.5073     0.0817
 1222.5000     8.9156    71.1288    -0.0075     2.4980     0.0855
 1223.0000     8.9227    71.3821    -0.0128     2.4902     0.0897
 1223.5000     8.9301    71.2260    -0.0046     2.4941     0.0841
 1224.0000     8.9380    71.0640    -0.0025     2.5011     0.0807
 1224.5000     8.9460    70.9033     0.0078     2.5074     0.0784
 1225.0000     8.9527    70.7429     0.0092     2.5076     0.0788
 1225.5000     8.9299    70.5823     0.0004     2.5037     0.0791
 1226.0000     8.9058    70.4219    -0.0008     2.5028     0.0744
 1226.5000     8.8815    70.2622     0.0084     2.5217     0.0652
 1227.0000     8.8727    70.1703     0.0186     2.5367     0.0597
 1227.5000     8.8890    70.1711     0.0167     2.5295     0.0649
 1228.0000     8.9081    70.1709     0.0124     2.5204     0.0693
 1228.5000     8.9271    70.1712     0.0052     2.5195     0.0716
 1229.0000     8.9162    70.1717     0.0041     2.5206     0.0716
 1229.5000     8.8798    70.1666     0.0032     2.5214     0.0716
 1230.0000     8.8412    70.0770    -0.0007     2.5108     0.0749
 1230.5000     8.8567    69.9891    -0.0049     2.5015     0.0768
 1231.0000     8.8298    69.9020     0.0088     2.5193     0.0696
 1231.5000     8.7792    69.8148     0.0179     2.5317     0.0638
 1232.0000     8.8063    69.7274     0.0224     2.5411     0.0595
 1232.5000     8.8315    69.6404     0.0268     2.5384     0.0598
 1233.0000     8.8329    69.5761     0.0250     2.5299     0.0630
 1233.5000     8.8392    69.6509     0.0172     2.5215     0.0687
 1234.0000     8.8575    69.7242     0.0114     2.5130     0.0748
 1234.5000     8.8757    69.7976     0.0130     2.5135     0.0745
 1235.0000     8.8939    69.8673     0.0152     2.5147     0.0734
 1235.5000     8.9121    69.8339     0.0169     2.5123     0.0764
 1236.0000     8.9305    69.6423     0.0148     2.5078     0.0768
 1236.5000     8.9332    69.2477     0.0014     2.4966     0.0858
 1237.0000     8.9337    68.7428    -0.0032     2.4872     0.0893
 1237.5000     8.9535    68.2344    -0.0030     2.4882     0.0895
 1238.0000     9.0474    67.7240    -0.0026     2.4852     0.0906
 1238.5000     9.1063    67.2184    -0.0075     2.4799     0.0954
 1239.0000     9.0593    67.1402    -0.0036     2.4887     0.0878
 1239.5000     9.0904    67.7879    -0.0001     2.4970     0.0837
 1240.0000     9.1101    68.7363    -0.0005     2.4895     0.0901
 1240.5000     9.0186    68.7081    -0.0028     2.4895     0.0893
 1241.0000     8.9290    68.3531    -0.0054     2.4841     0.0915
 1241.5000     8.8354    67.9885    -0.0146     2.4829     0.0941
 1242.0000     8.8317    67.4597    -0.0191     2.4852     0.0917
 1242.5000     8.8334    67.6986    -0.0208     2.4874     0.0901
 1243.0000     8.8771    67.9195    -0.0223     2.4896     0.0893
 1243.5000     8.9239    67.9812    -0.0229     2.4923     0.0866
 1244.0000     8.9580    67.4656    -0.0221     2.4966     0.0837
 1244.5000     8.9825    66.9569    -0.0214     2.4955     0.0849
 1245.0000     9.0072    66.4879    -0.0211     2.4929     0.0860
 1245.5000     9.0318    66.2053    -0.0211     2.4924     0.0868
 1246.0000     9.0564    65.9164    -0.0211     2.4935     0.0877
 1246.5000     9.0808    65.6667    -0.0187     2.5041     0.0809
 1247.0000     9.0882    66.1084    -0.0061     2.5148     0.0742
 1247.5000     9.0550    66.5605     0.0011     2.5220     0.0704
 1248.0000     9.0229    67.0477    -0.0046     2.5171     0.0742
 1248.5000     8.9907    67.5251    -0.0117     2.5103     0.0776
 1249.0000     8.9586    68.0012    -0.0138     2.5090     0.0764
 1249.5000     8.9264    68.4773    -0.0118     2.5156     0.0717
 1250.0000     8.8942    68.9541    -0.0072     2.5237     0.0664
 1250.5000     8.8608    69.4556     0.0001     2.5342     0.0610
 1251.0000     8.8529    69.2853     0.0075     2.5422     0.0559
 1251.5000     8.8528    68.8951     0.0113     2.5491     0.0522
 1252.0000     8.8532    68.4987     0.0150     2.5483     0.0541
 1252.5000     8.8477    68.1036     0.0115     2.5426     0.0578
 1253.0000     8.8337    67.7133     0.0060     2.5326     0.0647
 1253.5000     8.8599    67.4507     0.0006     2.5257     0.0671
 1254.0000     8.8891    67.4544    -0.0030     2.5262     0.0674
 1254.5000     8.9183    67.4540     0.0002     2.5268     0.0667
 1255.0000     8.9474    67.5170     0.0039     2.5309     0.0646
 1255.5000     8.9762    67.9000     0.0076     2.5354     0.0620
 1256.0000     8.9876    68.4452     0.0113     2.5399     0.0595
 1256.5000     8.9492    69.0969     0.0147     2.5427     0.0579
 1257.0000     8.9118    69.7618     0.0082     2.5327     0.0619
 1257.5000     8.8752    69.6230     0.0054     2.5222     0.0692
 1258.0000     8.8778    69.2303     0.0087     2.5253     0.0663
 1258.5000     8.8956    68.8311     0.0047     2.5194     0.0717
 1259.0000     8.8149    68.4336    -0.0002     2.5125     0.0751
 1259.5000     8.7920    68.0586     0.0043     2.5175     0.0724
 1260.0000     8.8379    68.4492     0.0032     2.5095     0.0757
 1260.5000     8.8384    69.0355    -0.0030     2.4978     0.0836
 1261.0000     8.8080    69.6246    -0.0044     2.4953     0.0869
 1261.5000     8.7941    70.2422     0.0027     2.4994     0.0826
 1262.0000     8.8287    70.3958     0.0041     2.4939     0.0858
 1262.5000     8.8549    70.3043    -0.0037     2.4905     0.0889
 1263.0000     8.8611    70.1963    -0.0050     2.4933     0.0865
 1263.5000     8.8674    70.3270    -0.0050     2.4936     0.0868
 1264.0000     8.8731    70.6306    -0.0039     2.4949     0.0841
 1264.5000     8.8781    70.9350     0.0012     2.5056     0.0796
 1265.0000     8.8878    71.2399     0.0159     2.5122     0.0751
 1265.5000     8.8975    71.5437     0.0207     2.5177     0.0716
 1266.0000     8.9069    71.8472     0.0196     2.5193     0.0725
 1266.5000     8.9055    71.8300     0.0108     2.5066     0.0821
 1267.0000     8.8824    71.4023     0.0023     2.4984     0.0833
 1267.5000     8.8839    70.9762    -0.0059     2.4912     0.0918
 1268.0000     8.9018    70.5498    -0.0170     2.4756     0.0985
 1268.5000     8.9036    70.1281    -0.0228     2.4705     0.0962
 1269.0000     8.8777    69.9465    -0.0175     2.4802     0.0953
 1269.5000     8.8535    70.1543    -0.0203     2.4796     0.0945
 1270.0000     8.8528    70.3529    -0.0164     2.4856     0.0912
 1270.5000     8.8582    70.3464    -0.0092     2.4917     0.0881
 1271.0000     8.8637    70.0389    -0.0144     2.4835     0.0934
 1271.5000     8.8690    69.7355    -0.0251     2.4690     0.0994
 1272.0000     8.8705    69.4300    -0.0360     2.4602     0.1038
 1272.5000     8.8580    69.1661    -0.0363     2.4702     0.1017
 1273.0000     8.8461    68.9486    -0.0181     2.4843     0.0925
 1273.5000     8.8334    68.7305    -0.0044     2.4973     0.0833
 1274.0000     8.8627    68.5158     0.0016     2.5056     0.0797
 1274.5000     8.9152    68.4273     0.0012     2.5073     0.0805
 1275.0000     9.0053    68.7192    -0.0020     2.5035     0.0812
 1275.5000     9.0932    68.9097     0.0038     2.5093     0.0791
 1276.0000     9.1524    68.3465     0.0147     2.5158     0.0733
 1276.5000     9.1092    67.7823     0.0170     2.5223     0.0697
