~VERSION INFORMATION
 VERS.                2.0:   CWLS LOG ASCII STANDARD - VERSION 2.0
 WRAP.                 NO:   ONE LINE PER DEPTH STEP
~WELL INFORMATION
#MNEM.UNIT      DATA TYPE    INFORMATION
#----------   ------------   ------------------------------
 STRT.F           32.0000:   START DEPTH
 STOP.F         1006.0000:   STOP DEPTH
 STEP.F            0.5000:   STEP LENGTH
 NULL.          -999.2500:   NO VALUE
 COMP. FENIX & SCISSON INC:   COMPANY
 WELL.        NPR-3 #54-2:   WELL
 FLD .             TEAPOT:   FIELD
 LOC .       S2 T38N R78W:   LOCATION
 CNTY.            NATRONA:   COUNTY
 STAT.            WYOMING:   STATE
 CTRY. UNITED STATES OF AMERICA:   COUNTRY
 SRVC.              Welex:   SERVICE COMPANY
 DATE.        08-SEP-1977:   LOGDATE
 API .       490251041600:   API NUMBER
~CURVE INFORMATION
#MNEM.UNIT       API CODE    CURVE DESCRIPTION
#----------   ------------   ------------------------------
 DEPT.F                  :   
 CALD.IN     45 280 60 00:   CALIPER FROM DENSITY LOG
 GRD .GAPI   45 310 01 00:   GAMMA RAY FROM DENSITY LOG
 CORR.G/C3   45 356 01 00:   DENSITY CORRECTION
 DPHI.DEC    45 890 12 00:   DENSITY POROSITY SANDSTONE
 RHOB.G/C3   45 350 01 00:   BULK DENSITY
 SPR .MV     07 010 01 00:   SPONTANEOUS POTENTIAL
 ILD .OHMM   07 120 46 00:   INDUCTION LOG DEEP
 ILM .OHMM   07 120 44 00:   INDUCTION LOG MEDIUM
 SGRD.OHMM   07 221 05 00:   SHALLOW SHORT GUARD RESISTIVITY
~PARAMETER INFORMATION
#MNEM.UNIT          VALUE    DESCRIPTION
#----------   ------------   ------------------------------
 PD  .                 GL:   PERMANENT DATUM
 EPD .F              5160:   ELEVATION PERMANENT DATUM
 LMF .                 KB:   LOG MEASURED FROM
 DAPD.F                10:   FEET ABOVE PERMANENT DATUM
 DMF .                 KB:   DRILLING MEASURED FROM
 EKB .F              5170:   KELLING BUSHING
 EGL .F              5160:   GROUND LEVEL
 DATE.        08-SEP-1977:   RUN DATE
 RUN .                  1:   RUN NUMBER
 DD  .F              1000:   DEPTH DRILLER
 DL  .F              1008:   DEPTH LOGGER
 BLI .F              1006:   BOTTOM LOG INTERVAL
 TLI .F                47:   TOP LOG INTERVAL
 CS  .IN            8.625:   CASING SIZE
 BS  .IN             6.75:   BIT SIZE
 BSD .F              1000:   BIT SIZE AT DEPTH
 DFT .            KCL MUD:   DRILLING FLUID TYPE
 DFD .                9.1:   DRILLING FLUID DENSITY
 BHT .F               100:   BOTTOM HOLE TEMPERATURE
 TCS .HRS            0230:   TIME CURCULATED STOPPED
 MRT .F               100:   MAXIMUM RECORDED TEMPERATURE
 ENGI.          D. LAWSON:   RECORDING ENGINEER
 WITN.         HARRINGTON:   WITNESSED BY
 CLNT.            A2DTECH:   CLIENT CODE
 ORIG.           5" PRINT:   ORIGIN OF DATA
 UWI .       490251041600:   UNIQUE WELL ID
 DICO. A2D Technologies, Inc.:   DIGITIZING COMPANY
~OTHER INFORMATION
~A   DEPT     CALD         GRD       CORR      DPHI         RHOB      SPR        ILD        ILM       SGRD   
# ...
  287.5000     7.1862    76.2202     0.0156     0.1627     2.4021   -50.7861     3.9611     4.2693     6.8806
  288.0000     7.1884    73.5296     0.0145     0.1546     2.4045   -50.7656     3.7504     4.1603     6.5566
  288.5000     7.1907    75.9935     0.0146     0.1570     2.4014   -50.4503     3.5264     4.4144     3.2571
  289.0000     7.1929    74.3069     0.0163     0.1594     2.4013   -50.2844     3.9148     4.7285     3.8279
  289.5000     7.1951    75.9116     0.0195     0.1569     2.4037   -50.1186     4.0274     4.9319     6.1748
  290.0000     7.1974    76.0231     0.0212     0.1545     2.4082   -49.8032     4.0582     5.1392     6.8001
  290.5000     7.1996    73.6933     0.0214     0.1530     2.4098   -49.7868     4.2040     5.2458     6.7107
  291.0000     7.2019    72.1876     0.0231     0.1518     2.4083   -49.7704     4.5083     5.3270     6.6225
  291.5000     7.2041    73.3110     0.0232     0.1544     2.4031   -49.7541     4.7353     5.4048     6.5799
  292.0000     7.2063    76.2216     0.0234     0.1592     2.3987   -49.7377     4.9395     5.4796     6.7700
  292.5000     7.1936    74.2071     0.0221     0.1639     2.3934   -49.7213     5.0466     5.5214     6.8686
  293.0000     7.1959    75.1858     0.0223     0.1699     2.3860   -49.7049     5.1560     5.5253     7.0172
  293.5000     7.1981    78.8599     0.0210     0.1788     2.3763   -49.9916     5.2314     5.5674     7.0704
  294.0000     7.1854    75.0375     0.0196     0.1839     2.3666   -50.1246     5.2714     5.4568     6.6004
  294.5000     7.1876    71.1699     0.0183     0.1892     2.3546   -50.2577     5.3117     5.3457     6.9336
  295.0000     7.1899    74.4249     0.0170     0.1928     2.3442   -50.5362     5.2061     5.1678     6.4291
  295.5000     7.1921    80.0942     0.0172     0.2008     2.3352   -50.6693     5.0325     4.9916     5.9612
  296.0000     7.1943    79.4651     0.0159     0.2073     2.3255   -50.8065     4.7979     4.6958     6.3047
  296.5000     7.1966    74.8592     0.0145     0.2109     2.3091   -51.0890     4.5426     4.4773     6.0939
  297.0000     7.1988    77.9103     0.0117     0.2207     2.2942   -51.1306     4.1836     4.2080     6.0380
  297.5000     7.2011    81.0590     0.0103     0.2273     2.2875   -51.5270     3.6877     3.7964     5.9890
  298.0000     7.2033    83.0073     0.0076     0.2168     2.3085   -52.0996     3.2170     3.4015     5.9379
  298.5000     7.2055    77.1675     0.0077     0.1958     2.3362   -52.0787     2.9464     3.1120     5.1914
  299.0000     7.2078    71.2333     0.0094     0.1707     2.3715   -51.9084     2.7895     2.9071     4.2457
  299.5000     7.2100    69.0328     0.0141     0.1668     2.3820   -51.2897     2.6592     2.9091     3.0809
  300.0000     7.2065    70.1046     0.0143     0.1697     2.3760   -50.8204     2.5350     3.0982     2.4196
  300.5000     7.1856    73.8067     0.0120     0.1727     2.3736   -50.3511     2.4500     3.4697     2.5438
  301.0000     7.1648    78.0568     0.0101     0.1748     2.3695   -49.8818     2.7771     3.8293     5.0196
  301.5000     7.1419    82.7055     0.0087     0.1777     2.3673   -49.5621     3.0194     4.1663     6.3593
  302.0000     7.1437    81.0762     0.0089     0.1747     2.3711   -49.5412     3.2377     4.5449     7.0550
  302.5000     7.1303    78.5501     0.0151     0.1699     2.3787   -49.5204     3.4241     4.7734     7.1541
  303.0000     7.1318    73.9312     0.0242     0.1657     2.3862   -49.4995     3.6718     4.9445     6.5121
  303.5000     7.1333    71.8535     0.0319     0.1627     2.3938   -49.4787     4.0478     5.0864     5.8889
  304.0000     7.1348    75.7549     0.0364     0.1629     2.3931   -49.6125     4.5245     5.0895     5.6518
  304.5000     7.1363    74.4245     0.0367     0.1648     2.3895   -49.5865     4.7850     5.0927     5.1822
  305.0000     7.1378    73.6921     0.0397     0.1683     2.3850   -49.8655     4.8547     5.0607     6.2971
  305.5000     7.1393    75.0523     0.0430     0.1716     2.3791   -50.1427     4.7579     4.9590     6.7994
  306.0000     7.1408    73.7220     0.0475     0.1751     2.3724   -50.2720     4.5989     4.8274     6.3946
  306.5000     7.1423    72.8401     0.0521     0.1800     2.3665   -50.5501     4.4449     4.6339     6.0966
  307.0000     7.1437    72.8550     0.0555     0.1902     2.3509   -50.6781     4.3543     4.4482     5.9345
  307.5000     7.1452    73.4679     0.0586     0.2008     2.3412   -50.6573     4.1782     4.2405     5.8158
  308.0000     7.1467    74.9776     0.0616     0.2097     2.3256   -50.6364     3.9542     4.0988     5.7016
  308.5000     7.1632    77.9821     0.0617     0.2143     2.3084   -50.9145     3.7944     3.9345     5.2509
  309.0000     7.1647    79.9402     0.0603     0.2257     2.2942   -51.0434     3.6410     3.7508     5.1817
  309.5000     7.1662    80.2541     0.0569     0.2419     2.2793   -51.0223     3.3478     3.5510     5.1498
  310.0000     7.1677    79.2227     0.0471     0.2465     2.2584   -51.1510     3.0098     3.2029     5.0838
  310.5000     7.1841    77.5934     0.0262     0.2382     2.2518   -51.1284     2.7526     2.9906     4.5540
  311.0000     7.1856    75.8147     0.0038     0.2004     2.3357   -50.9547     2.5880     2.8907     4.2232
  311.5000     7.1871    73.7369     0.0054     0.1571     2.3920   -50.4903     2.5189     2.8326     3.7311
  312.0000     7.1886    71.6592     0.0130     0.1546     2.4011   -50.0209     2.4683     2.8152     3.2510
  312.5000     7.1901    70.0299     0.0192     0.1597     2.4019   -49.6886     2.5749     3.0241     2.3013
  313.0000     7.1916    70.4933     0.0238     0.1599     2.4042   -49.2317     2.7803     3.3413     2.6820
  313.5000     7.1931    73.4978     0.0240     0.1543     2.4065   -48.9118     3.0021     3.8133     7.3776
  314.0000     7.1792    75.0075     0.0241     0.1530     2.4051   -48.5919     3.2415     4.2660     7.5891
  314.5000     7.1961    73.0792     0.0258     0.1558     2.4029   -48.5710     3.5735     4.7789     7.0881
  315.0000     7.1673    76.9806     0.0259     0.1586     2.4000   -48.5501     4.1636     5.1600     6.8047
  315.5000     7.1841    79.2377     0.0275     0.1610     2.3971   -48.6796     4.7189     5.4195     6.5781
  316.0000     7.1856    79.1031     0.0292     0.1624     2.3934   -48.9525     5.2021     5.5366     5.7704
  316.5000     7.2020    76.4275     0.0293     0.1648     2.3883   -49.0863     5.3514     5.5400     6.6339
  317.0000     7.2035    75.8446     0.0294     0.1698     2.3786   -49.3644     5.3911     5.4664     7.1150
  317.5000     7.2050    76.6069     0.0296     0.1799     2.3659   -49.4879     5.2480     5.4706     7.0224
  318.0000     7.2065    80.0598     0.0282     0.1934     2.3473   -49.6217     5.1078     5.2878     6.8357
  318.5000     7.2080    81.2706     0.0268     0.2020     2.3309   -49.7451     4.9372     5.0409     6.6081
  319.0000     7.2095    83.3782     0.0194     0.2085     2.3182   -49.8790     4.4225     4.8055     6.6131
  319.5000     7.1957    84.7384     0.0136     0.2109     2.3100   -50.0076     4.0726     4.5495     6.7104
  320.0000     7.1822    84.1555     0.0152     0.1995     2.3191   -50.1311     3.8556     4.3371     6.5774
  320.5000     7.1688    82.0777     0.0184     0.1884     2.3409   -50.1102     3.4299     3.9664     5.7310
  321.0000     7.1707    73.4230     0.0230     0.1731     2.3665   -50.2441     3.2472     3.5529     4.7904
  321.5000     7.1568    70.0000     0.0276     0.1600     2.3927   -50.2180     3.1170     3.2718     4.1451
  322.0000     7.1434    72.1076     0.0293     0.1588     2.3981   -50.0477     2.9715     3.2966     2.7954
  322.5000     7.1153    74.9626     0.0294     0.1605     2.3981   -49.7279     2.8921     3.4385     2.4352
  323.0000     7.0869    76.6218     0.0296     0.1602     2.4005   -49.5576     2.9546     3.6270     3.7155
  323.5000     7.0731    78.2810     0.0297     0.1577     2.4035   -49.3873     3.1032     3.8591     6.0431
