~VERSION INFORMATION
 VERS.                2.0:   CWLS LOG ASCII STANDARD - VERSION 2.0
 WRAP.                 NO:   ONE LINE PER DEPTH STEP
~WELL INFORMATION
#MNEM.UNIT      DATA TYPE    INFORMATION
#----------   ------------   ------------------------------
 STRT.F           40.0000:   START DEPTH
 STOP.F         3444.0000:   STOP DEPTH
 STEP.F            0.5000:   STEP LENGTH
 NULL.          -999.2500:   NO VALUE
 COMP.    FENIX & SCISSON:   COMPANY
 WELL.     13-A-10 #13-10:   WELL
 FLD .            WILDCAT:   FIELD
 LOC .      S10 T38N R78W:   LOCATION
 CNTY.            NATRONA:   COUNTY
 STAT.            WYOMING:   STATE
 CTRY. UNITED STATES OF AMERICA:   COUNTRY
 SRVC.       Schlumberger:   SERVICE COMPANY
 DATE.        08-JUL-1970:   LOGDATE
 API .       490251090300:   API NUMBER
~CURVE INFORMATION
#MNEM.UNIT       API CODE    CURVE DESCRIPTION
#----------   ------------   ------------------------------
 DEPT.F                  :   
 ASN .OHMM   05 041 16 00:   AMPLIFIED SHORT NORMAL 16"
 CILD.MMHO   05 110 46 00:   CONDUCTIVITY INDUCTION LOG DEEP
 ILD .OHMM   05 120 46 00:   INDUCTION LOG DEEP
 SPR .MV     05 010 01 00:   SPONTANEOUS POTENTIAL FROM RES.
 CALD.IN     45 280 60 00:   CALIPER FROM DENSITY
 CORR.G/C3   45 356 01 00:   DENSITY CORRECTION
 DPHI.DEC    45 890 12 00:   DENSITY POROSITY SANDSTONE
 RHOB.G/C3   45 350 01 00:   BULK DENSITY
~PARAMETER INFORMATION
#MNEM.UNIT          VALUE    DESCRIPTION
#----------   ------------   ------------------------------
 PD  .                 GL:   PERMANENT DATUM
 EPD .F              5295:   ELEVATION PERMANENT DATUM
 LMF .                 KB:   LOG MEASURED FROM
 DAPD.F                10:   FEET ABOVE PERMANENT DATUM
 DMF .                 KB:   DRILLING MEASURED FROM
 EKB .F              5305:   KELLING BUSHING
 EGL .F              5295:   GROUND LEVEL
 DATE.        08-JUL-1970:   RUN DATE
 RUN .                  3:   RUN NUMBER
 DD  .F              3450:   DEPTH DRILLER
 DL  .F              3444:   DEPTH LOGGER
 BLI .F              3443:   BOTTOM LOG INTERVAL
 TLI .F              2950:   TOP LOG INTERVAL
 CS  .IN            10.75:   CASING SIZE
 CBD .F               842:   CASING BOTTOM DRILLER
 BS  .IN                9:   BIT SIZE
 BSD .F              3450:   BIT SIZE AT DEPTH
 DFT .      FRESH GEL MUD:   DRILLING FLUID TYPE
 DFD .               10.4:   DRILLING FLUID DENSITY
 DFV .                 43:   DRILLING FLUID VISCOSITY
 DFPH.                7.6:   DRILLING FLUID PH
 DFL .                  8:   DRILLING FLUID LOSS
 MSS .           FLOWLINE:   MUD SAMPLE SOURCE
 RMS .OHMM              2:   RESISTIVITY MUD SAMPLE
 MST .F                85:   MUD SAMPLE TEMPERATURE
 RMF .OHMM            1.6:   RESISTIVITY MUD FILTRATE SAMPLE
 MFST.F                85:   MUD FILTRATE SAMPLE TEMPERATURE
 MFSS.               MEAS:   MUD FILTRATE SAMPLE SOURCE
 RMB .OHMM           1.49:   RESISTIVITY MUD AT BHT
 BHT .F               114:   BOTTOM HOLE TEMPERATURE
 TCS .HRS               3:   TIME CURCULATED STOPPED
 MRT .F               114:   MAXIMUM RECORDED TEMPERATURE
 LUN .               4507:   LOGGING UNIT NUMBER
 LUL .               CSPR:   LOGGING UNIT LOCATION
 ENGI.             TURNER:   RECORDING ENGINEER
 WITN.                MAY:   WITNESSED BY
 CLNT.            A2DTECH:   CLIENT CODE
 ORIG.     2.5", 5" PRINT:   ORIGIN OF DATA
 UWI .       490251090300:   UNIQUE WELL ID
 DICO. A2D Technologies, Inc.:   DIGITIZING COMPANY
~OTHER INFORMATION
~A   DEPT        ASN      CILD         ILD      SPR       CALD       CORR       DPHI       RHOB   
# ...
 2956.0000     8.6491   138.0989     7.1285   -28.9114     9.7879     0.0191     0.0512     2.5641
 2956.5000     8.5589   138.1357     7.1253   -28.7732     9.7873     0.0237     0.0527     2.5626
 2957.0000     8.4988   138.1724     7.2718   -28.7821     9.8018     0.0342     0.0394     2.5814
 2957.5000     8.4685   138.2091     7.2687   -28.7911     9.8012     0.0185     0.0412     2.5838
 2958.0000     8.4383   138.2459     7.2656   -28.8017     9.8016     0.0080     0.0496     2.5755
 2958.5000     8.4679   138.2826     7.2627   -28.8105     9.8023     0.0050     0.0662     2.5461
 2959.0000     8.5275   138.3194     7.2597   -28.8193     9.8029     0.0065     0.0707     2.5364
 2959.5000     8.5871   136.8680     7.2567   -28.8282     9.8036     0.0051     0.0619     2.5431
 2960.0000     8.6467   136.9048     7.2537   -28.8370     9.8043    -0.0016     0.0688     2.5394
 2960.5000     8.7063   135.4534     7.2508   -28.8458     9.8197     0.0096     0.0577     2.5520
 2961.0000     8.7040   135.4910     7.2477   -28.8547     9.8202     0.0194     0.0496     2.5733
 2961.5000     8.6758   135.5283     7.2448   -28.8635     9.8358     0.0232     0.0411     2.5808
 2962.0000     8.6116   137.2022     7.2418   -28.8723     9.8362     0.0240     0.0435     2.5786
 2962.5000     8.4905   138.9498     7.1828   -28.8811     9.8366     0.0068     0.0477     2.5733
 2963.0000     8.3934   143.3039     7.0866   -28.8900     9.8371     0.0045     0.0471     2.5658
 2963.5000     8.1975   146.3540     6.9343   -28.8988     9.8224     0.0091     0.0507     2.5628
 2964.0000     7.9458   149.4057     6.8657   -28.9076     9.8230     0.0144     0.0495     2.5636
 2964.5000     7.6380   150.9666     6.6299   -28.9165     9.8234     0.0211     0.0459     2.5719
 2965.0000     7.5160   154.0178     6.4054   -28.9254     9.8238     0.0167     0.0525     2.5689
 2965.5000     7.4349   156.6592     6.3253   -28.9343     9.8243     0.0235     0.0507     2.5621
 2966.0000     7.4156   158.1845     6.0945   -28.9433     9.8086     0.0408     0.0495     2.5659
 2966.5000     7.4282   159.7098     5.9391   -28.9522     9.7950     0.0340     0.0444     2.5764
 2967.0000     7.4449   161.7562     5.7837   -28.9612     9.7804     0.0198     0.0627     2.5441
 2967.5000     7.4296   164.8064     5.6282   -28.9701     9.7657     0.0063     0.0645     2.5419
 2968.0000     7.4144   167.2619     5.4144   -28.9791     9.7663     0.0093     0.0699     2.5351
 2968.5000     7.4141   171.5394     5.4114   -28.9880     9.7667     0.0041     0.0651     2.5472
 2969.0000     7.3239   176.7859     5.2592   -28.9970     9.7522     0.0094     0.0610     2.5570
 2969.5000     7.1739   183.6675     5.2562   -29.0060     9.7526     0.0109     0.0512     2.5622
 2970.0000     7.0538   191.2202     5.2533   -29.0149     9.7379     0.0110     0.0635     2.5495
 2970.5000     6.9637   197.2849     5.5488   -29.0238     9.7234     0.0320     0.0662     2.5420
 2971.0000     6.8736   196.2800     5.8444   -29.0329     9.7228     0.0433     0.0542     2.5608
 2971.5000     7.1128   185.5679     6.4385   -29.0418     9.7092     0.0328     0.0518     2.5631
 2972.0000     7.5916   170.5431     7.0325   -29.0507     9.6796     0.0275     0.0578     2.5556
 2972.5000     8.7290   146.7703     8.0743   -29.3582     9.6499     0.0329     0.0572     2.5540
 2973.0000    10.0461   122.9975     9.4147   -29.6657     9.5901     0.0262     0.0566     2.5556
 2973.5000    13.4929   103.6890    10.9043   -29.8233     9.5132     0.0119     0.0821     2.5233
 2974.0000    16.7520    82.8924    13.7371   -30.7522     9.3802     0.0090     0.0978     2.4909
 2974.5000    20.3446    63.5839    20.5998   -33.3733     9.3504     0.0172     0.0911     2.4992
 2975.0000    24.6856    50.2278    24.3282   -37.8366     9.3509     0.0233     0.0854     2.5105
 2975.5000    28.2781    38.3598    29.5492   -40.1095     9.3514     0.0203     0.0893     2.5038
 2976.0000    33.2179    30.9561    33.1283   -41.4526     9.3518     0.0113     0.0854     2.5076
 2976.5000    37.4092    26.5285    36.4089   -41.6687     9.3523     0.0068     0.0580     2.5527
 2977.0000    39.8042    26.5653    38.1994   -41.6776     9.3528     0.0009     0.0412     2.5783
 2977.5000    40.2530    29.5782    39.0896   -41.4528     9.3532    -0.0006     0.0412     2.5805
 2978.0000    40.5521    32.5911    37.5516   -40.2506     9.3687     0.0064     0.0454     2.5760
 2978.5000    40.2524    35.6041    35.7382   -39.9135     9.3842     0.0212     0.0672     2.5480
 2979.0000    37.4078    38.6170    32.8405   -40.0647     9.3847     0.0235     0.0926     2.5077
 2979.5000    34.5632    40.1418    30.8020   -40.8301     9.3851     0.0243     0.1142     2.4701
 2980.0000    32.4671    41.6667    29.4627   -42.3680     9.3856     0.0206     0.1250     2.4513
 2980.5000    31.1097    41.7039    28.5313   -45.0609     9.3709     0.0238     0.1310     2.4363
 2981.0000    30.6601    40.2521    27.3213   -46.2810     9.3864     0.0266     0.1289     2.4378
 2981.5000    30.5201    38.8007    27.1257   -47.1330     9.3870     0.0177     0.1301     2.4370
 2982.0000    30.5198    38.6893    28.2657   -47.4404     9.3874     0.0057     0.1322     2.4356
 2982.5000    30.5195    37.2029    29.1319   -47.4492     9.3878     0.0012     0.1362     2.4280
 2983.0000    30.5192    35.9347    29.5049   -47.1582     9.3732     0.0021     0.1406     2.4228
 2983.5000    30.4839    35.9747    29.4589   -47.1684     9.3736     0.0148     0.1333     2.4326
 2984.0000    30.2192    36.0119    29.1084   -47.4757     9.3742     0.0178     0.1268     2.4401
 2984.5000    30.0242    36.3832    28.6511   -48.3800     9.3594     0.0118     0.1279     2.4431
 2985.0000    29.5199    37.9468    28.2463   -48.9859     9.3600     0.0074     0.1340     2.4402
 2985.5000    28.9658    39.0997    27.9416   -49.2932     9.3604     0.0074     0.1433     2.4138
 2986.0000    28.7210    40.6250    27.7862   -49.3021     9.3608     0.0089     0.1481     2.4086
 2986.5000    28.7207    41.1460    27.5688   -49.3109     9.3614     0.0120     0.1411     2.4214
 2987.0000    28.7204    42.1875    27.1766   -49.3197     9.3466     0.0232     0.1294     2.4371
 2987.5000    28.7948    42.2247    27.0896   -49.0298     9.3321     0.0270     0.1234     2.4490
 2988.0000    29.0990    40.7665    27.2298   -49.6359     9.3325     0.0271     0.1213     2.4440
 2988.5000    29.2534    39.3229    27.6806   -50.5536     9.3330     0.0203     0.1252     2.4357
 2989.0000    29.3180    39.3601    27.6776   -51.7693     9.3183     0.0151     0.1262     2.4408
 2989.5000    29.1679    39.3973    27.4440   -52.3489     9.3339     0.0084     0.1282     2.4357
 2990.0000    29.1676    37.9464    27.3731   -51.7015     9.3344     0.0122     0.1369     2.4279
 2990.5000    29.0176    37.9836    27.3701   -50.8362     9.3348     0.0197     0.1333     2.4316
 2991.0000    29.0173    38.0208    27.3666   -50.2396     9.3352     0.0182     0.1317     2.4323
 2991.5000    29.1667    38.0580    27.6621   -49.9962     9.3358     0.0130     0.1296     2.4305
 2992.0000    29.7652    38.1026    28.8532   -49.7065     9.3362     0.0093     0.1269     2.4442
 2992.5000    30.8128    36.6512    29.7458   -49.4168     9.3366     0.0123     0.1332     2.4373
 2993.0000    32.1599    35.1999    30.9369   -49.4269     9.3371     0.0206     0.1278     2.4305
 2993.5000    33.8063    33.7426    31.8294   -49.7343     9.3526     0.0229     0.1122     2.4499
 2994.0000    34.7042    30.8091    32.4235   -49.6459     9.3682     0.0026     0.0938     2.4799
 2994.5000    34.8536    29.3577    32.2713   -48.3463     9.3987    -0.0026     0.0802     2.5113
 2995.0000    34.8533    30.8826    31.6713   -47.3714     9.3991    -0.0018     0.0808     2.5015
 2995.5000    34.8479    33.8955    30.9221   -47.0836     9.3996     0.0065     0.0986     2.4646
 2996.0000    33.7151    35.4203    30.3221   -46.7940     9.3849     0.0110     0.1259     2.4360
