~VERSION INFORMATION
 VERS.                2.0:   CWLS LOG ASCII STANDARD - VERSION 2.0
 WRAP.                 NO:   ONE LINE PER DEPTH STEP
~WELL INFORMATION
#MNEM.UNIT      DATA TYPE    INFORMATION
#----------   ------------   ------------------------------
 STRT.F            0.0000:   START DEPTH
 STOP.F          524.0000:   STOP DEPTH
 STEP.F            0.5000:   STEP LENGTH
 NULL.          -999.2500:   NO VALUE
 COMP.       F D SERV INC:   COMPANY
 WELL. NAVAL PETROLEUM RESERVE 3 SX-1 #83-2-10:   WELL
 FLD .             TEAPOT:   FIELD
 LOC .      S10 T38N R78W:   LOCATION
 CNTY.            NATRONA:   COUNTY
 STAT.            WYOMING:   STATE
 CTRY. UNITED STATES OF AMERICA:   COUNTRY
 SRVC.     Atlas Wireline:   SERVICE COMPANY
 DATE.        10-FEB-1993:   LOGDATE
 API .       490252258100:   API NUMBER
~CURVE INFORMATION
#MNEM.UNIT       API CODE    CURVE DESCRIPTION
#----------   ------------   ------------------------------
 DEPT.F                  :   
 RILM.OHMM   07 120 44 00:   RESITIVITY LONG MEDIUM
 RILD.OHMM   07 120 46 00:   INDUCTION LOG DEEP RESISTIVITY
 GRR .GAPI   07 310 01 00:   GAMMA RAY
 PORZ.DEC    45 890 12 00:   DENSITY POROSITY
 ZCOR.G/C3   45 356 01 00:   DENSITY CORRECTION
 ZDEN.G/C3   45 350 01 00:   BULK DENSITY
 NPHI.DEC    42 890 03 00:   NEUTRON POROSITY SANDSTONE
 C13 .IN     45 280 13 00:   CALIPER X
~PARAMETER INFORMATION
#MNEM.UNIT          VALUE    DESCRIPTION
#----------   ------------   ------------------------------
 PD  .                 GL:   PERMANENT DATUM
 EPD .F              5156:   ELEVATION PERMANENT DATUM
 LMF .                 KB:   LOG MEASURED FROM
 DAPD.F                10:   FEET ABOVE PERMANENT DATUM
 DMF .                 KB:   DRILLING MEASURED FROM
 EKB .F              5166:   KELLING BUSHING
 EDF .F              5165:   DRILLING FLOOR
 EGL .F              5156:   GROUND LEVEL
 DATE.        10-FEB-1993:   RUN DATE
 RUN .                  1:   RUN NUMBER
 DD  .F               525:   DEPTH DRILLER
 DL  .F               526:   DEPTH LOGGER
 BLI .F               518:   BOTTOM LOG INTERVAL
 CS  .IN            8.625:   CASING SIZE
 CBD .F                80:   CASING BOTTOM DRILLER
 CBL .F                81:   CASING BOTTOM LOGGER
 BS  .IN            7.875:   BIT SIZE
 BSD .F               525:   BIT SIZE AT DEPTH
 DFT .                AIR:   DRILLING FLUID TYPE
 MRT .F                70:   MAXIMUM RECORDED TEMPERATURE
 LUN .            HL 6274:   LOGGING UNIT NUMBER
 LUL .             CASPER:   LOGGING UNIT LOCATION
 ENGI.          V. RAUTIO:   RECORDING ENGINEER
 WITN.          G. STRONG:   WITNESSED BY
 CLNT.            A2DTECH:   CLIENT CODE
 ORIG.           5" PRINT:   ORIGIN OF DATA
 UWI .       490252258100:   UNIQUE WELL ID
 DICO. A2D Technologies, Inc.:   DIGITIZING COMPANY
~OTHER INFORMATION
~A    DEPT    RILM       RILD         GRR      PORZ       ZCOR       ZDEN       NPHI        C13   
# ...
  405.0000    33.7024    36.2552    97.3443     0.2188     0.0131     2.2887     0.2538     8.0422
  405.5000    33.0046    35.0191    98.2429     0.2176     0.0100     2.2902     0.2565     8.0415
  406.0000    32.5460    33.5916    98.5339     0.2209     0.0085     2.2811     0.2547     8.0258
  406.5000    32.5408    32.8981    96.1100     0.2260     0.0084     2.2743     0.2505     8.0102
  407.0000    32.5365    32.6691    93.0849     0.2248     0.0084     2.2811     0.2457     8.0096
  407.5000    32.5323    32.2177    92.1714     0.2215     0.0098     2.2946     0.2403     8.0241
  408.0000    32.5279    31.7725    92.7662     0.2146     0.0158     2.3157     0.2370     8.0386
  408.5000    32.0751    30.9024    93.0594     0.2017     0.0248     2.3442     0.2304     8.0379
  409.0000    31.1941    30.0557    91.5404     0.1758     0.0427     2.3815     0.2234     8.0373
  409.5000    30.1277    29.4358    91.5319     0.1457     0.0352     2.4277     0.2142     8.0366
  410.0000    28.6708    28.6298    91.5234     0.1298     0.0171     2.4367     0.2072     8.0210
  410.5000    27.7154    28.0283    91.2111     0.1316    -0.0054     2.4141     0.2109     8.0205
  411.0000    27.1416    27.0828    92.4092     0.1596     0.0095     2.3697     0.2273     8.0199
  411.5000    26.7645    26.3412    96.6239     0.1734     0.0155     2.3456     0.2383     8.0192
  412.0000    26.7602    25.9772    98.7270     0.1831     0.0124     2.3396     0.2413     8.0186
  412.5000    26.3884    25.7962    99.3218     0.1879     0.0049     2.3335     0.2425     8.0333
  413.0000    26.0218    25.6162   101.7244     0.1921     0.0003     2.3245     0.2450     8.0325
  413.5000    25.4830    25.6145   106.5425     0.2002     0.0048     2.3117     0.2474     8.0318
  414.0000    25.1282    25.6128   107.4389     0.2069     0.0077     2.3041     0.2477     8.0313
  414.5000    25.1249    25.4344   102.6017     0.2081     0.0062     2.3078     0.2483     8.0307
  415.0000    24.9481    25.4323    98.3700     0.2060     0.0062     2.3086     0.2492     8.0301
  415.5000    24.9449    25.4307   100.1714     0.2054     0.0106     2.3078     0.2498     8.0294
  416.0000    24.7686    25.4290   103.7828     0.2066     0.0151     2.3085     0.2495     8.0439
  416.5000    24.4244    25.2518   104.9809     0.2066     0.0118     2.3123     0.2510     8.0434
  417.0000    24.4213    24.9025   104.3670     0.2045    -0.0015     2.3205     0.2538     8.0427
  417.5000    24.4181    24.7291   102.2468     0.1991    -0.0061     2.3167     0.2571     8.0421
  418.0000    24.2455    24.2191   101.6350     0.1985    -0.0016     2.3054     0.2586     8.0265
  418.5000    23.7435    23.8840   104.9426     0.2046     0.0058     2.3032     0.2571     8.0259
  419.0000    23.2519    23.7176   107.3474     0.2096     0.0135     2.3159     0.2562     8.0252
  419.5000    22.4556    23.3899   109.1488     0.2060     0.0193     2.3370     0.2559     8.0246
  420.0000    21.9914    23.0666   109.7436     0.1973     0.0117     2.3512     0.2568     8.0391
  420.5000    21.9886    22.5905   109.1296     0.1861    -0.0004     2.3587     0.2590     8.0386
  421.0000    21.9857    22.2784   107.9145     0.1799    -0.0004     2.3512     0.2605     8.0228
  421.5000    21.6747    21.9705   106.6993     0.1757    -0.0004     2.3384     0.2596     8.0222
  422.0000    21.2307    21.5174   105.7858     0.1754     0.0115     2.3429     0.2560     8.0217
  422.5000    20.7911    21.2197   106.6802     0.1884     0.0130     2.3579     0.2506     8.0211
  423.0000    20.5023    20.9264   106.6716     0.1865     0.0069     2.3777     0.2500     8.0356
  423.5000    20.2174    20.6373   106.3615     0.1757    -0.0021     2.3895     0.2503     8.0501
  424.0000    20.0745    20.3521   107.2579     0.1639    -0.0022     2.3932     0.2506     8.0494
  424.5000    19.6589    19.9320   109.9622     0.1555     0.0038     2.3856     0.2519     8.0488
  425.0000    19.2519    19.5209   111.4620     0.1579     0.0083     2.3766     0.2558     8.0330
  425.5000    18.9726    19.3849   111.4535     0.1655     0.0067     2.3713     0.2588     8.0325
  426.0000    18.7201    19.1153   110.8416     0.1682     0.0022     2.3743     0.2627     8.0168
  426.5000    18.5884    18.8526   109.0210     0.1670     0.0006     2.3728     0.2648     8.0163
  427.0000    18.3301    18.5921   110.8225     0.1658     0.0036     2.3592     0.2612     8.0156
  427.5000    18.0754    18.3351   113.5289     0.1703     0.0110     2.3629     0.2585     8.0150
  428.0000    17.8237    18.2074   113.2187     0.1766     0.0110     2.3751     0.2564     8.0144
  428.5000    17.4547    17.9555   111.0964     0.1703     0.0094     2.3877     0.2573     8.0137
  429.0000    17.2122    17.7074   111.0879     0.1586     0.0109     2.3952     0.2580     8.0132
  429.5000    17.0910    17.3422   110.7777     0.1544     0.0108     2.3952     0.2574     8.0277
  430.0000    16.9703    17.1025   109.8643     0.1532     0.0108     2.3952     0.2574     8.0271
  430.5000    16.8509    16.8659   109.5519     0.1542     0.0033     2.3929     0.2586     8.0416
  431.0000    16.8487    16.7484   111.3534     0.1565     0.0017     2.3861     0.2598     8.0409
  431.5000    16.8460    16.7474   111.6487     0.1604     0.0017     2.3816     0.2592     8.0403
  432.0000    16.8438    16.7462   110.7330     0.1646     0.0016     2.3740     0.2583     8.0398
  432.5000    16.8416    16.7449   109.2141     0.1680     0.0016     2.3725     0.2571     8.0390
  433.0000    16.7231    16.7438   106.4906     0.1665     0.0015     2.3725     0.2563     8.0234
  433.5000    16.7204    16.6272   104.6722     0.1620     0.0030     2.3740     0.2563     8.0229
  434.0000    16.4881    16.4976   103.7587     0.1526     0.0044     2.3777     0.2578     8.0072
  434.5000    16.2590    16.2829   107.0663     0.1425     0.0104     2.3912     0.2599     8.0065
  435.0000    16.1446    15.9471   112.4876     0.1391     0.0179     2.4115     0.2590     8.0212
  435.5000    15.8098    15.8360   109.4625     0.1451     0.0148     2.4175     0.2581     8.0357
  436.0000    15.6986    15.6171   106.4374     0.1505     0.0133     2.4160     0.2572     8.0500
  436.5000    15.5881    15.4011   105.5218     0.1512     0.0177     2.4047     0.2590     8.0192
  437.0000    15.2654    15.2938   107.9265     0.1469     0.0192     2.3986     0.2624     7.9734
  437.5000    15.0528    15.0825   110.3313     0.1415     0.0161     2.4024     0.2645     7.9277
  438.0000    14.8437    14.9772   111.5294     0.1373     0.0101     2.4114     0.2636     7.8970
  438.5000    14.6375    14.7702   111.8226     0.1349     0.0040     2.4234     0.2618     7.8963
  439.0000    14.4341    14.5661   111.2086     0.1340     0.0040     2.4256     0.2612     7.8807
  439.5000    14.2331    14.3648   111.2001     0.1322     0.0024     2.4272     0.2609     7.8801
  440.0000    14.1330    14.1661   110.8899     0.1286     0.0024     2.4369     0.2609     7.8946
  440.5000    13.9366    13.8739   110.5776     0.1226     0.0008     2.4429     0.2606     7.8939
  441.0000    13.7430    13.7773   109.6641     0.1232     0.0038     2.4489     0.2604     7.9085
  441.5000    13.6458    13.5869   108.4489     0.1253     0.0008     2.4436     0.2601     7.8928
  442.0000    13.4563    13.3989   107.5354     0.1250    -0.0023     2.4436     0.2601     7.9073
  442.5000    13.3616    13.3056   106.9215     0.1226     0.0007     2.4465     0.2601     7.9065
  443.0000    13.3598    13.2129   107.5163     0.1244     0.0051     2.4435     0.2601     7.9212
  443.5000    13.2654    13.2120   109.3177     0.1269     0.0111     2.4412     0.2601     7.9205
  444.0000    13.2637    13.2110   109.6109     0.1260     0.0080     2.4427     0.2598     7.9198
  444.5000    13.2620    13.1189   106.2820     0.1242     0.0020     2.4442     0.2592     7.9192
  445.0000    13.3525    13.1181   104.4635     0.1227     0.0004     2.4464     0.2586     7.9186
