~VERSION INFORMATION
 VERS.                2.0:   CWLS LOG ASCII STANDARD - VERSION 2.0
 WRAP.                 NO:   ONE LINE PER DEPTH STEP
~WELL INFORMATION
#MNEM.UNIT      DATA TYPE    INFORMATION
#----------   ------------   ------------------------------
 STRT.F          695.0000:   START DEPTH
 STOP.F         1588.0000:   STOP DEPTH
 STEP.F            0.5000:   STEP LENGTH
 NULL.          -999.2500:   NO VALUE
 COMP. FENIX & SCISSON INC:   COMPANY
 WELL. 13 SHX 10 STX #13-10:   WELL
 FLD .             TEAPOT:   FIELD
 LOC .      S10 T38N R78W:   LOCATION
 CNTY.            NATRONA:   COUNTY
 STAT.            WYOMING:   STATE
 CTRY. UNITED STATES OF AMERICA:   COUNTRY
 SRVC.            Unknown:   SERVICE COMPANY
 DATE.        22-JUL-1979:   LOGDATE
 API .       490251078700:   API NUMBER
~CURVE INFORMATION
#MNEM.UNIT       API CODE    CURVE DESCRIPTION
#----------   ------------   ------------------------------
 DEPT.F                  :   
 CORR.G/C3   45 356 01 00:   DENSITY CORRECTION
 RHOB.G/C3   45 350 01 00:   BULK DENSITY
 CALD.IN     45 280 60 00:   CALIPER
 GRD .GAPI   45 310 01 00:   GAMMA RAY FROM DENSITY LOG
 DPHI.DEC    45 890 12 00:   DENSITY POROSITY SANDSTONE
~PARAMETER INFORMATION
#MNEM.UNIT          VALUE    DESCRIPTION
#----------   ------------   ------------------------------
 PD  .                 GL:   PERMANENT DATUM
 EPD .F              5306:   ELEVATION PERMANENT DATUM
 LMF .                 DF:   LOG MEASURED FROM
 DAPD.F                 9:   FEET ABOVE PERMANENT DATUM
 DMF .                 KB:   DRILLING MEASURED FROM
 EKB .F              5316:   KELLING BUSHING
 EDF .F              5315:   DRILLING FLOOR
 EGL .F              5306:   GROUND LEVEL
 DATE.            7-22-79:   RUN DATE
 RUN .                  1:   RUN NUMBER
 DD  .F              1595:   DEPTH DRILLER
 DL  .F              1588:   DEPTH LOGGER
 BLI .F              1588:   BOTTOM LOG INTERVAL
 TLI .F               700:   TOP LOG INTERVAL
 CS  .IN            9.625:   CASING SIZE
 CBD .F               950:   CASING BOTTOM DRILLER
 CBL .F               950:   CASING BOTTOM LOGGER
 BS  .IN             8.75:   BIT SIZE
 BSD .F              1595:   BIT SIZE AT DEPTH
 DFT .                OIL:   DRILLING FLUID TYPE
 TCS .HRS               2:   TIME CURCULATED STOPPED
 LUN .               2959:   LOGGING UNIT NUMBER
 LUL .             CASPER:   LOGGING UNIT LOCATION
 ENGI.            ROLLINS:   RECORDING ENGINEER
 WITN.           DINSMORE:   WITNESSED BY
 CLNT.            A2DTECH:   CLIENT CODE
 ORIG.     1", 2.5" PRINT:   ORIGIN OF DATA
 UWI .       490251078700:   UNIQUE WELL ID
 DICO. A2D Technologies, Inc.:   DIGITIZING COMPANY
~OTHER INFORMATION
~A   DEPT     CORR       RHOB       CALD         GRD      DPHI   
# ...
 1183.0000     0.0134     2.4665     9.0110   118.1117     0.0520
 1183.5000     0.0147     2.4724     9.0284   118.8580     0.0474
 1184.0000     0.0185     2.4718     9.0413   120.2610     0.0485
 1184.5000     0.0236     2.4682     9.0542   122.3107     0.0513
 1185.0000     0.0437     2.4752     9.0641   124.0273     0.0428
 1185.5000     0.0772     2.4955     9.0711   123.2719     0.0332
 1186.0000     0.1124     2.5144     9.0785   120.5814     0.0236
 1186.5000     0.1480     2.5341     9.0852   117.3519     0.0141
 1187.0000     0.1836     2.5412     9.0934   114.4685     0.0091
 1187.5000     0.2098     2.5299     9.1019   112.7787     0.0187
 1188.0000     0.2021     2.5039     9.1462   111.2043     0.0323
 1188.5000     0.1798     2.4781     9.1984   109.6296     0.0459
 1189.0000     0.1515     2.4500     9.2298   108.1102     0.0595
 1189.5000     0.1238     2.4362     9.2412   106.4824     0.0686
 1190.0000     0.0959     2.4396     9.2541   106.2231     0.0723
 1190.5000     0.0768     2.4314     9.2617   105.5668     0.0762
 1191.0000     0.0650     2.4150     9.2219   106.5779     0.0800
 1191.5000     0.0528     2.4103     9.1789   108.6868     0.0830
 1192.0000     0.0402     2.4128     9.1355   110.8893     0.0825
 1192.5000     0.0286     2.4147     9.0921   111.8635     0.0781
 1193.0000     0.0161     2.4258     9.0457   110.6675     0.0710
 1193.5000     0.0219     2.4389     9.0139   109.5562     0.0627
 1194.0000     0.0293     2.4507     9.0051   107.0089     0.0571
 1194.5000     0.0366     2.4584     8.9942   104.1428     0.0540
 1195.0000     0.0408     2.4657     8.9827   101.1843     0.0513
 1195.5000     0.0530     2.4963     8.9778    99.6031     0.0363
 1196.0000     0.0900     2.5300     9.0028   103.6453     0.0140
 1196.5000     0.1274     2.5205     9.0466   107.6443     0.0156
 1197.0000     0.1058     2.4848     9.0904   112.1639     0.0409
 1197.5000     0.0702     2.4514     9.0113   112.8090     0.0724
 1198.0000     0.0312     2.4167     8.8974   110.0407     0.0752
 1198.5000     0.0103     2.4284     8.7836   109.0883     0.0777
 1199.0000     0.0117     2.4498     8.7753   111.4790     0.0594
 1199.5000     0.0127     2.4701     8.7677   110.0932     0.0454
 1200.0000     0.0280     2.4810     8.7650   106.8455     0.0415
 1200.5000     0.0287     2.4885     8.7599   104.8993     0.0370
 1201.0000     0.0309     2.4962     8.7552   104.2985     0.0324
 1201.5000     0.0314     2.5030     8.7509   106.4808     0.0279
 1202.0000     0.0312     2.5124     8.7464   111.9380     0.0245
 1202.5000     0.0279     2.5081     8.7419   114.5664     0.0318
 1203.0000     0.0235     2.4992     8.7374   112.4444     0.0378
 1203.5000     0.0197     2.4899     8.7329   108.8159     0.0383
 1204.0000     0.0159     2.4906     8.7283   106.8039     0.0371
 1204.5000     0.0253     2.4993     8.7238   105.0817     0.0312
 1205.0000     0.0355     2.5078     8.7192   103.2954     0.0252
 1205.5000     0.0427     2.5132     8.7146   103.2306     0.0235
 1206.0000     0.0387     2.5092     8.7101   104.7456     0.0263
 1206.5000     0.0350     2.5055     8.7055   106.4647     0.0290
 1207.0000     0.0310     2.5013     8.7010   106.8905     0.0318
 1207.5000     0.0270     2.4974     8.6977   107.3955     0.0346
 1208.0000     0.0231     2.4942     8.7017   108.1247     0.0359
 1208.5000     0.0191     2.4959     8.7065   108.8771     0.0359
 1209.0000     0.0152     2.4974     8.7114   109.2229     0.0359
 1209.5000     0.0114     2.4958     8.7163   108.9719     0.0359
 1210.0000     0.0116     2.4922     8.7212   108.6430     0.0359
 1210.5000     0.0120     2.4924     8.7261   106.5190     0.0359
 1211.0000     0.0125     2.4929     8.7310   104.9965     0.0359
 1211.5000     0.0129     2.4934     8.7358   106.8003     0.0359
 1212.0000     0.0134     2.4952     8.7407   107.0985     0.0347
 1212.5000     0.0138     2.4993     8.7456   106.8593     0.0329
 1213.0000     0.0143     2.5036     8.7505   106.4671     0.0311
 1213.5000     0.0148     2.5002     8.7553   107.5491     0.0313
 1214.0000     0.0153     2.4962     8.7602   108.9865     0.0334
 1214.5000     0.0164     2.4919     8.7651   110.3344     0.0354
 1215.0000     0.0179     2.4881     8.7700   111.1520     0.0367
 1215.5000     0.0193     2.4881     8.7748   109.2993     0.0366
 1216.0000     0.0276     2.4962     8.7797   107.1272     0.0366
 1216.5000     0.0389     2.5065     8.7846   105.2656     0.0284
 1217.0000     0.0407     2.5174     8.7895   105.2730     0.0214
 1217.5000     0.0315     2.5127     8.7943   106.4083     0.0255
 1218.0000     0.0239     2.5027     8.7992   107.6809     0.0318
 1218.5000     0.0158     2.4935     8.8041   108.9466     0.0380
 1219.0000     0.0151     2.4861     8.8088   110.1177     0.0409
 1219.5000     0.0166     2.4909     8.8140   109.9127     0.0368
 1220.0000     0.0213     2.4957     8.8191   108.6816     0.0312
 1220.5000     0.0225     2.4995     8.8339   109.1025     0.0332
 1221.0000     0.0196     2.4969     8.8482   110.4829     0.0359
 1221.5000     0.0170     2.4940     8.8630   109.6191     0.0359
 1222.0000     0.0157     2.4922     8.8776   108.3049     0.0363
 1222.5000     0.0173     2.4936     8.8921   109.6332     0.0367
 1223.0000     0.0188     2.4951     8.9070   111.7101     0.0351
 1223.5000     0.0205     2.4970     8.9214   113.4439     0.0336
 1224.0000     0.0220     2.4961     8.9350   117.0473     0.0349
 1224.5000     0.0231     2.4892     8.9519   122.8980     0.0380
 1225.0000     0.0210     2.4914     8.9868   120.8758     0.0388
 1225.5000     0.0191     2.4891     9.0205   115.9093     0.0397
 1226.0000     0.0171     2.4869     9.0547   112.4029     0.0405
 1226.5000     0.0152     2.4840     9.0890   110.1727     0.0408
 1227.0000     0.0132     2.4856     9.1231   111.8108     0.0399
 1227.5000     0.0114     2.4877     9.1572   115.6984     0.0388
 1228.0000     0.0118     2.4899     9.1917   117.9850     0.0378
 1228.5000     0.0231     2.4920     9.2252   116.9294     0.0368
 1229.0000     0.0287     2.4941     9.2608   115.7987     0.0359
 1229.5000     0.0307     2.4963     9.2822   115.5820     0.0351
 1230.0000     0.0334     2.4985     9.3048   113.9083     0.0339
 1230.5000     0.0363     2.5033     9.3263   109.4115     0.0316
 1231.0000     0.0545     2.5075     9.3483   107.2772     0.0292
 1231.5000     0.0717     2.5100     9.3711   107.8422     0.0270
 1232.0000     0.0884     2.5072     9.3904   106.4945     0.0270
 1232.5000     0.1056     2.5014     9.4053   105.5219     0.0314
 1233.0000     0.1225     2.4955     9.4211   104.3379     0.0364
 1233.5000     0.1355     2.4745     9.4370   108.5239     0.0408
 1234.0000     0.1173     2.4524     9.4526   112.8048     0.0558
 1234.5000     0.0941     2.4336     9.4684   115.0297     0.0667
 1235.0000     0.1069     2.4536     9.4842   114.1366     0.0588
 1235.5000     0.1213     2.4826     9.4998   113.7708     0.0351
 1236.0000     0.1260     2.4895     9.5154   113.8370     0.0351
 1236.5000     0.1158     2.4668     9.5319   109.9472     0.0488
 1237.0000     0.1068     2.4524     9.5446   107.8665     0.0611
 1237.5000     0.0982     2.4439     9.5769   109.4886     0.0666
 1238.0000     0.0892     2.4364     9.6200   111.2166     0.0718
 1238.5000     0.0795     2.4308     9.6623   109.8459     0.0719
 1239.0000     0.0794     2.4335     9.7033   108.5117     0.0681
 1239.5000     0.0873     2.4438     9.7482   106.8307     0.0643
 1240.0000     0.0944     2.4523     9.7877   111.2156     0.0619
 1240.5000     0.1025     2.4512     9.8176   118.6359     0.0648
 1241.0000     0.0964     2.4360     9.7122   119.6644     0.0717
 1241.5000     0.0756     2.4191     9.6306   116.4586     0.0779
 1242.0000     0.0702     2.4263     9.6623   116.0305     0.0686
 1242.5000     0.0797     2.4521     9.7035   114.6890     0.0544
 1243.0000     0.0806     2.4536     9.6816   112.7484     0.0580
 1243.5000     0.0683     2.4374     9.6489   110.8897     0.0707
