~VERSION INFORMATION
 VERS.                2.0:   CWLS LOG ASCII STANDARD - VERSION 2.0
 WRAP.                 NO:   ONE LINE PER DEPTH STEP
~WELL INFORMATION
#MNEM.UNIT      DATA TYPE    INFORMATION
#----------   ------------   ------------------------------
 STRT.F            5.0000:   START DEPTH
 STOP.F          640.0000:   STOP DEPTH
 STEP.F            0.5000:   STEP LENGTH
 NULL.          -999.2500:   NO VALUE
 COMP. BROWN JOHN E&C INC:   COMPANY
 WELL.     85-1 X 3 #85-3:   WELL
 FLD .             TEAPOT:   FIELD
 LOC .       S3 T38N R78W:   LOCATION
 CNTY.            NATRONA:   COUNTY
 STAT.            WYOMING:   STATE
 CTRY. UNITED STATES OF AMERICA:   COUNTRY
 SRVC.     Atlas Wireline:   SERVICE COMPANY
 DATE.        30-DEC-1991:   LOGDATE
 API .       490252249400:   API NUMBER
~CURVE INFORMATION
#MNEM.UNIT       API CODE    CURVE DESCRIPTION
#----------   ------------   ------------------------------
 DEPT.F                  :   
 GRR .GAPI   06 310 01 00:   GAMMA RAY FROM RESISTIVITY
 RFOC.OHMM   06 220 04 00:   RESISTIVITY FOCUSED LOG RES.
 RILD.OHMM   06 120 46 00:   DEEP INDUCTION RESISTIVITY
 RILM.OHMM   06 120 44 00:   INDUCTION LOG MEDIUM RESISTIVITY
 SPR .MV     06 010 01 00:   SPONTANEOUS POTENTIAL FROM RES.
 CALD.IN     45 280 60 00:   CALIPER FROM DENSITY LOG
 CORR.G/C3   45 356 01 00:   DENSITY CORRECTION
 DEN .G/C3   45 350 01 00:   COMPENSATED BULK DENSTIY
 PORD.DEC    45 890 12 00:   POROSITY DENSITY SANDSTONE
 CNC .DEC    42 890 03 00:   NEUTRON POROSITY SANDSTONE
~PARAMETER INFORMATION
#MNEM.UNIT          VALUE    DESCRIPTION
#----------   ------------   ------------------------------
 PD  .                 GL:   PERMANENT DATUM
 EPD .F              5156:   ELEVATION PERMANENT DATUM
 LMF .                 KB:   LOG MEASURED FROM
 DAPD.F                10:   FEET ABOVE PERMANENT DATUM
 DMF .                 KB:   DRILLING MEASURED FROM
 EKB .F              5166:   KELLING BUSHING
 EGL .F              5156:   GROUND LEVEL
 DATE.        30-DEC-1991:   RUN DATE
 RUN .                  1:   RUN NUMBER
 DD  .F               641:   DEPTH DRILLER
 DL  .F               642:   DEPTH LOGGER
 BLI .F               261:   BOTTOM LOG INTERVAL
 TLI .F               172:   TOP LOG INTERVAL
 CS  .IN            8.625:   CASING SIZE
 CBD .F               163:   CASING BOTTOM DRILLER
 CBL .F               172:   CASING BOTTOM LOGGER
 BS  .IN            7.875:   BIT SIZE
 BSD .F               641:   BIT SIZE AT DEPTH
 DFT .               CHEM:   DRILLING FLUID TYPE
 DFD .               17.1:   DRILLING FLUID DENSITY
 DFV .                 47:   DRILLING FLUID VISCOSITY
 DFPH.                9.0:   DRILLING FLUID PH
 DFL .                6.8:   DRILLING FLUID LOSS
 MSS .                PIT:   MUD SAMPLE SOURCE
 RMS .OHMM           1.40:   RESISTIVITY MUD SAMPLE
 MST .F               100:   MUD SAMPLE TEMPERATURE
 RMF .OHMM           1.12:   RESISTIVITY MUD FILTRATE SAMPLE
 MFST.F               100:   MUD FILTRATE SAMPLE TEMPERATURE
 RMC .OHMM           1.75:   RESISTIVITY MUD CAKE
 MCST.F               100:   MUD CAKE SAMPLE TEMPERATURE
 MFSS.               MEAS:   MUD FILTRATE SAMPLE SOURCE
 MCSS.               CALC:   MUD CAKE SAMPLE SOURCE
 RMB .OHMM           .536:   RESISTIVITY MUD AT BHT
 BHT .F               261:   BOTTOM HOLE TEMPERATURE
 TCS .HRS               4:   TIME CURCULATED STOPPED
 MRT .F               261:   MAXIMUM RECORDED TEMPERATURE
 LUN .            HL-6387:   LOGGING UNIT NUMBER
 LUL .          CASPER/WT:   LOGGING UNIT LOCATION
 ENGI.             ZIEGER:   RECORDING ENGINEER
 WITN.         LOFRENIERI:   WITNESSED BY
 CLNT.            A2DTECH:   CLIENT CODE
 ORIG.           5" PRINT:   ORIGIN OF DATA
 UWI .       490252249400:   UNIQUE WELL ID
 DICO. A2D Technologies, Inc.:   DIGITIZING COMPANY
~OTHER INFORMATION
~A    DEPT      GRR      RFOC       RILD       RILM        SPR       CALD       CORR        DEN       PORD        CNC   
# ...
  239.5000    76.4236     8.6329     8.8407     8.6806   -67.1890     9.5542     0.0035     2.4713     0.1254     0.2723
  240.0000    77.0348     8.5729     8.7792     8.6208   -67.4925     9.5546     0.0035     2.4690     0.1273     0.2726
  240.5000    77.6813     8.4542     8.7181     8.5584   -67.9472     9.5549     0.0020     2.4721     0.1257     0.2708
  241.0000    78.8635     8.2792     8.6575     8.2588   -68.0997     9.5552    -0.0010     2.4713     0.1248     0.2680
  241.5000    80.9873     8.0515     8.4782     8.0420   -68.1012     9.5706     0.0035     2.4705     0.1248     0.2671
  242.0000    83.7164     7.9911     8.2448     7.9312   -67.9516     9.5709     0.0035     2.4713     0.1260     0.2661
  242.5000    85.8402     7.9400     8.0179     7.9317   -67.8020     9.5712     0.0020     2.4728     0.1248     0.2638
  243.0000    85.5436     7.9400     7.8518     7.9323   -67.6527     9.5715     0.0005     2.4751     0.1236     0.2620
  243.5000    82.8263     7.9955     7.7430     7.9328   -67.5028     9.5719     0.0006     2.4781     0.1221     0.2611
  244.0000    81.3192     7.9955     7.7972     7.9333   -67.2025     9.5873     0.0006     2.4766     0.1212     0.2608
  244.5000    83.1558     7.9955     7.7972     7.9339   -66.7508     9.5876    -0.0009     2.4743     0.1215     0.2675
  245.0000    83.7519     7.9955     7.7972     7.9344   -66.4451     9.5879    -0.0009     2.4713     0.1242     0.2736
  245.5000    82.2461     7.9400     7.7972     7.8800   -66.1495     9.5882    -0.0009     2.4683     0.1263     0.2783
  246.0000    81.0417     7.8848     7.7972     7.8805   -65.8492     9.5885     0.0006     2.4645     0.1278     0.2813
  246.5000    80.4425     7.8300     7.7430     7.8263   -65.6992     9.5888     0.0038     2.4637     0.1294     0.2843
  247.0000    79.2381     7.7756     7.6892     7.7184   -65.3990     9.5892     0.0082     2.4645     0.1296     0.2852
  247.5000    80.4542     7.6679     7.6357     7.6652   -65.4004     9.5742     0.0082     2.4630     0.1296     0.2867
  248.0000    82.8807     7.5092     7.5299     7.5597   -65.4019     9.5746     0.0067     2.4615     0.1302     0.2897
  248.5000    85.6097     7.4570     7.4775     7.5076   -65.4033     9.5749     0.0067     2.4592     0.1326     0.2909
  249.0000    86.5234     7.4570     7.4255     7.5082   -65.5559     9.5752     0.0113     2.4569     0.1341     0.2897
  249.5000    85.9255     7.4570     7.4255     7.4565   -65.8598     9.5755     0.0158     2.4622     0.1341     0.2867
  250.0000    85.0237     7.4570     7.4379     7.4571   -66.0123     9.5910     0.0143     2.4698     0.1293     0.2843
  250.5000    84.7270     7.5092     7.5146     7.5098   -66.1648     9.5762     0.0068     2.4819     0.1181     0.2819
  251.0000    82.9174     7.5092     7.5837     7.5103   -66.3174     9.5614     0.0068     2.4834     0.1172     0.2807
  251.5000    80.5027     7.5618     7.5843     7.5290   -66.1674     9.5467     0.0083     2.4773     0.1184     0.2797
  252.0000    77.7855     7.6147     7.5848     7.5639   -66.1692     9.5624     0.0084     2.4712     0.1221     0.2782
  252.5000    80.7867     7.6679     7.6384     7.5644   -66.1707     9.5629     0.0084     2.4689     0.1248     0.2770
  253.0000    82.9047     7.6679     7.6924     7.5649   -66.0030     9.5633     0.0049     2.4636     0.1278     0.2773
  253.5000    83.5098     7.6679     7.7468     7.7795   -65.8502     9.5639     0.0018     2.4613     0.1302     0.2789
  254.0000    81.3918     7.7216     7.8016     7.7800   -65.6976     9.5795     0.0018     2.4643     0.1311     0.2834
  254.5000    80.7867     7.7756     7.8022     7.7805   -65.3941     9.5950     0.0032     2.4635     0.1299     0.2837
  255.0000    80.1614     7.7756     7.7483     7.7810   -65.0905     9.6106     0.0032     2.4628     0.1290     0.2837
  255.5000    79.5764     7.7216     7.6415     7.7275   -64.9380     9.6262     0.0061     2.4643     0.1302     0.2852
  256.0000    80.7867     7.6147     7.5361     7.6210   -64.6344     9.6267     0.0106     2.4635     0.1299     0.2897
  256.5000    78.9713     7.3027     7.3293     7.4120   -64.3308     9.5951     0.0135     2.4604     0.1296     0.2954
  257.0000    77.1558     7.0525     6.7401     6.9133   -64.1782     9.5821     0.0165     2.4581     0.1308     0.3048
  257.5000    80.7867     6.7166     6.1871     6.2708   -64.1764     9.5674     0.0179     2.4596     0.1323     0.3114
  258.0000    84.1150     6.7153     5.9049     5.9725   -64.4775     9.5679     0.0149     2.4641     0.1317     0.3087
  258.5000    85.6278     6.4209     6.0303     6.0568   -64.7781     9.5684     0.0087     2.4671     0.1284     0.3024
  259.0000    84.6436     6.1775     6.1582     6.1477   -64.9277     9.5688     0.0072     2.4686     0.1260     0.2915
  259.5000    81.3918     6.3522     6.2452     6.2726   -65.0769     9.5693     0.0117     2.4686     0.1260     0.2909
  260.0000    78.3661     6.7635     6.2894     6.3169   -65.5286     9.5697     0.0161     2.4716     0.1266     0.2915
  260.5000    78.9713     7.0525     6.3338     6.4060   -65.8293     9.5702     0.0191     2.4785     0.1236     0.2918
  261.0000    80.7867     7.1018     6.3855     6.4513   -65.9789     9.5858     0.0190     2.4814     0.1205     0.2933
  261.5000    80.1815     7.0035     6.4688     6.5423   -65.8263     9.5863     0.0144     2.4776     0.1190     0.2951
  262.0000    79.5764     6.8585     6.5601     6.6346   -65.6735     9.5867     0.0083     2.4738     0.1227     0.2942
  262.5000    80.8371     6.8030     6.6528     6.6815   -65.8234     9.5871     0.0020     2.4722     0.1245     0.2912
  263.0000    83.5098     6.7635     6.6998     6.7288   -65.8216     9.5876    -0.0008     2.4775     0.1239     0.2911
  263.5000    85.3253     6.7635     6.7003     6.7293   -65.8201     9.5880     0.0021     2.4805     0.1202     0.2933
  264.0000    86.8381     6.7635     6.7007     6.7297   -65.6676     9.5733     0.0036     2.4774     0.1187     0.2966
  264.5000    87.7458     6.8109     6.7012     6.7302   -65.5151     9.5435     0.0066     2.4721     0.1218     0.2939
  265.0000    86.8381     6.8109     6.7487     6.7777   -65.0604     9.5440     0.0095     2.4676     0.1245     0.2914
  265.5000    85.6278     6.8585     6.7964     6.8256   -64.7331     9.5444     0.0125     2.4661     0.1269     0.2905
  266.0000    85.0227     6.9548     6.8444     6.9219   -64.3019     9.5752     0.0139     2.4683     0.1278     0.2893
  266.5000    87.4433     7.0525     6.9897     7.0197   -63.9983     9.6059     0.0138     2.4721     0.1257     0.2872
  267.0000    88.9561     7.1515     7.0884     7.1686   -63.9968     9.6064     0.0077     2.4743     0.1241     0.2814
  267.5000    90.1664     7.2519     7.1893     7.2697   -63.9953     9.6068     0.0032     2.4758     0.1224     0.2790
  268.0000    89.8638     7.3538     7.2900     7.2702   -63.9939     9.6074     0.0061     2.4758     0.1218     0.2809
  268.5000    87.4433     7.3538     7.2906     7.2707   -63.9924     9.6078     0.0136     2.4780     0.1221     0.2851
  269.0000    84.7201     7.3538     7.2911     7.2712   -63.9939     9.6082     0.0181     2.4803     0.1208     0.2914
  269.5000    85.3253     7.3027     7.2409     7.2212   -64.1405     9.6238     0.0165     2.4795     0.1196     0.2984
  270.0000    86.8381     7.2519     7.2414     7.2150   -64.2901     9.6546     0.0149     2.4757     0.1202     0.2999
  270.5000    86.2330     7.1515     7.2418     7.1221   -64.4394     9.6702     0.0118     2.4658     0.1246     0.3011
  271.0000    84.4175     7.0525     7.1420     7.0731   -64.4379     9.6858     0.0073     2.4643     0.1296     0.3035
  271.5000    82.9047     6.9548     7.0847     6.9758   -64.5878     9.6407     0.0027     2.4628     0.1299     0.3076
  272.0000    83.2073     6.8585     6.9950     6.9277   -64.7374     9.5806    -0.0019     2.4612     0.1296     0.3147
  272.5000    85.0227     6.7166     6.9468     6.8322   -64.7356     9.5811     0.0026     2.4612     0.1299     0.3201
