~VERSION INFORMATION
 VERS.                2.0:   CWLS LOG ASCII STANDARD - VERSION 2.0
 WRAP.                 NO:   ONE LINE PER DEPTH STEP
~WELL INFORMATION
#MNEM.UNIT      DATA TYPE    INFORMATION
#----------   ------------   ------------------------------
 STRT.F         1420.5000:   START DEPTH
 STOP.F         2350.5000:   STOP DEPTH
 STEP.F            0.5000:   STEP LENGTH
 NULL.          -999.2500:   NO VALUE
 COMP. BROWN JOHN E&C INC:   COMPANY
 WELL.   15 STX-14 #15-14:   WELL
 FLD .             TEAPOT:   FIELD
 LOC .      S14 T38N R78W:   LOCATION
 CNTY.            NATRONA:   COUNTY
 STAT.            WYOMING:   STATE
 CTRY. UNITED STATES OF AMERICA:   COUNTRY
 SRVC.            Unknown:   SERVICE COMPANY
 DATE.        02-JUN-1991:   LOGDATE
 API .       490251096000:   API NUMBER
~CURVE INFORMATION
#MNEM.UNIT       API CODE    CURVE DESCRIPTION
#----------   ------------   ------------------------------
 DEPT.F                  :   
 ROP .MIN/FT 91 810 01 00:   RATE OF DRILLING PENETRATION
 TGAS.UNITS  91 830 01 00:   TOTAL GAS
~PARAMETER INFORMATION
#MNEM.UNIT          VALUE    DESCRIPTION
#----------   ------------   ------------------------------
 EKB .F              5241:   KELLING BUSHING
 EGL .F              5231:   GROUND LEVEL
 DATE.             6-2-91:   RUN DATE
 DD  .F              2350:   DEPTH DRILLER
 BLI .F              2347:   BOTTOM LOG INTERVAL
 TLI .F              1420:   TOP LOG INTERVAL
 ENGI.              TOWER:   RECORDING ENGINEER
 CLNT.            A2DTECH:   CLIENT CODE
 ORIG.         2.5" PRINT:   ORIGIN OF DATA
 UWI .       490251096000:   UNIQUE WELL ID
 DICO. A2D Technologies, Inc.:   DIGITIZING COMPANY
~OTHER INFORMATION
~A  DEPT       ROP        TGAS  
# ...
 1542.0000     0.5225   734.1218
 1542.5000     0.5408   709.9055
 1543.0000     0.5470   672.5918
 1543.5000     0.5585   654.1064
 1544.0000     0.5768   654.4770
 1544.5000     0.5951   654.8536
 1545.0000     0.5946   655.2301
 1545.5000     0.5940   648.5939
 1546.0000     0.5749   628.3057
 1546.5000     0.5344   608.0202
 1547.0000     0.5105   600.2511
 1547.5000     0.4611   586.2730
 1548.0000     0.4045   582.1758
 1548.5000     0.3853   582.5668
 1549.0000     0.3772   562.0313
 1549.5000     0.3656   526.7677
 1550.0000     0.3839   527.1966
 1550.5000     0.3834   527.5732
 1551.0000     0.3830   527.9498
 1551.5000     0.3824   528.3263
 1552.0000     0.3820   516.6519
 1552.5000     0.3816   510.2510
 1553.0000     0.3894   510.6842
 1553.5000     0.3993   529.8558
 1554.0000     0.3989   530.1989
 1554.5000     0.3984   511.7136
 1555.0000     0.3979   512.1339
 1555.5000     0.3974   512.5104
 1556.0000     0.3970   512.8870
 1556.5000     0.3965   513.2636
 1557.0000     0.3961   513.6402
 1557.5000     0.4143   514.0167
 1558.0000     0.4326   514.4586
 1558.5000     0.4740   514.8016
 1559.0000     0.5158   515.1464
 1559.5000     0.5809   515.5231
 1560.0000     0.6180   515.8996
 1560.5000     0.6737   516.2761
 1561.0000     0.6919   516.6527
 1561.5000     0.7188   517.0293
 1562.0000     0.6879   506.2965
 1562.5000     0.6476   511.8963
 1563.0000     0.6074   518.2328
 1563.5000     0.5788   518.5759
 1564.0000     0.5599   518.9190
 1564.5000     0.5597   519.2887
 1565.0000     0.5782   519.6653
 1565.5000     0.5779   520.0419
 1566.0000     0.5836   520.4184
 1566.5000     0.5962   520.7950
 1567.0000     0.6334   521.1716
 1567.5000     0.6519   521.5481
 1568.0000     0.6704   521.9247
 1568.5000     0.6139   522.3502
 1569.0000     0.5576   522.6932
 1569.5000     0.6000   523.0544
 1570.0000     0.6398   523.4310
 1570.5000     0.6609   523.8076
 1571.0000     0.6690   524.1841
 1571.5000     0.6875   524.5607
 1572.0000     0.7060   524.9373
 1572.5000     0.7245   525.3138
 1573.0000     0.7430   525.6904
 1573.5000     0.7427   526.1244
 1574.0000     0.7425   526.4675
 1574.5000     0.7422   526.8201
 1575.0000     0.7420   527.1967
 1575.5000     0.7418   527.5733
 1576.0000     0.7216   527.9498
 1576.5000     0.6813   528.3264
 1577.0000     0.6036   528.7029
 1577.5000     0.5723   529.0795
 1578.0000     0.5908   529.4561
 1578.5000     0.6467   529.8326
 1579.0000     0.6653   530.2092
 1579.5000     0.6650   530.5858
 1580.0000     0.6648   530.9623
 1580.5000     0.6589   531.3389
 1581.0000     0.6186   531.7155
 1581.5000     0.6453   532.0920
 1582.0000     0.7013   532.4686
 1582.5000     0.7760   532.3229
 1583.0000     0.8132   531.3370
 1583.5000     0.7544   530.3511
 1584.0000     0.6904   529.3652
 1584.5000     0.6364   528.3793
 1585.0000     0.5961   527.3934
 1585.5000     0.5873   526.4074
 1586.0000     0.5683   525.4215
 1586.5000     0.5494   524.4355
 1587.0000     0.5304   523.4496
 1587.5000     0.5302   522.4637
 1588.0000     0.5300   521.4778
 1588.5000     0.5579   520.4919
 1589.0000     0.5857   519.5059
 1589.5000     0.6229   519.2888
 1590.0000     0.6788   519.6653
 1590.5000     0.6973   519.3177
 1591.0000     0.7007   518.7180
 1591.5000     0.7344   518.1183
 1592.0000     0.7154   517.5186
 1592.5000     0.6776   516.9189
 1593.0000     0.5838   516.3192
 1593.5000     0.4899   515.7195
 1594.0000     0.4897   515.1198
 1594.5000     0.5111   514.5201
 1595.0000     0.5696   513.9204
 1595.5000     0.5907   513.3207
 1596.0000     0.6386   512.7210
 1596.5000     0.6009   512.1213
 1597.0000     0.5819   511.5216
 1597.5000     0.5817   510.9219
 1598.0000     0.5209   510.3222
 1598.5000     0.4454   509.7225
 1599.0000     0.4051   509.1229
 1599.5000     0.3748   508.5232
 1600.0000     0.4119   508.3153
 1600.5000     0.4118   508.5177
 1601.0000     0.4490   508.7200
 1601.5000     0.4300   508.9224
 1602.0000     0.4298   504.0368
 1602.5000     0.4108   490.4812
 1603.0000     0.4293   490.6694
 1603.5000     0.4478   490.8577
 1604.0000     0.5100   491.0460
 1604.5000     0.5917   491.2343
 1605.0000     0.6445   491.4226
 1605.5000     0.6716   491.6108
 1606.0000     0.6713   491.7991
 1606.5000     0.6465   491.9874
 1607.0000     0.5718   492.1757
 1607.5000     0.5119   492.3640
 1608.0000     0.5018   492.5523
 1608.5000     0.5203   492.7406
 1609.0000     0.5771   492.9288
 1609.5000     0.6365   493.1171
 1610.0000     0.6851   494.4909
 1610.5000     0.7254   496.2262
 1611.0000     0.7813   497.9614
 1611.5000     0.7999   499.6966
 1612.0000     0.7809   501.4319
 1612.5000     0.7807   503.1671
 1613.0000     0.7804   504.9023
 1613.5000     0.7427   506.6375
 1614.0000     0.6863   508.3727
 1614.5000     0.6280   510.1080
 1615.0000     0.5868   511.8432
 1615.5000     0.5733   513.5784
 1616.0000     0.5730   514.3933
 1616.5000     0.5728   514.5816
 1617.0000     0.5726   514.7905
 1617.5000     0.5723   514.9603
 1618.0000     0.5721   515.1465
 1618.5000     0.5718   515.3347
 1619.0000     0.6091   515.5230
 1619.5000     0.6463   515.7113
 1620.0000     0.7054   515.8996
 1620.5000     0.7770   516.0878
 1621.0000     0.7767   516.2761
 1621.5000     0.7390   516.4881
 1622.0000     0.6638   516.6578
 1622.5000     0.6262   516.8410
 1623.0000     0.6501   507.2073
 1623.5000     0.7186   498.3891
 1624.0000     0.7940   498.5774
 1624.5000     0.8499   498.7913
 1625.0000     0.9075   498.9611
 1625.5000     0.9560   500.4530
 1626.0000     1.0334   502.0033
 1626.5000     1.0925   503.5536
 1627.0000     1.1484   505.1039
 1627.5000     1.0733   506.6541
 1628.0000     0.9919   508.2044
 1628.5000     0.9417   509.7547
 1629.0000     0.9126   511.3050
 1629.5000     0.8663   512.8552
 1630.0000     0.8099   514.4055
 1630.5000     0.7605   515.9558
 1631.0000     0.5496   517.5060
 1631.5000     0.5275   519.0563
 1632.0000     0.6404   517.5319
 1632.5000     0.7151   496.8341
 1633.0000     0.7149   483.1381
 1633.5000     0.7147   483.3264
 1634.0000     0.7144   483.5146
 1634.5000     0.6954   483.7029
 1635.0000     0.6952   483.8912
 1635.5000     0.6950   484.0795
 1636.0000     0.6729   484.2678
 1636.5000     0.6383   490.1510
 1637.0000     0.5991   503.4728
 1637.5000     0.5255   513.4680
 1638.0000     0.5065   522.6778
 1638.5000     0.6756   522.8661
 1639.0000     1.1116   523.0544
 1639.5000     1.3560   523.2427
 1640.0000     1.5543   523.4310
 1640.5000     1.6102   523.6193
 1641.0000     1.6857   523.8440
 1641.5000     1.7264   523.9958
 1642.0000     1.7484   524.2118
 1642.5000     1.5882   505.5531
 1643.0000     1.4015   505.7322
 1643.5000     1.1667   505.9205
 1644.0000     1.0055   500.9608
 1644.5000     0.8738   487.4686
 1645.0000     0.7561   496.9131
 1645.5000     0.6107   495.3623
 1646.0000     0.5158   488.0335
 1646.5000     0.4964   488.2524
 1647.0000     0.4574   488.4222
 1647.5000     0.4202   488.5983
 1648.0000     0.4195   488.7866
 1648.5000     0.4000   488.9749
 1649.0000     0.4181   489.1632
 1649.5000     0.4458   489.3515
 1650.0000     0.5009   489.5398
 1650.5000     0.5844   502.7647
 1651.0000     0.6587   508.7784
 1651.5000     0.7143   508.9482
 1652.0000     0.7409   509.1213
 1652.5000     0.7690   509.3096
 1653.0000     0.7870   505.0101
 1653.5000     0.7863   490.8578
 1654.0000     0.7775   482.4478
 1654.5000     0.7660   472.4059
 1655.0000     0.7654   472.5941
 1655.5000     0.7647   453.9906
 1656.0000     0.7640   454.1603
 1656.5000     0.7445   435.4562
 1657.0000     0.7439   416.8430
 1657.5000     0.7058   417.0502
 1658.0000     0.6982   417.2385
 1658.5000     0.6481   417.4268
 1659.0000     0.6287   417.6151
 1659.5000     0.6093   405.4244
 1660.0000     0.6086   399.1632
 1660.5000     0.5891   380.5441
 1661.0000     0.5697   380.7139
 1661.5000     0.5691   379.1254
 1662.0000     0.5684   362.2249
 1662.5000     0.5864   356.5641
 1663.0000     0.6044   343.8075
