~VERSION INFORMATION
 VERS.                2.0:   CWLS LOG ASCII STANDARD - VERSION 2.0
 WRAP.                 NO:   ONE LINE PER DEPTH STEP
~WELL INFORMATION
#MNEM.UNIT      DATA TYPE    INFORMATION
#----------   ------------   ------------------------------
 STRT.F            8.0000:   START DEPTH
 STOP.F          473.0000:   STOP DEPTH
 STEP.F            0.5000:   STEP LENGTH
 NULL.          -999.2500:   NO VALUE
 COMP.   LAWRENCE-ALLISON:   COMPANY
 WELL. NPR 3 #58-55SX3OB1:   WELL
 FLD .             TEAPOT:   FIELD
 LOC .       S3 T38N R78W:   LOCATION
 CNTY.            NATRONA:   COUNTY
 STAT.            WYOMING:   STATE
 CTRY. UNITED STATES OF AMERICA:   COUNTRY
 SRVC.      Dresser Atlas:   SERVICE COMPANY
 DATE.        17-DEC-1984:   LOGDATE
 API .       490251100600:   API NUMBER
~CURVE INFORMATION
#MNEM.UNIT       API CODE    CURVE DESCRIPTION
#----------   ------------   ------------------------------
 DEPT.F                  :   
 AC  .US/F   60 520 00 00:   ACCOUSTIC
 PORD.DEC    45 890 12 00:   POROSITY DENSITY SANDSTONE
 CNC .DEC    42 890 03 00:   NEUTRON POROSITY SANDSTONE
 CALD.IN     45 280 60 00:   CALIPER FROM DENSITY
 GRD .GAPI   45 310 01 00:   GAMMA RAY FROM DENSITY LOG
 CORR.G/C3   45 356 01 00:   DENSITY CORRECTION
 DEN .G/C3   45 350 01 00:   COMPENSATED BULK DENSTIY
~PARAMETER INFORMATION
#MNEM.UNIT          VALUE    DESCRIPTION
#----------   ------------   ------------------------------
 PD  .                 GL:   PERMANENT DATUM
 EPD .F              5194:   ELEVATION PERMANENT DATUM
 LMF .                 GL:   LOG MEASURED FROM
 DMF .                 GL:   DRILLING MEASURED FROM
 EGL .F              5194:   GROUND LEVEL
 DATE.        17-DEC-1984:   RUN DATE
 RUN .                  1:   RUN NUMBER
 DD  .F               480:   DEPTH DRILLER
 DL  .F               475:   DEPTH LOGGER
 BLI .F               473:   BOTTOM LOG INTERVAL
 TLI .F                20:   TOP LOG INTERVAL
 CS  .IN            8.625:   CASING SIZE
 CBD .F                20:   CASING BOTTOM DRILLER
 CBL .F                20:   CASING BOTTOM LOGGER
 BS  .IN             6.25:   BIT SIZE
 BSD .F               480:   BIT SIZE AT DEPTH
 DFT .          KCL WATER:   DRILLING FLUID TYPE
 MSS .           FLOWLINE:   MUD SAMPLE SOURCE
 RMS .OHMM          0.134:   RESISTIVITY MUD SAMPLE
 MST .F                72:   MUD SAMPLE TEMPERATURE
 RMF .OHMM           0.10:   RESISTIVITY MUD FILTRATE SAMPLE
 MFST.F                72:   MUD FILTRATE SAMPLE TEMPERATURE
 RMC .OHMM           0.17:   RESISTIVITY MUD CAKE
 MCST.F                72:   MUD CAKE SAMPLE TEMPERATURE
 MFSS.               CALC:   MUD FILTRATE SAMPLE SOURCE
 MCSS.               CALC:   MUD CAKE SAMPLE SOURCE
 TCS .HRS               2:   TIME CURCULATED STOPPED
 MRT .F               100:   MAXIMUM RECORDED TEMPERATURE
 LUN .               6270:   LOGGING UNIT NUMBER
 ENGI.            LEBSOCK:   RECORDING ENGINEER
 WITN.          DAN LUERS:   WITNESSED BY
 CLNT.            A2DTECH:   CLIENT CODE
 ORIG.           5" PRINT:   ORIGIN OF DATA
 UWI .       490251100600:   UNIQUE WELL ID
 DICO. A2D Technologies, Inc.:   DIGITIZING COMPANY
~OTHER INFORMATION
~A    DEPT      AC       PORD        CNC       CALD        GRD       CORR        DEN   
# ...
  235.5000   114.7389     0.1593     0.3461     6.2469   120.7988     0.0101     2.4348
  236.0000   116.0830     0.1763     0.3621     6.2467   122.0600     0.0070     2.4039
  236.5000   115.8529     0.1826     0.3663     6.2465   123.0330     0.0039     2.3706
  237.0000   113.6738     0.1842     0.3588     6.2464   118.6787     0.0204     2.3752
  237.5000   110.4452     0.1679     0.3462     6.2313   118.2282     0.0035     2.4046
  238.0000   108.2660     0.1498     0.3314     6.2311   120.7808     0.0037     2.4318
  238.5000   107.8110     0.1389     0.3206     6.2310   121.3814     0.0156     2.4545
  239.0000   107.9570     0.1353     0.3136     6.2308   119.1291     0.0020     2.4568
  239.5000   108.2516     0.1329     0.3128     6.2307   116.1261    -0.0041     2.4591
  240.0000   108.3214     0.1293     0.3131     6.2305   114.3243    -0.0027     2.4636
  240.5000   107.7151     0.1269     0.3023     6.2304   116.1261     0.0077     2.4674
  241.0000   107.0352     0.1263     0.2959     6.2302   118.5285     0.0257     2.4689
  241.5000   106.7302     0.1242     0.2860     6.2301   120.9309     0.0452     2.4719
  242.0000   106.5763     0.1215     0.2869     6.2150   120.6306     0.0406     2.4780
  242.5000   107.7692     0.1197     0.3051     6.2298   117.6276     0.0315     2.4810
  243.0000   109.9379     0.1189     0.3220     6.2147   117.3033     0.0269     2.4810
  243.5000   113.3059     0.1194     0.3410     6.2145   120.3303     0.0268     2.4772
  244.0000   115.6995     0.1374     0.3510     6.2443   120.7808     0.0417     2.4578
  244.5000   115.7705     0.1528     0.3546     6.2591   118.9190     0.0868     2.4256
  245.0000   114.6396     0.1598     0.3580     6.2590   116.0460     0.0792     2.4153
  245.5000   112.3855     0.1519     0.3613     6.2588   114.1181     0.0294     2.4297
  246.0000   110.0564     0.1429     0.3632     6.2587   113.5736     0.0143     2.4456
  246.5000   108.4770     0.1381     0.3351     6.2585   115.5255     0.0127     2.4493
  247.0000   107.5722     0.1327     0.3234     6.2584   116.4264     0.0262     2.4569
  247.5000   106.6674     0.1248     0.3195     6.2582   114.7748     0.0185     2.4720
  248.0000   106.0625     0.1200     0.3081     6.2581   113.7237     0.0124     2.4834
  248.5000   105.4575     0.1176     0.2999     6.2579   114.1742     0.0123     2.4811
  249.0000   104.8526     0.1185     0.2918     6.2578   114.3243     0.0137     2.4796
  249.5000   104.5475     0.1195     0.2828     6.2576   108.6186     0.0151     2.4804
  250.0000   104.2155     0.1182     0.2762     6.2590   106.3457     0.0286     2.4857
  250.5000   104.0453     0.1138     0.2804     6.2682   108.4632     0.0436     2.4917
  251.0000   103.9284     0.1113     0.2937     6.2774   114.9152     0.0450     2.4993
  251.5000   103.6968     0.1089     0.3086     6.2857   117.0128     0.0397     2.4970
  252.0000   103.7667     0.1113     0.3056     6.2700   116.5579     0.0110     2.4947
  252.5000   103.7582     0.1119     0.3002     6.2544   114.9017     0.0041     2.4970
  253.0000   103.6016     0.1074     0.2972     6.2688   111.8942     0.0236     2.5008
  253.5000   103.2950     0.1014     0.2933     6.2833   107.5354     0.0431     2.5080
  254.0000   102.9884     0.0980     0.2939     6.2526   105.1285     0.0596     2.5102
  254.5000   102.7567     0.0995     0.2961     6.2520   106.3252     0.0565     2.5125
  255.0000   102.6001     0.1017     0.2949     6.2665   107.8222     0.0535     2.5094
  255.5000   102.4434     0.1032     0.2913     6.2658   108.8687     0.0474     2.5049
  256.0000   102.9614     0.1041     0.2883     6.2652   112.6180     0.0458     2.5026
  256.5000   103.5544     0.1047     0.2884     6.2646   117.2682     0.0412     2.5025
  257.0000   103.8491     0.1050     0.2893     6.2640   119.0666     0.0396     2.5017
  257.5000   103.8407     0.1041     0.2899     6.2634   116.0580     0.0365     2.5025
  258.0000   102.9344     0.1022     0.2888     6.2628   111.2487     0.0349     2.5062
  258.5000   101.8782     0.0998     0.2867     6.2622   108.3913     0.0349     2.5084
  259.0000   100.5221     0.1008     0.2846     6.2616   106.7352     0.0333     2.5069
  259.5000    98.7163     0.1011     0.2824     6.2762   105.6796     0.0287     2.5061
  260.0000    97.9599     0.1014     0.2795     6.2754   107.0265     0.0196     2.5068
  260.5000    98.1031     0.1002     0.2771     6.2748   108.5235     0.0135     2.5090
  261.0000   100.4202     0.0992     0.2766     6.2742   107.0175     0.0270     2.5112
  261.5000   103.7118     0.1023     0.2833     6.2736   108.2142     0.0344     2.5104
  262.0000   108.8774     0.1271     0.2975     6.2730   116.4680     0.0389     2.4692
  262.5000   109.9951     0.1392     0.3319     6.2874   116.7649     0.0418     2.4384
  263.0000   108.8639     0.1473     0.3395     6.3018   112.2548     0.0464     2.4297
  263.5000   104.0596     0.1395     0.3374     6.3012   104.7428     0.0524     2.4483
  264.0000    99.2552     0.1138     0.3176     6.2973   100.5341     0.0583     2.4939
  264.5000    96.8497     0.0971     0.2964     6.2933   100.2304     0.0643     2.5253
  265.0000    96.3182     0.0917     0.2705     6.2893   103.9786     0.0670     2.5215
  265.5000    96.5380     0.0914     0.2606     6.2853   105.6257     0.0443     2.5199
  266.0000    96.6063     0.0935     0.2603     6.2981   104.4200     0.0337     2.5199
  266.5000    96.8244     0.0935     0.2655     6.3125   103.8149     0.0261     2.5176
  267.0000    97.1175     0.0950     0.2716     6.3119   103.6603     0.0185     2.5085
  267.5000    97.4839     0.0995     0.2770     6.3414   105.0072     0.0124     2.5017
  268.0000    98.3017     0.1080     0.2843     6.3406   108.1558     0.0093     2.4994
  268.5000    98.8964     0.1057     0.2913     6.3400   106.9501     0.0213     2.5016
  269.0000    99.1895     0.1039     0.2814     6.3394   100.9396     0.0559     2.5054
  269.5000    99.1061     0.1018     0.2738     6.3388    94.9291     0.0633     2.5053
  270.0000    97.3752     0.1020     0.2697     6.3382    89.3691     0.0648     2.4992
  270.5000    95.7193     0.1109     0.2631     6.3376    78.4144     0.0331     2.4759
  271.0000    94.9629     0.1213     0.2573     6.3221    65.1855     0.0375     2.4495
  271.5000    95.9307     0.1375     0.2525     6.3065    61.2771     0.0450     2.4359
  272.0000    98.3977     0.1439     0.2458     6.2460    59.4720     0.0268     2.4449
  272.5000   101.8392     0.1394     0.2406     6.2305    64.2711    -0.0049     2.4471
  273.0000   104.8310     0.1406     0.2513     6.2149    69.5219    -0.0486     2.4282
  273.5000   108.1975     0.1572     0.2681     6.2143    72.6706    -0.0397     2.3925
  274.0000   112.6136     0.1977     0.2787     6.2137    73.8684    -0.0096     2.3386
  274.5000   115.3055     0.2113     0.2902     6.2282    69.5084     0.0264     2.3099
  275.0000   116.7980     0.2216     0.2971     6.2125    64.6991     0.0399     2.3001
  275.5000   117.4659     0.2270     0.3029     6.2119    62.7427     0.0323     2.3008
  276.0000   117.9839     0.2201     0.2984     6.2113    64.2397     0.0322     2.3128
  276.5000   117.9022     0.2171     0.2954     6.2259    68.1391     0.0382     2.3150
  277.0000   117.2208     0.2187     0.2964     6.2551    69.0366     0.0536     2.3120
  277.5000   116.1645     0.2169     0.2976     6.2995    69.7818     0.0621     2.3157
  278.0000   114.1338     0.2009     0.2919     6.3289    72.0295     0.0545     2.3422
  278.5000   113.0026     0.1870     0.2853     6.3131    74.4274     0.0258     2.3684
  279.0000   112.2463     0.1841     0.2877     6.2377    72.6211     0.0212     2.3627
  279.5000   111.0401     0.1937     0.2920     6.2221    69.9140     0.0136     2.3500
  280.0000   109.2343     0.1992     0.2926     6.2365    68.2578     0.0075     2.3396
  280.5000   107.7283     0.1956     0.2800     6.2808    68.1043     0.0195     2.3490
