~VERSION INFORMATION
 VERS.                2.0:   CWLS LOG ASCII STANDARD - VERSION 2.0
 WRAP.                 NO:   ONE LINE PER DEPTH STEP
~WELL INFORMATION
#MNEM.UNIT      DATA TYPE    INFORMATION
#----------   ------------   ------------------------------
 STRT.F           25.0000:   START DEPTH
 STOP.F          681.0000:   STOP DEPTH
 STEP.F            0.5000:   STEP LENGTH
 NULL.          -999.2500:   NO VALUE
 COMP. FENIX & SCISSON INC:   COMPANY
 WELL.    56-SX-34 #56-34:   WELL
 FLD .             TEAPOT:   FIELD
 LOC .      S34 T39N R78W:   LOCATION
 CNTY.            NATRONA:   COUNTY
 STAT.            WYOMING:   STATE
 CTRY. UNITED STATES OF AMERICA:   COUNTRY
 SRVC.            Unknown:   SERVICE COMPANY
 DATE.        28-JAN-1979:   LOGDATE
 API .       490251077200:   API NUMBER
~CURVE INFORMATION
#MNEM.UNIT       API CODE    CURVE DESCRIPTION
#----------   ------------   ------------------------------
 DEPT.F                  :   
 SPR .MV     05 010 01 00:   SPONTANEOUS POTENTIAL FROM RES.
 DRHO.G/C3   45 356 01 00:   DENSITY CORRECTION
 RHOB.G/C3   45 350 01 00:   BULK DENSITY
 DPHI.DEC    45 890 12 00:   DENSITY POROSITY SANDSTONE
 CALD.IN     45 280 60 00:   CALIPER
 GRD .GAPI   45 310 01 00:   GAMMA RAY FROM DENSITY LOG
 SN  .OHMM   05 040 16 00:   SHORT NORMAL 16'
 ILD .OHMM   05 120 46 00:   INDUCTION LOG DEEP RESISTIVITY
~PARAMETER INFORMATION
#MNEM.UNIT          VALUE    DESCRIPTION
#----------   ------------   ------------------------------
 PD  .                 GL:   PERMANENT DATUM
 EPD .F              5088:   ELEVATION PERMANENT DATUM
 LMF .                 KB:   LOG MEASURED FROM
 DAPD.F                 4:   FEET ABOVE PERMANENT DATUM
 DMF .                 KB:   DRILLING MEASURED FROM
 EKB .F              5092:   KELLING BUSHING
 EGL .F              5088:   GROUND LEVEL
 DATE.            1-28-79:   RUN DATE
 RUN .                  1:   RUN NUMBER
 DD  .F               680:   DEPTH DRILLER
 DL  .F               681:   DEPTH LOGGER
 BLI .F               679:   BOTTOM LOG INTERVAL
 TLI .F                40:   TOP LOG INTERVAL
 CS  .IN            8.625:   CASING SIZE
 CBD .F                40:   CASING BOTTOM DRILLER
 CBL .F                40:   CASING BOTTOM LOGGER
 BS  .IN            7.875:   BIT SIZE
 BSD .F               680:   BIT SIZE AT DEPTH
 DFT .                KCL:   DRILLING FLUID TYPE
 DFD .                8.9:   DRILLING FLUID DENSITY
 DFV .                 43:   DRILLING FLUID VISCOSITY
 DFPH.                8.5:   DRILLING FLUID PH
 DFL .                9.8:   DRILLING FLUID LOSS
 MSS .           FLOWLINE:   MUD SAMPLE SOURCE
 RMS .OHMM            1.5:   RESISTIVITY MUD SAMPLE
 MST .F                66:   MUD SAMPLE TEMPERATURE
 RMF .OHMM            1.3:   RESISTIVITY MUD FILTRATE SAMPLE
 MFST.F                76:   MUD FILTRATE SAMPLE TEMPERATURE
 RMC .OHMM            1.3:   RESISTIVITY MUD CAKE
 MCST.F                78:   MUD CAKE SAMPLE TEMPERATURE
 MFSS.           MEASURED:   MUD FILTRATE SAMPLE SOURCE
 MCSS.           MEASURED:   MUD CAKE SAMPLE SOURCE
 RMB .OHMM            1.3:   RESISTIVITY MUD AT BHT
 BHT .F                76:   BOTTOM HOLE TEMPERATURE
 TCS .HRS               3:   TIME CURCULATED STOPPED
 MRT .F                76:   MAXIMUM RECORDED TEMPERATURE
 LUN .               3006:   LOGGING UNIT NUMBER
 LUL .             CASPER:   LOGGING UNIT LOCATION
 ENGI.            ROLLINS:   RECORDING ENGINEER
 WITN.              AMEND:   WITNESSED BY
 CLNT.            A2DTECH:   CLIENT CODE
 ORIG.       2", 5" PRINT:   ORIGIN OF DATA
 UWI .       490251077200:   UNIQUE WELL ID
 DICO. A2D Technologies, Inc.:   DIGITIZING COMPANY
~OTHER INFORMATION
~A   DEPT      SPR       DRHO       RHOB       DPHI       CALD         GRD        SN        ILD   
# ...
  106.0000   -45.5261     0.0476     2.3559     0.1879     8.2724    79.9807    14.0216    17.6205
  106.5000   -45.2528     0.0476     2.3575     0.1883     8.2594    79.3091    13.7252    17.3670
  107.0000   -45.2439     0.0477     2.3525     0.1925     8.2335    78.4354    13.4351    17.1172
  107.5000   -45.1419     0.0489     2.3414     0.1939     8.1917    82.0175    13.1510    16.8709
  108.0000   -44.6481     0.0517     2.3389     0.1945     8.1501    81.5027    12.8730    16.6282
  108.5000   -44.1627     0.0545     2.3381     0.1951     8.1086    80.6839    12.6542    16.3890
  109.0000   -43.8057     0.0555     2.3373     0.1955     8.0637    81.8366    12.8311    16.2431
  109.5000   -43.6699     0.0552     2.3364     0.1927     8.0098    84.4977    13.0117    16.1778
  110.0000   -43.5304     0.0549     2.3420     0.1898     7.9546    84.8392    13.1310    16.1111
  110.5000   -43.4222     0.0546     2.3492     0.1870     7.8984    83.3126    12.1858    16.0444
  111.0000   -43.3412     0.0542     2.3564     0.1841     7.8956    86.1742    11.5280    15.9782
  111.5000   -43.2682     0.0539     2.3628     0.1812     7.8960    89.6491    10.9057    15.7203
  112.0000   -43.2670     0.0540     2.3667     0.1783     7.8960    87.8221    10.3055    15.2714
  112.5000   -43.2673     0.0555     2.3707     0.1754     7.8956    88.0885     9.7334    14.6452
  113.0000   -43.2673     0.0570     2.3749     0.1726     7.9080    86.5516     9.1928    13.5213
  113.5000   -43.2673     0.0585     2.3856     0.1611     7.9374    87.8178     8.6828    12.4836
  114.0000   -43.2673     0.0596     2.4093     0.1499     7.9896    89.4957     8.2013    11.5255
  114.5000   -43.2673     0.0548     2.4328     0.1385     8.0412    94.4951     7.7463    10.6410
  115.0000   -43.2673     0.0498     2.4491     0.1384     8.0798    99.6863     7.3653     9.8244
  115.5000   -43.2673     0.0448     2.4476     0.1382     8.0936   102.8266     6.7483     9.1619
  116.0000   -43.2673     0.0437     2.4454     0.1380     8.1079   105.8036     6.1824     8.6980
  116.5000   -43.2673     0.0436     2.4439     0.1379     8.1222   108.5766     5.8697     8.2575
  117.0000   -43.2673     0.0436     2.4446     0.1377     8.1364   108.0203     6.0070     8.0409
  117.5000   -43.2673     0.0436     2.4454     0.1375     8.1506   105.1091     6.4854     8.0422
  118.0000   -43.2673     0.0436     2.4461     0.1373     8.1649   100.2781     7.0018     8.1812
  118.5000   -43.2673     0.0436     2.4469     0.1379     8.1791    97.4949     7.5419     8.2917
  119.0000   -43.2673     0.0437     2.4441     0.1391     8.1927    99.6852     7.5416     8.4035
  119.5000   -43.2673     0.0437     2.4397     0.1403     8.1931   100.7518     7.2747     8.4244
  120.0000   -43.2673     0.0468     2.4385     0.1413     8.1931    98.0827     7.0638     8.3672
  120.5000   -43.2673     0.0520     2.4379     0.1412     8.1931    98.9257     6.8588     8.3104
  121.0000   -43.2673     0.0572     2.4374     0.1407     8.1930   102.2143     6.6603     8.2542
  121.5000   -43.2673     0.0602     2.4369     0.1401     8.1931   106.3595     6.4674     8.1937
  122.0000   -43.2673     0.0610     2.4400     0.1396     8.1936   103.6600     6.2802     8.1937
  122.5000   -43.2673     0.0595     2.4434     0.1401     8.1725    99.4528     6.1529     8.2182
  123.0000   -43.2673     0.0508     2.4438     0.1414     8.1423    95.4514     6.1484     8.2674
  123.5000   -43.2673     0.0424     2.4361     0.1427     8.1355    94.5543     6.5531     8.3169
  124.0000   -43.2673     0.0376     2.4342     0.1429     8.1374    94.9730     6.8885     8.3668
  124.5000   -43.2673     0.0385     2.4330     0.1429     8.1397    96.2834     7.2403     8.4169
  125.0000   -43.2673     0.0393     2.4316     0.1427     8.1419    97.3896     7.6094     8.4674
  125.5000   -43.2673     0.0441     2.4381     0.1383     8.1442    96.0294     7.6094     8.5187
  126.0000   -43.2673     0.0498     2.4459     0.1316     8.1465    94.2854     7.3089     8.5810
  126.5000   -43.2673     0.0554     2.4540     0.1314     8.1487    92.7179     6.9243     8.5063
  127.0000   -43.2673     0.0559     2.4556     0.1319     8.1509    93.8829     6.5600     8.4067
  127.5000   -43.2673     0.0562     2.4540     0.1317     8.1536    97.6724     6.2148     8.3084
  128.0000   -43.2673     0.0564     2.4572     0.1303     8.1765   101.2931     5.9832     8.2116
  128.5000   -43.2673     0.0567     2.4609     0.1289     8.2019   102.3589     6.0388     8.1159
  129.0000   -43.2673     0.0569     2.4633     0.1289     8.2273   103.3297     6.0949     8.0217
  129.5000   -43.2674     0.0572     2.4643     0.1298     8.2524   102.6380     6.2748     7.9689
  130.0000   -43.2678     0.0574     2.4633     0.1303     8.2712   103.1758     6.4498     7.9690
  130.5000   -43.2649     0.0577     2.4614     0.1293     8.2624   104.9623     6.6298     8.0305
  131.0000   -43.1812     0.0566     2.4623     0.1271     8.2542   101.8009     6.8148     8.1073
  131.5000   -43.0944     0.0549     2.4739     0.1224     8.2462    98.2510     7.0049     8.1841
  132.0000   -43.0079     0.0532     2.4806     0.1185     8.2381    94.6226     7.2003     8.2617
  132.5000   -42.9215     0.0516     2.4850     0.1198     8.2299    93.4061     7.3480     8.3400
  133.0000   -42.8350     0.0511     2.4841     0.1216     8.2219    92.9214     7.3926     8.4191
  133.5000   -42.7486     0.0506     2.4764     0.1235     8.2139    97.1654     7.4375     8.4989
  134.0000   -42.6622     0.0501     2.4701     0.1264     8.2230   102.7667     7.4827     8.5795
  134.5000   -42.5756     0.0497     2.4714     0.1294     8.2438   105.7595     7.5281     8.6608
  135.0000   -42.4894     0.0492     2.4616     0.1321     8.2648   102.8263     7.5739     8.7429
  135.5000   -42.4640     0.0487     2.4537     0.1318     8.2722    98.3803     7.6094     8.8258
  136.0000   -42.4504     0.0482     2.4574     0.1288     8.2610    95.0618     7.6781     8.9094
  136.5000   -42.4369     0.0477     2.4663     0.1258     8.2326    97.3925     7.7459     8.9939
  137.0000   -42.4234     0.0476     2.4710     0.1247     8.2453    97.7803     7.8142     9.0791
  137.5000   -42.4099     0.0476     2.4706     0.1252     8.2563    96.9349     7.8832     9.1652
  138.0000   -42.3964     0.0476     2.4701     0.1257     8.2670    97.1888     7.9531     9.2498
  138.5000   -42.3829     0.0476     2.4697     0.1257     8.2620    99.3950     8.0440     9.3200
  139.0000   -42.3694     0.0493     2.4692     0.1254     8.2427   100.6098     8.0191     9.4189
  139.5000   -42.3559     0.0527     2.4698     0.1252     8.2360    97.4595     7.9702     9.4939
  140.0000   -42.3424     0.0529     2.4714     0.1249     8.2424    95.1049     7.9216     9.4183
  140.5000   -42.3289     0.0512     2.4674     0.1278     8.2488    96.5350     7.8734     9.3246
  141.0000   -42.3154     0.0496     2.4601     0.1313     8.2553   100.1121     7.8255     9.2385
  141.5000   -42.3019     0.0480     2.4587     0.1310     8.2618    99.0965     7.7780     9.1547
  142.0000   -42.2884     0.0474     2.4578     0.1307     8.2683    96.6619     7.7307     9.0710
  142.5000   -42.2698     0.0470     2.4602     0.1303     8.2829    94.9718     7.6837     8.9578
  143.0000   -42.2277     0.0466     2.4624     0.1301     8.3117    94.8747     7.6369     8.8447
  143.5000   -42.1854     0.0463     2.4627     0.1319     8.3404    95.9500     7.5905     8.7329
  144.0000   -42.1431     0.0458     2.4535     0.1346     8.3699    99.1762     7.5444     8.6226
  144.5000   -42.1008     0.0444     2.4510     0.1353     8.3548   102.2896     7.4985     8.5024
  145.0000   -42.0585     0.0523     2.4565     0.1283     8.3223   102.0911     7.4529     8.5200
  145.5000   -42.0163     0.0599     2.4701     0.1256     8.2926    97.0333     7.4076     8.5561
  146.0000   -41.9740     0.0539     2.4722     0.1304     8.2855    95.2358     7.4011     8.5923
