~VERSION INFORMATION
 VERS.                2.0:   CWLS LOG ASCII STANDARD - VERSION 2.0
 WRAP.                 NO:   ONE LINE PER DEPTH STEP
~WELL INFORMATION
#MNEM.UNIT      DATA TYPE    INFORMATION
#----------   ------------   ------------------------------
 STRT.F            8.0000:   START DEPTH
 STOP.F          598.0000:   STOP DEPTH
 STEP.F            0.5000:   STEP LENGTH
 NULL.          -999.2500:   NO VALUE
 COMP. FENIX & SCISSON INC:   COMPANY
 WELL.    16-SX-11 #16-11:   WELL
 FLD .             TEAPOT:   FIELD
 LOC .      S11 T38N R78W:   LOCATION
 CNTY.            NATRONA:   COUNTY
 STAT.            WYOMING:   STATE
 CTRY. UNITED STATES OF AMERICA:   COUNTRY
 SRVC.            Unknown:   SERVICE COMPANY
 DATE.        13-DEC-1978:   LOGDATE
 API .       490251078400:   API NUMBER
~CURVE INFORMATION
#MNEM.UNIT       API CODE    CURVE DESCRIPTION
#----------   ------------   ------------------------------
 DEPT.F                  :   
 RHOB.G/C3   45 350 01 00:   BULK DENSITY
 CORR.G/C3   45 356 01 00:   DENSITY CORRECTION
 SN  .OHMM   05 040 16 00:   SHORT NORMAL 16"
 ILD .OHMM   05 120 46 00:   INDUCTION LOG DEEP
 SPR .MV     05 010 01 00:   SPONTANEOUS POTENTIAL FROM RES.
 DPHI.DEC    45 890 12 00:   DENSITY POROSITY SANDSTONE
 CALD.IN     45 280 60 00:   CALIPER
 GRD .GAPI   45 310 01 00:   GAMMA RAY FROM DENSITY LOG
~PARAMETER INFORMATION
#MNEM.UNIT          VALUE    DESCRIPTION
#----------   ------------   ------------------------------
 PD  .                 GL:   PERMANENT DATUM
 EPD .F              5209:   ELEVATION PERMANENT DATUM
 LMF .                 KB:   LOG MEASURED FROM
 DAPD.F                 4:   FEET ABOVE PERMANENT DATUM
 DMF .                 KB:   DRILLING MEASURED FROM
 EKB .F              5213:   KELLING BUSHING
 EGL .F              5209:   GROUND LEVEL
 DATE.           12-13-78:   RUN DATE
 RUN .                  1:   RUN NUMBER
 DD  .F               590:   DEPTH DRILLER
 DL  .F               598:   DEPTH LOGGER
 BLI .F               591:   BOTTOM LOG INTERVAL
 TLI .F                40:   TOP LOG INTERVAL
 CS  .IN            8.625:   CASING SIZE
 CBD .F                40:   CASING BOTTOM DRILLER
 CBL .F                25:   CASING BOTTOM LOGGER
 BS  .IN            7.875:   BIT SIZE
 BSD .F               590:   BIT SIZE AT DEPTH
 DFT .                KCL:   DRILLING FLUID TYPE
 DFD .                8.8:   DRILLING FLUID DENSITY
 DFV .                 37:   DRILLING FLUID VISCOSITY
 DFPH.                8.9:   DRILLING FLUID PH
 MSS .           FLOWLINE:   MUD SAMPLE SOURCE
 RMS .OHMM             .3:   RESISTIVITY MUD SAMPLE
 MST .F                56:   MUD SAMPLE TEMPERATURE
 RMF .OHMM            .26:   RESISTIVITY MUD FILTRATE SAMPLE
 MFST.F                66:   MUD FILTRATE SAMPLE TEMPERATURE
 RMC .OHMM            .24:   RESISTIVITY MUD CAKE
 MCST.F                66:   MUD CAKE SAMPLE TEMPERATURE
 MFSS.           MEASURED:   MUD FILTRATE SAMPLE SOURCE
 MCSS.           MEASURED:   MUD CAKE SAMPLE SOURCE
 RMB .OHMM            .29:   RESISTIVITY MUD AT BHT
 BHT .F                58:   BOTTOM HOLE TEMPERATURE
 TCS .HRS               3:   TIME CURCULATED STOPPED
 MRT .F                58:   MAXIMUM RECORDED TEMPERATURE
 LUN .               2958:   LOGGING UNIT NUMBER
 LUL .             CASPER:   LOGGING UNIT LOCATION
 ENGI.            ROLLINS:   RECORDING ENGINEER
 WITN.         RICHARDSON:   WITNESSED BY
 CLNT.            A2DTECH:   CLIENT CODE
 ORIG.       2", 5" PRINT:   ORIGIN OF DATA
 UWI .       490251078400:   UNIQUE WELL ID
 DICO. A2D Technologies, Inc.:   DIGITIZING COMPANY
~OTHER INFORMATION
~A    DEPT    RHOB       CORR         SN        ILD        SPR       DPHI       CALD         GRD  
# ...
  575.0000     2.4856     0.0225     9.3262     9.9500   -50.0292     0.1130     7.9646   104.4546
  575.5000     2.4853     0.0226     9.3262     9.9499   -50.0388     0.1132     7.9664    97.3411
  576.0000     2.4851     0.0189     9.5582     9.9499   -50.0485     0.1142     7.9683    95.0160
  576.5000     2.4782     0.0149     9.8181     9.9493   -50.0582     0.1163     7.9699    92.9195
  577.0000     2.4689     0.0156    10.0851     9.9485   -50.0679     0.1210     7.9681    90.7567
  577.5000     2.4592     0.0160    10.3594     9.9499   -50.0772     0.1282     7.9662    90.5039
  578.0000     2.4559     0.0180    10.5752    10.2018   -50.0879     0.1348     7.9643    91.3310
  578.5000     2.4576     0.0287    10.8231    10.3963   -50.0951     0.1342     7.9625    91.7190
  579.0000     2.4723     0.0398    11.0769    10.5945   -50.3367     0.1286     7.9606    92.0899
  579.5000     2.4902     0.0417    11.3366    10.7964   -50.8574     0.1183     7.9588    92.6641
  580.0000     2.4928     0.0375    11.6024    11.0022   -56.6047     0.1108     7.9569    94.4311
  580.5000     2.4922     0.0330    11.7751    11.1176  -100.4415     0.1106     7.9551    96.1696
  581.0000     2.4924     0.0284    11.8272    11.1663  -101.2985     0.1104     7.9532    97.2360
  581.5000     2.4928     0.0236    11.8795    11.2416  -101.2985     0.1103     7.9514    96.1756
  582.0000     2.4905     0.0153    11.9321    11.3175  -101.2985     0.1101     7.9495    94.2763
  582.5000     2.4813     0.0069    11.9968    11.3940  -101.2985     0.1131     7.9477    92.8261
  583.0000     2.4721    -0.0012    12.0965    11.4709  -101.2985     0.1184     7.9458    95.7131
  583.5000     2.4713    -0.0016    12.1970    11.5483  -101.2985     0.1233     7.9440    98.7202
  584.0000     2.4713    -0.0015    12.2984    11.6263  -101.2985     0.1243     7.9421    99.2085
  584.5000     2.4675    -0.0015    12.4006    11.7048  -101.2985     0.1231     7.9402    97.8914
  585.0000     2.4617    -0.0014    12.5038    11.7838  -101.2985     0.1255     7.9384    98.7783
  585.5000     2.4568     0.0000    12.5382    11.8633  -101.2985     0.1306     7.9365    99.6998
  586.0000     2.4571     0.0030    12.5382    11.9434  -101.2985     0.1330     7.9347   100.4380
  586.5000     2.4572     0.0069    12.5390    12.0240  -101.2985     0.1338     7.9328   100.8163
  587.0000     2.4574     0.0109    12.4600    12.0824  -101.2985     0.1310     7.9310   100.2037
  587.5000     2.4575     0.0150    12.3436    11.8292  -101.2985     0.1301     7.9304    99.2708
  588.0000     2.4576     0.0169    12.1952    11.6350  -101.2985     0.1304     7.9314    98.3607
  588.5000     2.4578     0.0177    12.2621    11.5365  -101.2985     0.1319     7.9323    97.8175
  589.0000     2.4579     0.0181    12.3640    11.7837   -97.6890     0.1324     7.9332    97.2288
  589.5000     2.4556     0.0102    12.4656    11.9530   -85.0637     0.1299     7.9342    97.9399
  590.0000     2.4518     0.0022    12.5377    11.9712   -79.1256     0.1333     7.9351    98.1408
  590.5000     2.4488     0.0076    12.5377    11.9712   -77.5296     0.1380     7.9361    97.0943
  591.0000     2.4496     0.0154    12.5377    11.9712   -77.4086     0.1404     7.9370    97.8624
  591.5000     2.4531     0.0234  -999.2500  -999.2500  -999.2500     0.1400     7.9379    97.7063
  592.0000     2.4698     0.0222  -999.2500  -999.2500  -999.2500     0.1328     7.9389    94.2416
  592.5000     2.4700     0.0186  -999.2500  -999.2500  -999.2500     0.1244     7.9398    91.3018
  593.0000     2.4676     0.0150  -999.2500  -999.2500  -999.2500     0.1236     7.9407    92.4837
  593.5000     2.4653     0.0157  -999.2500  -999.2500  -999.2500     0.1261     7.9417    95.9781
  594.0000     2.4650     0.0179  -999.2500  -999.2500  -999.2500     0.1291     7.9426   104.1880
  594.5000     2.4696     0.0232  -999.2500  -999.2500  -999.2500     0.1292     7.9435   106.0987
  595.0000     2.4776     0.0243  -999.2500  -999.2500  -999.2500     0.1247     7.9445   106.1468
  595.5000     2.4855     0.0252  -999.2500  -999.2500  -999.2500     0.1169     7.9454   106.1275
  596.0000     2.4896     0.0259  -999.2500  -999.2500  -999.2500     0.1131     7.9464   106.1236
  596.5000     2.4911     0.0263  -999.2500  -999.2500  -999.2500     0.1100     7.9473   106.1236
  597.0000     2.4916     0.0215  -999.2500  -999.2500  -999.2500     0.1074     7.9482   106.1236
  597.5000     2.4840     0.0063  -999.2500  -999.2500  -999.2500     0.1244     7.9492   106.1236
  598.0000     2.4463     0.0045  -999.2500  -999.2500  -999.2500     0.1377  -999.2500   106.1236
