~VERSION INFORMATION
 VERS.                2.0:   CWLS LOG ASCII STANDARD - VERSION 2.0
 WRAP.                 NO:   ONE LINE PER DEPTH STEP
~WELL INFORMATION
#MNEM.UNIT      DATA TYPE    INFORMATION
#----------   ------------   ------------------------------
 STRT.F           11.5000:   START DEPTH
 STOP.F          583.0000:   STOP DEPTH
 STEP.F            0.5000:   STEP LENGTH
 NULL.          -999.2500:   NO VALUE
 COMP.    FENIX & SCISSON:   COMPANY
 WELL.      41 SX 3 #41-3:   WELL
 FLD .             TEAPOT:   FIELD
 LOC .       S3 T38N R78W:   LOCATION
 CNTY.            NATRONA:   COUNTY
 STAT.            WYOMING:   STATE
 CTRY. UNITED STATES OF AMERICA:   COUNTRY
 SRVC.            Unknown:   SERVICE COMPANY
 DATE.        01-DEC-1978:   LOGDATE
 API .       490251074000:   API NUMBER
~CURVE INFORMATION
#MNEM.UNIT       API CODE    CURVE DESCRIPTION
#----------   ------------   ------------------------------
 DEPT.F                  :   
 SPR .MV     05 010 01 00:   SPONTANEOUS POTENTIAL FROM RES.
 SN  .OHMM   05 040 16 00:   SHORT NORMAL 16"
 IL  .OHMM   05 120 00 00:   INDUCTION LOG
 GRD .GAPI   45 310 01 00:   GAMMA RAY FROM DENSITY LOG
 CALD.IN     45 280 60 00:   CALIPER
 DEN .G/C3   45 350 01 00:   COMPENSATED BULK DENSTIY
 CORR.G/C3   45 356 01 00:   DENSITY CORRECTION
 DPHI.DEC    45 890 12 00:   DENSITY POROSITY SANDSTONE
~PARAMETER INFORMATION
#MNEM.UNIT          VALUE    DESCRIPTION
#----------   ------------   ------------------------------
 PD  .                 GL:   PERMANENT DATUM
 EPD .F              5150:   ELEVATION PERMANENT DATUM
 LMF .                 KB:   LOG MEASURED FROM
 DAPD.F                 4:   FEET ABOVE PERMANENT DATUM
 DMF .                 KB:   DRILLING MEASURED FROM
 EKB .F              5154:   KELLING BUSHING
 EGL .F              5150:   GROUND LEVEL
 DATE.            12-1-78:   RUN DATE
 RUN .                  1:   RUN NUMBER
 DD  .F               600:   DEPTH DRILLER
 DL  .F               582:   DEPTH LOGGER
 BLI .F               576:   BOTTOM LOG INTERVAL
 TLI .F                42:   TOP LOG INTERVAL
 CS  .IN            8.625:   CASING SIZE
 CBD .F                40:   CASING BOTTOM DRILLER
 CBL .F                41:   CASING BOTTOM LOGGER
 BS  .IN            7.875:   BIT SIZE
 BSD .F               600:   BIT SIZE AT DEPTH
 DFT .                KCL:   DRILLING FLUID TYPE
 DFD .                8.8:   DRILLING FLUID DENSITY
 DFV .                 35:   DRILLING FLUID VISCOSITY
 DFPH.               11.2:   DRILLING FLUID PH
 DFL .               11.6:   DRILLING FLUID LOSS
 MSS .          FLOW LINE:   MUD SAMPLE SOURCE
 RMS .OHMM            .36:   RESISTIVITY MUD SAMPLE
 MST .F                52:   MUD SAMPLE TEMPERATURE
 RMF .OHMM            .36:   RESISTIVITY MUD FILTRATE SAMPLE
 MFST.F                55:   MUD FILTRATE SAMPLE TEMPERATURE
 RMC .OHMM            .42:   RESISTIVITY MUD CAKE
 MCST.F                60:   MUD CAKE SAMPLE TEMPERATURE
 MFSS.           MEASURED:   MUD FILTRATE SAMPLE SOURCE
 MCSS.           MEASURED:   MUD CAKE SAMPLE SOURCE
 RMB .OHMM            .32:   RESISTIVITY MUD AT BHT
 BHT .F                58:   BOTTOM HOLE TEMPERATURE
 MRT .F                58:   MAXIMUM RECORDED TEMPERATURE
 LUN .               2958:   LOGGING UNIT NUMBER
 LUL .                CPR:   LOGGING UNIT LOCATION
 ENGI.            ROLLINS:   RECORDING ENGINEER
 WITN.              AMEND:   WITNESSED BY
 CLNT.            A2DTECH:   CLIENT CODE
 ORIG.       2", 5" PRINT:   ORIGIN OF DATA
 UWI .       490251074000:   UNIQUE WELL ID
 DICO. A2D Technologies, Inc.:   DIGITIZING COMPANY
~OTHER INFORMATION
~A   DEPT      SPR         SN         IL         GRD      CALD        DEN       CORR       DPHI   
# ...
  497.5000   -30.5444    14.7456    18.1254    73.9242     8.0236     2.3616     0.0236     0.1981
  498.0000   -30.7287    14.6291    18.0011    74.1168     8.0241     2.3564     0.0243     0.1994
  498.5000   -31.4380    14.4817    17.8270    74.4510     8.0246     2.3546     0.0249     0.2001
  499.0000   -31.7754    14.3361    17.6545    74.7953     8.0250     2.3556     0.0228     0.1971
  499.5000   -32.1185    14.2149    17.5736    74.8892     8.0255     2.3582     0.0206     0.1897
  500.0000   -32.4589    14.2580    17.5736    73.4156     8.0260     2.3704     0.0184     0.1788
  500.5000   -32.7261    14.3013    17.5736    71.7461     8.0264     2.3855     0.0170     0.1671
  501.0000   -32.7866    14.3416    17.5736    70.0824     8.0269     2.4007     0.0178     0.1632
  501.5000   -32.8552    14.2408    17.5214    68.8550     8.0273     2.4165     0.0185     0.1706
  502.0000   -33.0313    14.0262    17.3230    69.6603     8.0278     2.4062     0.0212     0.1801
  502.5000   -33.6207    13.8955    17.0413    75.6406     8.0283     2.3891     0.0266     0.1896
  503.0000   -34.1314    13.8108    16.7169    77.7364     8.0287     2.3712     0.0320     0.1926
  503.5000   -34.2290    13.7266    16.3984    77.2137     8.0287     2.3701     0.0377     0.1850
  504.0000   -34.5460    13.5901    16.0860    75.4056     8.0283     2.3854     0.0379     0.1798
  504.5000   -35.2648    13.4200    15.7796    73.8704     8.0278     2.3956     0.0369     0.1747
  505.0000   -35.4849    13.2517    15.4791    75.0188     8.0273     2.3968     0.0369     0.1761
  505.5000   -35.6461    13.0760    15.1843    76.2005     8.0269     2.3956     0.0369     0.1775
  506.0000   -35.5559    12.8576    14.8951    76.5861     8.0264     2.3943     0.0364     0.1787
  506.5000   -35.3771    12.6305    14.6114    76.1522     8.0259     2.3930     0.0360     0.1772
  507.0000   -35.1966    12.4074    14.3527    75.5458     8.0255     2.3940     0.0355     0.1757
  507.5000   -35.2608    12.1882    14.1169    75.0018     8.0250     2.3951     0.0351     0.1747
  508.0000   -35.6526    12.0128    13.8850    74.8603     8.0245     2.3963     0.0371     0.1748
  508.5000   -36.0412    11.9417    13.6570    74.6917     8.0241     2.3990     0.0426     0.1715
  509.0000   -36.4300    11.8710    13.4327    73.9445     8.0236     2.4037     0.0479     0.1653
  509.5000   -36.7146    11.8006    13.2120    72.4219     8.0231     2.4130     0.0533     0.1591
  510.0000   -36.8008    11.7308    12.9950    70.3323     8.0227     2.4230     0.0586     0.1537
  510.5000   -36.9274    11.7004    12.9504    73.2013     8.0222     2.4330     0.0601     0.1500
  511.0000   -37.3119    11.6949    12.9439    75.8233     8.0217     2.4383     0.0614     0.1505
  511.5000   -37.7041    11.6892    12.9373    77.0435     8.0213     2.4393     0.0628     0.1512
  512.0000   -38.4937    11.6835    12.9308    77.4467     8.0208     2.4388     0.0641     0.1520
  512.5000   -39.1957    11.6778    12.9243    75.8355     8.0203     2.4414     0.0653     0.1487
  513.0000   -39.6396    11.6721    12.9177    75.2470     8.0199     2.4425     0.0664     0.1479
  513.5000   -40.0205    11.6665    12.9112    74.9940     8.0194     2.4422     0.0675     0.1489
  514.0000   -40.4426    11.6608    12.9046    74.9369     8.0190     2.4419     0.0686     0.1482
  514.5000   -40.8722    11.6552    12.8981    75.4680     8.0185     2.4431     0.0698     0.1441
  515.0000   -41.2410    11.6495    12.8916    77.8609     8.0180     2.4490     0.0708     0.1400
  515.5000   -41.5652    11.6439    12.8851    80.5273     8.0176     2.4546     0.0706     0.1359
  516.0000   -41.8899    11.6383    12.8786    81.2053     8.0171     2.4603     0.0663     0.1355
  516.5000   -42.2153    11.6326    12.8720    81.5665     8.0166     2.4628     0.0615     0.1380
  517.0000   -42.5406    11.6270    12.8655    80.4426     8.0162     2.4579     0.0608     0.1405
  517.5000   -42.8665    11.6214    12.8590    79.4448     8.0157     2.4530     0.0608     0.1428
  518.0000   -43.1909    11.6158    12.8525    80.2669     8.0152     2.4539     0.0609     0.1443
  518.5000   -43.2432    11.6101    12.8460    82.4902     8.0148     2.4570     0.0531     0.1462
  519.0000   -43.3844    11.6049    12.8395    84.6098     8.0143     2.4538     0.0447     0.1497
  519.5000   -44.0903    11.5993    12.8367    86.2082     8.0138     2.4434     0.0485     0.1528
  520.0000   -44.7849    11.5472    12.8367    86.5982     8.0134     2.4358     0.0573     0.1486
  520.5000   -45.2040    11.4609    12.8367    86.2550     8.0129     2.4415     0.0624     0.1435
  521.0000   -45.1076    11.3742    12.8367    85.4952     8.0124     2.4506     0.0612     0.1412
  521.5000   -45.0074    11.2882    12.8366    84.2094     8.0120     2.4550     0.0600     0.1403
  522.0000   -45.8652    11.2793    12.8415    82.8773     8.0115     2.4562     0.0588     0.1396
  522.5000   -46.2239    11.2795    12.7087    82.5641     8.0110     2.4564     0.0588     0.1400
  523.0000   -46.5796    11.2794    12.4443    82.9435     8.0106     2.4561     0.0588     0.1404
  523.5000   -46.9382    11.2793    12.1855    84.0797     8.0101     2.4557     0.0571     0.1393
  524.0000   -47.2954    11.2793    12.1172    85.2189     8.0098     2.4592     0.0553     0.1377
  524.5000   -47.6497    11.2793    12.0845    85.9838     8.0140     2.4631     0.0505     0.1344
  525.0000   -48.0325    11.2793    12.0523    84.0691     8.0183     2.4671     0.0443     0.1306
  525.5000   -49.0875    11.2793    12.0284    83.3598     8.0225     2.4710     0.0380     0.1281
  526.0000   -50.1692    11.2793    12.0173    83.7113     8.0268     2.4725     0.0316     0.1297
  526.5000   -50.6031    11.2793    12.0061    83.4097     8.0310     2.4707     0.0311     0.1318
  527.0000   -51.0128    11.2793    11.9950    82.8711     8.0352     2.4661     0.0314     0.1350
  527.5000   -51.4258    11.2793    11.9838    82.5649     8.0395     2.4611     0.0317     0.1381
  528.0000   -51.8403    11.2793    11.9727    82.5946     8.0437     2.4562     0.0320     0.1381
  528.5000   -52.2547    11.2793    11.9616    82.7719     8.0479     2.4512     0.0323     0.1460
  529.0000   -52.6668    11.2793    11.9505    84.4266     8.0522     2.4462     0.0326     0.1463
  529.5000   -53.0245    11.2785    11.9396    86.2069     8.0564     2.4439     0.0336     0.1451
  530.0000   -53.1687    11.2803    11.9281    86.7492     8.0607     2.4503     0.0409     0.1406
  530.5000   -53.3186    11.1424    11.8881    85.1791     8.0649     2.4582     0.0482     0.1347
  531.0000   -53.4689    10.9850    11.8132    84.6986     8.0691     2.4661     0.0555     0.1289
  531.5000   -53.6174    10.8298    11.7387    85.7314     8.0734     2.4740     0.0628     0.1219
  532.0000   -53.7880    10.6767    11.6647    88.4300     8.0776     2.4820     0.0644     0.1180
  532.5000   -54.5384    10.5258    11.5911    91.1941     8.0819     2.4902     0.0537     0.1198
  533.0000   -54.4283    10.3771    11.5179    92.2220     8.0862     2.4897     0.0435     0.1268
  533.5000   -54.6313    10.2840    11.4450    91.6936     8.0852     2.4818     0.0373     0.1316
  534.0000   -54.8265    10.2838    11.3663    90.4585     8.0831     2.4735     0.0391     0.1323
  534.5000   -55.0214    10.2839    11.2520    88.9523     8.0810     2.4657     0.0407     0.1304
  535.0000   -55.2194    10.2840    11.1389    87.4929     8.0789     2.4696     0.0424     0.1278
  535.5000   -55.4584    10.2841    11.0268    89.7894     8.0769     2.4742     0.0421     0.1253
  536.0000   -55.8467    10.2840    10.9041    92.4142     8.0748     2.4787     0.0410     0.1227
  536.5000   -56.7225    10.2840    10.7712    92.4159     8.0727     2.4812     0.0399     0.1230
  537.0000   -57.0370    10.2642    10.6400    90.9206     8.0707     2.4801     0.0389     0.1242
  537.5000   -57.1844    10.1907    10.5103    89.4096     8.0686     2.4790     0.0392     0.1255
