~VERSION INFORMATION
 VERS.                2.0:   CWLS LOG ASCII STANDARD - VERSION 2.0
 WRAP.                 NO:   ONE LINE PER DEPTH STEP
~WELL INFORMATION
#MNEM.UNIT      DATA TYPE    INFORMATION
#----------   ------------   ------------------------------
 STRT.F            0.1000:   START DEPTH
 STOP.F          550.8000:   STOP DEPTH
 STEP.F            0.1000:   STEP LENGTH
 NULL.          -999.2500:   NO VALUE
 COMP.       F D SERV INC:   COMPANY
 WELL.  82-1 SX 10 #82-10:   WELL
 FLD .             TEAPOT:   FIELD
 LOC .      S10 T38N R78W:   LOCATION
 CNTY.            NATRONA:   COUNTY
 STAT.            WYOMING:   STATE
 CTRY. UNITED STATES OF AMERICA:   COUNTRY
 SRVC.     Atlas Wireline:   SERVICE COMPANY
 DATE.        11-DEC-1992:   LOGDATE
 API .       490252257600:   API NUMBER
~CURVE INFORMATION
#MNEM.UNIT       API CODE    CURVE DESCRIPTION
#----------   ------------   ------------------------------
 DEPT.F                  :   
 GRR .GAPI   07 310 01 00:   GAMMA RAY
 RILD.OHMM   07 120 46 00:   INDUCTION LOG DEEP RESISTIVITY
 RILM.OHMM   07 120 44 00:   INDUCTION LOG MEDIUM RESISTIVITY
~PARAMETER INFORMATION
#MNEM.UNIT          VALUE    DESCRIPTION
#----------   ------------   ------------------------------
 PD  .                 GL:   PERMANENT DATUM
 EPD .F              5136:   ELEVATION PERMANENT DATUM
 LMF .                 KB:   LOG MEASURED FROM
 DAPD.F                10:   FEET ABOVE PERMANENT DATUM
 DMF .                 KB:   DRILLING MEASURED FROM
 EKB .F              5146:   KELLING BUSHING
 EDF .F              5145:   DRILLING FLOOR
 EGL .F              5136:   GROUND LEVEL
 DATE.        11-DEC-1992:   RUN DATE
 RUN .                  1:   RUN NUMBER
 DD  .F               560:   DEPTH DRILLER
 DL  .F               560:   DEPTH LOGGER
 BLI .F               551:   BOTTOM LOG INTERVAL
 CS  .IN            8.625:   CASING SIZE
 CBD .F                53:   CASING BOTTOM DRILLER
 CBL .F                54:   CASING BOTTOM LOGGER
 BS  .IN            7.875:   BIT SIZE
 BSD .F               560:   BIT SIZE AT DEPTH
 DFT .           AIR FOAM:   DRILLING FLUID TYPE
 BHT .F                60:   BOTTOM HOLE TEMPERATURE
 MRT .F                60:   MAXIMUM RECORDED TEMPERATURE
 LUN .           HL- 6274:   LOGGING UNIT NUMBER
 LUL .             CASPER:   LOGGING UNIT LOCATION
 ENGI.       P. RASMUSSEN:   RECORDING ENGINEER
 WITN.          G. STRONG:   WITNESSED BY
 CLNT.            A2DTECH:   CLIENT CODE
 ORIG.           5" PRINT:   ORIGIN OF DATA
 UWI .       490252257600:   UNIQUE WELL ID
 DICO. A2D Technologies, Inc.:   DIGITIZING COMPANY
~OTHER INFORMATION
~A    DEPT      GRR      RILD       RILM   
# ...
  273.1000   143.3331     7.4018     7.2607
  273.2000   142.8227     7.4019     7.3003
  273.3000   142.4548     7.4020     7.3112
  273.4000   142.1025     7.4021     7.3113
  273.5000   141.5430     7.4022     7.3277
  273.6000   140.7806     7.4023     7.3623
  273.7000   140.1812     7.4024     7.3624
  273.8000   140.3889     7.4025     7.3625
  273.9000   141.2925     7.4026     7.3626
  274.0000   142.5604     7.4027     7.3627
  274.1000   143.7587     7.4028     7.3628
  274.2000   144.7723     7.4029     7.3629
  274.3000   145.8813     7.4030     7.3630
  274.4000   148.4108     7.3985     7.3631
  274.5000   150.2859     7.3521     7.3632
  274.6000   151.5342     7.3522     7.3633
  274.7000   152.3678     7.3523     7.3634
  274.8000   152.8734     7.3524     7.3635
  274.9000   153.3858     7.3525     7.3636
  275.0000   153.6837     7.3526     7.3637
  275.1000   153.6818     7.3527     7.3638
  275.2000   153.6794     7.3529     7.3639
  275.3000   153.6770     7.3529     7.3640
  275.4000   153.6109     7.3531     7.3641
  275.5000   153.3035     7.3532     7.3642
  275.6000   152.1657     7.3533     7.3643
  275.7000   150.8174     7.3579     7.3644
  275.8000   149.2907     7.4046     7.3645
  275.9000   146.7167     7.4047     7.3646
  276.0000   144.0000     7.4048     7.3647
  276.1000   143.0564     7.4049     7.3648
  276.2000   142.5274     7.4050     7.3649
  276.3000   142.5251     7.4051     7.3650
  276.4000   142.5227     7.4052     7.3144
  276.5000   142.6716     7.4053     7.2802
  276.6000   142.9233     7.3695     7.2642
  276.7000   143.2329     7.3544     7.2457
  276.8000   143.7385     7.3545     7.2143
  276.9000   144.3148     7.3424     7.2144
  277.0000   144.9683     7.3039     7.2145
  277.1000   145.2126     7.3040     7.1772
  277.2000   145.3354     7.2649     7.1062
  277.3000   145.5086     7.2225     7.0451
  277.4000   145.5062     7.1805     7.0042
  277.5000   145.5036     7.1542     6.9698
  277.6000   145.2623     7.1463     6.9699
  277.7000   145.0059     7.1051     6.8911
  277.8000   144.8950     7.1052     6.8427
  277.9000   144.7938     7.0709     6.8029
  278.0000   144.5374     7.0297     6.7802
  278.1000   144.2808     6.9887     6.7611
  278.2000   143.9828     6.9480     6.6849
  278.3000   143.3426     6.9075     6.6413
  278.4000   142.5780     6.8639     6.6074
  278.5000   142.1714     6.8272     6.5425
  278.6000   142.1690     6.7584     6.4666
  278.7000   142.1666     6.6583     6.4037
  278.8000   142.1640     6.5706     6.3611
  278.9000   142.1618     6.5251     6.2844
  279.0000   142.1594     6.4494     6.2492
  279.1000   142.2967     6.4053     6.2129
  279.2000   142.4553     6.3745     6.1768
  279.3000   142.4993     6.3136     6.1409
  279.4000   142.7513     6.2570     6.1052
  279.5000   143.3499     6.2307     6.0696
  279.6000   143.7618     6.2307     6.0296
  279.7000   144.4277     6.2308     6.0296
  279.8000   145.0739     6.1976     6.0058
  279.9000   145.7798     6.1880     5.9883
  280.0000   147.0474     6.1881     5.9883
  280.1000   148.4485     6.1882     5.9884
  280.2000   148.9011     6.1883     5.9885
  280.3000   149.7681     6.1883     6.0219
  280.4000   151.0498     6.1884     6.0302
  280.5000   152.4841     6.1588     6.0303
  280.6000   153.6709     6.1459     6.0446
  280.7000   154.4493     6.1295     6.0723
  280.8000   154.9426     6.1036     6.0724
  280.9000   155.0460     6.1003     6.0725
  281.0000   154.8892     6.0617     6.0726
  281.1000   154.5251     6.0295     6.0727
  281.2000   154.0146     5.9688     6.0727
  281.3000   153.4900     5.8994     6.0728
  281.4000   152.6277     5.8432     6.0729
  281.5000   151.9610     5.8091     6.0730
  281.6000   151.0216     5.7752     6.0731
  281.7000   149.7467     5.7356     6.0732
  281.8000   148.3015     5.7081     6.0732
  281.9000   146.9250     5.6538     6.0596
  282.0000   144.7939     5.6029     6.0316
  282.1000   142.8557     5.5702     6.0309
  282.2000   141.6021     5.5348     5.9902
  282.3000   141.0291     5.4646     5.9610
  282.4000   140.8746     5.4647     5.9263
  282.5000   140.8722     5.4415     5.8757
  282.6000   140.8781     5.4098     5.8074
  282.7000   141.1678     5.3783     5.7400
  282.8000   141.1657     5.3469     5.6683
  282.9000   141.5014     5.3157     5.5774
  283.0000   142.0070     5.2792     5.5281
  283.1000   142.3615     5.2792     5.4781
  283.2000   142.3879     5.2597     5.4028
  283.3000   142.6573     5.2429     5.3089
  283.4000   142.8912     5.2347     5.2171
  283.5000   143.1428     5.2069     5.1815
  283.6000   143.3945     5.2070     5.1566
  283.7000   143.6461     5.1794     5.1459
  283.8000   143.9964     5.1712     5.1460
  283.9000   144.7589     5.1712     5.1461
  284.0000   145.9485     5.1713     5.1461
  284.1000   146.9959     5.1714     5.1462
  284.2000   148.1007     5.1715     5.1463
  284.3000   148.9980     5.1715     5.1463
  284.4000   149.8274     5.1716     5.1629
  284.5000   150.8179     5.1717     5.1822
  284.6000   151.6485     5.1718     5.1823
  284.7000   152.1071     5.1718     5.1823
  284.8000   152.6127     5.1719     5.1824
  284.9000   152.9814     5.1720     5.2072
  285.0000   153.0526     5.1720     5.2185
  285.1000   152.7527     5.1941     5.2186
  285.2000   152.2357     5.2247     5.2187
  285.3000   151.6314     5.2555     5.2212
  285.4000   150.8130     5.2809     5.2550
  285.5000   149.7945     5.2810     5.2551
  285.6000   148.6653     5.3178     5.2772
  285.7000   147.3289     5.3433     5.2917
  285.8000   145.8021     5.3747     5.2918
  285.9000   144.0984     5.4064     5.2970
  286.0000   142.2998     5.4382     5.3286
  286.1000   140.8495     5.4703     5.3287
  286.2000   139.6495     5.5056     5.3538
  286.3000   138.3746     5.5349     5.3853
  286.4000   138.1341     5.5912     5.4308
  286.5000   137.4948     5.6392     5.4866
  286.6000   136.7303     5.6844     5.5210
  286.7000   136.0638     5.7455     5.5934
  286.8000   135.6559     5.7795     5.6519
  286.9000   135.6535     5.8198     5.7185
  287.0000   135.6507     5.8476     5.7858
  287.1000   135.6487     5.8820     5.8422
  287.2000   135.6463     5.9167     5.8819
  287.3000   135.6439     5.9515     5.9531
  287.4000   135.7133     5.9866     6.0212
  287.5000   135.9899     6.0253     6.0922
  287.6000   136.5387     6.0573     6.1860
  287.7000   137.0014     6.0930     6.2642
  287.8000   137.6927     6.1679     6.3099
  287.9000   138.5912     6.2906     6.3819
  288.0000   139.4205     6.4329     6.4242
  288.1000   140.0172     6.5479     6.4903
  288.2000   141.0358     6.5935     6.5402
  288.3000   142.2359     6.6566     6.5983
  288.4000   142.8524     6.7103     6.6632
  288.5000   143.6119     6.7498     6.7079
  288.6000   144.3717     6.7896     6.7901
  288.7000   145.1316     6.8328     6.8284
  288.8000   145.8912     6.9216     6.8685
  288.9000   146.7330     6.9583     6.8850
  289.0000   147.4105     6.9993     6.9016
  289.1000   148.3501     7.0184     6.9329
  289.2000   149.0976     7.0185     6.9348
  289.3000   149.7762     7.0186     6.9812
  289.4000   150.7104     7.0187     6.9813
  289.5000   151.2300     7.0188     6.9814
  289.6000   151.9687     6.9858     6.9815
  289.7000   152.5281     6.9451     6.9563
  289.8000   153.0338     6.9047     6.8806
  289.9000   153.4326     6.8540     6.8385
  290.0000   153.6842     6.7773     6.8008
  290.1000   153.9225     6.7337     6.7613
  290.2000   153.9197     6.6985     6.7220
  290.3000   153.6968     6.6595     6.6829
  290.4000   153.4404     6.6207     6.6440
  290.5000   153.1840     6.5821     6.6042
  290.6000   152.8469     6.5502     6.5160
  290.7000   152.3364     6.5503     6.4839
  290.8000   151.8002     6.4157     6.4212
  290.9000   151.0742     6.3856     6.3290
  291.0000   149.9208     6.2799     6.2190
  291.1000   148.7962     6.1501     6.1068
  291.2000   147.9796     6.0430     5.9563
