~VERSION INFORMATION
 VERS.                2.0:   CWLS LOG ASCII STANDARD - VERSION 2.0
 WRAP.                 NO:   ONE LINE PER DEPTH STEP
~WELL INFORMATION
#MNEM.UNIT      DATA TYPE    INFORMATION
#----------   ------------   ------------------------------
 STRT.F           18.0000:   START DEPTH
 STOP.F          647.0000:   STOP DEPTH
 STEP.F            0.5000:   STEP LENGTH
 NULL.          -999.2500:   NO VALUE
 COMP. FENIX & SCISSON INC:   COMPANY
 WELL. NAVAL PETROLEUM RESERVE 3 SX-1 #82-15:   WELL
 FLD .        TEAPOT DOME:   FIELD
 LOC .      S15 T38N R78W:   LOCATION
 CNTY.            NATRONA:   COUNTY
 STAT.            WYOMING:   STATE
 CTRY. UNITED STATES OF AMERICA:   COUNTRY
 SRVC.            Unknown:   SERVICE COMPANY
 DATE.        15-MAR-1979:   LOGDATE
 API .       490251076500:   API NUMBER
~CURVE INFORMATION
#MNEM.UNIT       API CODE    CURVE DESCRIPTION
#----------   ------------   ------------------------------
 DEPT.F                  :   
 SPR .MV     05 010 01 00:   SPONTANEOUS POTENTIAL FROM RES.
 SN  .OHMM   05 040 16 00:   SHORT NORMAL 16"
 IL  .OHMM   05 120 00 00:   INDUCTION LOG
 CALD.IN     45 280 60 00:   CALIPER
 GRD .GAPI   45 310 01 00:   GAMMA RAY FROM DENSITY LOG
 RHOB.G/C3   45 350 01 00:   BULK DENSITY
 DPHI.DEC    45 890 12 00:   DENSITY POROSITY SANDSTONE
 CORR.G/C3   45 356 01 00:   DENSITY CORRECTION
~PARAMETER INFORMATION
#MNEM.UNIT          VALUE    DESCRIPTION
#----------   ------------   ------------------------------
 PD  .                 GL:   PERMANENT DATUM
 EPD .F              5249:   ELEVATION PERMANENT DATUM
 LMF .                 KB:   LOG MEASURED FROM
 DAPD.F                 4:   FEET ABOVE PERMANENT DATUM
 DMF .                 KB:   DRILLING MEASURED FROM
 EKB .F              5253:   KELLING BUSHING
 EGL .F              5249:   GROUND LEVEL
 DATE.            1-15-79:   RUN DATE
 RUN .                  1:   RUN NUMBER
 DD  .F               670:   DEPTH DRILLER
 DL  .F               647:   DEPTH LOGGER
 BLI .F               640:   BOTTOM LOG INTERVAL
 TLI .F                30:   TOP LOG INTERVAL
 CS  .IN            8.625:   CASING SIZE
 CBD .F                40:   CASING BOTTOM DRILLER
 CBL .F                34:   CASING BOTTOM LOGGER
 BS  .IN            7.875:   BIT SIZE
 BSD .F               670:   BIT SIZE AT DEPTH
 DFT .                KCL:   DRILLING FLUID TYPE
 DFD .                8.9:   DRILLING FLUID DENSITY
 DFV .                 44:   DRILLING FLUID VISCOSITY
 DFPH.                8.5:   DRILLING FLUID PH
 DFL .               14.8:   DRILLING FLUID LOSS
 MSS .           FLOWLINE:   MUD SAMPLE SOURCE
 RMS .OHMM            .26:   RESISTIVITY MUD SAMPLE
 MST .F                61:   MUD SAMPLE TEMPERATURE
 RMF .OHMM            .25:   RESISTIVITY MUD FILTRATE SAMPLE
 MFST.F                60:   MUD FILTRATE SAMPLE TEMPERATURE
 RMC .OHMM             .2:   RESISTIVITY MUD CAKE
 MCST.F                60:   MUD CAKE SAMPLE TEMPERATURE
 MFSS.           MEASURED:   MUD FILTRATE SAMPLE SOURCE
 MCSS.           MEASURED:   MUD CAKE SAMPLE SOURCE
 RMB .OHMM            .27:   RESISTIVITY MUD AT BHT
 BHT .F                58:   BOTTOM HOLE TEMPERATURE
 TCS .HRS               5:   TIME CURCULATED STOPPED
 MRT .F                58:   MAXIMUM RECORDED TEMPERATURE
 LUN .               3006:   LOGGING UNIT NUMBER
 LUL .             CASPER:   LOGGING UNIT LOCATION
 ENGI.            ROLLINS:   RECORDING ENGINEER
 WITN.              AMEND:   WITNESSED BY
 CLNT.            A2DTECH:   CLIENT CODE
 ORIG.         2.5" PRINT:   ORIGIN OF DATA
 UWI .       490251076500:   UNIQUE WELL ID
 DICO. A2D Technologies, Inc.:   DIGITIZING COMPANY
~OTHER INFORMATION
~A   DEPT      SPR         SN         IL       CALD         GRD      RHOB       DPHI       CORR   
# ...
  180.0000   -66.5870     7.2850     7.9470     8.0550   117.4570     2.4760     0.1240     0.0510
  180.5000   -66.6270     7.3610     7.9760     8.0360   119.6260     2.4850     0.1420     0.0460
  181.0000   -66.6680     7.4370     8.0080     8.0310   122.8020     2.4690     0.1520     0.0470
  181.5000   -66.7080     7.5130     8.0400     8.0240   121.5530     2.4450     0.1560     0.0490
  182.0000   -66.7490     7.5900     8.0720     8.0180   118.4130     2.4370     0.1510     0.0520
  182.5000   -66.7890     7.6660     8.1040     8.0110   116.1540     2.4440     0.1510     0.0620
  183.0000   -66.8300     7.7420     8.1360     8.0050   115.7340     2.4470     0.1510     0.0770
  183.5000   -66.8700     7.8180     8.1680     7.9940   114.1680     2.4450     0.1430     0.0920
  184.0000   -66.9110     7.8940     8.2000     7.9740   112.6580     2.4510     0.1350     0.1080
  184.5000   -66.9520     7.9700     8.2320     7.9540   112.4810     2.4640     0.1300     0.1230
  185.0000   -66.9920     8.0460     8.2970     7.9310   112.9680     2.4760     0.1250     0.1380
  185.5000   -67.0330     8.1220     8.3900     7.9190   112.2530     2.4850     0.1200     0.1400
  186.0000   -67.0730     8.1990     8.4830     7.9210   111.8340     2.4920     0.1150     0.1360
  186.5000   -67.1140     8.2750     8.5760     7.9200   111.8670     2.4990     0.1140     0.1330
  187.0000   -67.1540     8.3510     8.6700     7.9200   112.7040     2.5050     0.1130     0.1300
  187.5000   -67.1950     8.4270     8.7630     7.9200   113.6840     2.5040     0.1120     0.1320
  188.0000   -67.2350     8.5030     8.8560     7.9210   113.8850     2.5030     0.1160     0.1350
  188.5000   -67.2760     8.5790     8.9490     7.9450   112.6380     2.5000     0.1230     0.1370
  189.0000   -67.3160     8.6550     9.0440     7.9720   111.4960     2.4890     0.1280     0.1310
  189.5000   -67.3570     8.7160     9.0610     7.9990   110.6290     2.4790     0.1290     0.1180
  190.0000   -67.3970     8.7390     9.0790     8.0260   110.6050     2.4760     0.1410     0.1270
  190.5000   -67.4380     8.7580     9.0970     8.0530   110.4890     2.4620     0.1450     0.1470
  191.0000   -67.4770     8.7770     9.1150     8.0800   109.6060     2.4490     0.1310     0.1630
  191.5000   -67.5210     8.7960     9.1340     8.1080   107.0310     2.4580     0.1180     0.1490
  192.0000   -67.5380     8.8150     9.1520     8.1210   104.2220     2.4840     0.1120     0.1170
  192.5000   -67.5250     8.8340     9.1700     8.1200   103.8570     2.5060     0.1210     0.1000
  193.0000   -67.5170     8.8530     9.1880     8.1200   103.7920     2.4970     0.1300     0.1070
  193.5000   -67.5080     8.8780     9.2120     8.1200   104.0900     2.4840     0.1280     0.1090
  194.0000   -67.4980     8.8550     9.1880     8.1200   104.9260     2.4790     0.1230     0.1130
  194.5000   -67.4890     8.8200     9.1510     8.1200   104.1050     2.4880     0.1180     0.1010
  195.0000   -67.4790     8.7820     9.1130     8.1200   103.1250     2.4990     0.1140     0.0850
  195.5000   -67.4700     8.7460     9.0750     8.1200   103.1500     2.4990     0.1280     0.0740
  196.0000   -67.4610     8.7100     9.0380     8.1310   104.9670     2.4870     0.1320     0.0680
  196.5000   -67.4510     8.6740     9.0000     8.1470   105.4540     2.4750     0.1350     0.0620
  197.0000   -67.4420     8.6380     8.9630     8.1620   106.5110     2.4700     0.1440     0.0640
  197.5000   -67.4320     8.6020     8.9250     8.1770   108.1990     2.4570     0.1530     0.0670
  198.0000   -67.4230     8.5660     8.8880     8.1930   109.8490     2.4430     0.1540     0.0690
  198.5000   -67.4130     8.5290     8.8500     8.2080   111.5550     2.4380     0.1490     0.0630
  199.0000   -67.4040     8.4930     8.8130     8.2230   113.1970     2.4430     0.1440     0.0590
  199.5000   -67.3950     8.4570     8.7750     8.2380   116.6120     2.4510     0.1390     0.0680
  200.0000   -67.3850     8.4210     8.7380     8.2530   117.5880     2.4580     0.1340     0.0750
  200.5000   -67.3760     8.3850     8.7000     8.2690   114.6430     2.4650     0.1240     0.0840
  201.0000   -67.3660     8.3490     8.6620     8.2800   112.1560     2.4780     0.1070     0.0900
  201.5000   -67.3570     8.3120     8.6250     8.2800   109.7870     2.5050     0.0900     0.0900
  202.0000   -67.3480     8.2760     8.5870     8.2800   108.2040     2.5310     0.0780     0.0910
  202.5000   -67.3380     8.2460     8.5560     8.2800   106.6470     2.5620     0.0880     0.1020
  203.0000   -67.3290     8.1340     8.4350     8.2800   105.8880     2.5560     0.0980     0.1160
  203.5000   -67.3190     8.0380     8.3320     8.2800   108.3730     2.5350     0.1060     0.1230
  204.0000   -67.3100     7.9420     8.2290     8.2800   110.8460     2.5180     0.1050     0.1100
  204.5000   -67.3000     7.8460     8.1250     8.2800   113.3660     2.5180     0.1090     0.1080
  205.0000   -67.2910     7.7500     8.0220     8.2800   115.9750     2.5130     0.1150     0.1070
  205.5000   -67.2820     7.6540     7.9190     8.2800   117.1540     2.5040     0.1220     0.1180
  206.0000   -67.2720     7.5590     7.8150     8.2800   117.5900     2.4970     0.1200     0.1280
  206.5000   -67.2630     7.4630     7.7120     8.2800   117.8890     2.4980     0.1190     0.1370
  207.0000   -67.2530     7.3670     7.6090     8.2800   118.6080     2.4990     0.1170     0.1340
  207.5000   -67.2440     7.2710     7.5190     8.2800   120.0950     2.5000     0.1150     0.1050
  208.0000   -67.2350     7.2380     7.3650     8.2800   121.6680     2.5010     0.1140     0.0710
  208.5000   -67.2250     7.2260     7.3440     8.2800   121.8440     2.5010     0.1250     0.0430
  209.0000   -67.2160     7.2140     7.3220     8.2800   121.9250     2.4970     0.1370     0.0350
  209.5000   -67.2060     7.2020     7.3000     8.2800   121.9520     2.4750     0.1480     0.0300
  210.0000   -67.1970     7.1910     7.2770     8.2800   122.0400     2.4520     0.1390     0.0260
  210.5000   -67.1870     7.1790     7.2470     8.2800   122.0680     2.4520     0.1430     0.0260
  211.0000   -67.1790     7.1670     7.2530     8.2800   122.1470     2.4560     0.1500     0.0260
  211.5000   -67.1690     7.1550     7.2650     8.2800   122.2740     2.4530     0.1560     0.0330
  212.0000   -67.1590     7.1430     7.2770     8.2800   123.7090     2.4400     0.1540     0.0440
  212.5000   -67.1550     7.1310     7.2890     8.2800   125.2620     2.4370     0.1490     0.0540
  213.0000   -67.1310     7.1160     7.3010     8.2800   126.9990     2.4430     0.1460     0.0650
  213.5000   -67.2390     7.1300     7.3140     8.2800   127.6760     2.4500     0.1420     0.0690
  214.0000   -67.4300     7.1600     7.3250     8.2800   126.8170     2.4560     0.1360     0.0660
  214.5000   -67.6010     7.1890     7.3370     8.2800   125.8920     2.4620     0.1340     0.0630
  215.0000   -67.7750     7.2190     7.3490     8.2800   124.9570     2.4690     0.1330     0.0640
  215.5000   -67.9500     7.2480     7.3610     8.2800   123.0910     2.4730     0.1310     0.0660
  216.0000   -68.1250     7.2780     7.3730     8.2800   119.6350     2.4750     0.1300     0.0690
  216.5000   -68.2990     7.3070     7.3850     8.2800   115.3760     2.4750     0.1300     0.0700
  217.0000   -68.4700     7.3360     7.3970     8.2800   111.0910     2.4750     0.1300     0.0690
  217.5000   -68.6600     7.3660     7.4090     8.2760   109.8380     2.4750     0.1310     0.0680
  218.0000   -68.7300     7.3950     7.4210     8.2650   110.4140     2.4750     0.1330     0.0680
  218.5000   -68.6490     7.4250     7.4330     8.2540   110.4690     2.4710     0.1360     0.0670
  219.0000   -68.5860     7.4540     7.4450     8.2420   109.8530     2.4670     0.1380     0.0660
  219.5000   -68.5180     7.4840     7.4570     8.2310   110.0300     2.4670     0.1340     0.0610
  220.0000   -68.4500     7.5130     7.4690     8.2190   110.1470     2.4680     0.1340     0.0550
