~VERSION INFORMATION
 VERS.                2.0:   CWLS LOG ASCII STANDARD - VERSION 2.0
 WRAP.                 NO:   ONE LINE PER DEPTH STEP
~WELL INFORMATION
#MNEM.UNIT      DATA TYPE    INFORMATION
#----------   ------------   ------------------------------
 STRT.F            6.0000:   START DEPTH
 STOP.F          765.0000:   STOP DEPTH
 STEP.F            0.5000:   STEP LENGTH
 NULL.          -999.2500:   NO VALUE
 COMP. FENIX & SCISSON INC:   COMPANY
 WELL.      24 SX 2 #24-2:   WELL
 FLD .        TEAPOT DOME:   FIELD
 LOC .       S2 T38N R78W:   LOCATION
 CNTY.            NATRONA:   COUNTY
 STAT.            WYOMING:   STATE
 CTRY. UNITED STATES OF AMERICA:   COUNTRY
 SRVC.           BIRDWELL:   SERVICE COMPANY
 DATE.        20-JAN-1978:   LOGDATE
 API .       490251055700:   API NUMBER
~CURVE INFORMATION
#MNEM.UNIT       API CODE    CURVE DESCRIPTION
#----------   ------------   ------------------------------
 DEPT.F                  :   
 SPR .MV     05 010 01 00:   SPONTANEOUS POTENTIAL FROM RES.
 SN  .OHMM   05 040 16 00:   SHORT NORMAL 16"
 ILD .OHMM   05 120 46 00:   INDUCTION LOG DEEP
 CALD.IN     45 280 60 00:   CALIPER FROM DENSITY LOG
 CORR.G/C3   45 356 01 00:   DENSITY CORRECTION
 DEN .G/C3   45 350 01 00:   COMPENSATED BULK DENSTIY
 DPHI.DEC    45 890 12 00:   DENSITY POROSITY SANDSTONE
 GRD .GAPI   45 310 01 00:   GAMMA RAY FROM DENSITY LOG
~PARAMETER INFORMATION
#MNEM.UNIT          VALUE    DESCRIPTION
#----------   ------------   ------------------------------
 PD  .                 GL:   PERMANENT DATUM
 EPD .F              5131:   ELEVATION PERMANENT DATUM
 LMF .                 KB:   LOG MEASURED FROM
 DMF .                 KB:   DRILLING MEASURED FROM
 EKB .F              5134:   KELLING BUSHING
 EGL .F              5131:   GROUND LEVEL
 DATE.        20-JAN-1978:   RUN DATE
 RUN .                  1:   RUN NUMBER
 DD  .F               775:   DEPTH DRILLER
 DL  .F               770:   DEPTH LOGGER
 BLI .F               770:   BOTTOM LOG INTERVAL
 TLI .F                40:   TOP LOG INTERVAL
 CS  .IN            8.625:   CASING SIZE
 CBD .F                39:   CASING BOTTOM DRILLER
 CBL .F                39:   CASING BOTTOM LOGGER
 BS  .IN            7.875:   BIT SIZE
 BSD .F               775:   BIT SIZE AT DEPTH
 DFT .                KCL:   DRILLING FLUID TYPE
 DFD .                8.6:   DRILLING FLUID DENSITY
 DFV .                 33:   DRILLING FLUID VISCOSITY
 DFPH.                9.5:   DRILLING FLUID PH
 DFL .                  8:   DRILLING FLUID LOSS
 MSS .           FLOWLINE:   MUD SAMPLE SOURCE
 RMS .OHMM            .31:   RESISTIVITY MUD SAMPLE
 MST .F                54:   MUD SAMPLE TEMPERATURE
 RMF .OHMM            .28:   RESISTIVITY MUD FILTRATE SAMPLE
 MFST.F                64:   MUD FILTRATE SAMPLE TEMPERATURE
 RMC .OHMM             .8:   RESISTIVITY MUD CAKE
 MCST.F                64:   MUD CAKE SAMPLE TEMPERATURE
 MFSS.               MEAS:   MUD FILTRATE SAMPLE SOURCE
 MCSS.               MEAS:   MUD CAKE SAMPLE SOURCE
 RMB .OHMM            .22:   RESISTIVITY MUD AT BHT
 BHT .F                76:   BOTTOM HOLE TEMPERATURE
 TCS .HRS            0400:   TIME CURCULATED STOPPED
 MRT .F                76:   MAXIMUM RECORDED TEMPERATURE
 LUN .               2958:   LOGGING UNIT NUMBER
 LUL .             CASPER:   LOGGING UNIT LOCATION
 ENGI.            POINTER:   RECORDING ENGINEER
 WITN.           MCGINLEY:   WITNESSED BY
 CLNT.            A2DTECH:   CLIENT CODE
 ORIG.           5" PRINT:   ORIGIN OF DATA
 UWI .       490251055700:   UNIQUE WELL ID
 DICO. A2D Technologies, Inc.:   DIGITIZING COMPANY
~OTHER INFORMATION
~A    DEPT     SPR         SN        ILD       CALD       CORR        DEN       DPHI         GRD  
# ...
  289.5000   -42.4307     8.8022     8.6800     8.0589     0.0745     2.4503     0.1226    95.1325
  290.0000   -42.2892     8.9836     8.4977     8.0586     0.0774     2.4600     0.1190   100.2410
  290.5000   -42.2983     9.1054     8.4948     8.0583     0.0789     2.4660     0.1166    97.7992
  291.0000   -42.3074     9.1016     8.4918     8.0580     0.0774     2.4690     0.1163    95.0964
  291.5000   -42.6176     9.0978     8.4889     8.0577     0.0773     2.4697     0.1166    95.3857
  292.0000   -42.7772     9.0940     8.5457     8.0574     0.0773     2.4756     0.1119    97.0000
  292.5000   -42.7863     9.0902     8.6021     8.0571     0.0780     2.4809     0.1107   100.8082
  293.0000   -42.7953     9.0865     8.7192     8.0719     0.0788     2.4808     0.1113   101.0726
  293.5000   -42.8043     9.1459     8.8378     8.0715     0.0795     2.4777     0.1134   101.0602
  294.0000   -42.8133     9.2068     9.0195     8.0712     0.0824     2.4761     0.1146   100.2851
  294.5000   -42.6717     9.3306     9.1422     8.0709     0.0862     2.4737     0.1156    95.4337
  295.0000   -42.8314     9.3267     9.2666     8.0706     0.0891     2.4685     0.1168    89.5783
  295.5000   -42.8404     9.4541     9.4580     8.0703     0.0883     2.4685     0.1189    90.3343
  296.0000   -42.8495     9.7162     9.5875     8.0700     0.0891     2.4661     0.1217    94.6753
  296.5000   -42.8585     9.8479     9.7180     8.0697     0.0920     2.4645     0.1229    89.5398
  297.0000   -42.7169     9.9814     9.8502     8.0694     0.0943     2.4623     0.1208    85.3110
  297.5000   -42.7259    10.1167     9.9842     8.0691     0.0950     2.4638     0.1181    81.9857
  298.0000   -42.7350    10.2539    10.0501     8.0688     0.0949     2.4652     0.1181    75.0460
  298.5000   -42.7440    10.3199    10.1860     8.0685     0.0949     2.4674     0.1218    71.4225
  299.0000   -42.6024    10.3874    10.2542     8.0682     0.0949     2.4621     0.1218    78.6365
  299.5000   -42.6115    10.3831    10.3219     8.0679     0.0949     2.4628     0.1230    85.8534
  300.0000   -42.6205    10.3799    10.3126     8.0647     0.0979     2.4595     0.1354    90.3901
  300.5000   -42.6295    10.4451    10.2441     8.0467     0.1030     2.4402     0.1372    94.3551
  301.0000   -42.6386    10.5151    10.1701     8.0286     0.1037     2.4356     0.1369    96.6592
  301.5000   -42.4955    10.4381    10.1673     8.0056     0.1037     2.4356     0.1375    96.0379
  302.0000   -42.3539    10.4337    10.2352     8.0050     0.1029     2.4348     0.1390    93.0108
  302.5000   -42.0617    10.4294    10.2323     7.9894     0.1006     2.4348     0.1394    93.8994
  303.0000   -42.0730    10.4250    10.2295     7.9737     0.0983     2.4355     0.1370    96.2978
  303.5000   -41.9292    10.4207    10.2267     7.9731     0.0946     2.4355     0.1367    86.9416
  304.0000   -41.9405    10.3443    10.0135     7.9725     0.0915     2.4355     0.1358    80.3000
  304.5000   -41.9495    10.2685     9.6030     7.9719     0.0907     2.4332     0.1370    79.3852
  305.0000   -41.9585    10.2642     9.4034     7.9865     0.0898     2.4324     0.1409    92.9206
  305.5000   -41.9675    10.1185     9.5320     7.9707     0.0884     2.4324     0.1406    98.6284
  306.0000   -42.4284    10.1143     9.6617     7.9701     0.0884     2.4339     0.1367    99.8219
  306.5000   -42.5880    10.1101     9.6590     7.9695     0.0891     2.4339     0.1398    93.4778
  307.0000   -42.8982    10.0360     9.5234     7.9840     0.0898     2.4293     0.1443    90.4545
  307.5000   -43.0579    10.0319     9.4551     7.9834     0.0905     2.4248     0.1452   103.0863
  308.0000   -43.2175    10.0277     9.3872     7.9828     0.0905     2.4233     0.1410   106.0833
  308.5000   -43.2265     9.9542     9.3846     7.9822     0.0904     2.4293     0.1374   107.2768
  309.0000   -43.2356     9.9500     9.3820     7.9816     0.0896     2.4353     0.1353   106.0532
  309.5000   -43.0940     9.9459     9.3794     7.9810     0.0896     2.4390     0.1360   102.1225
  310.0000   -43.1030     9.9418     9.3768     7.9804     0.0896     2.4375     0.1372    98.4930
  310.5000   -42.9592     9.9376     9.3742     7.9798     0.0903     2.4352     0.1384    90.3454
  311.0000   -42.8176     9.8648     9.3716     7.9792     0.0887     2.4352     0.1396    89.1255
  311.5000   -42.8289     9.8607     9.3690     7.9786     0.0880     2.4344     0.1387    91.5201
  312.0000   -42.8379     9.8566     9.3664     7.9780     0.0857     2.4336     0.1372    99.9388
  312.5000   -42.8470     9.7844     9.3638     7.9774     0.0841     2.4336     0.1369   101.1323
  313.0000   -42.7031     9.6455     9.3612     7.9768     0.0834     2.4366     0.1363    93.2822
  313.5000   -42.7144     9.5748     9.3586     7.9762     0.0826     2.4381     0.1361    93.5684
  314.0000   -42.7234     9.6375     9.3560     7.9756     0.0818     2.4350     0.1389    94.1557
  314.5000   -42.7325     9.6334     9.1610     7.9750     0.0817     2.4312     0.1414    96.2491
  315.0000   -42.8921     9.6975     8.9700     7.9895     0.0810     2.4290     0.1430    98.6437
  315.5000   -43.0517     9.7610     8.8441     7.9888     0.0809     2.4304     0.1398   102.2431
  316.0000   -43.0608     9.7559     8.8416     7.9882     0.0809     2.4349     0.1374   107.9510
  316.5000   -43.0698     9.7519     8.9012     7.9876     0.0793     2.4372     0.1413   113.0564
  317.0000   -43.0788     9.7478     9.0857     7.9870     0.0786     2.4334     0.1353   115.1535
  317.5000   -43.0878     9.7438     9.2093     7.9864     0.0785     2.4319     0.1332   107.9058
  318.0000   -43.0969     9.6055     9.3359     7.9858     0.0785     2.4439     0.1317   105.4811
  318.5000   -43.1059     9.5351     9.3327     7.9852     0.0784     2.4469     0.1302   105.7710
  319.0000   -43.2655     9.3347     9.2657     7.9846     0.0784     2.4521     0.1281   105.7522
  319.5000   -43.4252     9.2022     9.0725     7.9840     0.0724     2.4559     0.1251   105.7372
  320.0000   -43.4342     9.0715     8.4627     7.9986     0.0693     2.4618     0.1218   111.7462
  320.5000   -43.7444     8.9428     7.8939     7.9978     0.0686     2.4513     0.1384   114.7432
  321.0000   -44.0547     8.8158     7.7293     8.0124     0.0685     2.4362     0.1375   119.8487
  321.5000   -44.0637     8.6907     7.7272     8.0267     0.0692     2.4339     0.1381   123.1469
  322.0000   -43.9221     8.6270     7.7251     8.0411     0.0692     2.4347     0.1387   121.6258
  322.5000   -43.7801     8.6234     7.8307     8.0405     0.0692     2.4346     0.1318   119.2011
  323.0000   -43.4884     8.6198     8.0486     8.0852     0.0691     2.4489     0.1258   117.9812
  323.5000   -43.4974     8.6162     8.1024     8.0996     0.0691     2.4549     0.1270   118.8698
  324.0000   -43.3554     8.6726     8.2702     8.0989     0.0713     2.4526     0.1307   118.5536
  324.5000   -43.3648     8.6690     8.3256     8.1133     0.0772     2.4496     0.1328   100.7674
  325.0000   -43.2229     8.7865     8.4394     8.1127     0.0817     2.4473     0.1295    90.8126
  325.5000   -43.2323     8.9057     8.5548     8.1121     0.0839     2.4466     0.1232    87.4843
  326.0000   -43.2413     9.0264     8.8539     8.0965     0.0854     2.4601     0.1178    89.5777
  326.5000   -43.0994     9.1497     9.0375     8.0959     0.0853     2.4713     0.1136    92.5747
  327.0000   -43.2594     9.3374     9.0978     8.0953     0.0838     2.4788     0.1124    95.2705
  327.5000   -43.2684     9.5299     9.0324     8.1097     0.0838     2.4803     0.1085    95.8584
  328.0000   -43.5786     9.7263     8.8441     8.1091     0.0845     2.4856     0.0944    79.8790
  328.5000   -43.7383     9.8592     8.7200     8.1085     0.0844     2.5029     0.0896    70.2254
  329.0000   -44.0485     9.9238     8.5975     8.1079     0.0859     2.5149     0.0911    56.0537
  329.5000   -44.2081     9.9887     8.5358     8.1073     0.0926     2.4968     0.0989    72.9061
