~VERSION INFORMATION
 VERS.                2.0:   CWLS LOG ASCII STANDARD - VERSION 2.0
 WRAP.                 NO:   ONE LINE PER DEPTH STEP
~WELL INFORMATION
#MNEM.UNIT      DATA TYPE    INFORMATION
#----------   ------------   ------------------------------
 STRT.F           30.0000:   START DEPTH
 STOP.F          597.0000:   STOP DEPTH
 STEP.F            0.5000:   STEP LENGTH
 NULL.          -999.2500:   NO VALUE
 COMP. FENIX & SCISSON-U.S. NAVY:   COMPANY
 WELL.    NPR #3 #15-S-11:   WELL
 FLD .             TEAPOT:   FIELD
 LOC .      S11 T38N R78W:   LOCATION
 CNTY.            NATRONA:   COUNTY
 STAT.            WYOMING:   STATE
 CTRY. UNITED STATES OF AMERICA:   COUNTRY
 SRVC.       Schlumberger:   SERVICE COMPANY
 DATE.        22-FEB-1977:   LOGDATE
 API .       490251028000:   API NUMBER
~CURVE INFORMATION
#MNEM.UNIT       API CODE    CURVE DESCRIPTION
#----------   ------------   ------------------------------
 DEPT.F                  :   
 SPR .MV     07 010 01 00:   SPONTANEOUS POTENTIAL
 ILD .OHMM   07 120 46 00:   INDUCTION LOG DEEP RES
 ILM .OHMM   07 120 44 00:   INDUCTION LOG MEDIUM RES
 LL8 .OHMM   07 220 08 00:   LATEROLOG-8 RES
 CALD.IN     45 280 60 00:   CALIPER FROM DENSITY LOG
 GRD .GAPI   45 310 01 00:   GAMMA RAY FROM DENSITY LOG
 CORR.G/C3   45 356 01 00:   DENSITY CORRECTION
 RHOB.G/C3   45 350 01 00:   BULK DENSITY
 DPHI.DEC    45 890 12 00:   DENSITY POROSITY SANDSTONE
~PARAMETER INFORMATION
#MNEM.UNIT          VALUE    DESCRIPTION
#----------   ------------   ------------------------------
 PD  .                 GL:   PERMANENT DATUM
 EPD .F              5188:   ELEVATION PERMANENT DATUM
 LMF .                 KB:   LOG MEASURED FROM
 DAPD.F                 5:   FEET ABOVE PERMANENT DATUM
 DMF .                 KB:   DRILLING MEASURED FROM
 EKB .F              5193:   KELLING BUSHING
 EGL .F              5188:   GROUND LEVEL
 DATE.         22FEB-1977:   RUN DATE
 RUN .                  1:   RUN NUMBER
 DD  .F               598:   DEPTH DRILLER
 DL  .F               598:   DEPTH LOGGER
 BLI .F               597:   BOTTOM LOG INTERVAL
 TLI .F                35:   TOP LOG INTERVAL
 CS  .IN            8.625:   CASING SIZE
 CBD .F                42:   CASING BOTTOM DRILLER
 CBL .F                45:   CASING BOTTOM LOGGER
 BS  .IN            7.875:   BIT SIZE
 BSD .F               598:   BIT SIZE AT DEPTH
 DFT .                KCL:   DRILLING FLUID TYPE
 DFD .                8.7:   DRILLING FLUID DENSITY
 DFV .                 31:   DRILLING FLUID VISCOSITY
 DFPH.                  8:   DRILLING FLUID PH
 DFL .                7.2:   DRILLING FLUID LOSS
 MSS .           MUD TANK:   MUD SAMPLE SOURCE
 RMS .OHMM           .526:   RESISTIVITY MUD SAMPLE
 MST .F                70:   MUD SAMPLE TEMPERATURE
 RMF .OHMM           .515:   RESISTIVITY MUD FILTRATE SAMPLE
 MFST.F                71:   MUD FILTRATE SAMPLE TEMPERATURE
 RMC .OHMM            .77:   RESISTIVITY MUD CAKE
 MCST.F                70:   MUD CAKE SAMPLE TEMPERATURE
 MFSS.               MEAS:   MUD FILTRATE SAMPLE SOURCE
 MCSS.               CALC:   MUD CAKE SAMPLE SOURCE
 RMB .OHMM            .67:   RESISTIVITY MUD AT BHT
 BHT .F                55:   BOTTOM HOLE TEMPERATURE
 TCS .HRS            0600:   TIME CURCULATED STOPPED
 MRT .F                55:   MAXIMUM RECORDED TEMPERATURE
 LUN .               5642:   LOGGING UNIT NUMBER
 LUL .               CSPR:   LOGGING UNIT LOCATION
 ENGI.                FIX:   RECORDING ENGINEER
 WITN.         STUEBINGER:   WITNESSED BY
 CLNT.            A2DTECH:   CLIENT CODE
 ORIG.           5" PRINT:   ORIGIN OF DATA
 UWI .       490251028000:   UNIQUE WELL ID
 DICO. A2D Technologies, Inc.:   DIGITIZING COMPANY
~OTHER INFORMATION
~A   DEPT      SPR        ILD        ILM        LL8       CALD         GRD      CORR       RHOB       DPHI   
# ...
   66.5000  -191.5586     6.9233     7.2164  1486.4620     8.2568   141.6862     0.0170     2.4147     0.1334
   67.0000  -190.3294     6.9729     7.3693  1487.0876     8.2577   139.9009     0.0058     2.4162     0.1423
   67.5000  -188.4969     6.9744     7.4736  1487.7133     8.2586   137.6652    -0.0010     2.4065     0.1523
   68.0000  -186.6644     6.9275     7.5272  1488.3389     8.2595   141.1351     0.0237     2.4110     0.1420
   68.5000  -191.0159     6.8813     7.5288  1488.9645     8.2604   147.0075     0.0073     2.3890     0.1520
   69.0000  -195.6748     6.7887     7.4271  1489.5901     8.2613   150.6304    -0.0107     2.3741     0.1651
   69.5000  -193.5350     6.7435     7.3267  1490.2156     8.2622   152.7449    -0.0294     2.3650     0.1725
   70.0000  -191.7025     6.6523     7.2775  1490.8412     8.2631   150.6634    -0.0338     2.3576     0.1802
   70.5000  -190.9258     6.6076     7.1297  1491.4668     8.2640   150.0752    -0.0346     2.3631     0.1776
   71.0000  -189.8475     6.6095     7.0337  1492.0924     8.2798   151.1469    -0.0316     2.3745     0.1706
   71.5000  -187.6849     6.6110     6.9864  1492.7180     8.2807   152.2145    -0.0113     2.3851     0.1667
   72.0000  -184.4746     6.6124     6.9884  1493.3436     8.2816   151.1758    -0.0053     2.3952     0.1580
   72.5000  -183.7486     6.6139     6.9900  1493.9692     8.2975   151.4926    -0.0255     2.3775     0.1634
   73.0000  -183.7260     6.6154     6.9915  1494.5947     8.3133   149.8589    -0.0075     2.3878     0.1649
   73.5000  -184.0052     6.6169     6.9931  1495.2203     8.3142   148.2237     0.0037     2.3959     0.1546
   74.0000  -176.7487     6.6184     6.9947  1495.8459     8.3001   147.9399    -0.0068     2.3890     0.1573
   74.5000  -171.7448     6.6199     7.0448  1495.5099     8.3010   148.7072    -0.0157     2.3837     0.1630
   75.0000  -175.3695     6.6214     7.0953  1494.6869     8.2870   148.8739    -0.0210     2.3775     0.1690
   75.5000  -175.0947     6.6229     7.0969  1493.8638     8.2879   143.9354    -0.0299     2.3707     0.1747
   76.0000  -167.1536     6.6703     7.0985  1493.0408     8.2888   141.0991    -0.0411     2.3648     0.1780
   76.5000  -164.5638     6.6718     7.1001  1492.2178     8.2897   142.7673    -0.0306     2.3629     0.1727
   77.0000  -166.3456     6.7196     7.1017  1491.3947     8.2906   146.0871    -0.0142     2.3877     0.1639
   77.5000  -165.7198     6.7678     7.1527  1490.5717     8.2915   144.3018    -0.0052     2.4012     0.1528
   78.0000  -165.0939     6.7693     7.1541  1489.7485     8.2924   144.3183    -0.0119     2.3892     0.1610
   78.5000  -165.3787     6.8178     7.1558  1488.9255     8.2933   147.0375    -0.0283     2.3809     0.1665
   79.0000  -164.4455     6.8193     7.1574  1488.1024     8.2942   148.4054    -0.0246     2.3862     0.1655
   79.5000  -163.6689     6.8208     7.1590  1487.2794     8.2951   147.8213    -0.0081     2.4027     0.1593
   80.0000  -165.6071     6.8697     7.1606  1486.4564     8.2960   149.7898    -0.0096     2.4042     0.1492
   80.5000  -166.9420     6.8713     7.1622  1485.6333     8.2969   150.8574    -0.0133     2.3997     0.1525
   81.0000  -166.7687     6.8728     7.1638  1484.8103     8.3127   151.1742    -0.0170     2.4005     0.1543
   81.5000  -166.1428     6.8743     7.2151  1483.9872     8.3136   148.6395    -0.0193     2.4012     0.1513
   82.0000  -162.6512     6.9236     7.3172  1483.1642     8.3145   148.3516    -0.0215     2.3952     0.1591
   82.5000  -162.7852     6.9251     7.4208  1482.3411     8.3154   150.0239    -0.0282     2.3817     0.1670
   83.0000  -158.5338     6.9267     7.5781  1481.5181     8.3013   149.2897    -0.0319     2.3749     0.1697
   83.5000  -155.3438     6.8801     7.5798  1480.6951     8.3022   146.1530    -0.0237     2.3892     0.1609
   84.0000  -156.9804     6.8343     7.3746  1479.8719     8.2882   145.7150    -0.0319     2.3719     0.1706
   84.5000  -158.7678     6.7887     7.2238  1479.0490     8.2891   146.4864    -0.0132     2.3929     0.1588
   85.0000  -154.8237     6.6973     7.0748  1478.2258     8.2900   146.6530    -0.0019     2.4027     0.1504
   85.5000  -151.6338     6.6523     6.8846  1477.4028     8.2909   146.8197    -0.0072     2.3982     0.1576
   86.0000  -153.2704     6.5628     6.6977  1476.5797     8.2918   148.1876    -0.0042     2.3967     0.1606
   86.5000  -154.1584     6.5187     6.5641  1475.7567     8.2927   148.2041     0.0018     2.3959     0.1546
   87.0000  -147.7954     6.4752     6.5656  1474.9337     8.3085   145.3678    -0.0011     2.3922     0.1579
   87.5000  -145.8121     6.4320     6.5671  1474.1106     8.3094   142.9819    -0.0102     2.3869     0.1618
   88.0000  -147.9012     6.3451     6.5686  1473.2876     8.3103   144.8002    -0.0041     2.3974     0.1636
   88.5000  -150.2920     6.3028     6.6204  1472.4645     8.3112   152.6259    -0.0280     2.3862     0.1597
   89.0000  -145.7445     6.2608     6.7558  1471.6415     8.3121   153.5392    -0.0310     2.3832     0.1657
   89.5000  -141.0463     6.2190     6.7573  1470.8184     8.2981   151.6078    -0.0311     2.3817     0.1681
   90.0000  -139.2138     6.1350     6.6201  1469.9954     8.2990   149.9700    -0.0198     2.3802     0.1654
   90.5000  -138.8953     6.0943     6.5695  1469.1724     8.2999   147.8844    -0.0108     2.3824     0.1573
   91.0000  -143.3920     6.0537     6.4424  1468.3492     8.3007   147.0000    -0.0025     2.4065     0.1464
   91.5000  -143.3694     6.0552     6.4439  1467.5262     8.3016   145.3649     0.0020     2.4005     0.1543
   92.0000  -135.5038     6.0985     6.4454  1466.7031     8.3025   147.3333    -0.0017     2.3914     0.1606
   92.5000  -132.3138     6.1422     6.4468  1465.8801     8.3034   152.6065    -0.0037     2.3869     0.1624
   93.0000  -131.3863     6.1436     6.5017  1465.0570     8.3043   153.6741     0.0014     2.3929     0.1573
   93.5000  -130.9113     6.1876     6.5852  1464.2340     8.3052   149.7880    -0.0047     2.3952     0.1543
   94.0000  -129.5313     6.2320     6.6324  1463.4110     8.3061   147.0561    -0.0048     2.4050     0.1506
   94.5000  -123.4783     6.3202     6.6339  1462.5879     8.3070   145.9144    -0.0009     2.4087     0.1467
   95.0000  -116.4547     6.3655     6.7277  1461.7649     8.3079   146.0811     0.0081     2.4072     0.1503
   95.5000  -109.7050     6.4555     6.8230  1461.3572     8.3088   148.0495    -0.0024     2.3997     0.1545
   96.0000  -106.5151     6.5923     6.9675  1467.1862     8.3097   148.3664    -0.0076     2.3884     0.1624
   96.5000  -102.3102     6.6856     7.1646  1472.6429     8.3106   145.3799    -0.0076     2.3997     0.1551
   97.0000   -98.1706     6.8747     7.3671  1478.0997     8.2966   140.2913     0.0007     2.4140     0.1476
   97.5000   -93.9249     6.9720     7.5754  1483.5566     8.2825   134.1517     0.0044     2.4245     0.1386
   98.0000   -91.4473     7.1197     7.7896  1489.0134     8.2834   128.1622     0.0112     2.4373     0.1289
   98.5000   -88.6709     7.2205     8.0099  1494.4702     8.2694   119.0195     0.0052     2.4500     0.1205
   99.0000   -85.4108     7.2722     8.2364  1499.9270     8.2404   110.0270    -0.0113     2.4666     0.1139
   99.5000   -83.4080     7.2738     8.3530  1505.3838     8.2114   112.1456    -0.0038     2.4771     0.1081
  100.0000   -80.9828     7.2253     8.2089  1507.9800     8.2272   116.8168     0.0094     2.4435     0.1198
  100.5000   -78.5575     7.0024     7.8388  1476.4023     8.2581   118.9311     0.0127     2.4057     0.1366
  101.0000   -76.1326     6.7795     7.4706  1466.4800     8.2592   119.9926     0.0112     2.4012     0.1419
  101.5000   -74.3107     6.5050     7.0220   946.0857     8.2296   119.1022     0.0081     2.4005     0.1467
  102.0000   -73.3857     6.3285     6.6922   408.9665     8.2005   117.0106     0.0006     2.4087     0.1436
  102.5000   -72.6194     6.1568     6.4666   133.6853     8.1726   116.1201     0.0023     2.4200     0.1315
