~VERSION INFORMATION
 VERS.                2.0:   CWLS LOG ASCII STANDARD - VERSION 2.0
 WRAP.                 NO:   ONE LINE PER DEPTH STEP
~WELL INFORMATION
#MNEM.UNIT      DATA TYPE    INFORMATION
#----------   ------------   ------------------------------
 STRT.F           41.0000:   START DEPTH
 STOP.F          468.0000:   STOP DEPTH
 STEP.F            0.1000:   STEP LENGTH
 NULL.          -999.2500:   NO VALUE
 COMP.       F D SERV INC:   COMPANY
 WELL. NAVAL PETROLEUM RESERVE 3 SX-1 #53-1-10:   WELL
 FLD .             TEAPOT:   FIELD
 LOC .      S10 T38N R78W:   LOCATION
 CNTY.            NATRONA:   COUNTY
 STAT.            WYOMING:   STATE
 CTRY. UNITED STATES OF AMERICA:   COUNTRY
 SRVC.     Atlas Wireline:   SERVICE COMPANY
 DATE.        22-DEC-1992:   LOGDATE
 API .       490252256900:   API NUMBER
~CURVE INFORMATION
#MNEM.UNIT       API CODE    CURVE DESCRIPTION
#----------   ------------   ------------------------------
 DEPT.F                  :   
 GRR .GAPI   07 310 01 00:   GAMMA RAY
 RILD.OHMM   07 120 46 00:   INDUCTION LOG DEEP RESISTIVITY
 RILM.OHMM   07 120 44 00:   RESITIVITY LONG MEDIUM
~PARAMETER INFORMATION
#MNEM.UNIT          VALUE    DESCRIPTION
#----------   ------------   ------------------------------
 PD  .                 GL:   PERMANENT DATUM
 EPD .F              5185:   ELEVATION PERMANENT DATUM
 LMF .                 KB:   LOG MEASURED FROM
 DAPD.F                10:   FEET ABOVE PERMANENT DATUM
 DMF .                 KB:   DRILLING MEASURED FROM
 EKB .F              5195:   KELLING BUSHING
 EDF .F              5194:   DRILLING FLOOR
 EGL .F              5185:   GROUND LEVEL
 DATE.        22-DEC-1992:   RUN DATE
 RUN .                  1:   RUN NUMBER
 DD  .F               475:   DEPTH DRILLER
 DL  .F               472:   DEPTH LOGGER
 BLI .F               470:   BOTTOM LOG INTERVAL
 CS  .IN            8.625:   CASING SIZE
 CBL .F                80:   CASING BOTTOM LOGGER
 BS  .IN            7.875:   BIT SIZE
 BSD .F               475:   BIT SIZE AT DEPTH
 DFT .        AIR DRILLED:   DRILLING FLUID TYPE
 LUN .            HL 6321:   LOGGING UNIT NUMBER
 LUL .       RCK, SPRINGS:   LOGGING UNIT LOCATION
 ENGI.      JOHN THOMPSON:   RECORDING ENGINEER
 WITN.          G. STRONG:   WITNESSED BY
 CLNT.            A2DTECH:   CLIENT CODE
 ORIG.           5" PRINT:   ORIGIN OF DATA
 UWI .       490252256900:   UNIQUE WELL ID
 DICO. A2D Technologies, Inc.:   DIGITIZING COMPANY
~OTHER INFORMATION
~A   DEPT      GRR       RILD       RILM   
# ...
   95.6000   135.7625     8.5318     9.4279
   95.7000   136.3572     8.3991     9.3784
   95.8000   137.3550     8.3473     9.3259
   95.9000   138.3645     8.3049     9.2736
   96.0000   140.1520     8.2582     9.2216
   96.1000   141.3563     8.2118     9.1670
   96.2000   142.7061     8.1656     9.0469
   96.3000   143.7697     8.1197     8.9618
   96.4000   144.5184     8.0650     8.8609
   96.5000   145.3188     8.0287     8.7611
   96.6000   145.7839     7.9572     8.6539
   96.7000   146.4610     7.8835     8.5009
   96.8000   146.8407     7.8330     8.4555
   96.9000   146.9794     7.7374     8.4081
   97.0000   147.4649     7.6975     8.3367
   97.1000   147.7559     7.6542     8.2702
   97.2000   148.1748     7.6111     8.2675
   97.3000   148.8288     7.5683     8.2143
   97.4000   149.5775     7.5273     8.1751
   97.5000   150.4173     7.5280     8.1585
   97.6000   151.7087     7.4934     8.1402
   97.7000   152.6708     7.4767     8.1032
   97.8000   153.4829     7.4772     8.1040
   97.9000   153.9690     7.4711     8.1046
   98.0000   154.1426     7.4263     8.1053
   98.1000   154.1442     7.4268     8.1060
   98.2000   154.1459     7.4273     8.1067
   98.3000   154.1472     7.4279     8.1073
   98.4000   154.1487     7.4168     8.1081
   98.5000   153.8255     7.3773     8.1087
   98.6000   153.1336     7.3779     8.1094
   98.7000   152.6358     7.3434     8.1101
   98.8000   151.6435     7.3276     8.1107
   98.9000   149.8727     7.3118     8.1114
   99.0000   148.0213     7.2777     8.1121
   99.1000   146.5349     7.2783     8.1128
   99.2000   145.6324     7.2788     8.1134
   99.3000   145.3613     7.2491     8.1141
   99.4000   144.6865     7.2293     8.1148
   99.5000   144.2828     7.2417     8.1156
   99.6000   143.8022     7.2808     8.1162
   99.7000   143.1186     7.2814     8.1476
   99.8000   142.5912     7.2818     8.1742
   99.9000   140.8182     7.3085     8.1852
  100.0000   140.0101     7.3508     8.2327
  100.1000   139.4591     7.3934     8.2334
  100.2000   139.2115     7.4377     8.2708
  100.3000   138.9640     7.4794     8.2923
  100.4000   138.7012     7.5227     8.3091
  100.5000   138.7026     7.5663     8.3573
  100.6000   138.5248     7.6101     8.4107
  100.7000   138.4021     7.6505     8.4114
  100.8000   138.4036     7.6512     8.4447
  100.9000   138.3892     7.6516     8.4715
  101.0000   138.1034     7.6803     8.4723
  101.1000   137.6835     7.7062     8.4730
  101.2000   137.3430     7.7067     8.4737
  101.3000   137.0955     7.7073     8.4744
  101.4000   136.8950     7.7078     8.5030
  101.5000   136.8969     7.7419     8.5350
  101.6000   136.8983     7.7628     8.5292
  101.7000   136.8999     7.7704     8.4773
  101.8000   136.9014     7.7932     8.4779
  101.9000   136.9816     7.8187     8.4786
  102.0000   137.2079     7.8192     8.4566
  102.1000   137.2096     7.8492     8.4212
  102.2000   137.4298     7.8750     8.4204
  102.3000   137.8449     7.8755     8.3643
  102.4000   138.2345     7.8761     8.3649
  102.5000   138.5407     7.8766     8.3656
  102.6000   139.0404     7.9122     8.3663
  102.7000   139.5400     7.9328     8.3670
  102.8000   140.4314     7.9334     8.3677
  102.9000   142.1363     7.9339     8.3684
  103.0000   143.9444     7.9345     8.3691
  103.1000   144.8770     7.9350     8.3698
  103.2000   145.4205     7.9051     8.3705
  103.3000   145.4219     7.8810     8.3712
  103.4000   145.5961     7.8816     8.3719
  103.5000   145.7284     7.8821     8.3726
  103.6000   145.7299     7.8827     8.3733
  103.7000   145.7314     7.8832     8.3740
  103.8000   145.7332     7.8838     8.3826
  103.9000   145.9386     7.8843     8.4339
  104.0000   146.0395     7.8849     8.4346
  104.1000   146.0410     7.8855     8.4702
  104.2000   146.0425     7.9271     8.4949
  104.3000   146.0441     7.9416     8.5094
  104.4000   146.2810     7.9635     8.5557
  104.5000   146.5316     7.9983     8.5565
  104.6000   146.7822     8.0001     8.5983
  104.7000   147.1772     8.0554     8.6483
  104.8000   147.9438     8.0931     8.6786
  104.9000   149.0882     8.1400     8.6882
  105.0000   149.9393     8.1701     8.7407
  105.1000   150.3050     8.1774     8.7894
  105.2000   150.3065     8.2284     8.8032
  105.3000   150.3080     8.2725     8.8300
  105.4000   150.3096     8.3205     8.8813
  105.5000   149.8235     8.3455     8.9328
  105.6000   149.5162     8.3587     8.9921
  105.7000   149.2687     8.4050     8.9927
  105.8000   148.9406     8.4057     9.0262
  105.9000   148.3918     8.4458     9.0786
  106.0000   147.2839     8.4656     9.1211
  106.1000   146.6230     8.4662     9.1219
  106.2000   146.0437     8.4668     9.1735
  106.3000   145.6590     8.4674     9.2268
  106.4000   145.4114     8.5136     9.2521
  106.5000   145.1669     8.5277     9.2694
  106.6000   145.1684     8.5527     9.3183
  106.7000   145.3676     8.5885     9.3191
  106.8000   145.4750     8.5891     9.3664
  106.9000   145.5653     8.5898     9.3857
  107.0000   145.8503     8.5903     9.3865
  107.1000   146.3901     8.5909     9.3986
  107.2000   146.8495     8.6111     9.4537
  107.3000   147.0000     8.6522     9.4544
  107.4000   147.0015     8.6528     9.4552
  107.5000   146.9373     8.6534     9.4560
  107.6000   146.6784     8.6540     9.4568
  107.7000   146.0959     8.6546     9.4576
  107.8000   145.6852     8.6552     9.4585
  107.9000   144.8855     8.6558     9.4592
  108.0000   143.8907     8.6565     9.4600
  108.1000   142.9387     8.6570     9.4367
  108.2000   142.1579     8.6890     9.3959
  108.3000   141.9220     8.7188     9.3967
  108.4000   141.8574     8.7099     9.3975
  108.5000   141.8589     8.6595     9.3563
  108.6000   141.9344     8.6600     9.3339
  108.7000   142.1654     8.6606     9.3164
  108.8000   142.1671     8.6613     9.2706
  108.9000   141.9542     8.6466     9.2715
  109.0000   141.8665     8.6023     9.2246
  109.1000   141.8680     8.6030     9.1729
  109.2000   141.8185     8.5610     9.1215
  109.3000   141.5676     8.5129     9.0828
  109.4000   141.3234     8.4856     9.0836
  109.5000   141.0759     8.4762     9.0215
  109.6000   140.9651     8.4279     9.0221
  109.7000   140.8843     8.4285     8.9931
  109.8000   140.6645     8.3923     8.9610
  109.9000   140.5915     8.3711     8.9546
  110.0000   140.3440     8.3717     8.9004
  110.1000   140.0624     8.3698     8.9010
  110.2000   139.8489     8.3466     8.9018
  110.3000   139.7618     8.3233     8.8784
  110.4000   139.7633     8.3159     8.8415
  110.5000   139.8164     8.2955     8.8423
  110.6000   140.0698     8.2593     8.8431
  110.7000   140.5638     8.2599     8.8437
  110.8000   141.0634     8.2134     8.8746
  110.9000   141.9752     8.2037     8.9070
  111.0000   143.3050     8.2043     8.9077
  111.1000   144.7724     8.1889     8.9085
  111.2000   146.1489     8.1484     8.9569
  111.3000   147.0429     8.1491     8.9722
  111.4000   148.2094     8.1496     8.9983
  111.5000   149.2276     8.1502     9.0364
  111.6000   149.9764     8.1507     9.0372
  111.7000   150.7306     8.1513     9.0380
  111.8000   151.9244     8.1519     9.0817
  111.9000   152.5260     8.1524     9.1026
  112.0000   152.9833     8.1530     9.1033
  112.1000   153.1426     8.1670     9.1041
  112.2000   153.1073     8.1910     9.1049
  112.3000   152.8423     8.2117     9.1551
  112.4000   152.6122     8.2123     9.1700
  112.5000   152.1877     8.2129     9.1708
  112.6000   151.9363     8.2134     9.1715
  112.7000   151.8015     8.2140     9.1723
  112.8000   151.3048     8.2206     9.1732
  112.9000   150.7271     8.2447     9.1738
  113.0000   150.3116     8.2733     9.1746
  113.1000   149.8150     8.2737     9.1754
  113.2000   149.1193     8.2743     9.1761
  113.3000   148.1246     8.2749     9.1769
  113.4000   147.0926     8.2755     9.1777
  113.5000   146.1351     8.2761     9.1396
  113.6000   145.5110     8.2766     9.1155
  113.7000   145.0144     8.2772     9.1163
