~VERSION INFORMATION
 VERS.                2.0:   CWLS LOG ASCII STANDARD - VERSION 2.0
 WRAP.                 NO:   ONE LINE PER DEPTH STEP
~WELL INFORMATION
#MNEM.UNIT      DATA TYPE    INFORMATION
#----------   ------------   ------------------------------
 STRT.F           16.5000:   START DEPTH
 STOP.F          640.0000:   STOP DEPTH
 STEP.F            0.5000:   STEP LENGTH
 NULL.          -999.2500:   NO VALUE
 COMP. FENIX & SCISSON INC:   COMPANY
 WELL.     11 SX 14 #3-14:   WELL
 FLD .             TEAPOT:   FIELD
 LOC .      S14 T38N R78W:   LOCATION
 CNTY.            NATRONA:   COUNTY
 STAT.            WYOMING:   STATE
 CTRY. UNITED STATES OF AMERICA:   COUNTRY
 SRVC.            Unknown:   SERVICE COMPANY
 DATE.        18-DEC-1978:   LOGDATE
 API .       490251075700:   API NUMBER
~CURVE INFORMATION
#MNEM.UNIT       API CODE    CURVE DESCRIPTION
#----------   ------------   ------------------------------
 DEPT.F                  :   
 SPR .MV     05 010 01 00:   SPONTANEOUS POTENTIAL FROM RES.
 SN  .OHMM   05 040 16 00:   SHORT NORMAL 16"
 IL  .OHMM   05 120 00 00:   INDUCTION LOG
 GRD .GAPI   45 310 01 00:   GAMMA RAY FROM DENSITY LOG
 CALD.IN     45 280 60 00:   CALIPER
 RHOB.G/C3   45 350 01 00:   BULK DENSITY
 DPHI.DEC    45 890 12 00:   DENSITY POROSITY SANDSTONE
 CORR.G/C3   45 356 01 00:   DENSITY CORRECTION
~PARAMETER INFORMATION
#MNEM.UNIT          VALUE    DESCRIPTION
#----------   ------------   ------------------------------
 PD  .                 GL:   PERMANENT DATUM
 EPD .F              5217:   ELEVATION PERMANENT DATUM
 LMF .                 KB:   LOG MEASURED FROM
 DAPD.F                 4:   FEET ABOVE PERMANENT DATUM
 DMF .                 KB:   DRILLING MEASURED FROM
 EKB .F              5221:   KELLING BUSHING
 EGL .F              5217:   GROUND LEVEL
 DATE.           12-18-78:   RUN DATE
 RUN .                  1:   RUN NUMBER
 DD  .F               653:   DEPTH DRILLER
 DL  .F               640:   DEPTH LOGGER
 BLI .F               634:   BOTTOM LOG INTERVAL
 TLI .F                32:   TOP LOG INTERVAL
 CS  .IN            8.625:   CASING SIZE
 CBD .F                40:   CASING BOTTOM DRILLER
 CBL .F                30:   CASING BOTTOM LOGGER
 BS  .IN            7.875:   BIT SIZE
 BSD .F               653:   BIT SIZE AT DEPTH
 DFT .                KCL:   DRILLING FLUID TYPE
 DFD .                8.3:   DRILLING FLUID DENSITY
 DFV .                 36:   DRILLING FLUID VISCOSITY
 DFPH.               12.5:   DRILLING FLUID PH
 DFL .               12.3:   DRILLING FLUID LOSS
 MSS .           FLOWLINE:   MUD SAMPLE SOURCE
 MST .F                56:   MUD SAMPLE TEMPERATURE
 RMF .OHMM            .44:   RESISTIVITY MUD FILTRATE SAMPLE
 MFST.F                58:   MUD FILTRATE SAMPLE TEMPERATURE
 RMC .OHMM            .58:   RESISTIVITY MUD CAKE
 MCST.F                66:   MUD CAKE SAMPLE TEMPERATURE
 MFSS.           MEASURED:   MUD FILTRATE SAMPLE SOURCE
 MCSS.           MEASURED:   MUD CAKE SAMPLE SOURCE
 BHT .F                58:   BOTTOM HOLE TEMPERATURE
 TCS .HRS               4:   TIME CURCULATED STOPPED
 MRT .F                58:   MAXIMUM RECORDED TEMPERATURE
 LUL .             CASPER:   LOGGING UNIT LOCATION
 ENGI.         B. ROLLINS:   RECORDING ENGINEER
 WITN.              AMEND:   WITNESSED BY
 CLNT.            A2DTECH:   CLIENT CODE
 ORIG.           5" PRINT:   ORIGIN OF DATA
 UWI .       490251075700:   UNIQUE WELL ID
 DICO. A2D Technologies, Inc.:   DIGITIZING COMPANY
~OTHER INFORMATION
~A   DEPT      SPR         SN         IL         GRD      CALD       RHOB       DPHI       CORR   
   16.5000  -999.2500  -999.2500  -999.2500    78.1170  -999.2500  -999.2500  -999.2500  -999.2500
   17.0000  -999.2500  -999.2500  -999.2500    78.2990  -999.2500  -999.2500  -999.2500  -999.2500
   17.5000  -999.2500  -999.2500  -999.2500    78.4690  -999.2500  -999.2500  -999.2500  -999.2500
   18.0000  -999.2500  -999.2500  -999.2500    76.8150  -999.2500  -999.2500  -999.2500  -999.2500
   18.5000  -999.2500  -999.2500  -999.2500    74.8580  -999.2500  -999.2500  -999.2500  -999.2500
   19.0000  -999.2500  -999.2500  -999.2500    73.6760  -999.2500  -999.2500  -999.2500  -999.2500
   19.5000  -999.2500  -999.2500  -999.2500    72.8970  -999.2500  -999.2500  -999.2500  -999.2500
   20.0000  -999.2500  -999.2500  -999.2500    72.9660  -999.2500  -999.2500  -999.2500  -999.2500
   20.5000  -999.2500  -999.2500  -999.2500    73.0190  -999.2500  -999.2500  -999.2500  -999.2500
   21.0000  -999.2500  -999.2500  -999.2500    73.0690  -999.2500  -999.2500  -999.2500  -999.2500
   21.5000  -999.2500  -999.2500  -999.2500    73.1190  -999.2500  -999.2500  -999.2500  -999.2500
   22.0000  -999.2500  -999.2500  -999.2500    73.1690  -999.2500  -999.2500  -999.2500  -999.2500
   22.5000  -999.2500  -999.2500  -999.2500    73.2200  -999.2500  -999.2500  -999.2500  -999.2500
   23.0000  -999.2500  -999.2500  -999.2500    73.2710  -999.2500  -999.2500  -999.2500  -999.2500
   23.5000  -999.2500  -999.2500  -999.2500    73.3220  -999.2500  -999.2500  -999.2500  -999.2500
   24.0000  -999.2500  -999.2500  -999.2500    73.3740  -999.2500  -999.2500  -999.2500  -999.2500
   24.5000  -999.2500  -999.2500  -999.2500    73.4280  -999.2500  -999.2500  -999.2500  -999.2500
   25.0000  -999.2500  -999.2500  -999.2500    73.4880     8.4550  -999.2500  -999.2500  -999.2500
   25.5000  -999.2500  -999.2500  -999.2500    73.7320     8.3170  -999.2500  -999.2500  -999.2500
   26.0000  -999.2500  -999.2500  -999.2500    75.0130     8.0400  -999.2500  -999.2500  -999.2500
   26.5000  -999.2500  -999.2500  -999.2500    78.9430     7.9740  -999.2500  -999.2500  -999.2500
   27.0000  -999.2500  -999.2500  -999.2500    82.8060     7.8020  -999.2500  -999.2500  -999.2500
   27.5000  -999.2500  -999.2500  -999.2500    86.6580     7.4920  -999.2500  -999.2500  -999.2500
   28.0000  -999.2500  -999.2500  -999.2500    90.5120     7.4930  -999.2500  -999.2500  -999.2500
   28.5000  -999.2500  -999.2500  -999.2500    92.4960     7.5330  -999.2500  -999.2500  -999.2500
   29.0000  -999.2500  -999.2500  -999.2500    92.9760     7.5740  -999.2500  -999.2500     0.4190
   29.5000  -999.2500  -999.2500  -999.2500    93.6050     7.6420     2.5260  -999.2500     0.4090
   30.0000  -999.2500  -999.2500  -999.2500    94.7800     7.7140     2.5330     0.0950     0.3960
   30.5000  -999.2500  -999.2500  -999.2500    95.9620     7.7870     2.5310     0.0950     0.3690
   31.0000  -999.2500  -999.2500  -999.2500    97.1430     7.8600     2.5250     0.0950     0.3170
   31.5000  -999.2500  -999.2500  -999.2500    97.3390     7.9340     2.5270     0.1040     0.2440
   32.0000  -999.2500  -999.2500  -999.2500    97.1690     7.9610     2.5240     0.1200     0.1690
   32.5000  -999.2500  -999.2500  -999.2500    96.3050     8.0160     2.4940     0.1560     0.0970
   33.0000  -999.2500  -999.2500  -999.2500    96.1060     8.1480     2.4480     0.1710     0.0370
   33.5000  -999.2500  -999.2500  -999.2500    96.0370     8.2780     2.4040     0.1760     0.0100
   34.0000  -999.2500  -999.2500  -999.2500    96.2150     8.2940     2.3970     0.1750     0.0060
   34.5000  -999.2500  -999.2500  -999.2500    97.8770     8.2920     2.3980     0.1720     0.0050
   35.0000  -999.2500  -999.2500  -999.2500    99.6340     8.2890     2.4020     0.1660     0.0040
   35.5000  -999.2500  -999.2500  -999.2500   100.4890     8.2860     2.4110     0.1600     0.0040
   36.0000  -999.2500  -999.2500  -999.2500   100.3970     8.2840     2.4210     0.1590     0.0030
   36.5000  -999.2500  -999.2500  -999.2500   100.3140     8.2810     2.4210     0.1690     0.0020
   37.0000  -999.2500  -999.2500  -999.2500   100.2320     8.2780     2.4100     0.1710     0.0020
   37.5000  -999.2500  -999.2500  -999.2500   100.1170     8.2530     2.4060     0.1700     0.0020
   38.0000  -999.2500  -999.2500  -999.2500    98.8970     8.2270     2.4100     0.1630     0.0030
   38.5000  -999.2500  -999.2500  -999.2500    95.6660     8.1220     2.4200     0.1520     0.0030
   39.0000  -999.2500  -999.2500  -999.2500    94.6540     7.9920     2.4310     0.1490     0.0040
   39.5000  -999.2500  -999.2500  -999.2500    92.8910     7.9750     2.4400     0.1490     0.0040
   40.0000  -999.2500  -999.2500  -999.2500    92.0280     7.9570     2.4400     0.1490     0.0050
   40.5000  -999.2500  -999.2500  -999.2500    92.0730     7.9410     2.4400     0.1490     0.0060
   41.0000  -999.2500  -999.2500  -999.2500    92.1160     7.9490     2.4400     0.1490     0.0060
   41.5000  -999.2500  -999.2500  -999.2500    92.1600     7.9570     2.4410     0.1470     0.0070
   42.0000  -999.2500  -999.2500  -999.2500    91.7680     7.9190     2.4420     0.1450     0.0070
   42.5000  -999.2500  -999.2500  -999.2500    90.6110     7.8570     2.4480     0.1480     0.0080
   43.0000  -999.2500  -999.2500  -999.2500    90.7830     7.9180     2.4450     0.1500     0.0080
   43.5000  -999.2500  -999.2500  -999.2500    91.2420     7.9900     2.4390     0.1530     0.0090
   44.0000  -999.2500  -999.2500  -999.2500    91.7190     7.9380     2.4340     0.1540     0.0090
   44.5000  -999.2500  -999.2500  -999.2500    92.3410     7.7760     2.4320     0.1580     0.0060
   45.0000  -999.2500  -999.2500  -999.2500    94.1300     7.7490     2.4300     0.1640     0.0030
   45.5000  -999.2500  -999.2500  -999.2500    94.5680     7.7210     2.4220     0.1820     0.0000
   46.0000  -999.2500  -999.2500  -999.2500    94.2620     7.6930     2.3940     0.2090     0.0000
   46.5000  -999.2500  -999.2500  -999.2500    94.2640     7.6670     2.3490     0.2450     0.0000
   47.0000  -999.2500  -999.2500  -999.2500    94.3990     7.6820     2.2920     0.2790     0.0030
   47.5000  -999.2500  -999.2500  -999.2500    94.5270     7.8520     2.2350     0.2790     0.0050
   48.0000  -999.2500  -999.2500  -999.2500    94.6400     8.0810     2.1770     0.2790     0.0070
   48.5000  -999.2500  -999.2500  -999.2500    95.1400     8.3910     2.1210     0.2790     0.0090
   49.0000  -999.2500  -999.2500  -999.2500   102.3270     8.3020     2.0760     0.2800     0.0120
   49.5000  -999.2500  -999.2500  -999.2500   109.6750     8.1600     2.0620     0.2800     0.0260
   50.0000  -999.2500  -999.2500  -999.2500   111.0260     8.2540     2.0640     0.2770     0.0390
   50.5000   -39.2640  -999.2500  -999.2500   110.8340     8.8550     2.0760     0.2560     0.0510
   51.0000   -35.4480  -999.2500  -999.2500   109.8310     8.1410     2.1250     0.2360     0.0460
   51.5000   -31.6330  -999.2500  -999.2500   106.8730     8.2240     2.2490     0.2170     0.0300
   52.0000   -29.3110  -999.2500  -999.2500   102.8360     8.3620     2.3430     0.1960     0.0230
   52.5000   -29.2140  -999.2500  -999.2500    92.9740     7.9800     2.3820     0.1780     0.0360
   53.0000   -29.1460     1.6300     4.2650    82.9090     7.7360     2.3900     0.1740     0.0590
   53.5000   -29.0710     1.2190     4.8530    77.1410     7.9200     2.3970     0.1640     0.0810
   54.0000   -28.9940     0.9900     5.1780    75.6360     7.8910     2.4110     0.1530     0.1030
   54.5000   -28.9200     4.3110     5.4000    75.5780     7.8100     2.4320     0.1460     0.1110
   55.0000   -28.8460     4.8350     5.3740    75.4960     7.6210     2.4450     0.1400     0.1180
   55.5000   -28.7730     5.7030     6.1460    75.4010     7.4520     2.4530     0.1410     0.1170
   56.0000   -28.7080     6.5540     6.7180    75.2970     7.5900     2.4510     0.1490     0.1150
   56.5000   -28.8200     7.4060     7.2890    75.6810     7.8310     2.4440     0.1610     0.1130
