~VERSION INFORMATION
 VERS.                2.0:   CWLS LOG ASCII STANDARD - VERSION 2.0
 WRAP.                 NO:   ONE LINE PER DEPTH STEP
~WELL INFORMATION
#MNEM.UNIT      DATA TYPE    INFORMATION
#----------   ------------   ------------------------------
 STRT.F          298.0000:   START DEPTH
 STOP.F         1126.0000:   STOP DEPTH
 STEP.F            0.5000:   STEP LENGTH
 NULL.          -999.2500:   NO VALUE
 COMP. BROWN JOHN E&C INC:   COMPANY
 WELL.   52 SHX 15 #52-15:   WELL
 FLD .             TEAPOT:   FIELD
 LOC .      S15 T38N R78W:   LOCATION
 CNTY.            NATRONA:   COUNTY
 STAT.            WYOMING:   STATE
 CTRY. UNITED STATES OF AMERICA:   COUNTRY
 SRVC.              Welex:   SERVICE COMPANY
 DATE.        09-AUG-1979:   LOGDATE
 API .       490251078900:   API NUMBER
~CURVE INFORMATION
#MNEM.UNIT       API CODE    CURVE DESCRIPTION
#----------   ------------   ------------------------------
 DEPT.F                  :   
 CALD.IN     45 280 60 00:   CALIPER
 GRD .GAPI   45 310 01 00:   GAMMA RAY FROM DENSITY LOG
 RHOB.G/C3   45 350 01 00:   BULK DENSITY
 CORR.G/C3   45 356 01 00:   DENSITY CORRECTION
 DPHI.DEC    45 890 12 00:   DENSITY POROSITY SANDSTONE
~PARAMETER INFORMATION
#MNEM.UNIT          VALUE    DESCRIPTION
#----------   ------------   ------------------------------
 PD  .                 GL:   PERMANENT DATUM
 EPD .F              5222:   ELEVATION PERMANENT DATUM
 LMF .                 KB:   LOG MEASURED FROM
 DAPD.F                10:   FEET ABOVE PERMANENT DATUM
 DMF .                 KB:   DRILLING MEASURED FROM
 EKB .F              5232:   KELLING BUSHING
 EGL .F              5222:   GROUND LEVEL
 DATE.             8-9-79:   RUN DATE
 RUN .                  1:   RUN NUMBER
 DD  .F              1130:   DEPTH DRILLER
 DL  .F              1128:   DEPTH LOGGER
 BLI .F              1126:   BOTTOM LOG INTERVAL
 TLI .F               300:   TOP LOG INTERVAL
 CS  .IN            9.625:   CASING SIZE
 CBD .F               676:   CASING BOTTOM DRILLER
 BS  .IN             8.75:   BIT SIZE
 BSD .F              1130:   BIT SIZE AT DEPTH
 DFT .                OIL:   DRILLING FLUID TYPE
 DFD .                9.1:   DRILLING FLUID DENSITY
 TCS .HRS             2.5:   TIME CURCULATED STOPPED
 MRT .F               102:   MAXIMUM RECORDED TEMPERATURE
 ENGI.               REIN:   RECORDING ENGINEER
 WITN.           DINSMORE:   WITNESSED BY
 CLNT.            A2DTECH:   CLIENT CODE
 ORIG.         2.5" PRINT:   ORIGIN OF DATA
 UWI .       490251078900:   UNIQUE WELL ID
 DICO. A2D Technologies, Inc.:   DIGITIZING COMPANY
~OTHER INFORMATION
~A   DEPT     CALD         GRD      RHOB       CORR       DPHI   
# ...
 1091.0000     9.2056    99.2703     2.5585     0.0546    -0.0123
 1091.5000     9.1966    99.9316     2.5554     0.0546    -0.0110
 1092.0000     9.1875   100.5995     2.5529     0.0547    -0.0096
 1092.5000     9.1784   101.2265     2.5540     0.0547    -0.0081
 1093.0000     9.1693   101.9660     2.5550     0.0548    -0.0092
 1093.5000     9.1603   101.6645     2.5560     0.0548    -0.0104
 1094.0000     9.1512   100.8021     2.5571     0.0549    -0.0115
 1094.5000     9.1422   101.1443     2.5581     0.0549    -0.0126
 1095.0000     9.1331   101.9648     2.5587     0.0549    -0.0138
 1095.5000     9.1241   102.7866     2.5555     0.0550    -0.0138
 1096.0000     9.1150   103.2076     2.5519     0.0550    -0.0108
 1096.5000     9.1060   102.5020     2.5482     0.0551    -0.0082
 1097.0000     9.0969   101.8188     2.5448     0.0551    -0.0057
 1097.5000     9.0878   101.5449     2.5406     0.0552    -0.0053
 1098.0000     9.0787   101.8460     2.5429     0.0552    -0.0071
 1098.5000     9.0698   102.4568     2.5482     0.0552    -0.0089
 1099.0000     9.0605   103.0237     2.5534     0.0553    -0.0097
 1099.5000     9.0515   103.6129     2.5526     0.0553    -0.0074
 1100.0000     9.0447   104.1814     2.5455     0.0554    -0.0012
 1100.5000     9.0486   104.7549     2.5381     0.0554     0.0050
 1101.0000     9.0517   105.4143     2.5306     0.0555     0.0103
 1101.5000     9.0553   105.1645     2.5318     0.0555     0.0121
 1102.0000     9.0588   103.8719     2.5411     0.0556     0.0090
 1102.5000     9.0622   102.6591     2.5452     0.0556     0.0061
 1103.0000     9.0656   101.4623     2.5426     0.0556     0.0032
 1103.5000     9.0691   100.2534     2.5372     0.0557     0.0053
 1104.0000     9.0725    99.5307     2.5347     0.0557     0.0075
 1104.5000     9.0760    99.9345     2.5424     0.0558     0.0051
 1105.0000     9.0794   100.6837     2.5485     0.0558     0.0003
 1105.5000     9.0828   101.4120     2.5523     0.0559    -0.0044
 1106.0000     9.0863   102.1092     2.5461     0.0559    -0.0054
 1106.5000     9.0897   102.8331     2.5426     0.0560    -0.0033
 1107.0000     9.0932   103.6025     2.5468     0.0560    -0.0025
 1107.5000     9.0966   104.0679     2.5550     0.0560    -0.0072
 1108.0000     9.1000  -999.2500     2.5615     0.0561    -0.0126
 1108.5000     9.1035  -999.2500     2.5642     0.0561    -0.0154
 1109.0000     9.1069  -999.2500     2.5612     0.0562    -0.0142
 1109.5000     9.1104  -999.2500     2.5559     0.0562    -0.0107
 1110.0000     9.1138  -999.2500     2.5506     0.0562    -0.0072
 1110.5000     9.1173  -999.2500     2.5454     0.0563    -0.0038
 1111.0000     9.1205  -999.2500     2.5403     0.0563    -0.0003
 1111.5000     9.1241  -999.2500     2.5346     0.0564     0.0032
 1112.0000     9.1176  -999.2500     2.5367     0.0564     0.0049
 1112.5000     9.1067  -999.2500     2.5416     0.0565     0.0049
 1113.0000     9.0972  -999.2500     2.5461     0.0565     0.0012
 1113.5000     9.0859  -999.2500     2.5501     0.0566    -0.0027
 1114.0000     9.1018  -999.2500     2.5441     0.0566    -0.0049
 1114.5000     9.1220  -999.2500     2.5381     0.0567     0.0004
 1115.0000     9.1433  -999.2500     2.5316     0.0566     0.0068
 1115.5000     9.1639  -999.2500     2.5264     0.0564     0.0119
 1116.0000     9.1838  -999.2500     2.5243     0.0562     0.0170
 1116.5000     9.2060  -999.2500     2.5216     0.0560     0.0177
 1117.0000     9.1920  -999.2500     2.5201     0.0559     0.0184
 1117.5000     9.1646  -999.2500     2.5217     0.0557     0.0170
 1118.0000     9.1379  -999.2500     2.5270     0.0555     0.0145
 1118.5000     9.1119  -999.2500     2.5323     0.0553     0.0106
 1119.0000     9.0854  -999.2500     2.5381     0.0551     0.0062
 1119.5000     9.0590  -999.2500     2.5445     0.0549     0.0019
 1120.0000     9.0327  -999.2500     2.5453     0.0547    -0.0032
 1120.5000     9.0063  -999.2500     2.5387     0.0545     0.0027
 1121.0000     8.9799  -999.2500     2.5326     0.0543     0.0099
 1121.5000     8.9536  -999.2500     2.5261     0.0542     0.0162
 1122.0000     8.9273  -999.2500     2.5285     0.0540     0.0147
 1122.5000     8.9009  -999.2500     2.5347     0.0538     0.0104
 1123.0000     8.8746  -999.2500     2.5407     0.0536     0.0061
 1123.5000     8.8482  -999.2500     2.5465     0.0534     0.0017
 1124.0000     8.8218  -999.2500     2.5529     0.0532    -0.0026
 1124.5000     8.7956  -999.2500     2.5568     0.0530    -0.0073
 1125.0000     8.7690  -999.2500     2.5561     0.0528    -0.0073
 1125.5000     8.7426  -999.2500     2.5503     0.0526    -0.0073
 1126.0000     8.7220  -999.2500     2.5433     0.0526    -0.0073
