~VERSION INFORMATION
 VERS.                2.0:   CWLS LOG ASCII STANDARD - VERSION 2.0
 WRAP.                 NO:   ONE LINE PER DEPTH STEP
~WELL INFORMATION
#MNEM.UNIT      DATA TYPE    INFORMATION
#----------   ------------   ------------------------------
 STRT.F           46.0000:   START DEPTH
 STOP.F          522.0000:   STOP DEPTH
 STEP.F            0.5000:   STEP LENGTH
 NULL.          -999.2500:   NO VALUE
 COMP.       F D SERV INC:   COMPANY
 WELL.  82-4 SX 10 #82-10:   WELL
 FLD .             TEAPOT:   FIELD
 LOC .      S10 T38N R78W:   LOCATION
 CNTY.            NATRONA:   COUNTY
 STAT.            WYOMING:   STATE
 CTRY. UNITED STATES OF AMERICA:   COUNTRY
 SRVC.     Atlas Wireline:   SERVICE COMPANY
 DATE.        04-FEB-1993:   LOGDATE
 API .       490252257900:   API NUMBER
~CURVE INFORMATION
#MNEM.UNIT       API CODE    CURVE DESCRIPTION
#----------   ------------   ------------------------------
 DEPT.F                  :   
 C13 .IN     45 280 13 00:   CALIPER FROM DENSITY LOG
 GRD .GAPI   45 310 01 00:   GAMMA RAY FROM DENSITY LOG
 PORS.DEC    42 890 03 00:   NEUTRON POROSITY SANDSTONE
 PORZ.DEC    45 890 12 00:   DENSITY POROSITY SANDSTONE
 ZCOR.G/C3   45 356 01 00:   DENSITY CORRECTION
 ZDEN.G/C3   45 350 01 00:   BULK DENSITY
 RILD.OHMM   07 120 46 00:   INDUCTION LOG DEEP RESISTIVITY
 RILM.OHMM   07 120 44 00:   INDUCTION LOG MEDIUM RESISTIVITY
~PARAMETER INFORMATION
#MNEM.UNIT          VALUE    DESCRIPTION
#----------   ------------   ------------------------------
 PD  .                 GL:   PERMANENT DATUM
 EPD .F              5145:   ELEVATION PERMANENT DATUM
 LMF .                 KB:   LOG MEASURED FROM
 DAPD.F                10:   FEET ABOVE PERMANENT DATUM
 DMF .                 KB:   DRILLING MEASURED FROM
 EKB .F              5155:   KELLING BUSHING
 EDF .F              5154:   DRILLING FLOOR
 EGL .F              5145:   GROUND LEVEL
 DATE.        04-FEB-1993:   RUN DATE
 RUN .                  1:   RUN NUMBER
 DD  .F               525:   DEPTH DRILLER
 DL  .F               525:   DEPTH LOGGER
 BLI .F               517:   BOTTOM LOG INTERVAL
 TLI .F                81:   TOP LOG INTERVAL
 CS  .IN            8.625:   CASING SIZE
 CBD .F                45:   CASING BOTTOM DRILLER
 CBL .F                81:   CASING BOTTOM LOGGER
 BS  .IN            7.875:   BIT SIZE
 BSD .F               525:   BIT SIZE AT DEPTH
 DFT .                AIR:   DRILLING FLUID TYPE
 MRT .F                58:   MAXIMUM RECORDED TEMPERATURE
 LUN .            HL 6274:   LOGGING UNIT NUMBER
 LUL .             CASPER:   LOGGING UNIT LOCATION
 ENGI.          V. RAUTIO:   RECORDING ENGINEER
 WITN.          G. STRONG:   WITNESSED BY
 CLNT.            A2DTECH:   CLIENT CODE
 ORIG.           5" PRINT:   ORIGIN OF DATA
 UWI .       490252257900:   UNIQUE WELL ID
 DICO. A2D Technologies, Inc.:   DIGITIZING COMPANY
~OTHER INFORMATION
~A   DEPT      C13         GRD      PORS       PORZ       ZCOR       ZDEN       RILD       RILM   
# ...
  491.5000     7.9810   165.9406     0.2994     0.0680     0.0120     2.5373     9.9935     9.8227
  492.0000     7.9656   160.8488     0.2994     0.0750     0.0060     2.5358     9.9948     9.7543
  492.5000     7.9653   159.9548     0.2988     0.0762     0.0014     2.5268     9.9269     9.7536
  493.0000     7.9650   162.0607     0.2979     0.0746    -0.0014     2.5252     9.8601     9.6857
  493.5000     7.9647   163.5655     0.2940     0.0725    -0.0013     2.5298     9.8615     9.6183
  494.0000     7.9644   164.1709     0.2910     0.0719     0.0003     2.5314     9.8631     9.6177
  494.5000     7.9641   162.9770     0.2910     0.0737     0.0048     2.5321     9.8644     9.6171
  495.0000     7.9638   162.0830     0.2910     0.0774     0.0033     2.5283     9.8657     9.6163
  495.5000     7.9634   162.9895     0.2916     0.0785     0.0003     2.5254     9.8670     9.6825
  496.0000     7.9632   163.5948     0.2922     0.0785    -0.0041     2.5239     9.8602     9.6817
  496.5000     7.9629   160.0036     0.2937     0.0785    -0.0041     2.5224     9.8016     9.6144
  497.0000     7.9625   158.2099     0.2949     0.0804    -0.0040     2.5202     9.8032     9.4817
  497.5000     7.9623   160.0162     0.2955     0.0821    -0.0025     2.5165     9.8725     9.3507
  498.0000     7.9620   160.6214     0.2958     0.0827     0.0006     2.5150     9.8738     9.2217
  498.5000     7.9617   160.9269     0.2970     0.0833     0.0096     2.5150     9.5943     9.2211
  499.0000     7.9613   161.8521     0.2982     0.0846     0.0172     2.5143     9.0903     8.9689
  499.5000     7.9611   163.3382     0.2991     0.0881     0.0037     2.5090     8.7220     8.5881
  500.0000     7.9759   164.5432     0.3025     0.0932    -0.0067     2.5004     8.2537     8.1402
  500.5000     7.9755   165.4483     0.3059     0.0977    -0.0052     2.4921     7.8106     7.7016
  501.0000     7.9602  -999.2500     0.3096     0.1004    -0.0022     2.4846     7.2316     6.8470
  501.5000     7.9750  -999.2500     0.3162     0.1019    -0.0021     2.4809     6.2620     6.2580
  502.0000     7.9746  -999.2500     0.3240     0.1031    -0.0059     2.4787     5.6026     5.5571
  502.5000     7.9593  -999.2500     0.3328     0.1104    -0.0099     2.4659     4.8995     4.1323
  503.0000     7.9741  -999.2500     0.3430     0.1263    -0.0204     2.4275     4.1964     3.5489
  503.5000     7.9738  -999.2500     0.3589     0.1446    -0.0309     2.3664     3.4933     3.0060
  504.0000     7.9734  -999.2500     0.3814     0.1890    -0.0324     2.2889     2.7142     2.6541
  504.5000     7.9731  -999.2500  -999.2500     0.2654    -0.0250     2.2171     2.5863     2.5815
  505.0000     7.9729  -999.2500  -999.2500     0.3000    -0.0175     2.1654     2.6227     2.5992
  505.5000     7.9725  -999.2500  -999.2500     0.3000     0.0035     2.1474     2.6596     2.6535
  506.0000     7.9270  -999.2500  -999.2500     0.2756     0.0244     2.1753     2.7346     2.7467
  506.5000     7.8965  -999.2500  -999.2500     0.2501     0.0396     2.2495     2.8117     2.9027
  507.0000     7.8962  -999.2500  -999.2500     0.1776     0.0454     2.3728     2.9926     3.2348
  507.5000     7.8959  -999.2500  -999.2500     0.1217     0.0094     2.4535     3.4132     4.0727
  508.0000     7.8956  -999.2500  -999.2500     0.0836    -0.0012     2.4995     3.9903     4.8076
  508.5000     7.8953  -999.2500  -999.2500     0.0797    -0.0057     2.5214     4.9597     5.4645
  509.0000     7.8950  -999.2500  -999.2500     0.0803    -0.0057     2.5191     5.8558     6.2142
  509.5000     7.8947  -999.2500  -999.2500     0.0809    -0.0012     2.5169     6.6328     6.9639
  510.0000     7.8944  -999.2500  -999.2500     0.0806     0.0047     2.5162     7.3586     7.4817
  510.5000     7.8941  -999.2500  -999.2500     0.0797     0.0062     2.5162     7.8387     7.7982
  511.0000     7.8938  -999.2500  -999.2500     0.0805     0.0032     2.5178     8.1653     8.0163
  511.5000     7.8935  -999.2500  -999.2500     0.0824     0.0002     2.5154     8.2798     8.1837
  512.0000     7.8932  -999.2500  -999.2500     0.0829    -0.0014     2.5103     0.2033     8.2399
  512.5000     7.8929  -999.2500  -999.2500     0.0796     0.0001     2.5096  -999.2500     8.2394
  513.0000     7.8926  -999.2500  -999.2500     0.0769     0.0016     2.5194  -999.2500     8.2387
  513.5000     7.8923  -999.2500  -999.2500     0.0735     0.0031     2.5308  -999.2500     8.2382
  514.0000     7.8920  -999.2500  -999.2500     0.0700     0.0000     2.5361  -999.2500     8.2376
  514.5000     7.8615  -999.2500  -999.2500     0.0700    -0.0030     2.5369  -999.2500     8.2371
  515.0000     7.8160  -999.2500  -999.2500     0.0712    -0.0060     2.5339  -999.2500     8.2365
  515.5000     7.8006  -999.2500  -999.2500     0.0724    -0.0075     2.5287  -999.2500     8.2359
  516.0000     7.8003  -999.2500  -999.2500     0.0697    -0.0090     2.5257  -999.2500     8.2354
  516.5000     7.8000  -999.2500  -999.2500     0.0649    -0.0091     2.5325  -999.2500  -999.2500
  517.0000     7.7996  -999.2500  -999.2500     0.0574    -0.0001     2.5424  -999.2500  -999.2500
  517.5000     7.7994  -999.2500  -999.2500     0.0526     0.0224     2.5544  -999.2500  -999.2500
  518.0000     7.7991  -999.2500  -999.2500     0.0526     0.0253     2.5628  -999.2500  -999.2500
  518.5000     7.7988  -999.2500  -999.2500     0.0526     0.0238     2.5651  -999.2500  -999.2500
  519.0000     7.7984  -999.2500  -999.2500     0.0556     0.0208     2.5636  -999.2500  -999.2500
  519.5000     7.7982  -999.2500  -999.2500     0.0616     0.0178     2.5621  -999.2500  -999.2500
  520.0000     7.7979  -999.2500  -999.2500     0.0656     0.0117     2.5592  -999.2500  -999.2500
  520.5000     7.7975  -999.2500  -999.2500     0.0688    -0.0304     2.3392  -999.2500  -999.2500
  521.0000     7.7684  -999.2500  -999.2500     0.0722    -0.0594     2.0018  -999.2500  -999.2500
  521.5000     7.7684  -999.2500  -999.2500  -999.2500  -999.2500  -999.2500  -999.2500  -999.2500
  522.0000     7.7684  -999.2500  -999.2500  -999.2500  -999.2500  -999.2500  -999.2500  -999.2500
