~VERSION INFORMATION
 VERS.                2.0:   CWLS LOG ASCII STANDARD - VERSION 2.0
 WRAP.                 NO:   ONE LINE PER DEPTH STEP
~WELL INFORMATION
#MNEM.UNIT      DATA TYPE    INFORMATION
#----------   ------------   ------------------------------
 STRT.F          458.0000:   START DEPTH
 STOP.F         2155.0000:   STOP DEPTH
 STEP.F            0.5000:   STEP LENGTH
 NULL.          -999.2500:   NO VALUE
 COMP.   FLUOR DANIEL INC:   COMPANY
 WELL. NAVAL PETROLEUM RESERVE 3 SHX- 1 #33-29:   WELL
 FLD .             TEAPOT:   FIELD
 LOC .      S29 T39N R78W:   LOCATION
 CNTY.            NATRONA:   COUNTY
 STAT.            WYOMING:   STATE
 CTRY. UNITED STATES OF AMERICA:   COUNTRY
 SRVC.            Unknown:   SERVICE COMPANY
 DATE.        29-JUN-1995:   LOGDATE
 API .       490252272500:   API NUMBER
~CURVE INFORMATION
#MNEM.UNIT       API CODE    CURVE DESCRIPTION
#----------   ------------   ------------------------------
 DEPT.F                  :   
 C1  .VF     91 831 01 00:   METHANE
 C2  .VF     91 832 01 00:   ETHANE
 C3  .VF     91 833 01 00:   PROPANE
 C4  .VF     91 834 01 00:   BUTANE
 ROP .FT/HR  91 810 01 00:   RAT OF DRILLING PENETRATION
 TGAS.TC/CC  91 830 01 00:   TOTAL GAS UNIT
~PARAMETER INFORMATION
#MNEM.UNIT          VALUE    DESCRIPTION
#----------   ------------   ------------------------------
 EKB .F              5020:   KELLING BUSHING
 EGL .F              5010:   GROUND LEVEL
 DATE.        29-JUN-1995:   RUN DATE
 RUN .                  1:   RUN NUMBER
 BLI .F              2155:   BOTTOM LOG INTERVAL
 TLI .F               460:   TOP LOG INTERVAL
 ENGI.     C.TOWER/R.HUSK:   RECORDING ENGINEER
 CLNT.            A2DTECH:   CLIENT CODE
 ORIG.           5" PRINT:   ORIGIN OF DATA
 UWI .       490252272500:   UNIQUE WELL ID
 DICO. A2D Technologies, Inc.:   DIGITIZING COMPANY
~OTHER INFORMATION
~A   DEPT       C1         C2         C3         C4          ROP       TGAS 
  458.0000  -999.2500  -999.2500  -999.2500  -999.2500     1.0189     1.4150
  458.5000  -999.2500  -999.2500  -999.2500  -999.2500     1.0100     1.4045
  459.0000  -999.2500  -999.2500  -999.2500  -999.2500     1.0095     1.3940
  459.5000  -999.2500  -999.2500  -999.2500  -999.2500     1.0089     1.3835
  460.0000  -999.2500  -999.2500  -999.2500  -999.2500     1.0084     1.3730
  460.5000  -999.2500  -999.2500  -999.2500  -999.2500     1.0117     1.3624
  461.0000  -999.2500  -999.2500  -999.2500  -999.2500     1.0179     1.3519
  461.5000  -999.2500  -999.2500  -999.2500  -999.2500     1.0267     1.3414
  462.0000  -999.2500  -999.2500  -999.2500  -999.2500     1.1493     1.3309
  462.5000  -999.2500  -999.2500  -999.2500  -999.2500     1.1588     1.3204
  463.0000  -999.2500  -999.2500  -999.2500  -999.2500     1.1589     1.3099
  463.5000  -999.2500  -999.2500  -999.2500  -999.2500     1.1590     1.2994
  464.0000  -999.2500  -999.2500  -999.2500  -999.2500     1.1591     1.2888
  464.5000  -999.2500  -999.2500  -999.2500  -999.2500     1.1593     1.2783
  465.0000  -999.2500  -999.2500  -999.2500  -999.2500     1.1594     1.2678
  465.5000  -999.2500  -999.2500  -999.2500  -999.2500     1.1595     1.2573
  466.0000  -999.2500  -999.2500  -999.2500  -999.2500     1.0184     1.2468
  466.5000  -999.2500  -999.2500  -999.2500  -999.2500     1.0185     1.2363
  467.0000  -999.2500  -999.2500  -999.2500  -999.2500     1.0186     1.2257
  467.5000  -999.2500  -999.2500  -999.2500  -999.2500     1.0187     1.2152
  468.0000  -999.2500  -999.2500  -999.2500  -999.2500     0.8713     1.2047
  468.5000  -999.2500  -999.2500  -999.2500  -999.2500     0.6611     1.1942
  469.0000  -999.2500  -999.2500  -999.2500  -999.2500     0.6613     1.1837
  469.5000  -999.2500  -999.2500  -999.2500  -999.2500     0.6609     1.1732
  470.0000  -999.2500  -999.2500  -999.2500  -999.2500     0.6605     1.1627
  470.5000  -999.2500  -999.2500  -999.2500  -999.2500     0.6601     1.1521
  471.0000  -999.2500  -999.2500  -999.2500  -999.2500     0.6596     1.1416
  471.5000  -999.2500  -999.2500  -999.2500  -999.2500     0.6592     1.1311
  472.0000  -999.2500  -999.2500  -999.2500  -999.2500     0.6588     1.1206
  472.5000  -999.2500  -999.2500  -999.2500  -999.2500     0.6584     1.1101
  473.0000  -999.2500  -999.2500  -999.2500  -999.2500     0.6580     1.0996
  473.5000  -999.2500  -999.2500  -999.2500  -999.2500     0.6575     1.0890
  474.0000  -999.2500  -999.2500  -999.2500  -999.2500     0.6571     1.0785
  474.5000  -999.2500  -999.2500  -999.2500  -999.2500     0.6567     1.0680
  475.0000  -999.2500  -999.2500  -999.2500  -999.2500     0.6563     1.0575
  475.5000  -999.2500  -999.2500  -999.2500  -999.2500     0.6559     1.0511
  476.0000  -999.2500  -999.2500  -999.2500  -999.2500     0.6554     1.0511
  476.5000  -999.2500  -999.2500  -999.2500  -999.2500     0.6550     1.0511
  477.0000  -999.2500  -999.2500  -999.2500  -999.2500     0.6546     1.0511
  477.5000  -999.2500  -999.2500  -999.2500  -999.2500     0.6542     1.0511
  478.0000  -999.2500  -999.2500     0.0000  -999.2500     0.6545    19.9385
  478.5000     3.3636     0.9712     0.0000     0.3774     0.6563    52.5169
  479.0000    13.1175     1.8734     0.0000     0.4717     0.6581   112.9207
  479.5000    35.9964     2.7122     0.0000     0.4717     0.6599   450.4321
  480.0000    89.6253     3.3641     0.0001     0.5660     0.6617   450.4216
  480.5000    90.0000     3.6422     0.0008     0.5660     0.6635   450.4110
  481.0000    90.0000     3.8274     0.0015     0.5660     0.6652   450.4005
  481.5000    90.0000     3.9185     0.0022     0.4717     0.6670   450.3899
  482.0000    90.0000     4.1031     0.0029     0.4717     0.6688   450.3794
  482.5000    90.0000     4.1003     0.7663     0.4717     0.6706   450.3689
  483.0000    89.8374     4.0979     0.7670     0.4717     0.6724   450.3583
  483.5000    90.0000     4.0956     0.6829     0.4717     0.6741   450.3478
  484.0000    89.8442     4.0933     0.7684     0.4717     0.6742   450.3372
  484.5000    89.6606     3.9976     0.7692     0.4717     0.7873   450.3267
  485.0000    89.6656     3.9018     0.7699     0.4717     0.7874   450.3162
  485.5000    89.6695     3.8995     0.6858     0.4717     0.7876   450.3056
  486.0000    89.4849     3.8037     0.6865     0.4717     0.7877   450.2951
  486.5000    89.3022     3.7928     0.6872     0.4717     0.7878   450.2845
  487.0000    89.3063     3.7056     0.6879     0.4717     0.7879   450.2740
  487.5000    89.3103     3.6094     0.6886     0.4717     0.7874   450.2635
  488.0000    89.3151     3.5136     0.6893     0.4717     0.7787   450.2529
  488.5000    89.3190     3.5113     0.6900     0.4717     0.7789   450.2408
  489.0000    89.3229     3.5090     0.6907     0.4717     0.7790   450.2307
  489.5000    89.3269     3.4132     0.6914     0.4717     0.7885   448.1129
  490.0000    89.3308     3.3175     0.6922     0.4717     0.7980   444.9411
  490.5000    89.1462     3.3152     0.6929     0.4717     0.9771   440.6970
  491.0000    88.7761     3.3129     0.6936     0.4717     0.9772   437.4959
  491.5000    88.2174     3.3106     0.6943     0.5660     0.9773   436.2129
  492.0000    87.4714     3.2148     0.6950     0.5660     0.9774   433.1768
  492.5000    86.7254     3.1190     0.6957     0.5660     0.9775   431.7287
  493.0000    86.3277     3.0233     0.6964     0.5660     0.9777   428.8578
  493.5000    85.6082     2.7406     0.6971     0.5660     0.9778   426.9906
  494.0000    85.0497     2.6448     0.6977     0.5660     0.9779   422.5994
  494.5000    84.4911     2.4556     0.6137     0.5660     0.9780   418.2082
  495.0000    83.7460     2.3520     0.6144     0.5660     0.9781   413.8172
  495.5000    83.1874     2.1706     0.5303     0.5660     0.9782   409.8450
  496.0000    82.6289     2.0743     0.5312     0.5660     0.9783   407.4695
  496.5000    82.2568     1.9785     0.5319     0.5660     0.9785   404.8593
  497.0000    81.5117     1.8828     0.5326     0.5660     0.9786   401.0110
  497.5000    81.1406     1.7870     0.5333     0.5660     0.9767   398.8831
  498.0000    80.3945     1.7847     0.5339     0.5660     0.9698   395.9015
  498.5000    79.8370     1.7824     0.5346     0.5660     0.9629   393.5102
  499.0000    79.4659     1.5932     0.5353     0.5660     0.9597   391.6967
  499.5000    79.0938     1.5909     0.5360     0.5660     0.8283   390.2450
  500.0000    78.7237     1.5886     0.5367     0.5629     0.8098   386.7680
  500.5000    78.3527     1.5863     0.5376     0.5439     0.8102   379.5562
  501.0000    78.1681     1.5840     0.4535     0.5249     0.8105   375.1545
  501.5000    77.6105     1.5817     0.4542     0.5059     0.8014   370.7529
  502.0000    77.4268     1.5794     0.4549     0.4869     0.6417   366.3513
  502.5000    76.8683     1.5771     0.4556     0.4717     0.6421   362.6215
  503.0000    76.3098     1.5748     0.4563     0.5660     0.6424   357.8835
  503.5000    75.9120     1.5724     0.4570     0.5660     0.6428   353.9113
  504.0000    75.3811     1.5701     0.4577     0.5660     0.6431   349.7986
  504.5000    74.8225     1.5673     0.4583     0.5660     0.6435   347.1698
  505.0000    74.4505     1.4715     0.4590     0.5660     0.6439   343.3962
  505.5000    73.8929     1.4692     0.4597     0.5660     0.6442   339.6071
  506.0000    73.1468     1.4669     0.4606     0.4717     0.6446   334.8112
  506.5000    72.4007     1.4646     0.3764     0.4717     0.6449   329.2453
  507.0000    71.4671     1.4623     0.3772     0.4717     0.6453   324.5283
  507.5000    70.5336     1.4600     0.3779     0.4717     0.6456   319.8113
  508.0000    69.6000     1.4577     0.3786     0.4717     0.6460   316.0377
  508.5000    69.0237     1.4554     0.3793     0.4717     0.6463   311.3208
  509.0000    68.1088     1.4531     0.3800     0.4717     0.6467   307.5472
  509.5000    67.3628     1.3573     0.3807     0.4717     0.6470   303.7736
