~VERSION INFORMATION
 VERS.                2.0:   CWLS LOG ASCII STANDARD - VERSION 2.0
 WRAP.                 NO:   ONE LINE PER DEPTH STEP
~WELL INFORMATION
#MNEM.UNIT      DATA TYPE    INFORMATION
#----------   ------------   ------------------------------
 STRT.F           27.0000:   START DEPTH
 STOP.F          538.0000:   STOP DEPTH
 STEP.F            0.5000:   STEP LENGTH
 NULL.          -999.2500:   NO VALUE
 COMP. FENIX & SCISSON INC:   COMPANY
 WELL.        NPR 3 #24-3:   WELL
 FLD .             TEAPOT:   FIELD
 LOC .       S3 T38N R78W:   LOCATION
 CNTY.            NATRONA:   COUNTY
 STAT.            WYOMING:   STATE
 CTRY. UNITED STATES OF AMERICA:   COUNTRY
 SRVC.            Unknown:   SERVICE COMPANY
 DATE.        26-SEP-1978:   LOGDATE
 API .       490251068800:   API NUMBER
~CURVE INFORMATION
#MNEM.UNIT       API CODE    CURVE DESCRIPTION
#----------   ------------   ------------------------------
 DEPT.F                  :   
 SPR .MV     05 010 01 00:   SPONTANEOUS POTENTIAL FROM RES.
 ILD .OHMM   05 120 46 00:   INDUCTION LOG DEEP
 SN  .OHMM   05 040 16 00:   SHORT NORMAL 16"
 CALD.IN     45 280 60 00:   CALIPER
 GRD .GAPI   45 310 01 00:   GAMMA RAY FROM DENSITY LOG
 DEN .G/C3   45 350 01 00:   COMPENSATED BULK DENSTIY
 DPHI.DEC    45 890 12 00:   DENSITY POROSITY SANDSTONE
 CORR.G/C3   45 356 01 00:   DENSITY CORRECTION
~PARAMETER INFORMATION
#MNEM.UNIT          VALUE    DESCRIPTION
#----------   ------------   ------------------------------
 PD  .                 GL:   PERMANENT DATUM
 EPD .F              5200:   ELEVATION PERMANENT DATUM
 LMF .                 KB:   LOG MEASURED FROM
 DAPD.F                 4:   FEET ABOVE PERMANENT DATUM
 DMF .                 KB:   DRILLING MEASURED FROM
 EKB .F              5204:   KELLING BUSHING
 EGL .F              5200:   GROUND LEVEL
 DATE.            9-26-78:   RUN DATE
 RUN .                  1:   RUN NUMBER
 DD  .F               537:   DEPTH DRILLER
 DL  .F               538:   DEPTH LOGGER
 BLI .F               532:   BOTTOM LOG INTERVAL
 TLI .F                40:   TOP LOG INTERVAL
 CS  .IN            8.625:   CASING SIZE
 CBD .F                40:   CASING BOTTOM DRILLER
 CBL .F                46:   CASING BOTTOM LOGGER
 BS  .IN            7.875:   BIT SIZE
 BSD .F               537:   BIT SIZE AT DEPTH
 DFT .                KCL:   DRILLING FLUID TYPE
 DFD .                8.7:   DRILLING FLUID DENSITY
 DFV .                 37:   DRILLING FLUID VISCOSITY
 DFPH.                  9:   DRILLING FLUID PH
 DFL .                 10:   DRILLING FLUID LOSS
 MSS .          FLOW LINE:   MUD SAMPLE SOURCE
 RMS .OHMM            .18:   RESISTIVITY MUD SAMPLE
 MST .F                72:   MUD SAMPLE TEMPERATURE
 RMF .OHMM            .16:   RESISTIVITY MUD FILTRATE SAMPLE
 MFST.F                76:   MUD FILTRATE SAMPLE TEMPERATURE
 RMC .OHMM            .26:   RESISTIVITY MUD CAKE
 MCST.F                76:   MUD CAKE SAMPLE TEMPERATURE
 MFSS.               MEAS:   MUD FILTRATE SAMPLE SOURCE
 RMB .OHMM            .18:   RESISTIVITY MUD AT BHT
 BHT .F                71:   BOTTOM HOLE TEMPERATURE
 TCS .HRS               3:   TIME CURCULATED STOPPED
 MRT .F                71:   MAXIMUM RECORDED TEMPERATURE
 LUN .               2958:   LOGGING UNIT NUMBER
 LUL .               CASP:   LOGGING UNIT LOCATION
 ENGI.           REYNOLDS:   RECORDING ENGINEER
 WITN.              AMEND:   WITNESSED BY
 CLNT.            A2DTECH:   CLIENT CODE
 ORIG.           5" PRINT:   ORIGIN OF DATA
 UWI .       490251068800:   UNIQUE WELL ID
 DICO. A2D Technologies, Inc.:   DIGITIZING COMPANY
~OTHER INFORMATION
~A   DEPT      SPR        ILD         SN       CALD         GRD       DEN       DPHI       CORR   
# ...
  513.0000   -63.1146    10.4858     8.6410     7.7500   121.1687     2.5313     0.0827     0.0370
  513.5000   -63.3832    10.4192     8.5601     7.7500   121.0855     2.5366     0.0806     0.0370
  514.0000   -63.7071    10.3531     8.4800     7.7500   121.1203     2.5346     0.0848     0.0370
  514.5000   -63.7535    10.2873     8.4005     7.7500   123.3705     2.5292     0.0891     0.0370
  515.0000   -63.7864    10.2220     8.3520     7.7500   126.7001     2.5239     0.0934     0.0374
  515.5000   -63.8205    10.1752     8.3071     7.7500   130.0484     2.5187     0.0934     0.0398
  516.0000   -63.8551    10.1468     8.2625     7.7468   133.2923     2.5191     0.0918     0.0421
  516.5000   -63.8892    10.1184     8.2181     7.7304   135.2622     2.5228     0.0890     0.0445
  517.0000   -63.9031    10.0901     8.1739     7.7144   137.9274     2.5266     0.0862     0.0490
  517.5000   -63.8243    10.0618     8.1300     7.6985   141.6675     2.5303     0.0835     0.0539
  518.0000   -63.7473    10.0334     8.0863     7.6825   144.4584     2.5305     0.0791     0.0562
  518.5000   -63.6706    10.0056     8.0428     7.6665   143.8755     2.5333     0.0694     0.0539
  519.0000   -63.5939    10.1285     7.9996     7.6505   143.7019     2.5493     0.0698     0.0517
  519.5000   -63.5169    10.2698     7.9567     7.6345   143.7287     2.5531     0.0730     0.0494
  520.0000   -63.4402    10.1566     7.9139     7.6186   145.3256     2.5474     0.0763     0.0472
  520.5000   -63.3665    10.0168     7.8713     7.6102   148.9493     2.5416     0.0795     0.0450
  521.0000   -63.4693     9.7565     7.7978     7.6250   150.3737     2.5357     0.0827     0.0447
  521.5000   -63.8252     9.4898     7.7216     7.6574   150.6999     2.5328     0.0846     0.0445
  522.0000   -64.1808     9.2304     7.6460     7.6896   150.6416     2.5301     0.0866     0.0443
  522.5000   -64.4846     8.9781     7.5713     7.7219   150.5809     2.5262     0.0886     0.0440
  523.0000   -63.9503     8.7287     7.4972     7.7543   150.4968     2.5223     0.0915     0.0437
  523.5000   -63.3912     8.7894     7.4239     7.7867   150.8109     2.5184     0.0950     0.0435
  524.0000   -63.6042     8.7065     7.3513     7.7787   157.0603     2.5139     0.0985     0.0432
  524.5000   -63.6492     8.6432     7.2793     7.7658   159.8789     2.5093     0.1021     0.0433
  525.0000   -63.5469     8.5804     7.2082     7.7528   162.8803     2.5048     0.1056     0.0521
  525.5000   -63.8976     8.4836     7.1742     7.7400   167.3318     2.5003     0.1036     0.0593
  526.0000   -64.4053     8.3540     7.1928     7.7271   167.9384     2.5025     0.0976     0.0536
  526.5000   -63.9949     8.2263     7.2061     7.7142   167.8978     2.5094     0.0916     0.0472
  527.0000   -64.2534     8.1006     7.2194     7.7013   167.4070     2.5163     0.0894     0.0411
  527.5000   -64.6427     7.9769     7.2328     7.6897   165.7478     2.5198     0.0951     0.0410
  528.0000   -65.0348     7.7328     7.2395     7.6899   164.1210     2.5111     0.1020     0.0402
  528.5000   -65.4249     7.4460     7.2395     7.6900   162.6501     2.5027     0.1094     0.0384
  529.0000   -65.7530     7.3067     7.1445     7.6900   165.6135     2.4943     0.1091     0.0365
  529.5000   -65.8998     7.3881     7.0509     7.6902   171.1044     2.4862     0.1020     0.0347
  530.0000   -65.8046     7.5259     7.0416     7.6791   171.3760     2.5022     0.0938     0.0330
  530.5000   -65.6620     7.6521     7.1862     7.6644   163.1392     2.5192     0.0908     0.0348
  531.0000   -64.7697     7.6109     7.4567     7.6496   155.0115     2.5200     0.0886     0.0374
  531.5000   -64.5159     7.5817     7.7374     7.6348   156.1746     2.5202     0.0865     0.0402
  532.0000   -64.5114     8.8710     7.9401     7.6200   157.9257     2.5287     0.0788     0.0397
  532.5000  -999.2500  -999.2500  -999.2500     7.6052   158.9662     2.5383     0.0714     0.0378
  533.0000  -999.2500  -999.2500  -999.2500     7.5906   160.8070     2.5478     0.0679     0.0358
  533.5000  -999.2500  -999.2500  -999.2500     7.5918   159.6432     2.5574     0.0681     0.0339
  534.0000  -999.2500  -999.2500  -999.2500     7.5939  -999.2500     2.5554     0.0698     0.0319
  534.5000  -999.2500  -999.2500  -999.2500     7.5960  -999.2500     2.5508     0.0756     0.0300
  535.0000  -999.2500  -999.2500  -999.2500     7.5980  -999.2500     2.5462     0.0790     0.0308
  535.5000  -999.2500  -999.2500  -999.2500     7.6000  -999.2500     2.5416     0.0803     0.0346
  536.0000  -999.2500  -999.2500  -999.2500     7.6020  -999.2500     2.5370     0.0816     0.0384
  536.5000  -999.2500  -999.2500  -999.2500     7.6040  -999.2500     2.5363     0.0814     0.0433
  537.0000  -999.2500  -999.2500  -999.2500     7.6060  -999.2500     2.5356     0.0809     0.0526
  537.5000  -999.2500  -999.2500  -999.2500     7.6080  -999.2500     2.5350     0.0797     0.0591
  538.0000  -999.2500  -999.2500  -999.2500     7.6099  -999.2500     2.5343     0.0774     0.0590
