~VERSION INFORMATION
 VERS.                2.0:   CWLS LOG ASCII STANDARD - VERSION 2.0
 WRAP.                 NO:   ONE LINE PER DEPTH STEP
~WELL INFORMATION
#MNEM.UNIT      DATA TYPE    INFORMATION
#----------   ------------   ------------------------------
 STRT.F            0.0000:   START DEPTH
 STOP.F          649.0000:   STOP DEPTH
 STEP.F            0.1000:   STEP LENGTH
 NULL.          -999.2500:   NO VALUE
 COMP.   FLUOR DANIEL INC:   COMPANY
 WELL.     17-1 X 2 #17-2:   WELL
 FLD .             TEAPOT:   FIELD
 LOC .       S2 T38N R78W:   LOCATION
 CNTY.            NATRONA:   COUNTY
 STAT.            WYOMING:   STATE
 CTRY. UNITED STATES OF AMERICA:   COUNTRY
 SRVC.      Western Atlas:   SERVICE COMPANY
 DATE.        20-MAY-1995:   LOGDATE
 API .       490252271000:   API NUMBER
~CURVE INFORMATION
#MNEM.UNIT       API CODE    CURVE DESCRIPTION
#----------   ------------   ------------------------------
 DEPT.F                  :   
 GRR .GAPI   07 310 01 00:   GAMMA RAY
 RILD.OHMM   07 120 46 00:   INDUCTION LOG DEEP RESISTIVITY
 RILM.OHMM   07 120 44 00:   RESITIVITY LOG MEDIUM
~PARAMETER INFORMATION
#MNEM.UNIT          VALUE    DESCRIPTION
#----------   ------------   ------------------------------
 PD  .                 GL:   PERMANENT DATUM
 EPD .F              5145:   ELEVATION PERMANENT DATUM
 LMF .                 KB:   LOG MEASURED FROM
 DAPD.F                10:   FEET ABOVE PERMANENT DATUM
 DMF .                 KB:   DRILLING MEASURED FROM
 EKB .F              5155:   KELLING BUSHING
 EDF .F              5154:   DRILLING FLOOR
 EGL .F              5145:   GROUND LEVEL
 DATE.        20-MAY-1995:   RUN DATE
 RUN .                  1:   RUN NUMBER
 DD  .F               657:   DEPTH DRILLER
 DL  .F               657:   DEPTH LOGGER
 BLI .F               649:   BOTTOM LOG INTERVAL
 CS  .IN            9.625:   CASING SIZE
 CBD .F                82:   CASING BOTTOM DRILLER
 CBL .F                82:   CASING BOTTOM LOGGER
 BS  .IN             8.75:   BIT SIZE
 BSD .F               657:   BIT SIZE AT DEPTH
 DFT .                AIR:   DRILLING FLUID TYPE
 MRT .F                92:   MAXIMUM RECORDED TEMPERATURE
 LUN .            HL 6530:   LOGGING UNIT NUMBER
 LUL .             CASPER:   LOGGING UNIT LOCATION
 ENGI.        VERN RAUTIO:   RECORDING ENGINEER
 WITN.        STEVE HARDY:   WITNESSED BY
 CLNT.            A2DTECH:   CLIENT CODE
 ORIG.           5" PRINT:   ORIGIN OF DATA
 UWI .       490252271000:   UNIQUE WELL ID
 DICO. A2D Technologies, Inc.:   DIGITIZING COMPANY
~OTHER INFORMATION
~A    DEPT      GRR      RILD       RILM   
# ...
  145.6000   121.9185     7.6825     7.5858
  145.7000   121.6752     7.6829     7.5860
  145.8000   121.4319     7.6833     7.5862
  145.9000   121.1438     7.6837     7.5864
  146.0000   120.7440     7.6992     7.5867
  146.1000   120.5460     7.7381     7.5869
  146.2000   120.3680     7.7386     7.5871
  146.3000   119.9135     7.7390     7.5873
  146.4000   119.6503     7.7692     7.5875
  146.5000   119.4269     7.7937     7.5877
  146.6000   119.8672     7.7942     7.5879
  146.7000   120.8406     7.7946     7.5919
  146.8000   122.1357     7.7950     7.6412
  146.9000   123.6118     7.7955     7.6414
  147.0000   124.8466     7.8209     7.6416
  147.1000   125.8854     7.8506     7.6418
  147.2000   126.7331     7.8511     7.6420
  147.3000   127.3896     7.8516     7.6423
  147.4000   127.8854     7.8920     7.6842
  147.5000   128.4317     7.9071     7.6959
  147.6000   128.8768     7.9075     7.6961
  147.7000   129.2066     7.9182     7.7088
  147.8000   129.4560     7.9635     7.7502
  147.9000   129.7607     7.9639     7.7504
  148.0000   130.2564     7.9644     7.7873
  148.1000   130.5058     7.9648     7.8048
  148.2000   130.9462     7.9652     7.8220
  148.3000   131.3062     7.9709     7.8596
  148.4000   131.6360     8.0217     7.8598
  148.5000   132.1317     8.0221     7.8600
  148.6000   132.6882     8.0225     7.8602
  148.7000   132.9070     8.0229     7.8819
  148.8000   133.1564     8.0234     7.9154
  148.9000   133.5113     8.0238     7.9156
  149.0000   133.9065     8.0243     7.9159
  149.1000   133.9096     8.0247     7.9161
  149.2000   134.3952     8.0252     7.9163
  149.3000   134.7049     8.0256     7.9165
  149.4000   134.9543     8.0245     7.9167
  149.5000   135.2790     8.0115     7.9170
  149.6000   135.7748     7.9984     7.8769
  149.7000   136.3413     7.9854     7.8626
  149.8000   136.0397     7.9728     7.8629
  149.9000   137.5531     7.9730     7.8631
  150.0000   138.3609     8.0102     7.8633
  150.1000   139.0610     8.0290     7.8635
  150.2000   139.4675     8.0292     7.8637
  150.3000   139.6809     8.0294     7.8639
  150.4000   139.6853     8.0296     7.8642
  150.5000   139.6893     8.0299     7.8644
  150.6000   139.6935     7.9973     7.8646
  150.7000   139.6977     7.9748     7.8648
  150.8000   139.5652     7.9750     7.8650
  150.9000   139.0888     7.9723     7.8653
  151.0000   138.8061     7.9203     7.8655
  151.1000   138.1883     7.9205     7.8657
  151.2000   137.6032     7.9207     7.8659
  151.3000   137.0142     7.9209     7.8330
  151.4000   136.3206     7.9126     7.8119
  151.5000   135.8101     7.8666     7.8122
  151.6000   135.1022     7.9105     7.8124
  151.7000   134.1814     7.9218     7.8126
  151.8000   133.3249     7.8980     7.8128
  151.9000   132.8102     7.8674     7.8130
  152.0000   132.8145     7.8677     7.8655
  152.1000   132.8193     7.8679     7.8656
  152.2000   133.0361     7.8681     7.8657
  152.3000   133.4466     7.8683     7.8658
  152.4000   134.0501     7.8685     7.8659
  152.5000   134.7461     7.8687     7.8660
  152.6000   135.2532     7.8690     7.8661
  152.7000   135.5007     7.8692     7.8663
  152.8000   135.7523     7.8694     7.8663
  152.9000   135.8691     7.8696     7.8665
  153.0000   135.8733     7.8698     7.8666
  153.1000   135.8775     7.8701     7.8667
  153.2000   135.8822     7.8703     7.8668
  153.3000   135.6668     7.8705     7.8669
  153.4000   135.4236     7.8707     7.8670
  153.5000   135.2911     7.8497     7.8671
  153.6000   135.2390     7.8167     7.8672
  153.7000   134.9959     7.8169     7.8673
  153.8000   134.7528     7.8172     7.8675
  153.9000   134.5096     7.8174     7.8675
  154.0000   134.2665     7.8176     7.8677
  154.1000   134.1098     7.8178     7.8678
  154.2000   134.1140     7.8180     7.8679
  154.3000   134.1186     7.8182     7.8680
  154.4000   133.8972     7.8184     7.8681
  154.5000   133.4832     7.7864     7.8682
  154.6000   133.1093     7.7648     7.8683
  154.7000   132.8661     7.7650     7.8684
  154.8000   132.6230     7.7652     7.8685
  154.9000   132.3344     7.7655     7.8686
  155.0000   132.1367     7.7657     7.8687
  155.1000   131.8936     7.7659     7.8689
  155.2000   131.7430     7.7661     7.8690
  155.3000   131.7472     7.7663     7.8691
  155.4000   131.7517     7.7665     7.8692
  155.5000   131.7556     7.7667     7.8693
  155.6000   132.2908     7.7670     7.8694
  155.7000   133.1598     7.7672     7.8695
  155.8000   134.3586     7.7674     7.8696
  155.9000   136.0944     7.7676     7.8697
  156.0000   138.1123     7.7678     7.8698
  156.1000   139.1516     7.7680     7.8700
  156.2000   140.3926     7.7682     7.8701
  156.3000   141.4365     7.7685     7.8702
  156.4000   142.1386     7.7687     7.8703
  156.5000   142.6578     7.7689     7.8704
  156.6000   142.6618     7.7691     7.8705
  156.7000   142.6661     7.7693     7.8706
  156.8000   142.4129     7.7695     7.8707
  156.9000   141.8480     7.7698     7.8708
  157.0000   141.1101     7.7700     7.8709
  157.1000   140.2703     7.7702     7.8710
  157.2000   140.0608     7.7704     7.8712
  157.3000   139.4999     7.7706     7.8713
  157.4000   138.8666     7.7708     7.8714
  157.5000   138.3258     7.7828     7.8715
  157.6000   137.5759     7.8254     7.8716
  157.7000   136.1200     7.8256     7.8717
  157.8000   134.8292     7.8258     7.8718
  157.9000   133.7314     7.8260     7.8719
  158.0000   132.9070     7.8263     7.8720
  158.1000   132.4165     7.8265     7.8721
  158.2000   131.8702     7.8267     7.8722
  158.3000   131.6547     7.8269     7.8724
  158.4000   131.4116     7.8271     7.8725
  158.5000   131.1684     7.8274     7.8726
  158.6000   131.0379     7.8276     7.8727
  158.7000   131.2875     7.8278     7.8728
  158.8000   131.2917     7.8280     7.8729
  158.9000   131.4910     7.8282     7.8730
  159.0000   131.7426     7.8284     7.8555
  159.1000   131.9942     7.8287     7.8332
  159.2000   132.3102     7.8289     7.8189
  159.3000   133.1232     7.8291     7.8190
  159.4000   133.3522     7.7855     7.8191
  159.5000   133.7748     7.7754     7.8192
  159.6000   134.2737     7.7756     7.8193
  159.7000   134.7727     7.7758     7.8194
  159.8000   135.2635     7.7760     7.8195
  159.9000   135.5622     7.7763     7.8196
  160.0000   135.3645     7.7764     7.8198
  160.1000   134.9745     7.7767     7.8199
  160.2000   134.5766     7.7769     7.8200
  160.3000   134.2189     7.7771     7.8201
  160.4000   133.1695     7.7773     7.8202
  160.5000   132.2484     7.7776     7.8203
  160.6000   131.7941     7.7777     7.8204
  160.7000   131.4283     7.7780     7.8205
  160.8000   131.0061     7.7621     7.8206
  160.9000   130.7630     7.7246     7.8207
  161.0000   130.4803     7.7248     7.8208
  161.1000   130.4839     7.7250     7.8210
  161.2000   130.4881     7.7252     7.8211
  161.3000   130.6894     7.7254     7.8212
  161.4000   131.2325     7.7138     7.8213
  161.5000   132.0092     7.6724     7.8214
  161.6000   132.7252     7.6727     7.8210
  161.7000   133.4715     7.6729     7.7989
  161.8000   134.2178     7.6731     7.7767
  161.9000   134.9641     7.6733     7.7677
  162.0000   135.7104     7.6735     7.7513
  162.1000   136.5599     7.6737     7.7142
  162.2000   136.9899     7.6739     7.7143
  162.3000   137.6477     7.6741     7.7144
  162.4000   138.2894     7.6744     7.7145
  162.5000   138.7883     7.6746     7.6924
  162.6000   139.2954     7.6748     7.6614
  162.7000   139.5429     7.6750     7.6615
  162.8000   139.7945     7.7133     7.6616
  162.9000   140.0461     7.7289     7.6617
  163.0000   140.1367     7.7291     7.6618
  163.1000   139.8936     7.7200     7.6619
  163.2000   139.6228     7.6761     7.6620
  163.3000   139.4073     7.6763     7.6621
  163.4000   138.5045     7.6765     7.6622
  163.5000   137.3826     7.6767     7.6623
  163.6000   136.4537     7.6769     7.6624
  163.7000   135.7157     7.6771     7.6625
