~VERSION INFORMATION
 VERS.                2.0:   CWLS LOG ASCII STANDARD - VERSION 2.0
 WRAP.                 NO:   ONE LINE PER DEPTH STEP
~WELL INFORMATION
#MNEM.UNIT      DATA TYPE    INFORMATION
#----------   ------------   ------------------------------
 STRT.F            0.0000:   START DEPTH
 STOP.F          551.0000:   STOP DEPTH
 STEP.F            0.1000:   STEP LENGTH
 NULL.          -999.2500:   NO VALUE
 COMP.       F D SERV INC:   COMPANY
 WELL.    62-2 SX-3 #62-3:   WELL
 FLD .          N.P.R. #3:   FIELD
 LOC .       S3 T38N R78W:   LOCATION
 CNTY.            NATRONA:   COUNTY
 STAT.            WYOMING:   STATE
 CTRY. UNITED STATES OF AMERICA:   COUNTRY
 SRVC.     Atlas Wireline:   SERVICE COMPANY
 DATE.        17-APR-1992:   LOGDATE
 API .       490252250700:   API NUMBER
~CURVE INFORMATION
#MNEM.UNIT       API CODE    CURVE DESCRIPTION
#----------   ------------   ------------------------------
 DEPT.F                  :   
 GRR .GAPI   07 310 01 00:   GAMMA RAY
 RILD.OHMM   07 120 46 00:   INDUCTION LOG DEEP RESISTIVITY
 RILM.OHMM   07 120 44 00:   INDUCTION LOG MEDIUM RESISTIVITY
~PARAMETER INFORMATION
#MNEM.UNIT          VALUE    DESCRIPTION
#----------   ------------   ------------------------------
 PD  .                 GL:   PERMANENT DATUM
 EPD .F              5130:   ELEVATION PERMANENT DATUM
 LMF .                 KB:   LOG MEASURED FROM
 DAPD.F                 5:   FEET ABOVE PERMANENT DATUM
 DMF .                 KB:   DRILLING MEASURED FROM
 EKB .F              5135:   KELLING BUSHING
 EDF .F              5134:   DRILLING FLOOR
 EGL .F              5130:   GROUND LEVEL
 DATE.        17-APR-1992:   RUN DATE
 RUN .                  1:   RUN NUMBER
 DD  .F               560:   DEPTH DRILLER
 DL  .F               560:   DEPTH LOGGER
 BLI .F               558:   BOTTOM LOG INTERVAL
 CS  .IN            8.625:   CASING SIZE
 CBD .F                47:   CASING BOTTOM DRILLER
 CBL .F                50:   CASING BOTTOM LOGGER
 BS  .IN            7.875:   BIT SIZE
 BSD .F               560:   BIT SIZE AT DEPTH
 DFT .                AIR:   DRILLING FLUID TYPE
 TCS .HRS               2:   TIME CURCULATED STOPPED
 MRT .F                83:   MAXIMUM RECORDED TEMPERATURE
 LUN .           HL- 6274:   LOGGING UNIT NUMBER
 LUL .             CASPER:   LOGGING UNIT LOCATION
 ENGI.            LEBSOCK:   RECORDING ENGINEER
 WITN.        GARY STRONG:   WITNESSED BY
 CLNT.            A2DTECH:   CLIENT CODE
 ORIG.           5" PRINT:   ORIGIN OF DATA
 UWI .       490252250700:   UNIQUE WELL ID
 DICO. A2D Technologies, Inc.:   DIGITIZING COMPANY
~OTHER INFORMATION
~A    DEPT      GRR      RILD       RILM   
# ...
  400.4000    98.9632    13.8633    12.9909
  400.5000    99.3154    13.8300    12.9756
  400.6000    99.5034    13.7968    12.9711
  400.7000    99.2486    13.7635    12.9716
  400.8000    98.6731    13.7302    12.9721
  400.9000    98.4735    13.7107    12.9727
  401.0000    98.0838    13.7113    12.9733
  401.1000    97.5946    13.7119    12.9738
  401.2000    97.1054    13.6383    12.9743
  401.3000    96.5758    13.6174    12.9749
  401.4000    96.1271    13.5795    12.9754
  401.5000    95.9788    13.5236    12.9760
  401.6000    95.8684    13.5208    12.9765
  401.7000    95.6847    13.4305    12.9771
  401.8000    95.6889    13.4310    12.9477
  401.9000    95.6932    13.4315    12.8877
  402.0000    95.6974    13.4046    12.8883
  402.1000    95.8394    13.3389    12.8888
  402.2000    96.1722    13.3395    12.8365
  402.3000    96.6697    13.4091    12.8001
  402.4000    97.2277    13.4343    12.7812
  402.5000    97.8818    13.4349    12.7121
  402.6000    98.4653    13.4354    12.7127
  402.7000    99.0679    13.4360    12.6545
  402.8000    99.7630    13.4366    12.6251
  402.9000   100.2742    13.4371    12.6257
  403.0000   100.7586    13.4792    12.6168
  403.1000   101.4403    13.5327    12.5389
  403.2000   101.9280    13.5332    12.4751
  403.3000   102.1790    13.5339    12.4048
  403.4000   102.4133    13.5344    12.3663
  403.5000   102.4182    13.5350    12.3513
  403.6000   102.6291    13.5667    12.2812
  403.7000   102.8800    13.6311    12.2818
  403.8000   103.1309    13.6317    12.3360
  403.9000   103.3422    13.6322    12.3689
  404.0000   103.3467    13.6328    12.3695
  404.1000   103.3507    13.6334    12.3759
  404.2000   103.5296    13.6340    12.4573
  404.3000   103.7806    13.6345    12.4577
  404.4000   104.0315    13.6352    12.5030
  404.5000   104.2825    13.6989    12.5750
  404.6000   104.5830    13.7320    12.6347
  404.7000   104.5864    13.7326    12.6352
  404.8000   104.7327    13.7332    12.6357
  404.9000   105.0697    13.7338    12.6363
  405.0000   105.5371    13.7343    12.6722
  405.1000   105.8141    13.7349    12.7260
  405.2000   106.0390    13.7355    12.7265
  405.3000   106.4551    13.7532    12.7271
  405.4000   106.7341    13.8331    12.7863
  405.5000   106.7383    13.8337    12.8173
  405.6000   106.7426    13.8343    12.8179
  405.7000   106.7467    13.8349    12.8184
  405.8000   106.3742    13.8355    12.8190
  405.9000   106.0176    13.8360    12.8853
  406.0000   105.7750    13.8367    12.9099
  406.1000   105.5120    13.8372    12.9105
  406.2000   104.9531    13.8378    12.9110
  406.3000   104.7452    13.8383    12.9116
  406.4000   104.5027    13.8389    12.9121
  406.5000   104.1603    13.8396    12.9126
  406.6000   103.7153    13.8401    12.9132
  406.7000   103.4610    13.8407    12.9137
  406.8000   102.9956    13.8799    12.9201
  406.9000   102.5063    13.9390    13.0054
  407.0000   102.0172    13.9396    13.0059
  407.1000   101.5281    13.9403    13.0065
  407.2000   101.0387    13.9408    13.0070
  407.3000   100.4613    13.9414    13.0076
  407.4000   100.4648    13.9420    13.0081
  407.5000   100.3228    13.9524    13.0086
  407.6000   100.1707    14.0412    13.0092
  407.7000   100.1749    14.0417    13.0459
  407.8000   100.1795    14.0423    13.1015
  407.9000   100.1834    14.0429    13.1020
  408.0000   100.1876    14.0434    13.1027
  408.1000   100.0783    14.0440    13.1032
  408.2000    99.8935    14.1238    13.1469
  408.3000    99.8977    14.1438    13.1962
  408.4000    99.6534    14.1444    13.1967
  408.5000    99.2184    14.1451    13.1973
  408.6000    98.8660    14.1517    13.1978
  408.7000    98.5426    14.2457    13.1984
  408.8000    98.0536    14.2462    13.2320
  408.9000    97.5031    14.2468    13.2920
  409.0000    97.2910    14.2474    13.2926
  409.1000    96.8886    14.2615    13.2932
  409.2000    96.5035    14.3487    13.2937
  409.3000    96.2611    14.3492    13.2943
  409.4000    96.0110    14.3499    13.2948
  409.5000    95.7761    14.3505    13.2953
  409.6000    95.7168    14.3511    13.2960
  409.7000    95.7210    14.3517    13.2965
  409.8000    95.7252    14.3524    13.2971
  409.9000    95.7450    14.3529    13.2681
  410.0000    96.0370    14.3535    13.2055
  410.1000    96.4532    14.3541    13.2062
  410.2000    96.9508    14.3547    13.1366
  410.3000    97.4484    14.3553    13.1152
  410.4000    97.9461    14.3559    13.0800
  410.5000    98.4784    14.3565    13.0250
  410.6000    98.9413    14.3216    13.0236
  410.7000    99.4391    14.2575    12.9502
  410.8000    99.9368    14.2582    12.9360
  410.9000   100.3724    14.2588    12.8946
  411.0000   100.6234    14.1984    12.8218
  411.1000   100.8742    14.1183    12.7579
  411.2000   101.1251    14.0624    12.7586
  411.3000   101.2351    14.0629    12.6948
  411.4000   101.2394    14.0636    12.6708
  411.5000   101.2727    13.9967    12.6401
  411.6000   101.5508    13.9178    12.5689
  411.7000   101.5546    13.8392    12.4965
  411.8000   101.5588    13.7611    12.4276
  411.9000   101.5631    13.6782    12.3576
  412.0000   101.6198    13.6062    12.2879
  412.1000   101.8742    13.5294    12.2392
  412.2000   101.8784    13.4531    12.2350
  412.3000   101.8826    13.3772    12.1551
  412.4000   101.8869    13.3016    12.0975
  412.5000   101.8911    13.2265    12.0294
  412.6000   101.8953    13.1519    11.9616
  412.7000   101.9002    13.0777    11.8942
  412.8000   101.9038    13.0039    11.8225
  412.9000   101.7534    12.9305    11.7605
  413.0000   101.6097    12.8491    11.6942
  413.1000   101.6139    12.7850    11.6598
  413.2000   101.6184    12.7128    11.6439
  413.3000   101.3886    12.6411    11.5782
  413.4000   101.3241    12.5842    11.5130
  413.5000   101.3283    12.5848    11.5000
  413.6000   101.3325    12.5155    11.4635
  413.7000   101.3471    12.4449    11.4209
  413.8000   101.6443    12.3747    11.4213
  413.9000   101.6478    12.3253    11.4218
  414.0000   101.9425    12.3258    11.3650
  414.1000   102.3508    12.3265    11.3432
  414.2000   102.6353    12.3269    11.3437
  414.3000   103.1780    12.3274    11.3442
  414.4000   103.6305    12.3279    11.3446
  414.5000   103.9596    12.3285    11.3451
  414.6000   104.2106    12.3290    11.3456
  414.7000   104.4616    12.3295    11.3461
  414.8000   104.7116    12.2809    11.3465
  414.9000   104.4684    12.2445    11.3470
  415.0000   104.2260    12.2450    11.3476
  415.1000   104.1192    12.2455    11.3479
  415.2000   104.0436    12.2461    11.3484
  415.3000   103.8247    12.2466    11.3489
  415.4000   103.8299    12.2471    11.3494
  415.5000   103.6188    12.2476    11.3499
  415.6000   103.5352    12.2482    11.3504
  415.7000   103.4364    12.2487    11.3508
  415.8000   103.2403    12.1879    11.3513
  415.9000   103.5481    12.1642    11.3517
  416.0000   104.0280    12.1647    11.3522
  416.1000   104.7079    12.1653    11.3527
  416.2000   105.4523    12.1658    11.3532
  416.3000   106.1964    12.2339    11.3537
  416.4000   106.9411    12.2523    11.3542
  416.5000   107.8101    12.2528    11.3547
  416.6000   108.4296    12.2734    11.3552
  416.7000   109.3234    12.3398    11.3556
  416.8000   110.2208    12.3404    11.3560
  416.9000   110.9275    12.3997    11.3840
  417.0000   111.4617    12.4712    11.4494
  417.1000   111.9227    12.5430    11.5173
  417.2000   112.2477    12.6043    11.6457
  417.3000   112.6153    12.6049    11.6804
  417.4000   113.0521    12.6719    11.7498
  417.5000   113.2980    12.7450    11.9045
  417.6000   113.3022    12.8529    12.1096
  417.7000   113.1107    13.0007    12.3542
  417.8000   112.7283    13.1502    12.5918
  417.9000   112.0709    13.3018    12.8378
  418.0000   111.0885    13.5157    13.1166
  418.1000   109.9956    13.7496    13.4832
  418.2000   109.1234    13.9605    13.8185
  418.3000   107.9776    14.1380    14.0388
  418.4000   106.8553    14.5054    14.3385
  418.5000   105.8210    14.6519    14.6693
