~VERSION INFORMATION
 VERS.                2.0:   CWLS LOG ASCII STANDARD - VERSION 2.0
 WRAP.                 NO:   ONE LINE PER DEPTH STEP
~WELL INFORMATION
#MNEM.UNIT      DATA TYPE    INFORMATION
#----------   ------------   ------------------------------
 STRT.F           26.0000:   START DEPTH
 STOP.F         1071.0000:   STOP DEPTH
 STEP.F            0.5000:   STEP LENGTH
 NULL.          -999.2500:   NO VALUE
 COMP. FENIX & SCISSON INC:   COMPANY
 WELL.       NRP 3 #61-14:   WELL
 FLD .        TEAPOT DOME:   FIELD
 LOC .      S14 T38N R78W:   LOCATION
 CNTY.            NATRONA:   COUNTY
 STAT.            WYOMING:   STATE
 CTRY. UNITED STATES OF AMERICA:   COUNTRY
 SRVC.            Unknown:   SERVICE COMPANY
 DATE.        09-JAN-1979:   LOGDATE
 API .       490251076300:   API NUMBER
~CURVE INFORMATION
#MNEM.UNIT       API CODE    CURVE DESCRIPTION
#----------   ------------   ------------------------------
 DEPT.F                  :   
 SPR .MV     05 010 01 00:   SPONTANEOUS POTENTIAL FROM RES.
 SN  .OHMM   05 040 16 00:   SHORT NORMAL 16"
 IL  .OHMM   05 120 00 00:   INDUCTION LOG
 CALD.IN     45 280 60 00:   CALIPER
 GRD .GAPI   45 310 01 00:   GAMMA RAY FROM DENSITY LOG
 RHOB.G/C3   45 350 01 00:   BULK DENSITY
 DPHI.DEC    45 890 12 00:   DENSITY POROSITY SANDSTONE
 CORR.G/C3   45 356 01 00:   DENSITY CORRECTION
~PARAMETER INFORMATION
#MNEM.UNIT          VALUE    DESCRIPTION
#----------   ------------   ------------------------------
 PD  .                 GL:   PERMANENT DATUM
 EPD .F              5240:   ELEVATION PERMANENT DATUM
 LMF .                 KB:   LOG MEASURED FROM
 DAPD.F                 4:   FEET ABOVE PERMANENT DATUM
 DMF .                 KB:   DRILLING MEASURED FROM
 EKB .F              5244:   KELLING BUSHING
 EGL .F              5240:   GROUND LEVEL
 DATE.             1-9-79:   RUN DATE
 RUN .                  1:   RUN NUMBER
 DD  .F              1061:   DEPTH DRILLER
 DL  .F              1071:   DEPTH LOGGER
 BLI .F              1064:   BOTTOM LOG INTERVAL
 TLI .F                50:   TOP LOG INTERVAL
 CS  .IN            8.625:   CASING SIZE
 CBD .F                40:   CASING BOTTOM DRILLER
 CBL .F                38:   CASING BOTTOM LOGGER
 BS  .IN            7.875:   BIT SIZE
 BSD .F              1061:   BIT SIZE AT DEPTH
 DFT .                KCL:   DRILLING FLUID TYPE
 DFD .                8.8:   DRILLING FLUID DENSITY
 DFV .                 36:   DRILLING FLUID VISCOSITY
 DFPH.                9.2:   DRILLING FLUID PH
 MSS .           FLOWLINE:   MUD SAMPLE SOURCE
 RMS .OHMM             .3:   RESISTIVITY MUD SAMPLE
 MST .F                58:   MUD SAMPLE TEMPERATURE
 RMF .OHMM             .3:   RESISTIVITY MUD FILTRATE SAMPLE
 MFST.F                58:   MUD FILTRATE SAMPLE TEMPERATURE
 RMC .OHMM            .34:   RESISTIVITY MUD CAKE
 MCST.F                62:   MUD CAKE SAMPLE TEMPERATURE
 MFSS.           MEASURED:   MUD FILTRATE SAMPLE SOURCE
 MCSS.           MEASURED:   MUD CAKE SAMPLE SOURCE
 RMB .OHMM            .29:   RESISTIVITY MUD AT BHT
 BHT .F                61:   BOTTOM HOLE TEMPERATURE
 TCS .HRS               4:   TIME CURCULATED STOPPED
 MRT .F                61:   MAXIMUM RECORDED TEMPERATURE
 LUN .               3006:   LOGGING UNIT NUMBER
 LUL .             CASPER:   LOGGING UNIT LOCATION
 ENGI.            ROLLINS:   RECORDING ENGINEER
 WITN.           DINSMORE:   WITNESSED BY
 CLNT.            A2DTECH:   CLIENT CODE
 ORIG.           5" PRINT:   ORIGIN OF DATA
 UWI .       490251076300:   UNIQUE WELL ID
 DICO. A2D Technologies, Inc.:   DIGITIZING COMPANY
~OTHER INFORMATION
~A   DEPT      SPR         SN         IL       CALD         GRD      RHOB       DPHI       CORR   
# ...
  147.5000   -36.5540     5.9430     6.0440     7.2900   107.6550     2.3990     0.1720     0.1780
  148.0000   -36.5540     5.9310     6.0330     7.2790   107.0920     2.3990     0.1690     0.2120
  148.5000   -36.5540     5.9190     6.0210     7.2670   103.3990     2.4040     0.1660     0.2470
  149.0000   -36.5540     5.9070     6.0090     7.2560    99.7510     2.4070     0.1670     0.2740
  149.5000   -36.5720     5.8950     5.9980     7.2450    98.6750     2.4060     0.1680     0.2960
  150.0000   -36.7200     5.8830     5.9860     7.2330    98.5910     2.4050     0.1680     0.2860
  150.5000   -36.8700     5.8710     5.9750     7.2470    99.1760     2.4060     0.1600     0.2470
  151.0000   -37.0200     5.8600     5.9630     7.2640    99.7480     2.4200     0.1390     0.2090
  151.5000   -37.1700     5.8480     5.9510     7.2810   100.9210     2.4450     0.1180     0.1710
  152.0000   -37.3200     5.8340     5.9430     7.2980   102.1690     2.4700     0.1030     0.1320
  152.5000   -37.4690     5.8640     5.9430     7.3150   101.8310     2.4940     0.0970     0.1170
  153.0000   -37.6190     5.9000     6.0320     7.3320    99.1340     2.5070     0.1140     0.1140
  153.5000   -37.7690     5.9360     6.1180     7.3680    96.5440     2.4880     0.1340     0.1100
  154.0000   -37.9190     5.9720     6.2040     7.4230    96.5270     2.4590     0.1550     0.1070
  154.5000   -37.9470     6.0080     6.2900     7.5090    96.6050     2.4290     0.1720     0.1090
  155.0000   -37.9470     6.0430     6.3760     7.5940    97.4800     2.4010     0.1750     0.1120
  155.5000   -37.9240     6.0790     6.4620     7.6730    98.4050     2.3890     0.1770     0.1190
  156.0000   -37.7840     6.1090     6.5480     7.7120    98.2460     2.3850     0.1800     0.1260
  156.5000   -37.6430     6.0910     6.6390     7.7500    98.0620     2.3790     0.1900     0.1310
  157.0000   -37.5020     6.0740     6.7000     7.7880    98.3090     2.3690     0.1950     0.1350
  157.5000   -37.3590     6.0580     6.5520     7.8270    99.1960     2.3570     0.1980     0.1420
  158.0000   -37.4160     6.0530     6.3940     7.8650   102.4530     2.3560     0.1950     0.1580
  158.5000   -37.4870     5.9720     6.2350     7.8870   102.8880     2.3550     0.1950     0.1720
  159.0000   -37.5580     5.8560     6.0760     7.8870   101.4690     2.3540     0.1980     0.1660
  159.5000   -37.6290     5.7410     5.9180     7.8870   100.2280     2.3530     0.2010     0.1450
  160.0000   -37.7000     5.6260     5.7590     7.8860    99.2490     2.3520     0.2030     0.1250
  160.5000   -37.7710     5.5100     5.6000     7.8550    98.6230     2.3510     0.1940     0.1260
  161.0000   -37.8420     5.4690     5.4410     7.8060    98.2960     2.3620     0.1810     0.1320
  161.5000   -37.9130     5.4690     5.2830     7.6750    99.3980     2.3790     0.1720     0.1490
  162.0000   -37.9840     5.4690     5.2220     7.5430   102.0180     2.3880     0.1770     0.1900
  162.5000   -38.0550     5.4850     5.2220     7.4280   104.1140     2.3820     0.1840     0.2530
  163.0000   -38.1260     5.5660     5.3590     7.3540   105.1390     2.3740     0.1900     0.3170
  163.5000   -38.1970     5.6470     5.4960     7.2790   106.1690     2.3660     0.1970     0.3790
  164.0000   -38.2680     5.7270     5.6330     7.2050   107.1250     2.3580     0.2010     0.4300
  164.5000   -38.3390     5.8080     5.7700     7.1360   106.3390     2.3560     0.1940     0.3590
  165.0000   -38.4100     5.8890     5.9070     7.1600   104.4710     2.3590     0.1750     0.2780
  165.5000   -38.4810     5.9640     6.0440     7.1860   102.6160     2.3670     0.1310     0.1970
  166.0000   -38.5520     6.0270     6.1500     7.2160   100.7810     2.4250     0.0810     0.1290
  166.5000   -38.6230     6.0900     6.2280     7.3420    99.1800     2.4910     0.0550     0.1260
  167.0000   -38.6930     6.1530     6.3060     7.4740    99.2190     2.5570     0.0950     0.1260
  167.5000   -38.7460     6.2160     6.3850     7.6070    99.0710     2.5850     0.1280     0.1250
  168.0000   -38.7450     6.2230     6.4570     7.7440    99.0150     2.5070     0.1610     0.1240
  168.5000   -38.7450     6.1840     6.4570     7.8430   101.2070     2.4400     0.1770     0.1230
  169.0000   -38.7460     6.1260     6.3550     7.8670   103.0550     2.3900     0.1780     0.1220
  169.5000   -38.7250     6.0680     6.2880     7.8870   102.4810     2.3900     0.1780     0.1210
  170.0000   -38.7010     6.0090     6.2220     7.9060   101.7130     2.3900     0.1790     0.1200
  170.5000   -38.6770     5.9510     6.1560     7.9070   101.6030     2.3900     0.1800     0.1180
  171.0000   -38.6530     5.8930     6.0890     7.9070   101.5500     2.3900     0.1780     0.1170
  171.5000   -38.6300     5.8340     6.0230     7.9070   100.8260     2.3910     0.1710     0.1160
  172.0000   -38.6060     5.7760     5.9570     7.9070    99.4000     2.4020     0.1600     0.1140
  172.5000   -38.5820     5.7250     5.8900     7.9070    98.7220     2.4160     0.1490     0.1130
  173.0000   -38.5580     5.7130     5.8240     7.9070    98.5300     2.4300     0.1380     0.1150
  173.5000   -38.5340     5.7000     5.7800     7.9070    98.3320     2.4440     0.1310     0.1260
  174.0000   -38.5100     5.6880     5.7800     7.9070    98.6350     2.4570     0.1420     0.1390
  174.5000   -38.4860     5.6750     5.7800     7.9060    99.8040     2.4510     0.1620     0.1520
  175.0000   -38.4630     5.6750     5.8710     7.9060   102.7950     2.4220     0.1800     0.1650
  175.5000   -38.4390     5.7490     5.9440     7.8440   105.1020     2.3930     0.1800     0.1780
  176.0000   -38.4150     5.8160     6.0180     7.7330   105.3520     2.3880     0.1710     0.1840
  176.5000   -38.3910     5.8840     6.0910     7.6380   105.5620     2.3990     0.1640     0.1830
  177.0000   -38.3670     5.9510     6.1640     7.6280   105.5050     2.4110     0.1600     0.1780
  177.5000   -38.3430     6.0190     6.2380     7.6260   105.4520     2.4190     0.1540     0.1730
  178.0000   -38.3190     6.0860     6.3110     7.6240   105.3990     2.4280     0.1470     0.1640
  178.5000   -38.2960     6.1540     6.3840     7.6220   105.3440     2.4370     0.1400     0.1530
  179.0000   -38.2720     6.1860     6.4570     7.6200   105.2900     2.4420     0.1400     0.1420
  179.5000   -38.2480     6.2100     6.4850     7.6180   105.2390     2.4440     0.1440     0.1330
  180.0000   -38.2240     6.2350     6.5120     7.6160   105.1560     2.4410     0.1500     0.1290
  180.5000   -38.2000     6.2590     6.5390     7.6140   104.0700     2.4330     0.1550     0.1250
  181.0000   -38.1760     6.2830     6.5660     7.6120   102.8570     2.4240     0.1600     0.1220
  181.5000   -38.1520     6.3080     6.5930     7.6090   102.6770     2.4160     0.1650     0.1220
  182.0000   -38.1290     6.3320     6.6200     7.6310   102.5540     2.4070     0.1660     0.1210
  182.5000   -38.1050     6.3560     6.7000     7.6620   102.4290     2.4010     0.1670     0.1210
  183.0000   -38.0810     6.3810     6.7000     7.6930   102.3040     2.4000     0.1710     0.1200
  183.5000   -38.0570     6.4100     6.7330     7.7230   102.3270     2.3960     0.1760     0.1200
  184.0000   -38.0330     6.4500     6.7790     7.7490   102.9590     2.3910     0.1780     0.1190
  184.5000   -38.0100     6.4900     6.8250     7.7480   103.2290     2.3870     0.1780     0.1190
  185.0000   -37.9860     6.5300     6.8710     7.7480   101.8870     2.3870     0.1780     0.1250
  185.5000   -37.9630     6.5700     6.9170     7.7480   100.2880     2.3870     0.1750     0.1300
  186.0000   -38.0140     6.6100     6.9630     7.7480   100.9840     2.3870     0.1770     0.1350
  186.5000   -38.1650     6.6500     7.0090     7.7480   102.3480     2.3870     0.1810     0.1390
  187.0000   -38.3140     6.6900     7.0550     7.7480   103.0500     2.3870     0.1830     0.1390
  187.5000   -38.4640     6.7300     7.1010     7.7490   103.1780     2.3870     0.1820     0.1400
