~VERSION INFORMATION
 VERS.                2.0:   CWLS LOG ASCII STANDARD - VERSION 2.0
 WRAP.                 NO:   ONE LINE PER DEPTH STEP
~WELL INFORMATION
#MNEM.UNIT      DATA TYPE    INFORMATION
#----------   ------------   ------------------------------
 STRT.F           33.5000:   START DEPTH
 STOP.F          680.0000:   STOP DEPTH
 STEP.F            0.5000:   STEP LENGTH
 NULL.          -999.2500:   NO VALUE
 COMP. FENIX & SCISSON INC:   COMPANY
 WELL.       NPR 3 #66-34:   WELL
 FLD .             TEAPOT:   FIELD
 LOC .      S34 T39N R78W:   LOCATION
 CNTY.            NATRONA:   COUNTY
 STAT.            WYOMING:   STATE
 CTRY. UNITED STATES OF AMERICA:   COUNTRY
 SRVC.           BIRDWELL:   SERVICE COMPANY
 DATE.        12-AUG-1978:   LOGDATE
 API .       490251068400:   API NUMBER
~CURVE INFORMATION
#MNEM.UNIT       API CODE    CURVE DESCRIPTION
#----------   ------------   ------------------------------
 DEPT.F                  :   
 SPR .MV     05 010 01 00:   SPONTANEOUS POTENTIAL FROM RES.
 SN  .OHMM   05 040 16 00:   SHORT NORMAL 16"
 IL  .OHMM   05 120 00 00:   INDUCTION LOG
 CORR.G/C3   45 356 01 00:   DENSITY CORRECTION
 GRD .GAPI   45 310 01 00:   GAMMA RAY FROM DENSITY LOG
 RHOB.G/C3   45 350 01 00:   BULK DENSITY
 DPHI.DEC    45 890 12 00:   DENSITY POROSITY SANDSTONE
 CALD.IN     45 280 60 00:   CALIPER
~PARAMETER INFORMATION
#MNEM.UNIT          VALUE    DESCRIPTION
#----------   ------------   ------------------------------
 PD  .                 GL:   PERMANENT DATUM
 EPD .F              5078:   ELEVATION PERMANENT DATUM
 LMF .                 KB:   LOG MEASURED FROM
 DAPD.F                 4:   FEET ABOVE PERMANENT DATUM
 DMF .                 KB:   DRILLING MEASURED FROM
 EKB .F              5082:   KELLING BUSHING
 EGL .F              5078:   GROUND LEVEL
 DATE.            8-12-78:   RUN DATE
 RUN .                  1:   RUN NUMBER
 DD  .F               675:   DEPTH DRILLER
 DL  .F               686:   DEPTH LOGGER
 BLI .F               680:   BOTTOM LOG INTERVAL
 TLI .F                50:   TOP LOG INTERVAL
 CS  .IN            8.625:   CASING SIZE
 CBD .F                40:   CASING BOTTOM DRILLER
 BS  .IN            7.875:   BIT SIZE
 BSD .F               675:   BIT SIZE AT DEPTH
 DFT .                KCL:   DRILLING FLUID TYPE
 DFL .               10.4:   DRILLING FLUID LOSS
 MSS .          FLOW LINE:   MUD SAMPLE SOURCE
 RMS .OHMM            .18:   RESISTIVITY MUD SAMPLE
 MST .F                90:   MUD SAMPLE TEMPERATURE
 RMF .OHMM            .16:   RESISTIVITY MUD FILTRATE SAMPLE
 MFST.F                90:   MUD FILTRATE SAMPLE TEMPERATURE
 RMC .OHMM            .32:   RESISTIVITY MUD CAKE
 MCST.F                90:   MUD CAKE SAMPLE TEMPERATURE
 MFSS.               MEAS:   MUD FILTRATE SAMPLE SOURCE
 TCS .HRS               3:   TIME CURCULATED STOPPED
 LUN .               3006:   LOGGING UNIT NUMBER
 LUL .               CASP:   LOGGING UNIT LOCATION
 ENGI.             MILLER:   RECORDING ENGINEER
 WITN.           MCGINLEY:   WITNESSED BY
 CLNT.            A2DTECH:   CLIENT CODE
 ORIG.           5" PRINT:   ORIGIN OF DATA
 UWI .       490251068400:   UNIQUE WELL ID
 DICO. A2D Technologies, Inc.:   DIGITIZING COMPANY
~OTHER INFORMATION
~A   DEPT      SPR         SN         IL       CORR         GRD      RHOB       DPHI       CALD   
# ...
  276.5000   -53.9268     6.9863     6.4936     0.0360    96.5452     2.5123     0.1008     8.0346
  277.0000   -53.9016     6.9567     6.5476     0.0386   100.2605     2.5220     0.0962     7.9857
  277.5000   -53.9328     7.0039     6.6022     0.0413   101.2119     2.5317     0.0916     8.0159
  278.0000   -53.9669     7.0521     6.6567     0.0393    97.0598     2.5381     0.0870     8.0034
  278.5000   -54.0007     7.1007     6.7055     0.0315    92.6133     2.5363     0.0869     7.9847
  279.0000   -54.0346     7.1511     6.6445     0.0198    89.5393     2.5138     0.1089     8.0372
  279.5000   -54.0692     7.1511     6.6616     0.0209    92.1656     2.4906     0.1168     8.0919
  280.0000   -54.0955     7.0544     6.6908     0.0259    95.7945     2.4863     0.1199     8.0795
  280.5000   -53.9973     6.9751     6.7059     0.0309    98.6961     2.4846     0.1201     8.0503
  281.0000   -53.8983     6.8967     6.6445     0.0358    98.4271     2.4858     0.1191     8.0629
  281.5000   -53.8002     6.8192     6.4306     0.0364    98.5259     2.4883     0.1167     8.0926
  282.0000   -53.7020     6.7426     6.2137     0.0364   100.0075     2.4910     0.1138     8.1199
  282.5000   -53.6029     6.6445     6.0616     0.0352    99.7357     2.4936     0.1108     8.0931
  283.0000   -53.5051     6.6627     6.0616     0.0336    98.5600     2.4960     0.1088     8.0648
  283.5000   -53.5743     6.6984     6.1475     0.0320    98.3618     2.4947     0.1100     8.0427
  284.0000   -53.6558     6.7342     6.2138     0.0305    98.4644     2.4921     0.1134     8.0529
  284.5000   -53.7366     6.7703     6.2887     0.0329    98.2839     2.4900     0.1157     8.0626
  285.0000   -53.8180     6.8065     6.2611     0.0356    93.8519     2.4915     0.1127     8.0723
  285.5000   -53.8956     6.8301     6.2067     0.0328    90.2112     2.4948     0.1102     8.0808
  286.0000   -53.8232     6.7881     6.1527     0.0275    90.4758     2.4966     0.1115     8.0595
  286.5000   -53.7419     6.7571     6.0992     0.0272    90.1629     2.4952     0.1101     8.0372
  287.0000   -53.6610     6.7260     6.0616     0.0284    87.8827     2.4960     0.1087     8.0250
  287.5000   -53.5795     6.7060     6.1273     0.0247    86.6676     2.4969     0.1115     8.0359
  288.0000   -53.5053     6.7057     6.1787     0.0203    87.7519     2.4857     0.1164     8.0463
  288.5000   -53.6147     6.7058     6.2305     0.0201    87.4924     2.4829     0.1164     8.0568
  289.0000   -53.7316     6.7059     6.2884     0.0243    86.2725     2.4884     0.1149     8.0587
  289.5000   -53.8491     6.7059     6.2402     0.0286    85.5744     2.4951     0.1105     8.0533
  290.0000   -53.8117     6.7059     6.1873     0.0329    87.8208     2.5017     0.1060     8.0477
  290.5000   -53.6565     6.7059     6.1342     0.0365    91.1429     2.5084     0.1016     8.0422
  291.0000   -53.4994     6.7058     6.0819     0.0355    92.6203     2.5152     0.0970     8.0554
  291.5000   -53.3423     6.7058     6.0062     0.0307    92.5026     2.5202     0.0961     8.0711
  292.0000   -53.1854     6.7059     6.0217     0.0260    92.3451     2.5073     0.1096     8.0873
  292.5000   -53.0284     6.7101     6.0507     0.0213    92.3070     2.4946     0.1176     8.1035
  293.0000   -52.8701     6.7213     6.0798     0.0213    92.9902     2.4872     0.1159     8.1195
  293.5000   -52.7052     6.7325     6.1092     0.0224    93.7447     2.4887     0.1138     8.1360
  294.0000   -52.8289     6.7436     6.1385     0.0202    94.5045     2.4872     0.1149     8.1253
  294.5000   -53.0116     6.7548     6.1739     0.0190    95.2729     2.4851     0.1176     8.1010
  295.0000   -53.1946     6.7672     6.1603     0.0206    95.3773     2.4861     0.1179     8.0765
  295.5000   -53.3737     6.7576     6.1434     0.0222    92.5297     2.4872     0.1142     8.0690
  296.0000   -53.4701     6.7455     6.1266     0.0238    88.9922     2.4921     0.1106     8.0875
  296.5000   -53.3618     6.7336     6.1098     0.0254    85.4661     2.4969     0.1102     8.1057
  297.0000   -53.2576     6.7217     6.0930     0.0256    85.5940     2.4926     0.1160     8.1241
  297.5000   -53.1537     6.7059     6.0764     0.0233    90.9278     2.4869     0.1160     8.1416
  298.0000   -53.1368     6.7501     6.0616     0.0210    94.9052     2.4850     0.1161     8.1236
  298.5000   -53.2114     6.8152     6.0892     0.0216    98.5722     2.4871     0.1199     8.1028
  299.0000   -53.2857     6.8931     6.1141     0.0232    98.3038     2.4975     0.1088     8.1228
  299.5000   -53.3608     6.8753     6.1392     0.0244    93.9123     2.5085     0.1044     8.1452
  300.0000   -53.4356     6.8534     6.1644     0.0217    89.7830     2.5091     0.1050     8.1513
  300.5000   -53.4899     6.8301     6.1897     0.0190    90.8786     2.5072     0.1056     8.1062
  301.0000   -53.3901     6.8766     6.2151     0.0193    92.0165     2.5075     0.1021     8.0634
  301.5000   -53.2912     6.9268     6.2392     0.0204    92.6463     2.5184     0.0978     8.0610
  302.0000   -53.1919     6.9567     6.2611     0.0215    90.1133     2.5241     0.0952     8.0806
  302.5000   -53.1057     6.8956     6.2830     0.0222    86.8041     2.5174     0.0987     8.1049
  303.0000   -53.2126     6.8456     6.3051     0.0205    84.9097     2.5092     0.1023     8.1292
  303.5000   -53.3228     6.8108     6.3272     0.0189    85.4451     2.5010     0.1058     8.1535
  304.0000   -53.4285     6.7829     6.3464     0.0192    84.9382     2.4928     0.1093     8.1473
  304.5000   -53.3979     6.7550     6.2818     0.0204    84.7949     2.4984     0.1082     8.1182
  305.0000   -53.0997     6.7273     6.2254     0.0192    86.3604     2.5043     0.1044     8.0880
  305.5000   -52.8049     6.7060     6.1696     0.0178    86.6276     2.4974     0.1179     8.0967
  306.0000   -52.5117     6.7578     6.1175     0.0166    87.5397     2.4907     0.1180     8.1237
  306.5000   -52.3254     6.8010     6.1175     0.0190    88.6263     2.4917     0.1124     8.1511
  307.0000   -52.4582     6.8299     6.1564     0.0215    89.7199     2.5007     0.1046     8.1540
  307.5000   -52.5820     6.7833     6.1830     0.0242    90.3893     2.5097     0.0988     8.1368
  308.0000   -52.7059     6.7477     6.2094     0.0224    87.4615     2.5071     0.1053     8.1233
  308.5000   -52.8283     6.7123     6.2306     0.0201    84.0182     2.4988     0.1114     8.1546
  309.0000   -52.8715     6.6852     6.1349     0.0184    84.0333     2.4904     0.1161     8.1768
  309.5000   -52.8019     6.6599     6.0563     0.0185    87.6950     2.4899     0.1176     8.1351
  310.0000   -52.7335     6.6348     5.9787     0.0225    90.3818     2.4897     0.1157     8.1015
  310.5000   -52.6646     6.6095     5.8969     0.0269    91.2128     2.4894     0.1145     8.1346
  311.0000   -52.5960     6.5839     5.8969     0.0312    88.5109     2.4891     0.1159     8.1694
  311.5000   -52.5269     6.6024     5.8968     0.0356    85.7154     2.4893     0.1172     8.1646
  312.0000   -52.5004     6.6220     5.8970     0.0399    85.1048     2.4950     0.1118     8.1396
  312.5000   -52.4999     6.6444     5.8873     0.0406    84.9951     2.4997     0.1092     8.1241
  313.0000   -52.5000     6.6253     5.8661     0.0306    84.8987     2.4810     0.1177     8.1523
  313.5000   -52.5000     6.6032     5.8430     0.0170    85.0935     2.4789     0.1211     8.1798
  314.0000   -52.5000     6.5839     5.9130     0.0180    85.6831     2.4781     0.1196     8.1601
  314.5000   -52.5002     6.6176     5.9906     0.0203    86.2762     2.4838     0.1170     8.1371
  315.0000   -52.5018     6.6474     6.0693     0.0222    86.1107     2.4902     0.1144     8.1146
  315.5000   -52.4338     6.6774     6.1490     0.0169    85.4854     2.4834     0.1194     8.1076
  316.0000   -52.3514     6.7060     6.2297     0.0114    84.8993     2.4741     0.1255     8.1218
  316.5000   -52.2687     6.7339     6.2884     0.0065    85.0593     2.4790     0.1165     8.1358
