~VERSION INFORMATION
 VERS.                2.0:   CWLS LOG ASCII STANDARD - VERSION 2.0
 WRAP.                 NO:   ONE LINE PER DEPTH STEP
~WELL INFORMATION
#MNEM.UNIT      DATA TYPE    INFORMATION
#----------   ------------   ------------------------------
 STRT.F            0.0000:   START DEPTH
 STOP.F          534.0000:   STOP DEPTH
 STEP.F            0.1000:   STEP LENGTH
 NULL.          -999.2500:   NO VALUE
 COMP.       F D SERV INC:   COMPANY
 WELL. NAVAL PETROLEUM RESERVE 3 SX-1 #71-2-10:   WELL
 FLD .            N.P.R 3:   FIELD
 LOC .      S10 T38N R78W:   LOCATION
 CNTY.            NATRONA:   COUNTY
 STAT.            WYOMING:   STATE
 CTRY. UNITED STATES OF AMERICA:   COUNTRY
 SRVC.     Atlas Wireline:   SERVICE COMPANY
 DATE.        07-DEC-1992:   LOGDATE
 API .       490252257200:   API NUMBER
~CURVE INFORMATION
#MNEM.UNIT       API CODE    CURVE DESCRIPTION
#----------   ------------   ------------------------------
 DEPT.F                  :   
 GRR .GAPI   07 310 01 00:   GAMMA RAY
 RILD.OHMM   07 120 46 00:   INDUCTION LOG DEEP RESISTIVITY
 RILM.OHMM   07 120 44 00:   RESITIVITY LONG MEDIUM
~PARAMETER INFORMATION
#MNEM.UNIT          VALUE    DESCRIPTION
#----------   ------------   ------------------------------
 PD  .                 GL:   PERMANENT DATUM
 EPD .F              5165:   ELEVATION PERMANENT DATUM
 LMF .                 KB:   LOG MEASURED FROM
 DAPD.F                10:   FEET ABOVE PERMANENT DATUM
 DMF .                 KB:   DRILLING MEASURED FROM
 EKB .F              5175:   KELLING BUSHING
 EDF .F              5174:   DRILLING FLOOR
 EGL .F              5165:   GROUND LEVEL
 DATE.        07-DEC-1992:   RUN DATE
 RUN .                  1:   RUN NUMBER
 DD  .F               540:   DEPTH DRILLER
 DL  .F               542:   DEPTH LOGGER
 BLI .F               534:   BOTTOM LOG INTERVAL
 CS  .IN            8.625:   CASING SIZE
 CBD .F                78:   CASING BOTTOM DRILLER
 CBL .F                82:   CASING BOTTOM LOGGER
 BS  .IN            7.875:   BIT SIZE
 BSD .F               540:   BIT SIZE AT DEPTH
 DFT .           AIR FOAM:   DRILLING FLUID TYPE
 BHT .F                70:   BOTTOM HOLE TEMPERATURE
 MRT .F                70:   MAXIMUM RECORDED TEMPERATURE
 LUN .           HL- 6345:   LOGGING UNIT NUMBER
 LUL .         FT. MORGAN:   LOGGING UNIT LOCATION
 ENGI.             BURLEY:   RECORDING ENGINEER
 WITN.        GARY STRONG:   WITNESSED BY
 CLNT.            A2DTECH:   CLIENT CODE
 ORIG.           5" PRINT:   ORIGIN OF DATA
 UWI .       490252257200:   UNIQUE WELL ID
 DICO. A2D Technologies, Inc.:   DIGITIZING COMPANY
~OTHER INFORMATION
~A    DEPT      GRR      RILD       RILM   
# ...
  400.4000    74.5229    23.2846    25.0190
  400.5000    74.1473    23.1501    25.0187
  400.6000    73.7444    23.0059    25.1242
  400.7000    73.2804    23.0053    25.1937
  400.8000    73.1363    22.9104    25.2372
  400.9000    73.1357    22.8433    25.3699
  401.0000    73.2058    22.7684    25.3695
  401.1000    73.4724    22.5240    25.2425
  401.2000    74.0442    22.5233    25.0973
  401.3000    74.4705    22.5228    25.0159
  401.4000    74.9697    22.5222    25.0155
  401.5000    75.4689    22.5215    25.0128
  401.6000    75.9680    22.5209    24.7265
  401.7000    76.4692    22.5203    24.6668
  401.8000    77.2153    22.5196    24.5847
  401.9000    77.9642    22.5190    24.4432
  402.0000    78.8547    22.5184    24.3025
  402.1000    79.5897    22.5177    24.1529
  402.2000    79.8390    22.5171    24.0237
  402.3000    80.1074    22.5164    23.7878
  402.4000    80.1068    22.5158    23.5151
  402.5000    80.1062    22.5152    23.2830
  402.6000    80.1056    22.5146    23.1490
  402.7000    80.1050    22.5139    22.9962
  402.8000    80.1044    22.5049    22.8834
  402.9000    80.1037    22.3553    22.7517
  403.0000    80.1032    22.3548    22.6756
  403.1000    80.1026    22.3542    22.6753
  403.2000    80.1020    22.2994    22.6750
  403.3000    80.1530    22.1968    22.6747
  403.4000    80.4042    22.1962    22.6743
  403.5000    80.4036    21.9432    22.6740
  403.6000    80.5972    21.8860    22.6737
  403.7000    80.7059    21.8145    22.6734
  403.8000    80.7923    21.7319    22.6730
  403.9000    81.0416    21.7146    22.6727
  404.0000    81.3110    21.5788    22.6724
  404.1000    81.3105    21.5783    22.6721
  404.2000    81.4859    21.4902    22.6718
  404.3000    81.7352    21.3660    22.6781
  404.4000    81.9156    21.2761    22.8303
  404.5000    81.9302    21.2755    22.8301
  404.6000    82.2178    21.2748    22.9114
  404.7000    82.4287    21.1708    22.9898
  404.8000    82.5202    21.1251    22.9894
  404.9000    82.6238    21.0738    22.9891
  405.0000    82.8731    20.9764    22.9888
  405.1000    83.1253    20.9758    22.9885
  405.2000    83.1247    20.9752    22.9882
  405.3000    83.1241    20.9746    23.0311
  405.4000    83.4028    20.9740    23.1490
  405.5000    83.7299    20.9734    23.1486
  405.6000    83.7616    20.9728    23.1483
  405.7000    84.0321    20.9722    23.2388
  405.8000    84.2602    20.9717    23.3102
  405.9000    84.3344    20.9711    23.3099
  406.0000    84.4552    20.9705    23.3096
  406.1000    84.6367    20.9699    23.3092
  406.2000    84.6503    20.9693    23.3089
  406.3000    84.9389    20.9686    23.3086
  406.4000    84.9384    21.0704    23.3083
  406.5000    84.9378    21.0388    23.3080
  406.6000    84.9372    20.9670    23.3076
  406.7000    85.0356    20.9664    23.3073
  406.8000    85.5429    20.9658    23.3070
  406.9000    85.7882    20.9652    23.3066
  407.0000    86.2297    20.9646    23.2652
  407.1000    86.5902    20.9640    23.1435
  407.2000    86.9244    20.9634    23.1431
  407.3000    87.4550    20.9628    23.1428
  407.4000    88.2707    20.9622    23.1425
  407.5000    88.9530    20.8519    23.0830
  407.6000    89.7020    20.8147    22.9804
  407.7000    90.3306    20.7564    22.9801
  407.8000    90.8297    20.6681    22.9798
  407.9000    91.3157    20.6675    22.9795
  408.0000    91.6054    20.6669    22.9022
  408.1000    91.6049    20.6664    22.8186
  408.2000    91.6042    20.6658    22.8182
  408.3000    91.6036    20.6166    22.8179
  408.4000    91.5545    20.4974    22.6950
  408.5000    91.2989    20.3764    22.6582
  408.6000    90.5638    20.3758    22.6578
  408.7000    89.4314    20.1965    22.6575
  408.8000    88.4565    20.0910    22.6572
  408.9000    87.6222    20.0905    22.6568
  409.0000    86.6829    20.0759    22.6566
  409.1000    86.1359    19.9490    22.6563
  409.2000    86.1354    19.9485    22.6003
  409.3000    86.1348    19.8685    22.4702
  409.4000    86.1341    19.8080    22.3404
  409.5000    86.1335    19.7775    22.2123
  409.6000    86.1329    19.6631    22.0845
  409.7000    86.1322    19.5305    22.0289
  409.8000    86.1317    19.5301    21.9844
  409.9000    86.2859    19.5295    21.8578
  410.0000    86.5352    19.5290    21.7218
  410.1000    86.7370    19.5071    21.6070
  410.2000    86.7363    19.3915    21.4827
  410.3000    86.7357    19.3910    21.4190
  410.4000    86.7351    19.3904    21.3520
  410.5000    86.7344    19.3899    21.1207
  410.6000    86.7338    19.3523    21.1203
  410.7000    86.7332    19.2534    20.9170
  410.8000    86.7326    19.2528    20.7515
  410.9000    86.2808    19.2523    20.6320
  411.0000    85.9525    19.2517    20.4905
  411.1000    85.7020    19.2512    20.2504
  411.2000    85.4515    19.2220    20.2501
  411.3000    85.2010    19.1108    20.1612
  411.4000    84.9505    18.9815    20.0451
  411.5000    84.7000    18.9811    19.8919
  411.6000    84.3727    18.9805    19.6900
  411.7000    83.9972    18.9363    19.6897
  411.8000    83.6451    18.8267    19.4866
  411.9000    83.3875    18.7147    19.4155
  412.0000    83.3869    18.7142    19.3109
  412.1000    83.3863    18.6322    19.1451
  412.2000    83.3857    18.5245    19.1405
  412.3000    83.4671    18.4521    19.0110
  412.4000    83.6881    18.4396    18.9210
  412.5000    83.6873    18.3222    18.8121
  412.6000    83.6868    18.2270    18.7038
  412.7000    83.8572    18.1217    18.5961
  412.8000    83.9891    18.0169    18.4849
  412.9000    83.9885    17.9390    18.3827
  413.0000    83.9879    17.9301    18.1990
  413.1000    83.9871    17.6881    18.0450
  413.2000    83.9866    17.6877    17.9412
  413.3000    83.9860    17.6872    17.8278
  413.4000    83.9854    17.6063    17.5996
  413.5000    83.9848    17.4400    17.5102
  413.6000    83.9842    17.4395    17.4095
  413.7000    83.9836    17.4391    17.3093
  413.8000    83.9830    17.4386    17.2096
  413.9000    83.9824    17.3841    17.1126
  414.0000    83.9818    17.2836    17.1123
  414.1000    83.9812    17.1944    17.0330
  414.2000    83.9805    17.1938    16.9350
  414.3000    83.9800    17.1049    16.8522
  414.4000    83.9794    17.0061    16.7943
  414.5000    83.9788    16.9531    16.7364
  414.6000    83.9781    16.9281    16.6784
  414.7000    83.9775    16.8302    16.6205
  414.8000    83.9768    16.7156    16.5626
  414.9000    84.1817    16.7152    16.5218
  415.0000    84.2792    16.6564    16.5216
  415.1000    84.2786    16.5601    16.5213
  415.2000    84.3670    16.4811    16.5211
  415.3000    84.8844    16.4807    16.5209
  415.4000    85.6062    16.4802    16.4795
  415.5000    86.7296    16.4088    16.4052
  415.6000    87.8447    16.3139    16.4043
  415.7000    88.8434    16.2494    16.2165
  415.8000    89.8028    16.2490    16.1765
  415.9000    90.4270    16.2485    16.1763
  416.0000    91.0511    16.1648    16.1760
  416.1000    91.5907    16.1341    16.1758
  416.2000    92.0898    16.1337    16.1756
  416.3000    92.6507    16.1332    16.1754
  416.4000    93.4078    16.1328    16.1751
  416.5000    94.5887    16.1322    16.1749
  416.6000    95.2012    16.2083    16.2007
  416.7000    95.6488    16.2449    16.2881
  416.8000    95.8009    16.2444    16.2878
  416.9000    95.8003    16.2440    16.3674
  417.0000    95.7997    16.2435    16.4017
  417.1000    95.7991    16.3333    16.4015
  417.2000    95.7985    16.4274    16.4203
  417.3000    95.6654    16.4714    16.5162
  417.4000    95.4149    16.5011    16.5160
  417.5000    95.1897    16.5961    16.5158
  417.6000    95.1890    16.7025    16.5156
  417.7000    94.7455    16.7021    16.4832
  417.8000    94.2451    16.7016    16.3999
  417.9000    93.8590    16.7012    16.3997
  418.0000    93.6085    16.6774    16.3995
  418.1000    93.3509    16.5809    16.2695
  418.2000    92.7574    16.4672    16.1710
  418.3000    92.3503    16.4668    16.1708
  418.4000    91.8499    16.4664    16.1706
  418.5000    91.3495    16.4295    16.1703
