~VERSION INFORMATION
 VERS.                2.0:   CWLS LOG ASCII STANDARD - VERSION 2.0
 WRAP.                 NO:   ONE LINE PER DEPTH STEP
~WELL INFORMATION
#MNEM.UNIT      DATA TYPE    INFORMATION
#----------   ------------   ------------------------------
 STRT.F            7.0000:   START DEPTH
 STOP.F          549.0000:   STOP DEPTH
 STEP.F            0.5000:   STEP LENGTH
 NULL.          -999.2500:   NO VALUE
 COMP. LAWRENCE-ALLISON &AS:   COMPANY
 WELL. NPR 3 #51-62-SX-10-LP3:   WELL
 FLD .             TEAPOT:   FIELD
 LOC .      S10 T38N R78W:   LOCATION
 CNTY.            NATRONA:   COUNTY
 STAT.            WYOMING:   STATE
 CTRY. UNITED STATES OF AMERICA:   COUNTRY
 SRVC.      Dresser Atlas:   SERVICE COMPANY
 DATE.        10-DEC-1984:   LOGDATE
 API .       490251099500:   API NUMBER
~CURVE INFORMATION
#MNEM.UNIT       API CODE    CURVE DESCRIPTION
#----------   ------------   ------------------------------
 DEPT.F                  :   
 SPR .MV     07 010 01 00:   SPONTANEOUS POTENTIAL
 RILD.OHMM   07 120 46 00:   INDUCTION LOG DEEP RESISTIVITY
 RILM.OHMM   07 120 44 00:   INDUCTION LOG MEDIUM RESISTIVITY
 RFOC.OHMM   07 220 04 00:   RESISTIVITY FOCUSED LOG
 DT  .US/F   60 520 00 00:   INTERVAL TRANSIT TIME
 PORD.DEC    45 890 12 00:   POROSITY DENSITY SANDSTONE
 CNCF.DEC    42 890 03 00:   NEUTRON POROSITY SANDSTONE
 CALD.IN     45 280 60 00:   CALIPER FROM DENSITY LOG
 GRD .GAPI   45 310 01 00:   GAMMA RAY FROM DENSITY LOG
 CORR.G/C3   45 356 01 00:   DENSITY CORRECTION
 DEN .G/C3   45 350 01 00:   COMPENSATED BULK DENSTIY
~PARAMETER INFORMATION
#MNEM.UNIT          VALUE    DESCRIPTION
#----------   ------------   ------------------------------
 PD  .                 GL:   PERMANENT DATUM
 EPD .F              5179:   ELEVATION PERMANENT DATUM
 LMF .                 GL:   LOG MEASURED FROM
 DMF .                 GL:   DRILLING MEASURED FROM
 EGL .F              5179:   GROUND LEVEL
 DATE.        10-DEC-1984:   RUN DATE
 RUN .                  1:   RUN NUMBER
 DD  .F               554:   DEPTH DRILLER
 DL  .F               551:   DEPTH LOGGER
 BLI .F               549:   BOTTOM LOG INTERVAL
 TLI .F                20:   TOP LOG INTERVAL
 CS  .IN            8.625:   CASING SIZE
 CBD .F                20:   CASING BOTTOM DRILLER
 CBL .F                20:   CASING BOTTOM LOGGER
 BS  .IN            7.875:   BIT SIZE
 BSD .F               554:   BIT SIZE AT DEPTH
 DFT .         KCL- WATER:   DRILLING FLUID TYPE
 MSS .           MUD TANK:   MUD SAMPLE SOURCE
 RMS .OHMM           .168:   RESISTIVITY MUD SAMPLE
 MST .F                77:   MUD SAMPLE TEMPERATURE
 RMF .OHMM           .126:   RESISTIVITY MUD FILTRATE SAMPLE
 MFST.F                77:   MUD FILTRATE SAMPLE TEMPERATURE
 RMC .OHMM            .21:   RESISTIVITY MUD CAKE
 MCST.F                77:   MUD CAKE SAMPLE TEMPERATURE
 MFSS.               CALC:   MUD FILTRATE SAMPLE SOURCE
 MCSS.               CALC:   MUD CAKE SAMPLE SOURCE
 RMB .OHMM            .15:   RESISTIVITY MUD AT BHT
 BHT .F                85:   BOTTOM HOLE TEMPERATURE
 TCS .HRS             3.5:   TIME CURCULATED STOPPED
 MRT .F               100:   MAXIMUM RECORDED TEMPERATURE
 LUN .               6270:   LOGGING UNIT NUMBER
 LUL .                 FM:   LOGGING UNIT LOCATION
 ENGI.          E. GOVETT:   RECORDING ENGINEER
 WITN.             GROOMS:   WITNESSED BY
 CLNT.            A2DTECH:   CLIENT CODE
 ORIG.           5" PRINT:   ORIGIN OF DATA
 UWI .       490251099500:   UNIQUE WELL ID
 DICO. A2D Technologies, Inc.:   DIGITIZING COMPANY
~OTHER INFORMATION
~A    DEPT     SPR       RILD       RILM       RFOC         DT       PORD         CNCF     CALD        GRD       CORR        DEN   
# ...
  434.0000   -59.5837    11.1631     9.0818    11.9341    92.3429     0.1194     0.2854     7.7343    88.1099     0.0231     2.4772
  434.5000   -59.5763    11.1576     8.8380    12.1855    92.6212     0.1268     0.2761     7.7026    90.3566     0.0202     2.4696
  435.0000   -59.5690    11.0789     8.6580    12.1897    92.6919     0.1294     0.2562     7.6559    90.4980     0.0201     2.4635
  435.5000   -59.4133    10.9118     8.5407    12.1939    92.9985     0.1291     0.2511     7.6543    91.0884     0.0199     2.4642
  436.0000   -59.2576    10.5672     8.4250    12.1982    93.1449     0.1303     0.2508     7.6681    92.2824     0.0168     2.4634
  436.5000   -59.1019    10.3512     8.3108    12.3725    93.2047     0.1306     0.2472     7.6961    95.7321     0.0047     2.4604
  437.0000   -59.0946    10.2101     8.2551    12.3776    93.2754     0.1297     0.2436     7.7095    95.7232     0.0019     2.4633
  437.5000   -59.2356    10.1407     8.1999    12.4679    93.2707     0.1249     0.2472     7.7383    94.0602     0.0064     2.4678
  438.0000   -59.2283    10.1424     8.2020    12.3007    93.2662     0.1225     0.2581     7.7514    91.6452     0.0184     2.4738
  438.5000   -59.0726    10.1438     8.2037    11.1679    93.4391     0.1244     0.2606     7.7797    92.8872     0.0199     2.4692
  439.0000   -59.0652    10.0748     8.2054    10.9411    93.8867     0.1250     0.2607     7.7931    94.1837     0.0214     2.4691
  439.5000   -59.0579     9.8692     8.1500    11.1756    94.2303     0.1232     0.2618     7.7614    92.8211     0.0259     2.4721
  440.0000   -59.0505     9.7343     8.1521    11.3354    94.4502     0.1178     0.2703     7.7438    94.0132     0.0304     2.4894
  440.5000   -59.0430     9.6684     8.1538    11.4974    94.5972     0.1069     0.2927     7.7111    96.8615     0.0303     2.4991
  441.0000   -59.0356     9.6701     8.0988    11.3432    94.2908     0.1061     0.2928     7.6961    99.1082     0.0333     2.4983
  441.5000   -59.0267     9.6043     8.0445    11.2678    94.2112     0.1079     0.2906     7.6794    98.6481     0.0348     2.4983
  442.0000   -59.0194     9.5393     8.0466    11.3510    94.2066     0.1079     0.2885     7.6928    97.5865     0.0468     2.4982
  442.5000   -59.0121     9.4096     7.9927    11.3549    94.4277     0.1061     0.2861     7.6912    97.7280     0.0739     2.4999
  443.0000   -59.1549     9.2813     7.9392    11.2794    94.7991     0.1046     0.2801     7.6896   100.4258     0.0769     2.5028
  443.5000   -59.2960     9.2185     7.9408    11.1281    95.0202     0.1043     0.2768     7.7030    99.3643     0.0769     2.5048
  444.0000   -59.4370     9.0300     7.9425    10.6798    95.3165     0.1089     0.2877     7.7013    96.9493     0.0452     2.4980
  444.5000   -59.5780     8.9689     7.9441    10.6088    95.6127     0.1143     0.3070     7.6997    93.7825     0.0271     2.4866
  445.0000   -59.7191     8.8467     7.9457    10.6871    95.9090     0.1203     0.2999     7.6981    93.7735     0.0225     2.4768
  445.5000   -59.7099     8.7868     7.9474    10.4710    96.2052     0.1243     0.2932     7.6965    93.9172     0.0256     2.4715
  446.0000   -59.8528     8.6662     7.9490    10.1884    96.5766     0.1243     0.2767     7.6948    94.9587     0.0331     2.4722
  446.5000   -59.8436     8.6052     7.8958    10.0509    97.0984     0.1207     0.2709     7.7082    96.7543     0.0375     2.4736
  447.0000   -59.8363     8.5446     7.7887    10.1251    97.5451     0.1231     0.2781     7.7066   100.2040     0.0310     2.4743
  447.5000   -59.8289     8.4258     7.6302    10.1989    97.7673     0.1258     0.2767     7.7050   100.4980     0.0213     2.4652
  448.0000   -59.8216     8.2611     7.5268     9.9927    97.9131     0.1361     0.2694     7.7184   100.4869    -0.0018     2.4569
  448.5000   -59.5175     8.0925     7.5284     9.7230    97.9075     0.1373     0.2791     7.7166   100.7787    -0.0078     2.4493
  449.0000   -59.5102     7.9822     7.4264     9.6592    97.9030     0.1355     0.2900     7.7147   100.9203    -0.0018     2.4500
  449.5000   -59.6512     7.7651     7.1751     9.8654    97.7481     0.1325     0.2906     7.6981   100.9112     0.0328     2.4590
  450.0000   -59.6439     7.6061     6.8845    10.0064    97.5944     0.1229     0.2864     7.6967   100.7519     0.0554     2.4700
  450.5000   -59.4908     7.6625     6.8859    10.0120    97.7406     0.1205     0.2741     7.6953   100.4425     0.0552     2.4777
  451.0000   -59.6347     7.5593     6.9834     9.3476    98.5729     0.1196     0.2732     7.6940   100.1343     0.0355     2.4778
  451.5000   -59.6303     7.5102     7.0822     8.1431    99.6263     0.1181     0.2832     7.6924    99.3749     0.0143     2.4793
  452.0000   -59.7745     7.5141     7.1826     8.5523   100.2196     0.1193     0.3082     7.6911   100.2698     0.0037     2.4815
  452.5000   -59.9183     7.5695     7.2935     9.7603   100.5716     0.1202     0.3098     7.6897   101.0161     0.0050     2.4776
  453.0000   -60.2106     7.6783     7.4907    10.1800   100.3263     0.1190     0.3064     7.6884   101.0068     0.0094     2.4783
  453.5000   -60.3546     8.0633     7.8101    10.3994    99.7312     0.1136     0.2970     7.6871    99.1948     0.0229     2.4836
  454.0000   -60.2018     8.5857     8.0311    10.5503    98.5974     0.1082     0.2899     7.6857    97.2325     0.0424     2.4971
  454.5000   -60.0450     9.1455     8.0886    10.7033    97.3132     0.1088     0.2727     7.6844    97.9769     0.0709     2.4971
  455.0000   -59.7378     9.6049     8.2031    10.8586    96.4802     0.1089     0.2769     7.6831   100.2251     0.0708     2.4963
  455.5000   -59.4466     9.8136     8.2618    11.0926    95.6471     0.1092     0.2767     7.6818   101.4207     0.0691     2.4963
  456.0000   -59.4421     9.9472     8.3209    11.3317    94.7389     0.1089     0.2730     7.6804   101.5639     0.0585     2.4970
  456.5000   -59.2616    10.0206     8.4387    11.6564    93.7555     0.1086     0.2516     7.7091   100.6539     0.0403     2.4970
  457.0000   -58.9873    10.0256     8.5581    11.8255    93.3736     0.1060     0.2547     7.7378    97.3382     0.0281     2.5037
  457.5000   -58.9829    10.0297     8.6793    11.8320    93.2172     0.0975     0.2631     7.7365    95.5263     0.0099     2.5150
  458.0000   -58.9785    10.0338     8.8021    11.8386    93.0609     0.0921     0.2689     7.7352    93.5640     0.0097     2.5248
  458.5000   -58.9741    10.0380     8.8651    11.8451    92.7542     0.0942     0.2702     7.7335    94.9099     0.0157     2.5217
  459.0000   -59.1191    10.0421     8.9286    11.4415    92.5978     0.0957     0.2680     7.7022    95.3704     0.0306     2.5194
  459.5000   -59.2620    10.0462     8.9304    11.1333    92.4415     0.0966     0.2674     7.6558    95.3223     0.0516     2.5179
  460.0000   -59.2576    10.0504     8.9322    11.0708    92.3618     0.0981     0.2729     7.6545    94.1339     0.0620     2.5156
  460.5000   -59.2532    10.1244     8.9341    11.3097    93.0310     0.1006     0.2726     7.6681    93.5249     0.0498     2.5126
  461.0000   -59.2488    10.1286     8.9359    11.3946    93.5514     0.1027     0.2726     7.6818    93.6697     0.0422     2.5065
  461.5000   -59.2444    10.2032     8.8761    11.4022    93.9228     0.1066     0.2742     7.6655    95.1642     0.0360     2.5004
  462.0000   -59.3894    10.3499     8.7558    11.4084    93.5394     0.1111     0.2745     7.6041    99.8184     0.0314     2.4974
  462.5000   -59.3839    10.4262     8.7576    11.4147    93.1575     0.1166     0.2739     7.5878   102.6681     0.0298     2.4913
  463.0000   -59.3795    10.5030     8.6990    11.4210    92.9260     0.1193     0.2736     7.6015   102.8129     0.0327     2.4792
  463.5000   -59.3751    10.4337     8.5811    11.3469    92.6945     0.1196     0.2712     7.6001    98.4427     0.0416     2.4792
  464.0000   -59.3707    10.3670     8.3484    11.3547    93.0644     0.1192     0.2582     7.6438    92.2698     0.0447     2.4784
