~VERSION INFORMATION
 VERS.                2.0:   CWLS LOG ASCII STANDARD - VERSION 2.0
 WRAP.                 NO:   ONE LINE PER DEPTH STEP
~WELL INFORMATION
#MNEM.UNIT      DATA TYPE    INFORMATION
#----------   ------------   ------------------------------
 STRT.F           19.0000:   START DEPTH
 STOP.F          600.0000:   STOP DEPTH
 STEP.F            0.5000:   STEP LENGTH
 NULL.          -999.2500:   NO VALUE
 COMP. FENIX & SCISSON INC:   COMPANY
 WELL.       NPR-3 #18-34:   WELL
 FLD .             TEAPOT:   FIELD
 LOC .      S34 T39N R78W:   LOCATION
 CNTY.            NATRONA:   COUNTY
 STAT.            WYOMING:   STATE
 CTRY. UNITED STATES OF AMERICA:   COUNTRY
 SRVC.           BIRDWELL:   SERVICE COMPANY
 DATE.        10-AUG-1978:   LOGDATE
 API .       490251068100:   API NUMBER
~CURVE INFORMATION
#MNEM.UNIT       API CODE    CURVE DESCRIPTION
#----------   ------------   ------------------------------
 DEPT.F                  :   
 SPR .MV     05 010 01 00:   SPONTANEOUS POTENTIAL FROM RES.
 SN  .OHMM   05 040 16 00:   SHORT NORMAL 16"
 ILD .OHMM   05 120 46 00:   INDUCTION LOG DEEP
 GRD .GAPI   45 310 01 00:   GAMMA RAY FROM DENSITY LOG
 CALD.IN     45 280 60 00:   CALIPER
 CORR.G/C3   45 356 01 00:   DENSITY CORRECTION
 DPHI.DEC    45 890 12 00:   DENSITY POROSITY SANDSTONE
 DEN .G/C3   45 350 01 00:   COMPENSATED BULK DENSTIY
~PARAMETER INFORMATION
#MNEM.UNIT          VALUE    DESCRIPTION
#----------   ------------   ------------------------------
 PD  .                 GL:   PERMANENT DATUM
 EPD .F              5159:   ELEVATION PERMANENT DATUM
 LMF .                 KB:   LOG MEASURED FROM
 DAPD.F                 4:   FEET ABOVE PERMANENT DATUM
 DMF .                 KB:   DRILLING MEASURED FROM
 EKB .F              5163:   KELLING BUSHING
 EGL .F              5159:   GROUND LEVEL
 DATE.            8-10-78:   RUN DATE
 RUN .                  1:   RUN NUMBER
 DD  .F               605:   DEPTH DRILLER
 DL  .F               606:   DEPTH LOGGER
 BLI .F               600:   BOTTOM LOG INTERVAL
 TLI .F                35:   TOP LOG INTERVAL
 CS  .IN            8.625:   CASING SIZE
 CBD .F                40:   CASING BOTTOM DRILLER
 BS  .IN            7.875:   BIT SIZE
 BSD .F               605:   BIT SIZE AT DEPTH
 DFT .                KCL:   DRILLING FLUID TYPE
 DFD .                8.7:   DRILLING FLUID DENSITY
 DFV .                 33:   DRILLING FLUID VISCOSITY
 DFPH.                  9:   DRILLING FLUID PH
 MSS .          FLOW LINE:   MUD SAMPLE SOURCE
 RMS .OHMM            .14:   RESISTIVITY MUD SAMPLE
 MST .F                88:   MUD SAMPLE TEMPERATURE
 MFSS.               MEAS:   MUD FILTRATE SAMPLE SOURCE
 MCSS.               MEAS:   MUD CAKE SAMPLE SOURCE
 TCS .HRS               1:   TIME CURCULATED STOPPED
 LUN .               3006:   LOGGING UNIT NUMBER
 LUL .               CASP:   LOGGING UNIT LOCATION
 ENGI.             MILLER:   RECORDING ENGINEER
 WITN.           MCGINLEY:   WITNESSED BY
 CLNT.            A2DTECH:   CLIENT CODE
 ORIG.           5" PRINT:   ORIGIN OF DATA
 UWI .       490251068100:   UNIQUE WELL ID
 DICO. A2D Technologies, Inc.:   DIGITIZING COMPANY
~OTHER INFORMATION
~A   DEPT      SPR         SN        ILD         GRD      CALD       CORR       DPHI        DEN   
# ...
  424.0000   -22.1704    11.2020    11.7996    68.6301     7.9690     0.0232     0.2017     2.3397
  424.5000   -22.2974    11.1729    11.7516    70.6391     7.9802     0.0236     0.2000     2.3423
  425.0000   -22.3001    11.1406    11.7038    71.7471     7.9215     0.0240     0.1976     2.3481
  425.5000   -22.3002    11.1086    11.6562    73.2929     7.9030     0.0245     0.1971     2.3502
  426.0000   -22.3000    11.0767    11.6087    70.9183     7.8518     0.0248     0.1978     2.3515
  426.5000   -22.3000    11.0449    11.5615    66.2813     7.8247     0.0276     0.1941     2.3528
  427.0000   -22.3000    11.0132    11.5145    65.3880     7.8935     0.0310     0.1926     2.3567
  427.5000   -22.3000    10.9816    11.4676    67.9690     7.9246     0.0343     0.1926     2.3600
  428.0000   -22.3000    10.9501    11.4210    70.8273     7.8637     0.0376     0.1887     2.3595
  428.5000   -22.3000    10.9186    11.3745    72.1508     7.8197     0.0429     0.1825     2.3609
  429.0000   -22.3000    10.8873    11.3282    71.3747     7.8017     0.0488     0.1803     2.3698
  429.5000   -22.3000    10.8560    11.3047    69.8749     7.7826     0.0518     0.1825     2.3701
  430.0000   -22.3000    10.8248    11.3321    68.3226     7.7639     0.0547     0.1856     2.3658
  430.5000   -22.3000    10.7969    11.3501    68.0960     7.7713     0.0568     0.1906     2.3616
  431.0000   -22.3000    10.8322    11.3682    69.1943     7.7805     0.0566     0.1922     2.3596
  431.5000   -22.2997    10.8643    11.3864    71.8426     7.7896     0.0654     0.1910     2.3584
  432.0000   -22.2999    10.8967    11.4056    71.7813     7.7990     0.0777     0.1803     2.3586
  432.5000   -22.3225    10.9292    11.4623    71.7787     7.8202     0.0870     0.1652     2.3854
  433.0000   -22.4664    10.9614    11.5379    72.0973     7.8720     0.0837     0.1646     2.4064
  433.5000   -22.6094    11.0000    11.6140    72.9948     7.8919     0.0661     0.1635     2.4030
  434.0000   -22.7520    10.7885    11.6905    73.3299     7.9018     0.0500     0.1719     2.3901
  434.5000   -22.8934    10.5601    11.7290    70.2256     7.9446     0.0474     0.1789     2.3841
  435.0000   -23.0373    10.3773    11.7290    69.4554     7.9994     0.0451     0.1851     2.3745
  435.5000   -23.1593    10.2690    11.7291    69.0085     8.0255     0.0482     0.1794     2.3743
  436.0000   -23.5617    10.2170    11.7290    69.7420     8.0368     0.0509     0.1684     2.3879
  436.5000   -23.9089    10.2323    11.7290    71.8055     8.0475     0.0476     0.1655     2.3991
  437.0000   -23.8996    10.2425    11.7290    71.7454     8.0582     0.0418     0.1738     2.3918
  437.5000   -23.9068    10.2528    11.7293    71.0554     8.0689     0.0367     0.1769     2.3845
  438.0000   -24.2504    10.2631    11.7284    71.2726     8.0797     0.0373     0.1754     2.3830
  438.5000   -24.5258    10.2733    11.7318    73.4082     8.0848     0.0381     0.1750     2.3829
  439.0000   -24.5891    10.2836    11.5586    75.2231     8.0886     0.0389     0.1748     2.3824
  439.5000   -24.6555    10.2938    11.2251    78.4031     8.0925     0.0346     0.1770     2.3807
  440.0000   -24.7001    10.3045    10.9974    81.6558     8.0963     0.0273     0.1783     2.3797
  440.5000   -24.6994    10.3125    10.9974    78.0976     8.1003     0.0199     0.1783     2.3789
  441.0000   -24.7406    10.2275    10.9469    72.9623     8.0904     0.0166     0.1783     2.3781
  441.5000   -25.0399    10.1637    10.8745    69.9214     8.0729     0.0158     0.1799     2.3781
  442.0000   -25.2944    10.0996    10.7991    71.1061     8.0553     0.0151     0.1811     2.3827
  442.5000   -25.1884    10.0316    10.6686    72.9900     8.0434     0.0163     0.1699     2.3948
  443.0000   -25.0860     9.9937    10.5306    76.2594     8.0531     0.0197     0.1655     2.3976
  443.5000   -24.9862     9.9540    10.4067    76.3765     8.0622     0.0189     0.1720     2.3962
  444.0000   -24.9573     9.9140    10.3571    76.2830     8.0714     0.0159     0.1687     2.3959
  444.5000   -25.4581     9.8740    10.3023    74.5367     8.0808     0.0127     0.1791     2.3923
  445.0000   -25.6986     9.8343    10.2478    73.3439     8.0674     0.0115     0.1777     2.3860
  445.5000   -25.9817     9.7947    10.1938    73.2826     8.0510     0.0128     0.1764     2.3864
  446.0000   -26.2858     9.7552    10.1385    73.2214     8.0495     0.0140     0.1749     2.3871
  446.5000   -26.5039     9.7159    10.0872    73.0539     8.0663     0.0153     0.1709     2.3899
  447.0000   -26.4994     9.6768    10.0358    70.7156     8.0829     0.0165     0.1691     2.3960
  447.5000   -26.5000     9.6378     9.9846    68.5975     8.1000     0.0193     0.1650     2.4034
  448.0000   -26.4972     9.5990     9.9337    69.3629     8.0813     0.0229     0.1611     2.4110
  448.5000   -26.6182     9.5186     9.8831    70.1858     8.0523     0.0265     0.1572     2.4169
  449.0000   -26.7136     9.3978     9.8348    70.1339     8.0233     0.0257     0.1566     2.4209
  449.5000   -26.7456     9.2784     9.7914    71.9473     7.9981     0.0242     0.1545     2.4238
  450.0000   -26.7763     9.1489     9.7487    72.9401     7.9326     0.0228     0.1484     2.4264
  450.5000   -26.8065     9.1533     9.7063    71.9924     7.8692     0.0213     0.1510     2.4264
  451.0000   -26.8369     9.1581     9.6684    72.2933     7.8710     0.0229     0.1592     2.4206
  451.5000   -26.8673     9.1630     9.7147    72.5386     7.8817     0.0256     0.1592     2.4178
  452.0000   -26.8990     9.1679     9.7568    72.0695     7.9543     0.0284     0.1532     2.4181
  452.5000   -26.9423     9.1728     9.7992    71.5201     8.0333     0.0307     0.1408     2.4354
  453.0000   -26.9880     9.1776     9.8417    72.3253     8.0372     0.0279     0.1373     2.4485
  453.5000   -27.0337     9.1825     9.8844    77.9605     8.0197     0.0252     0.1452     2.4419
  454.0000   -27.0795     9.1874     9.9273    79.7666     8.0023     0.0266     0.1408     2.4411
  454.5000   -27.1252     9.1923     9.9694    78.8760     7.9852     0.0284     0.1373     2.4485
  455.0000   -27.1709     9.1971    10.0114    78.7415     7.9680     0.0302     0.1351     2.4508
  455.5000   -27.2166     9.2020    10.0535    78.7518     7.9508     0.0261     0.1337     2.4506
  456.0000   -27.2624     9.2069    10.0958    79.1647     7.9387     0.0162     0.1461     2.4435
  456.5000   -27.3081     9.2118    10.1234    80.5719     7.9316     0.0107     0.1568     2.4150
  457.0000   -27.3538     9.2167     9.9913    78.4602     7.9244     0.0112     0.1576     2.4112
  457.5000   -27.3996     9.2216     9.8946    73.7020     7.9174     0.0156     0.1603     2.4084
  458.0000   -27.4465     9.2265     9.7989    74.2533     7.9105     0.0188     0.1618     2.4049
  458.5000   -27.5007     9.2314     9.7576    78.0599     7.9028     0.0177     0.1642     2.4008
  459.0000   -27.1538     9.2363     9.8006    78.7930     7.8473     0.0167     0.1682     2.3969
  459.5000   -26.7527     9.2412     9.8323    79.7219     7.7862     0.0157     0.1695     2.3976
  460.0000   -26.3932     9.2461     9.8640    80.8426     7.7450     0.0154     0.1641     2.3995
  460.5000   -26.0303     9.2510     9.8958    81.1004     7.7559     0.0178     0.1598     2.4125
  461.0000   -25.9019     9.2559     9.9278    76.3489     7.7660     0.0202     0.1590     2.4173
  461.5000   -25.8997     9.2608     9.9599    72.2587     7.7758     0.0206     0.1589     2.4182
  462.0000   -25.8998     9.2657     9.9920    71.4616     7.7794     0.0203     0.1584     2.4191
  462.5000   -25.9000     9.2707    10.0242    71.3697     7.7667     0.0199     0.1570     2.4205
  463.0000   -25.9000     9.2756    10.0307    71.3912     7.7542     0.0195     0.1556     2.4218
  463.5000   -25.9000     9.2805     9.9625    70.2451     7.7418     0.0192     0.1547     2.4229
  464.0000   -25.9000     9.2854     9.9142    70.5055     7.7293     0.0211     0.1426     2.4268
