~VERSION INFORMATION
 VERS.                2.0:   CWLS LOG ASCII STANDARD - VERSION 2.0
 WRAP.                 NO:   ONE LINE PER DEPTH STEP
~WELL INFORMATION
#MNEM.UNIT      DATA TYPE    INFORMATION
#----------   ------------   ------------------------------
 STRT.F            0.0000:   START DEPTH
 STOP.F         2182.0000:   STOP DEPTH
 STEP.F            0.1000:   STEP LENGTH
 NULL.          -999.2500:   NO VALUE
 COMP.       FLUOR DANIEL:   COMPANY
 WELL.   75-1 X 29 #75-29:   WELL
 FLD .             TEAPOT:   FIELD
 LOC .      S29 T39N R78W:   LOCATION
 CNTY.            NATRONA:   COUNTY
 STAT.            WYOMING:   STATE
 CTRY. UNITED STATES OF AMERICA:   COUNTRY
 SRVC.      Western Atlas:   SERVICE COMPANY
 DATE.        10-MAY-1996:   LOGDATE
 API .       490252279100:   API NUMBER
~CURVE INFORMATION
#MNEM.UNIT       API CODE    CURVE DESCRIPTION
#----------   ------------   ------------------------------
 DEPT.F                  :   
 GRR .GAPI   07 310 01 00:   GAMMA RAY
 RFOC.OHMM   07 220 04 00:   RESISTIVITY FOCUSED LOG
 RILD.OHMM   07 120 46 00:   INDUCTION LOG DEEP RESISTIVITY
 RILM.OHMM   07 120 44 00:   INDUCTION LOG MEDIUM RESISTIVITY
~PARAMETER INFORMATION
#MNEM.UNIT          VALUE    DESCRIPTION
#----------   ------------   ------------------------------
 PD  .                 GL:   PERMANENT DATUM
 EPD .F              5031:   ELEVATION PERMANENT DATUM
 LMF .                 KB:   LOG MEASURED FROM
 DAPD.F                10:   FEET ABOVE PERMANENT DATUM
 DMF .                 KB:   DRILLING MEASURED FROM
 EKB .F              5041:   KELLING BUSHING
 EDF .F              5040:   DRILLING FLOOR
 EGL .F              5031:   GROUND LEVEL
 DATE.        10-MAY-1996:   RUN DATE
 RUN .                  1:   RUN NUMBER
 DD  .F              2188:   DEPTH DRILLER
 DL  .F              2184:   DEPTH LOGGER
 BLI .F              2182:   BOTTOM LOG INTERVAL
 TLI .F               400:   TOP LOG INTERVAL
 CS  .IN                7:   CASING SIZE
 CBD .F               400:   CASING BOTTOM DRILLER
 CBL .F               400:   CASING BOTTOM LOGGER
 BS  .IN             6.25:   BIT SIZE
 BSD .F              2188:   BIT SIZE AT DEPTH
 DFT .                AIR:   DRILLING FLUID TYPE
 MRT .F                97:   MAXIMUM RECORDED TEMPERATURE
 LUN .            HL-6530:   LOGGING UNIT NUMBER
 LUL .             CASPER:   LOGGING UNIT LOCATION
 ENGI.           BROWNLOW:   RECORDING ENGINEER
 WITN.             LEBEAU:   WITNESSED BY
 CLNT.            A2DTECH:   CLIENT CODE
 ORIG.           5" PRINT:   ORIGIN OF DATA
 UWI .       490252279100:   UNIQUE WELL ID
 DICO. A2D Technologies, Inc.:   DIGITIZING COMPANY
~OTHER INFORMATION
~A    DEPT      GRR      RFOC       RILD       RILM   
# ...
 1810.4000   169.5831  -999.2500     8.4396     8.8951
 1810.5000   169.5804  -999.2500     8.3787     8.8951
 1810.6000   169.3618  -999.2500     8.3303     8.8585
 1810.7000   169.2742  -999.2500     8.2822     8.8337
 1810.8000   169.1575  -999.2500     8.2344     8.8178
 1810.9000   168.8412  -999.2500     8.1839     8.7727
 1811.0000   168.3375  -999.2500     8.1837     8.7727
 1811.1000   167.7559  -999.2500     8.1834     8.7268
 1811.2000   167.3306  -999.2500     8.1582     8.7122
 1811.3000   166.8271  -999.2500     8.1265     8.7122
 1811.4000   166.3234  -999.2500     8.1263     8.6968
 1811.5000   165.9366  -999.2500     8.1260     8.6521
 1811.6000   165.9342  -999.2500     8.0827     8.6521
 1811.7000   165.9314  -999.2500     8.0695     8.6070
 1811.8000   166.1361  -999.2500     8.0693     8.5924
 1811.9000   166.5400  -999.2500     8.0690     8.5675
 1812.0000   167.0388  -999.2500     8.0688     8.5182
 1812.1000   167.5377  -999.2500     8.0686     8.4692
 1812.2000   168.0365  -999.2500     8.0263     8.4157
 1812.3000   168.6318  -999.2500     8.0124     8.4157
 1812.4000   169.2355  -999.2500     8.0122     8.4157
 1812.5000   169.9849  -999.2500     7.9981     8.3915
 1812.6000   170.8342  -999.2500     7.9564     8.3576
 1812.7000   171.8341  -999.2500     7.9562     8.3528
 1812.8000   172.8434  -999.2500     7.9560     8.2999
 1812.9000   173.8332  -999.2500     7.9557     8.2999
 1813.0000   175.2274  -999.2500     7.9555     8.2667
 1813.1000   176.5828  -999.2500     7.9553     8.2427
 1813.2000   177.5486  -999.2500     7.9551     8.2287
 1813.3000   177.9600  -999.2500     7.9548     8.1858
 1813.4000   177.9571  -999.2500     7.9547     8.1858
 1813.5000   177.7115  -999.2500     7.9235     8.1858
 1813.6000   177.2663  -999.2500     7.8993     8.1532
 1813.7000   176.6214  -999.2500     7.8990     8.1293
 1813.8000   175.9573  -999.2500     7.8957     8.1158
 1813.9000   175.4537  -999.2500     7.8440     8.0732
 1814.0000   174.9260  -999.2500     7.8439     8.0732
 1814.1000   174.6853  -999.2500     7.8436     8.0320
 1814.2000   174.6196  -999.2500     7.8227     8.0175
 1814.3000   174.6172  -999.2500     7.7890     7.9951
 1814.4000   174.7000  -999.2500     7.7863     7.9621
 1814.5000   175.0159  -999.2500     7.7348     7.9583
 1814.6000   175.8164  -999.2500     7.6968     7.9072
 1814.7000   176.2812  -999.2500     7.6809     7.9072
 1814.8000   176.7802  -999.2500     7.6610     7.8762
 1814.9000   177.2790  -999.2500     7.6063     7.8526
 1815.0000   177.7777  -999.2500     7.5206     7.8526
 1815.1000   178.2761  -999.2500     7.4701     7.8490
 1815.2000   178.8185  -999.2500     7.4341     7.7984
 1815.3000   179.0453  -999.2500     7.3912     7.7984
 1815.4000   179.4715  -999.2500     7.3667     7.7984
 1815.5000   180.0970  -999.2500     7.3665     7.7771
 1815.6000   180.7702  -999.2500     7.3663     7.7446
 1815.7000   181.2691  -999.2500     7.3660     7.7413
 1815.8000   181.8206  -999.2500     7.3659     7.6912
 1815.9000   182.0426  -999.2500     7.3656     7.6912
 1816.0000   182.2908  -999.2500     7.3654     7.6615
 1816.1000   182.5389  -999.2500     7.3653     7.6174
 1816.2000   182.7161  -999.2500     7.3651     7.5854
 1816.3000   182.6940  -999.2500     7.3648     7.5824
 1816.4000   182.4094  -999.2500     7.3647     7.5330
 1816.5000   182.4072  -999.2500     7.3644     7.5330
 1816.6000   181.9003  -999.2500     7.3472     7.5041
 1816.7000   181.1465  -999.2500     7.3132     7.4810
 1816.8000   180.3922  -999.2500     7.3130     7.4810
 1816.9000   179.6528  -999.2500     7.2709     7.4810
 1817.0000   179.0766  -999.2500     7.2289     7.4810
 1817.1000   178.8600  -999.2500     7.2117     7.4810
 1817.2000   178.4438  -999.2500     7.1954     7.4810
 1817.3000   177.9404  -999.2500     7.1615     7.5010
 1817.4000   177.4979  -999.2500     7.1613     7.5330
 1817.5000   177.2448  -999.2500     7.1611     7.5330
 1817.6000   176.9504  -999.2500     7.1932     7.5330
 1817.7000   176.9484  -999.2500     7.2345     7.5705
 1817.8000   176.9460  -999.2500     7.2761     7.5854
 1817.9000   177.0509  -999.2500     7.3108     7.5854
 1818.0000   177.3554  -999.2500     7.3105     7.5966
 1818.1000   177.8543  -999.2500     7.3512     7.6381
 1818.2000   178.4442  -999.2500     7.3610     7.6381
 1818.3000   178.8515  -999.2500     7.3847     7.6759
 1818.4000   179.1967  -999.2500     7.4271     7.6912
 1818.5000   179.5474  -999.2500     7.4631     7.7113
 1818.6000   179.9433  -999.2500     7.4629     7.7446
 1818.7000   179.9409  -999.2500     7.5038     7.7446
 1818.8000   180.1892  -999.2500     7.5144     7.7446
 1818.9000   180.4374  -999.2500     7.5142     7.7826
 1819.0000   180.5370  -999.2500     7.5289     7.8277
 1819.1000   180.6322  -999.2500     7.5660     7.8526
 1819.2000   180.8342  -999.2500     7.5658     7.8638
 1819.3000   180.8313  -999.2500     7.6066     7.9072
 1819.4000   180.8289  -999.2500     7.6180     7.9072
 1819.5000   180.6316  -999.2500     7.6178     7.9458
 1819.6000   180.3786  -999.2500     7.6321     7.9621
 1819.7000   180.0328  -999.2500     7.6703     7.9825
 1819.8000   179.5291  -999.2500     7.6701     8.0175
 1819.9000   179.0069  -999.2500     7.7109     8.0194
 1820.0000   178.2804  -999.2500     7.7230     8.0732
 1820.1000   177.5261  -999.2500     7.7459     8.1124
 1820.2000   176.6324  -999.2500     7.7763     8.1293
 1820.3000   175.5392  -999.2500     7.7812     8.1499
 1820.4000   174.3211  -999.2500     7.8299     8.1858
 1820.5000   173.2608  -999.2500     7.8297     8.1875
 1820.6000   172.7854  -999.2500     7.8295     8.2427
 1820.7000   172.4673  -999.2500     7.8293     8.2427
 1820.8000   172.4832  -999.2500     7.8427     8.2427
 1820.9000   172.7314  -999.2500     7.8833     8.2633
 1821.0000   172.9793  -999.2500     7.8831     8.2999
 1821.1000   173.2463  -999.2500     7.8829     8.2999
 1821.2000   173.4758  -999.2500     7.8826     8.2999
 1821.3000   173.7240  -999.2500     7.8824     8.2999
 1821.4000   173.8425  -999.2500     7.8822     8.2999
 1821.5000   173.9187  -999.2500     7.8820     8.2999
 1821.6000   174.1396  -999.2500     7.8817     8.2999
 1821.7000   174.1367  -999.2500     7.8816     8.3012
 1821.8000   174.1345  -999.2500     7.8813     8.3576
 1821.9000   174.1321  -999.2500     7.8811     8.3576
 1822.0000   174.1297  -999.2500     7.8809     8.3576
 1822.1000   174.0538  -999.2500     7.8807     8.3576
 1822.2000   173.7783  -999.2500     7.8804     8.3576
 1822.3000   173.2172  -999.2500     7.8803     8.3576
 1822.4000   172.2161  -999.2500     7.8800     8.3576
 1822.5000   171.0861  -999.2500     7.8798     8.3576
 1822.6000   169.9562  -999.2500     7.8796     8.3278
 1822.7000   168.8262  -999.2500     7.8794     8.2999
 1822.8000   167.6963  -999.2500     7.8791     8.2999
 1822.9000   166.5663  -999.2500     7.8790     8.2999
 1823.0000   165.4941  -999.2500     7.8494     8.2999
 1823.1000   164.4887  -999.2500     7.8241     8.2999
 1823.2000   163.4702  -999.2500     7.8239     8.2999
 1823.3000   162.0316  -999.2500     7.8237     8.2999
 1823.4000   161.8155  -999.2500     7.8234     8.2999
 1823.5000   161.8886  -999.2500     7.8232     8.2999
 1823.6000   162.0247  -999.2500     7.8230     8.2999
 1823.7000   162.0223  -999.2500     7.8034     8.2999
 1823.8000   162.0296  -999.2500     7.7685     8.2708
 1823.9000   162.3188  -999.2500     7.7683     8.2427
 1824.0000   162.3168  -999.2500     7.7681     8.2427
 1824.1000   162.3144  -999.2500     7.7679     8.2427
 1824.2000   162.3119  -999.2500     7.7677     8.2427
 1824.3000   162.3095  -999.2500     7.7675     8.2427
 1824.4000   162.3361  -999.2500     7.7577     8.2427
 1824.5000   164.1142  -999.2500     7.7134     8.2236
 1824.6000   164.5211  -999.2500     7.7131     8.1858
 1824.7000   164.7131  -999.2500     7.7130     8.1858
 1824.8000   164.7107  -999.2500     7.7127     8.1858
 1824.9000   164.7083  -999.2500     7.7125     8.1858
