~VERSION INFORMATION
 VERS.                2.0:   CWLS LOG ASCII STANDARD - VERSION 2.0
 WRAP.                 NO:   ONE LINE PER DEPTH STEP
~WELL INFORMATION
#MNEM.UNIT      DATA TYPE    INFORMATION
#----------   ------------   ------------------------------
 STRT.F            3.0000:   START DEPTH
 STOP.F         3449.0000:   STOP DEPTH
 STEP.F            0.5000:   STEP LENGTH
 NULL.          -999.2500:   NO VALUE
 COMP. LAWRENCE/ALLISON INC:   COMPANY
 WELL.       NPR 3 #24-10:   WELL
 FLD .             TEAPOT:   FIELD
 LOC .      S10 T38N R78W:   LOCATION
 CNTY.            NATRONA:   COUNTY
 STAT.            WYOMING:   STATE
 CTRY. UNITED STATES OF AMERICA:   COUNTRY
 SRVC.      Dresser Atlas:   SERVICE COMPANY
 DATE.        28-JUL-1985:   LOGDATE
 API .       490251104400:   API NUMBER
~CURVE INFORMATION
#MNEM.UNIT       API CODE    CURVE DESCRIPTION
#----------   ------------   ------------------------------
 DEPT.F                  :   
 PORD.DEC    45 890 12 00:   POROSITY DENSITY SANDSTONE
 CNC .DEC    42 890 03 00:   NEUTRON POROSITY SANDSTONE
 CORR.G/C3   45 356 01 00:   DENSITY CORRECTION
 DEN .G/C3   45 350 01 00:   COMPENSATED BULK DENSTIY
 AC  .US/F   60 520 00 00:   ACCOUSTIC
 CALR.IN     07 280 01 00:   CALIPER FROM RESISTIVITY
 GRR .GAPI   07 310 01 00:   GAMMA RAY
 RFOC.OHMM   07 220 04 00:   RESISTIVITY FOCUSED LOG
 RILD.OHMM   07 120 46 00:   INDUCTION LOG DEEP RESISTIVITY
 RILM.OHMM   07 120 44 00:   INDUCTION LOG MEDIUM RESISTIVITY
 SPR .MV     07 010 01 00:   SPONTANEOUS POTENTIAL
~PARAMETER INFORMATION
#MNEM.UNIT          VALUE    DESCRIPTION
#----------   ------------   ------------------------------
 PD  .                 GL:   PERMANENT DATUM
 EPD .F              5242:   ELEVATION PERMANENT DATUM
 LMF .                 KB:   LOG MEASURED FROM
 DAPD.F                13:   FEET ABOVE PERMANENT DATUM
 DMF .                 KB:   DRILLING MEASURED FROM
 EKB .F              5255:   KELLING BUSHING
 EGL .F              5242:   GROUND LEVEL
 DATE.        28-JUL-1985:   RUN DATE
 RUN .                  1:   RUN NUMBER
 DD  .F              3451:   DEPTH DRILLER
 DL  .F              3451:   DEPTH LOGGER
 BLI .F              3449:   BOTTOM LOG INTERVAL
 CS  .IN            8.625:   CASING SIZE
 CBD .F               688:   CASING BOTTOM DRILLER
 CBL .F               686:   CASING BOTTOM LOGGER
 BS  .IN            7.875:   BIT SIZE
 BSD .F              3451:   BIT SIZE AT DEPTH
 DFT .            KCL GEL:   DRILLING FLUID TYPE
 DFD .                8.9:   DRILLING FLUID DENSITY
 DFV .                 40:   DRILLING FLUID VISCOSITY
 DFPH.                8.0:   DRILLING FLUID PH
 DFL .                 10:   DRILLING FLUID LOSS
 MSS .           FLOWLINE:   MUD SAMPLE SOURCE
 RMS .OHMM           0.87:   RESISTIVITY MUD SAMPLE
 MST .F                92:   MUD SAMPLE TEMPERATURE
 RMF .OHMM             65:   RESISTIVITY MUD FILTRATE SAMPLE
 MFST.F                92:   MUD FILTRATE SAMPLE TEMPERATURE
 RMC .OHMM           1.09:   RESISTIVITY MUD CAKE
 MCST.F                92:   MUD CAKE SAMPLE TEMPERATURE
 MFSS.               CALC:   MUD FILTRATE SAMPLE SOURCE
 MCSS.               CALC:   MUD CAKE SAMPLE SOURCE
 RMB .OHMM            .66:   RESISTIVITY MUD AT BHT
 BHT .F               121:   BOTTOM HOLE TEMPERATURE
 TCS .HRS               4:   TIME CURCULATED STOPPED
 MRT .F               121:   MAXIMUM RECORDED TEMPERATURE
 LUN .               6264:   LOGGING UNIT NUMBER
 LUL .               GLTE:   LOGGING UNIT LOCATION
 ENGI.           FAHLSING:   RECORDING ENGINEER
 WITN.             STRONG:   WITNESSED BY
 CLNT.            A2DTECH:   CLIENT CODE
 ORIG.        2" 5" PRINT:   ORIGIN OF DATA
 UWI .       490251104400:   UNIQUE WELL ID
 DICO. A2D Technologies, Inc.:   DIGITIZING COMPANY
 R1  . POROSITY WITH SANDSTONE:   REMARKS 1
~OTHER INFORMATION
~A    DEPT    PORD        CNC       CORR        DEN         AC       CALR         GRR      RFOC       RILD       RILM        SPR   
# ...
 2321.0000  -999.2500  -999.2500  -999.2500  -999.2500  -999.2500     8.3315    92.2122    10.4518     7.1674     6.9323   -45.9971
 2321.5000  -999.2500  -999.2500  -999.2500  -999.2500  -999.2500     8.3465    96.0561     9.6166     6.7814     6.4236   -45.9986
 2322.0000  -999.2500  -999.2500  -999.2500  -999.2500  -999.2500     8.3463   102.3887     8.6058     6.3718     6.0775   -46.0000
 2322.5000  -999.2500  -999.2500  -999.2500  -999.2500  -999.2500     8.3461   105.5539     7.7013     6.0706     5.9119   -46.1521
 2323.0000  -999.2500  -999.2500  -999.2500  -999.2500  -999.2500     8.3460   106.6829     6.8441     5.9467     5.8310   -46.3042
 2323.5000  -999.2500  -999.2500  -999.2500  -999.2500  -999.2500     8.3308   107.5856     6.3410     5.8659     5.8726   -46.3057
 2324.0000  -999.2500  -999.2500  -999.2500  -999.2500  -999.2500     8.3306   107.5834     6.2104     5.7861     5.9970   -46.2974
 2324.5000  -999.2500  -999.2500  -999.2500  -999.2500  -999.2500     8.3305   104.8662     6.2972     5.7075     6.1240   -46.1581
 2325.0000  -999.2500  -999.2500  -999.2500  -999.2500  -999.2500     8.3303    94.0042     6.9881     5.6692     6.2537   -46.0090
 2325.5000  -999.2500  -999.2500  -999.2500  -999.2500  -999.2500     8.3302    92.1926     7.9732     5.6703     6.3420   -45.8599
 2326.0000  -999.2500  -999.2500  -999.2500  -999.2500  -999.2500     8.3300    94.2260     8.8481     5.7529     6.3428   -45.8617
 2326.5000  -999.2500  -999.2500  -999.2500  -999.2500  -999.2500     8.3299   102.8211     8.2548     5.9174     6.2998   -46.1644
 2327.0000  -999.2500  -999.2500  -999.2500  -999.2500  -999.2500     8.3297   111.1898     7.2349     6.0026     6.2138   -46.6177
 2327.5000  -999.2500  -999.2500  -999.2500  -999.2500  -999.2500     8.3296   114.3550     6.9398     6.0411     6.2147   -46.7698
 2328.0000  -999.2500  -999.2500  -999.2500  -999.2500  -999.2500     8.3294   112.5428     7.0368     6.0424     6.2588   -46.9219
 2328.5000  -999.2500  -999.2500  -999.2500  -999.2500  -999.2500     8.3293   111.6356     7.3360     6.0018     6.3472   -46.9234
 2329.0000  -999.2500  -999.2500  -999.2500  -999.2500  -999.2500     8.3140   113.6696     7.2853     6.1298     6.4410   -46.7739
 2329.5000  -999.2500  -999.2500  -999.2500  -999.2500  -999.2500     8.2988   117.2872     7.1339     6.3038     6.6189   -46.6248
 2330.0000  -999.2500  -999.2500  -999.2500  -999.2500  -999.2500     8.2835   115.2488     7.0368     6.5279     6.8064   -46.3254
 2330.5000  -999.2500  -999.2500  -999.2500  -999.2500  -999.2500     8.2834   109.3642     7.3524     6.7132     6.9990   -46.0257
 2331.0000  -999.2500  -999.2500  -999.2500  -999.2500  -999.2500     8.2832   106.4208     8.1835     6.8085     7.0487   -45.8766
 2331.5000  -999.2500  -999.2500  -999.2500  -999.2500  -999.2500     8.2982   110.1810     9.3625     6.8099     7.0007   -45.8781
 2332.0000  -999.2500  -999.2500  -999.2500  -999.2500  -999.2500     8.3282   108.8235    10.6717     6.7638     6.8576   -46.0302
 2332.5000  -999.2500  -999.2500  -999.2500  -999.2500  -999.2500     8.3582   111.9910     9.1605     6.6260     6.6707   -46.0317
 2333.0000  -999.2500  -999.2500  -999.2500  -999.2500  -999.2500     8.3882   119.2308     7.7549     6.4458     6.4441   -46.1838
 2333.5000  -999.2500  -999.2500  -999.2500  -999.2500  -999.2500     8.4032   130.7692     7.2853     6.1840     6.1821   -46.1852
 2334.0000  -999.2500  -999.2500  -999.2500  -999.2500  -999.2500     8.4030   139.3665     7.2853     5.8917     5.9720   -46.1867
 2334.5000  -999.2500  -999.2500  -999.2500  -999.2500  -999.2500     8.3878   140.2715     7.1352     5.5744     5.7691   -46.0376
 2335.0000  -999.2500  -999.2500  -999.2500  -999.2500  -999.2500     8.3575   140.2715     6.9398     5.3480     5.5731   -45.8885
 2335.5000  -999.2500  -999.2500  -999.2500  -999.2500  -999.2500     8.3422   139.1403     6.7031     5.2750     5.4590   -45.8904
 2336.0000  -999.2500  -999.2500  -999.2500  -999.2500  -999.2500     8.3270   134.3891     6.6107     5.1318     5.4598   -45.8918
 2336.5000  -999.2500  -999.2500  -999.2500  -999.2500  -999.2500     8.2967   131.9005     6.5650     5.0270     5.4605   -46.4957
 2337.0000  -999.2500  -999.2500  -999.2500  -999.2500  -999.2500     8.2814   132.8054     6.7498     5.0281     5.4993   -46.7191
 2337.5000  -999.2500  -999.2500  -999.2500  -999.2500  -999.2500     8.2511   134.8416     6.8918     5.0641     5.5769   -47.4739
 2338.0000  -999.2500  -999.2500  -999.2500  -999.2500  -999.2500     8.2359   134.4904     6.7498     5.0652     5.6557   -47.7831
 2338.5000  -999.2500  -999.2500  -999.2500  -999.2500  -999.2500     8.2207   125.9815     6.2104     5.1729     5.7755   -47.7905
 2339.0000  -999.2500  -999.2500  -999.2500  -999.2500  -999.2500     8.2205   124.6606     6.0403     5.3568     5.8636   -47.3455
 2339.5000  -999.2500  -999.2500  -999.2500  -999.2500  -999.2500     8.2204   126.1627     6.6567     5.5089     6.0649   -46.5989
 2340.0000  -999.2500  -999.2500  -999.2500  -999.2500  -999.2500     8.2051   128.9593     7.4386     5.7048     6.2799   -46.1538
 2340.5000  -999.2500  -999.2500  -999.2500  -999.2500  -999.2500     8.2050   129.6380     7.9181     5.9902     6.5478   -46.0105
 2341.0000  -999.2500  -999.2500  -999.2500  -999.2500  -999.2500     8.1897   126.2443     7.9210     6.2900     6.7800   -46.0282
 2341.5000  -999.2500  -999.2500  -999.2500  -999.2500  -999.2500     8.1745   124.8869     7.8089     6.6047     7.0692   -46.3273
 2342.0000  -999.2500  -999.2500  -999.2500  -999.2500  -999.2500     8.1593   123.9819     8.0302     6.7452     7.3199   -46.4857
 2342.5000  -999.2500  -999.2500  -999.2500  -999.2500  -999.2500     8.1591   123.3032     8.4991     6.8887     7.5794   -46.4932
 2343.0000  -999.2500  -999.2500  -999.2500  -999.2500  -999.2500     8.1439   122.8507     9.1106     7.0352     7.7399   -46.3495
 2343.5000  -999.2500  -999.2500  -999.2500  -999.2500  -999.2500     8.1286   124.4344     9.5599     7.0366     7.5812   -46.0572
 2344.0000  -999.2500  -999.2500  -999.2500  -999.2500  -999.2500     8.1134   125.7919     9.7510     7.0872     7.5825   -45.6122
 2344.5000  -999.2500  -999.2500  -999.2500  -999.2500  -999.2500     8.1133   124.6606     8.8481     7.2903     7.6364   -45.3181
 2345.0000  -999.2500  -999.2500  -999.2500  -999.2500  -999.2500     8.1131   121.0407     8.4284     7.3953     7.6906   -45.3255
 2345.5000  -999.2500  -999.2500  -999.2500  -999.2500  -999.2500     8.1130   119.6833     8.3123     7.4449     7.7452   -45.3330
 2346.0000  -999.2500  -999.2500  -999.2500  -999.2500  -999.2500     8.1128   119.9095     8.6657     7.4464     7.6927   -45.7930
 2346.5000  -999.2500  -999.2500  -999.2500  -999.2500  -999.2500     8.1127   120.8145     9.0971     7.3889     7.6406   -46.2529
 2347.0000  -999.2500  -999.2500  -999.2500  -999.2500  -999.2500     8.1125   121.0407     9.4840     7.2454     7.5357   -46.7129
 2347.5000  -999.2500  -999.2500  -999.2500  -999.2500  -999.2500     8.1275   116.5158     9.6835     7.1967     7.3787   -47.0220
 2348.0000  -999.2500  -999.2500  -999.2500  -999.2500  -999.2500     8.1424   111.7647     9.8189     7.0501     7.2309   -47.0295
 2348.5000  -999.2500  -999.2500  -999.2500  -999.2500  -999.2500     8.1422   111.7375     9.2885     7.0024     7.1236   -46.7354
 2349.0000  -999.2500  -999.2500  -999.2500  -999.2500  -999.2500     8.1421   111.7647     8.2548     6.9554     7.0348   -46.2903
 2349.5000  -999.2500  -999.2500  -999.2500  -999.2500  -999.2500     8.1419   111.3033     7.5951     6.9087     6.9390   -45.8453
 2350.0000  -999.2500  -999.2500  -999.2500  -999.2500  -999.2500     8.1418   115.1584     7.4386     6.8548     6.8863   -45.7001
 2350.5000  -999.2500  -999.2500  -999.2500  -999.2500  -999.2500     8.1415   118.9414     7.4909     6.7640     6.8211   -45.9172
 2351.0000  -999.2500  -999.2500  -999.2500  -999.2500  -999.2500     8.1412   120.5836     7.9192     6.6668     6.7468   -46.1034
