~VERSION INFORMATION
 VERS.                2.0:   CWLS LOG ASCII STANDARD - VERSION 2.0
 WRAP.                 NO:   ONE LINE PER DEPTH STEP
~WELL INFORMATION
#MNEM.UNIT      DATA TYPE    INFORMATION
#----------   ------------   ------------------------------
 STRT.F           64.0000:   START DEPTH
 STOP.F          532.0000:   STOP DEPTH
 STEP.F            0.5000:   STEP LENGTH
 NULL.          -999.2500:   NO VALUE
 COMP.       F D SERV INC:   COMPANY
 WELL.  81-3 SX 10 #81-10:   WELL
 FLD .             TEAPOT:   FIELD
 LOC .      S10 T38N R78W:   LOCATION
 CNTY.            NATRONA:   COUNTY
 STAT.            WYOMING:   STATE
 CTRY. UNITED STATES OF AMERICA:   COUNTRY
 SRVC.     Atlas Wireline:   SERVICE COMPANY
 DATE.        29-JAN-1993:   LOGDATE
 API .       490252258400:   API NUMBER
~CURVE INFORMATION
#MNEM.UNIT       API CODE    CURVE DESCRIPTION
#----------   ------------   ------------------------------
 DEPT.F                  :   
 C13 .IN     45 280 13 00:   
 ZCOR.G/C3   45 356 01 00:   DENSITY CORRECTION
 ZDEN.G/C3   45 350 01 00:   BULK DENSITY
 GRD .GAPI   45 310 01 00:   GAMMA RAY FROM DENSITY LOG
 PORS.DEC    42 890 00 00:   
 PORZ.DEC    45 890 00 00:   DENSITY POROSITY
 RILD.OHMM   07 120 46 00:   INDUCTION LOG DEEP RESISTIVITY
 RILM.OHMM   07 120 44 00:   INDUCTION LOG MEDIUM RESISTIVITY
~PARAMETER INFORMATION
#MNEM.UNIT          VALUE    DESCRIPTION
#----------   ------------   ------------------------------
 PD  .                 GL:   PERMANENT DATUM
 EPD .F              5161:   ELEVATION PERMANENT DATUM
 LMF .                 KB:   LOG MEASURED FROM
 DAPD.F                10:   FEET ABOVE PERMANENT DATUM
 DMF .                 KB:   DRILLING MEASURED FROM
 EKB .F              5171:   KELLING BUSHING
 EDF .F              5170:   DRILLING FLOOR
 EGL .F              5161:   GROUND LEVEL
 DATE.        29-JAN-1993:   RUN DATE
 RUN .                  1:   RUN NUMBER
 DD  .F               536:   DEPTH DRILLER
 DL  .F               536:   DEPTH LOGGER
 BLI .F               527:   BOTTOM LOG INTERVAL
 TLI .F                96:   TOP LOG INTERVAL
 CS  .IN            8.625:   CASING SIZE
 CBD .F                96:   CASING BOTTOM DRILLER
 CBL .F                96:   CASING BOTTOM LOGGER
 BS  .IN            7.875:   BIT SIZE
 BSD .F               536:   BIT SIZE AT DEPTH
 DFT .                AIR:   DRILLING FLUID TYPE
 MRT .F                65:   MAXIMUM RECORDED TEMPERATURE
 LUN .            HL-6274:   LOGGING UNIT NUMBER
 LUL .             CASPER:   LOGGING UNIT LOCATION
 ENGI.        P.RASMUSSEN:   RECORDING ENGINEER
 WITN.           G.STRONG:   WITNESSED BY
 CLNT.            A2DTECH:   CLIENT CODE
 ORIG.           5" PRINT:   ORIGIN OF DATA
 UWI .       490252258400:   UNIQUE WELL ID
 DICO. A2D Technologies, Inc.:   DIGITIZING COMPANY
~OTHER INFORMATION
~A   DEPT      C13       ZCOR       ZDEN        GRD       PORS       PORZ       RILD       RILM   
# ...
  104.5000     8.3096    -0.0041     2.4743   168.5928     0.3076     0.1116     7.7819     7.7915
  105.0000     8.3093    -0.0057     2.4849   167.9819     0.3055     0.1008     8.8841     7.7934
  105.5000     8.3090    -0.0117     2.4856   167.9713     0.3052     0.0989     8.6343     7.8491
  106.0000     8.3087    -0.0207     2.4751   167.9629     0.3058     0.1032     8.0020     7.9051
  106.5000     8.3084    -0.0178     2.4706   167.6532     0.3052     0.1068     7.8924     7.9078
  107.0000     8.3231    -0.0074     2.4714   168.2671     0.3049     0.1086     7.9478     7.9635
  107.5000     8.3078     0.0001     2.4744   170.3450     0.3064     0.1065     8.1716     8.0204
  108.0000     8.3075     0.0015     2.4774   171.8425     0.3094     0.1047     8.2860     8.1338
  108.5000     8.3072     0.0000     2.4775   170.3280     0.3127     0.1059     8.3441     8.1919
  109.0000     8.3220    -0.0031     2.4715   169.7169     0.3139     0.1080     8.4026     8.2504
  109.5000     8.3216    -0.0061     2.4707   170.3090     0.3142     0.1098     8.4031     8.2525
  110.0000     8.3213    -0.0121     2.4715   169.3969     0.3137     0.1077     8.3457     8.2541
  110.5000     8.3210    -0.0122     2.4748   167.5812     0.3143     0.1043     8.3464     8.2557
  111.0000     8.3207    -0.0091     2.4806   165.4622     0.3155     0.1020     8.2893     8.2573
  111.5000     8.3204    -0.0003     2.4844   166.0561     0.3167     0.1005     8.2899     8.2590
  112.0000     8.3201     0.0056     2.4874   168.4573     0.3136     0.0980     8.2333     8.2036
  112.5000     8.3198     0.0026     2.4897   169.6536     0.3119     0.0983     8.1771     8.2057
  113.0000     8.3195    -0.0034     2.4859   167.8358     0.3137     0.1007     8.1214     8.1503
  113.5000     8.3192    -0.0064     2.4799   167.5261     0.3161     0.1035     8.1219     7.9848
  114.0000     8.3189    -0.0095     2.4725   168.4213     0.3170     0.1056     7.9555     7.9248
  114.5000     8.3186    -0.0080     2.4747   168.3926     0.3167     0.1047     7.8468     7.7699
  115.0000     8.3333    -0.0036     2.4778   166.8962     0.3161     0.1041     7.7394     7.6121
  115.5000     8.3330    -0.0006     2.4808   165.6829     0.3158     0.1041     7.6865     7.4572
  116.0000     8.3177    -0.0022     2.4771   165.0720     0.3158     0.1044     7.5814     7.4072
  116.5000     8.3174    -0.0037     2.4733   166.9106     0.3155     0.1047     7.4778     7.3069
  117.0000     8.3171    -0.0038     2.4718   166.5590     0.3158     0.1056     7.4267     7.2579
  117.5000     8.3168    -0.0008     2.4711   164.7433     0.3155     0.1068     7.3252     7.2093
  118.0000     8.3015     0.0069     2.4704   163.5300     0.3128     0.1074     7.2250     7.1613
  118.5000     8.3012     0.0111     2.4719   164.1218     0.3107     0.1062     7.2255     7.1628
  119.0000     8.3008     0.0035     2.4764   164.4166     0.3096     0.1032     7.2815     7.2143
  119.5000     8.3006     0.0005     2.4802   163.5024     0.3093     0.1035     7.4810     7.4182
  120.0000     8.3003    -0.0025     2.4750   162.5904     0.3066     0.1050     7.5857     7.5753
  120.5000     8.3007    -0.0041     2.4742   161.9774     0.3042     0.1041     7.6389     7.6294
  121.0000     8.3147    -0.0071     2.4795   161.9689     0.3027     0.1007     7.6924     7.7910
  121.5000     8.3295    -0.0087     2.4826   162.8640     0.3018     0.1026     7.7465     7.8470
  122.0000     8.3291    -0.0102     2.4758   166.5301     0.3018     0.1050     7.8550     7.9580
  122.5000     8.3288    -0.0132     2.4721   169.7727     0.3006     0.1077     7.9650     8.0148
  123.0000     8.3285    -0.0133     2.4767   167.6558     0.3004     0.1068     8.0765     8.0955
  123.5000     8.3282    -0.0118     2.4819   163.1292     0.3002     0.1026     8.1911     8.1888
  124.0000     8.3129    -0.0104     2.4857   164.4859     0.3000     0.0995     8.3620     8.3023
  124.5000     8.2976    -0.0044     2.4932   170.0379     0.2955     0.0941     8.3048     8.3616
  125.0000     8.2973    -0.0015     2.5000   169.7282     0.2937     0.0902     8.3631     8.3632
  125.5000     8.2970     0.0044     2.5030   168.8161     0.2922     0.0911     8.3637     8.4230
  126.0000     8.2966     0.0104     2.4978   169.4079     0.2928     0.0923     8.4223     8.3665
  126.5000     8.2964     0.0133     2.4926   169.7028     0.2949     0.0950     8.3649     8.2532
  127.0000     8.2961     0.0043     2.4866   169.6922     0.2970     0.0983     8.3078     8.1413
  127.5000     8.2958    -0.0002     2.4821   169.6837     0.2994     0.1023     8.1941     8.1434
  128.0000     8.2955    -0.0048     2.4776   167.8659     0.3002     0.1050     8.1382     8.0888
  128.5000     8.3103    -0.0078     2.4778   166.3514     0.3006     0.1038     8.1388     8.0904
  129.0000     8.3099    -0.0078     2.4844   164.8369     0.3019     0.0992     8.1394     8.0366
  129.5000     8.2945    -0.0049     2.4897   164.2260     0.3037     0.0965     8.1399     8.0382
  130.0000     8.2943     0.0025     2.4935   166.9263     0.3052     0.0941     8.0842     8.0398
  130.5000     8.2940    -0.0005     2.4875   168.7272     0.3079     0.0971     8.0856     7.9859
  131.0000     8.2937    -0.0050     2.4785   167.5118     0.3097     0.1020     8.0854     7.9957
  131.5000     8.2934    -0.0088     2.4740   164.7119     0.3112     0.1074     8.0860     8.1008
  132.0000     8.2931    -0.0126     2.4725   162.0710     0.3121     0.1098     8.1427     8.2153
  132.5000     8.2928    -0.0111     2.4755   161.1589     0.3109     0.1068     8.1998     8.3314
  133.0000     8.2924    -0.0052     2.4756   160.8493     0.3097     0.1058     8.3192     8.3331
  133.5000     8.2922    -0.0006     2.4726   160.2384     0.3070     0.1080     8.4312     8.5100
  134.0000     8.2919     0.0096     2.4719   162.0350     0.3025     0.1092     8.5492     8.6303
  134.5000     8.2916     0.0096     2.4711   163.5326     0.3003     0.1080     8.6690     8.7523
  135.0000     8.2913     0.0081     2.4764   165.0301     0.2989     0.1043     8.8514     8.9376
  135.5000     8.2910     0.0005     2.4809   166.2265     0.2980     0.1014     9.0469     9.0644
  136.0000     8.2907    -0.0010     2.4885   163.2038     0.2965     0.0974     9.2921     9.2564
  136.5000     8.3054     0.0020     2.4908   159.8821     0.2935     0.0959     9.4876     9.4524
  137.0000     8.3051     0.0049     2.4915   161.4197     0.2914     0.0965     9.6204     9.5860
  137.5000     8.3048     0.0064     2.4923   163.7787     0.2914     0.0959     9.6879     9.7891
  138.0000     8.3045     0.0078     2.4923   164.0736     0.2929     0.0947     9.8919     9.9964
  138.5000     8.3042     0.0033     2.4938   161.9545     0.2905     0.0941    10.1001    10.1382
  139.0000     8.2889    -0.0013     2.4946   161.3032     0.2860     0.0926    10.1709    10.3529
  139.5000     8.2886    -0.0028     2.4999   158.3210     0.2824     0.0929    10.4570    10.5721
  140.0000     8.2882    -0.0028     2.4977   154.0957     0.2779     0.0938    10.6870    10.7960
  140.5000     8.2880    -0.0014     2.4954   148.6655     0.2734     0.0947    11.3641    11.3457
  141.0000     8.2877    -0.0029     2.4985   145.9462     0.2677     0.0920    11.8467    11.8175
  141.5000     8.2874    -0.0045     2.5135   148.3453     0.2581     0.0869    12.0959    12.1516
  142.0000     8.2870    -0.0030     2.5256   147.7344     0.2500     0.0790    12.3505    12.3233
  142.5000     8.3018    -0.0001     2.5241   146.2199     0.2464     0.0776    12.3513    12.3258
  143.0000     8.3015     0.0014     2.5090   148.3177     0.2545     0.0869    12.4381    12.2432
  143.5000     8.3012    -0.0002     2.4873   149.8174     0.2584     0.0935    12.3529    12.1612
  144.0000     8.3009    -0.0002     2.4746   147.9996     0.2581     0.1065    12.2687    11.9142
  144.5000     8.3006    -0.0003     2.4656   146.7863     0.2575     0.1140    12.1009    11.7528
