~VERSION INFORMATION
 VERS.                2.0:   CWLS LOG ASCII STANDARD - VERSION 2.0
 WRAP.                 NO:   ONE LINE PER DEPTH STEP
~WELL INFORMATION
#MNEM.UNIT      DATA TYPE    INFORMATION
#----------   ------------   ------------------------------
 STRT.F            8.0000:   START DEPTH
 STOP.F          970.0000:   STOP DEPTH
 STEP.F            0.1000:   STEP LENGTH
 NULL.          -999.2500:   NO VALUE
 COMP.       F D SERV INC:   COMPANY
 WELL. N P R 3 STX-35 #15-35:   WELL
 FLD .             TEAPOT:   FIELD
 LOC .      S35 T39N R78W:   LOCATION
 CNTY.            NATRONA:   COUNTY
 STAT.            WYOMING:   STATE
 CTRY. UNITED STATES OF AMERICA:   COUNTRY
 SRVC.     Atlas Wireline:   SERVICE COMPANY
 DATE.        02-FEB-1992:   LOGDATE
 API .       490252250100:   API NUMBER
~CURVE INFORMATION
#MNEM.UNIT       API CODE    CURVE DESCRIPTION
#----------   ------------   ------------------------------
 DEPT.F                  :   
 GRR .GAPI   07 310 01 00:   GAMMA RAY
 RILD.OHMM   07 120 46 00:   INDUCTION LOG DEEP RESISTIVITY
 RILM.OHMM   07 120 44 00:   INDUCTION LOG MEDIUM RESISTIVITY
~PARAMETER INFORMATION
#MNEM.UNIT          VALUE    DESCRIPTION
#----------   ------------   ------------------------------
 PD  .                 GL:   PERMANENT DATUM
 EPD .F              5084:   ELEVATION PERMANENT DATUM
 LMF .                 KB:   LOG MEASURED FROM
 DAPD.F                10:   FEET ABOVE PERMANENT DATUM
 DMF .                 KB:   DRILLING MEASURED FROM
 EKB .F              5094:   KELLING BUSHING
 EDF .F              5093:   DRILLING FLOOR
 EGL .F              5084:   GROUND LEVEL
 DATE.        02-FEB-1982:   RUN DATE
 RUN .                  1:   RUN NUMBER
 DD  .F               980:   DEPTH DRILLER
 CS  .IN            8.625:   CASING SIZE
 BSD .F               980:   BIT SIZE AT DEPTH
 DFT .                AIR:   DRILLING FLUID TYPE
 LUN .            HL-6272:   LOGGING UNIT NUMBER
 LUL .             CASPER:   LOGGING UNIT LOCATION
 ENGI.       R. RASMLSSEN:   RECORDING ENGINEER
 WITN.          G. STRONG:   WITNESSED BY
 CLNT.            A2DTECH:   CLIENT CODE
 ORIG.           5" PRINT:   ORIGIN OF DATA
 UWI .       490252250100:   UNIQUE WELL ID
 DICO. A2D Technologies, Inc.:   DIGITIZING COMPANY
~OTHER INFORMATION
~A    DEPT      GRR      RILD       RILM   
# ...
  335.6000   103.7584     9.7693     8.7137
  335.7000   103.5484     9.7135     8.6227
  335.8000   103.5543     9.6580     8.4898
  335.9000   103.3244     9.5985     8.3449
  336.0000   102.8970     9.4747     8.2024
  336.1000   102.2715     9.3804     8.0621
  336.2000   101.6015     9.3088     7.9103
  336.3000   101.1535     9.2556     7.8297
  336.4000   101.1593     9.2026     7.7406
  336.5000   101.1636     9.1501     7.6524
  336.6000   101.3382     9.0895     7.5652
  336.7000   101.5936     9.0021     7.4823
  336.8000   101.8489     8.9318     7.4345
  336.9000   102.1162     8.8808     7.3605
  337.0000   102.7038     8.8186     7.2767
  337.1000   103.1281     8.7187     7.1747
  337.2000   103.6339     8.6596     7.0733
  337.3000   104.2448     8.6193     7.0307
  337.4000   105.0014     8.5403     6.9389
  337.5000   105.7576     8.4621     6.9053
  337.6000   106.7642     8.4137     6.8153
  337.7000   107.7714     8.3651     6.7330
  337.8000   108.9238     8.2705     6.6948
  337.9000   110.1809     8.1761     6.6554
  338.0000   111.5998     8.1095     6.5669
  338.1000   113.9687     8.0632     6.5359
  338.2000   116.3575     8.0170     6.5223
  338.3000   118.4951     7.9695     6.5227
  338.4000   120.1042     7.8820     6.5231
  338.5000   121.5236     7.8258     6.5235
  338.6000   123.2250     7.7566     6.4789
  338.7000   124.6041     7.6831     6.4792
  338.8000   125.2870     7.6392     6.4571
  338.9000   126.0436     7.5925     6.4204
  339.0000   126.5576     7.5521     6.3911
  339.1000   126.7442     7.4776     6.3915
  339.2000   126.7491     7.4143     6.3919
  339.3000   126.7546     7.3719     6.3923
  339.4000   126.7588     7.3297     6.3713
  339.5000   126.6020     7.2838     6.3490
  339.6000   126.2473     7.2462     6.3494
  339.7000   125.8076     7.2048     6.3498
  339.8000   125.5621     7.1636     6.3501
  339.9000   125.2688     7.1226     6.3505
  340.0000   125.2727     7.0852     6.3509
  340.1000   125.2776     7.0854     6.3513
  340.2000   125.3793     7.0500     6.3462
  340.3000   125.6791     7.0097     6.3082
  340.4000   126.2014     6.9696     6.3086
  340.5000   126.6909     6.9400     6.3090
  340.6000   127.3864     6.9382     6.3094
  340.7000   127.8682     6.8924     6.3098
  340.8000   128.1237     6.8925     6.3102
  340.9000   128.3466     6.8928     6.3106
  341.0000   128.3519     6.8930     6.3110
  341.1000   128.1260     6.8931     6.3114
  341.2000   128.0582     6.8924     6.3118
  341.3000   127.9378     6.8458     6.3121
  341.4000   127.6195     6.8139     6.3125
  341.5000   127.1433     6.7988     6.3130
  341.6000   126.8661     6.7990     6.3134
  341.7000   126.6522     6.7914     6.3137
  341.8000   126.4066     6.7523     6.3141
  341.9000   126.1609     6.7525     6.3145
  342.0000   125.9152     6.7527     6.3117
  342.1000   125.6695     6.7529     6.2717
  342.2000   125.3803     6.7531     6.2721
  342.3000   125.1782     6.7532     6.2724
  342.4000   124.9325     6.7534     6.2728
  342.5000   124.6869     6.7536     6.2732
  342.6000   124.4413     6.7538     6.2736
  342.7000   124.1916     6.7540     6.2741
  342.8000   124.1964     6.7542     6.2744
  342.9000   124.0073     6.7543     6.2748
  343.0000   123.9031     6.7546     6.2752
  343.1000   123.8190     6.7548     6.2756
  343.2000   123.6090     6.7549     6.2759
  343.3000   123.6149     6.7551     6.2764
  343.4000   123.6194     6.7554     6.2767
  343.5000   123.6242     6.7555     6.2772
  343.6000   123.6291     6.7557     6.2775
  343.7000   123.6340     6.7559     6.2779
  343.8000   123.6388     6.7561     6.2783
  343.9000   123.6442     6.7563     6.2788
  344.0000   123.6485     6.7564     6.3089
  344.1000   123.8230     6.7566     6.3232
  344.2000   124.0784     6.7568     6.3236
  344.3000   124.3337     6.7570     6.3240
  344.4000   124.5892     6.7572     6.3244
  344.5000   124.8856     6.7574     6.3248
  344.6000   125.3100     6.7575     6.3544
  344.7000   125.8158     6.7577     6.3915
  344.8000   126.4266     6.7580     6.4143
  344.9000   127.1832     6.7581     6.4215
  345.0000   127.9394     6.7583     6.4598
  345.1000   128.6961     6.7585     6.4968
  345.2000   129.4524     6.7587     6.5347
  345.3000   130.3540     6.7589     6.5729
  345.4000   131.5465     6.7591     6.6112
  345.5000   132.9736     6.7592     6.6498
  345.6000   134.0293     6.7595     6.6902
  345.7000   135.2260     6.7597     6.7277
  345.8000   136.2972     6.7598     6.7376
  345.9000   137.1709     6.7600     6.7594
  346.0000   137.8466     6.7602     6.7853
  346.1000   138.3240     6.7604     6.7858
  346.2000   138.6041     6.7606     6.7862
  346.3000   138.6085     6.7608     6.7866
  346.4000   138.7872     6.7609     6.7870
  346.5000   138.9212     6.7611     6.7875
  346.6000   138.9260     6.7613     6.7753
  346.7000   138.9309     6.7615     6.7413
  346.8000   138.9365     6.7617     6.7419
  346.9000   138.9406     6.7619     6.7423
  347.0000   138.7839     6.7620     6.7152
  347.1000   138.5383     6.7623     6.6771
  347.2000   138.2359     6.7260     6.6391
  347.3000   137.7359     6.7158     6.6014
  347.4000   136.8446     6.7160     6.5599
  347.5000   136.2426     6.7162     6.5266
  347.6000   135.6453     6.7164     6.5153
  347.7000   135.0522     6.7166     6.4796
  347.8000   134.2612     6.6817     6.4263
  347.9000   133.2317     6.6704     6.4239
  348.0000   132.5091     6.6706     6.3828
  348.1000   132.1423     6.6708     6.3512
  348.2000   132.0340     6.6710     6.3151
  348.3000   132.1237     6.6712     6.2793
  348.4000   132.4113     6.6377     6.2529
  348.5000   132.9580     6.6254     6.2513
  348.6000   133.1928     6.6256     6.2105
  348.7000   133.2703     6.6157     6.2108
  348.8000   133.4003     6.5801     6.2112
  348.9000   133.5830     6.5803     6.1958
  349.0000   133.5879     6.5804     6.1690
  349.1000   133.5934     6.5562     6.1683
  349.2000   133.5976     6.5353     6.1272
  349.3000   133.6024     6.5354     6.0984
  349.4000   133.6073     6.5356     6.0856
  349.5000   133.5516     6.5358     6.0713
  349.6000   133.3138     6.5359     6.0443
  349.7000   133.3196     6.5130     6.0446
  349.8000   133.3236     6.4911     6.0451
  349.9000   133.3285     6.4836     6.0174
  350.0000   133.1118     6.4465     6.0040
  350.1000   132.5672     6.4355     6.0044
  350.2000   132.0225     6.4244     6.0048
  350.3000   131.4779     6.4134     6.0051
  350.4000   130.9261     6.4023     5.9714
  350.5000   130.6819     6.3913     5.9644
  350.6000   130.2373     6.3802     5.9647
  350.7000   129.8838     6.3692     5.9651
  350.8000   129.6363     6.3583     5.9655
  350.9000   129.3456     6.3584     5.9659
  351.0000   128.8304     6.3585     5.9996
  351.1000   128.3473     6.3586     6.0081
  351.2000   128.4250     6.3586     6.0279
  351.3000   128.5400     6.3587     6.0506
  351.4000   128.6341     6.3588     6.0511
  351.5000   128.8900     6.3589     6.0515
  351.6000   129.1590     6.3590     6.0849
  351.7000   129.6408     6.3591     6.0943
  351.8000   129.7734     6.3591     6.0947
  351.9000   129.6414     6.3592     6.1068
  352.0000   129.3940     6.3594     6.1379
  352.1000   129.1130     6.3595     6.1383
  352.2000   128.5785     6.3596     6.1386
  352.3000   128.3484     6.3597     6.1390
  352.4000   128.1009     6.3597     6.1394
  352.5000   127.9848     6.3510     6.1398
  352.6000   128.0691     6.3159     6.1401
  352.7000   128.3251     6.3160     6.1406
  352.8000   128.6040     6.2853     6.1410
  352.9000   128.8369     6.2725     6.1413
  353.0000   128.9152     6.2563     6.1243
  353.1000   128.9194     6.2291     6.0996
  353.2000   128.9237     6.2274     6.0971
  353.3000   128.9040     6.1862     6.0583
  353.4000   128.6295     6.1863     6.0586
  353.5000   128.4091     6.1630     6.0354
  353.6000   127.9888     6.1274     6.0175
  353.7000   127.4896     6.1012     6.0086
