~VERSION INFORMATION
 VERS.                2.0:   CWLS LOG ASCII STANDARD - VERSION 2.0
 WRAP.                 NO:   ONE LINE PER DEPTH STEP
~WELL INFORMATION
#MNEM.UNIT      DATA TYPE    INFORMATION
#----------   ------------   ------------------------------
 STRT.F           20.0000:   START DEPTH
 STOP.F         2420.0000:   STOP DEPTH
 STEP.F            0.5000:   STEP LENGTH
 NULL.          -999.2500:   NO VALUE
 COMP. FENIX & SCISSON INC:   COMPANY
 WELL.    SHX 15 #71-1-15:   WELL
 FLD .             TEAPOT:   FIELD
 LOC .      S15 T38N R78W:   LOCATION
 CNTY.            NATRONA:   COUNTY
 STAT.            WYOMING:   STATE
 CTRY. UNITED STATES OF AMERICA:   COUNTRY
 SRVC.           BIRDWELL:   SERVICE COMPANY
 DATE.        03-SEP-1978:   LOGDATE
 API .       490251081800:   API NUMBER
~CURVE INFORMATION
#MNEM.UNIT       API CODE    CURVE DESCRIPTION
#----------   ------------   ------------------------------
 DEPT.F                  :   
 CALD.IN     45 280 60 00:   CALIPER
 GRD .GAPI   45 310 01 00:   GAMMA RAY FROM DENSITY LOG
 RHOB.G/C3   45 350 01 00:   BULK DENSITY
 DPHI.DEC    45 890 12 00:   DENSITY POROSITY SANDSTONE
 CORR.G/C3   45 356 01 00:   DENSITY CORRECTION
 NPHI.DEC    42 890 03 00:   NEUTRON POROSITY
~PARAMETER INFORMATION
#MNEM.UNIT          VALUE    DESCRIPTION
#----------   ------------   ------------------------------
 PD  .                 GL:   PERMANENT DATUM
 EPD .F              5249:   ELEVATION PERMANENT DATUM
 LMF .                 KB:   LOG MEASURED FROM
 DAPD.F                10:   FEET ABOVE PERMANENT DATUM
 DMF .                 KB:   DRILLING MEASURED FROM
 EKB .F              5259:   KELLING BUSHING
 EGL .F              5249:   GROUND LEVEL
 DATE.             9-3-78:   RUN DATE
 RUN .                  1:   RUN NUMBER
 DD  .F              2450:   DEPTH DRILLER
 DL  .F              2422:   DEPTH LOGGER
 BLI .F              2420:   BOTTOM LOG INTERVAL
 TLI .F                50:   TOP LOG INTERVAL
 CS  .IN            9.625:   CASING SIZE
 CBD .F               650:   CASING BOTTOM DRILLER
 CBL .F               676:   CASING BOTTOM LOGGER
 BS  .IN             8.75:   BIT SIZE
 BSD .F              2450:   BIT SIZE AT DEPTH
 DFT .           AIR MIST:   DRILLING FLUID TYPE
 LUN .               2958:   LOGGING UNIT NUMBER
 LUL .               CASP:   LOGGING UNIT LOCATION
 ENGI.             MILLER:   RECORDING ENGINEER
 WITN.           MCGINLEY:   WITNESSED BY
 CLNT.            A2DTECH:   CLIENT CODE
 ORIG.         2.5" PRINT:   ORIGIN OF DATA
 UWI .       490251081800:   UNIQUE WELL ID
 DICO. A2D Technologies, Inc.:   DIGITIZING COMPANY
~OTHER INFORMATION
~A   DEPT     CALD        GRD       RHOB       DPHI       CORR         NPHI 
# ...
  696.0000    11.9754   115.1412     2.4512     0.1195     0.0458  -999.2500
  696.5000    11.8825   112.5510     2.5020     0.1120     0.0311  -999.2500
  697.0000    11.7886   111.7937     2.4980     0.1025     0.0304  -999.2500
  697.5000    11.7352   110.4880     2.4984     0.0892     0.0296  -999.2500
  698.0000    11.7319   108.6381     2.4976     0.0916     0.0300  -999.2500
  698.5000    11.7220   108.2563     2.5095     0.0955     0.0232  -999.2500
  699.0000    11.7123   110.2925     2.5120     0.1003     0.0142  -999.2500
  699.5000    11.7038   111.9439     2.4984     0.1096     0.0053  -999.2500
  700.0000    11.6971   111.8030     2.4871     0.1190     0.0028  -999.2500
  700.5000    11.6927   109.4991     2.4746     0.1236     0.0141  -999.2500
  701.0000    11.6882   107.1132     2.4638     0.1268     0.0248  -999.2500
  701.5000    11.6836   106.9394     2.4506     0.1192     0.0257  -999.2500
  702.0000    11.6791   107.0051     2.4691     0.0830     0.0203  -999.2500
  702.5000    11.6746   109.5674     2.5103     0.0888     0.0146  -999.2500
  703.0000    11.6698   117.5035     2.5028     0.0981     0.0102  -999.2500
  703.5000    11.6657   119.8651     2.4815     0.1075     0.0168  -999.2500
  704.0000    11.6606   120.0283     2.4591     0.1187     0.0249  -999.2500
  704.5000    11.6699   118.1875     2.4792     0.1086     0.0342  -999.2500
  705.0000    11.6823   115.7983     2.4894     0.1036     0.0285  -999.2500
  705.5000    11.6951   113.9306     2.4915     0.1044     0.0181  -999.2500
  706.0000    11.7074   113.2752     2.4878     0.1052     0.0073  -999.2500
  706.5000    11.7199   112.8447     2.4822     0.1069     0.0023  -999.2500
  707.0000    11.7333   111.6310     2.4761     0.1092     0.0053  -999.2500
  707.5000    11.7407   109.0273     2.4727     0.1115     0.0073  -999.2500
  708.0000    11.7399   107.2639     2.4712     0.1116     0.0097  -999.2500
  708.5000    11.7400   107.4178     2.4692     0.1036     0.0108  -999.2500
  709.0000    11.7401   107.8181     2.4673     0.1062     0.0128  -999.2500
  709.5000    11.7400   113.5812     2.4661     0.1105     0.0148  -999.2500
  710.0000    11.7400   113.4735     2.4633     0.1139     0.0168  -999.2500
  710.5000    11.7400   112.8455     2.4672     0.1132     0.0188  -999.2500
  711.0000    11.7400   111.3303     2.4724     0.1064     0.0210  -999.2500
  711.5000    11.7400   110.2373     2.4895     0.0996     0.0221  -999.2500
  712.0000    11.7400   111.2082     2.5004     0.0988     0.0220  -999.2500
  712.5000    11.7400   114.2310     2.4944     0.1010     0.0222  -999.2500
  713.0000    11.7400   117.3587     2.4859     0.1037     0.0215  -999.2500
  713.5000    11.7400   118.2008     2.4805     0.1065     0.0256  -999.2500
  714.0000    11.7399   118.1617     2.4886     0.1076     0.0225  -999.2500
  714.5000    11.7399   116.8835     2.4997     0.0972     0.0159  -999.2500
  715.0000    11.7402   115.4622     2.5012     0.0982     0.0093  -999.2500
  715.5000    11.7394   114.0024     2.4976     0.1021     0.0031  -999.2500
  716.0000    11.7404   112.8759     2.4810     0.1103    -0.0018  -999.2500
  716.5000    11.7425   113.0043     2.4643     0.1185     0.0017  -999.2500
  717.0000    11.7866   114.1907     2.4590     0.1283     0.0063  -999.2500
  717.5000    11.8314   116.2623     2.4554     0.1259     0.0109  -999.2500
  718.0000    11.8797   117.7477     2.4567     0.1209     0.0154  -999.2500
  718.5000    11.9230   119.2351     2.4710     0.1003     0.0207  -999.2500
  719.0000    11.9757   120.7048     2.4862     0.1015     0.0181  -999.2500
  719.5000    11.9718   120.9836     2.4863     0.1036     0.0107  -999.2500
  720.0000    11.9627   121.2294     2.4781     0.1092     0.0028  -999.2500
  720.5000    11.9520   121.3724     2.4705     0.1148     0.0052  -999.2500
  721.0000    11.9412   121.6108     2.4621     0.1234     0.0094  -999.2500
  721.5000    11.9402   121.2049     2.4622     0.1202     0.0124  -999.2500
  722.0000    11.9397   120.6284     2.4657     0.1116     0.0141  -999.2500
  722.5000    11.9487   120.0874     2.4716     0.1030     0.0356  -999.2500
  723.0000    11.9777   119.7104     2.4853     0.0988     0.0470  -999.2500
  723.5000    11.9676   120.4467     2.4848     0.0956     0.0452  -999.2500
  724.0000    11.9527   120.7078     2.4872     0.0964     0.0508  -999.2500
  724.5000    11.9367   121.0616     2.4794     0.1064     0.0383  -999.2500
  725.0000    11.9218   121.3127     2.4606     0.1163     0.0299  -999.2500
  725.5000    11.9059   121.5542     2.4570     0.1246     0.0401  -999.2500
  726.0000    11.8986   120.3200     2.4507     0.1316     0.0475  -999.2500
  726.5000    11.8973   119.1027     2.4390     0.1409     0.0634  -999.2500
  727.0000    11.8954   118.0894     2.4227     0.1374     0.0825  -999.2500
  727.5000    11.8936   119.6381     2.4341     0.1309     0.1064  -999.2500
  728.0000    11.8919   121.6410     2.4710     0.1244     0.1281  -999.2500
  728.5000    11.8902   123.5100     2.4882     0.1120     0.0504  -999.2500
  729.0000    11.8884   123.4397     2.4816     0.0949     0.0480  -999.2500
  729.5000    11.8867   122.3354     2.4911     0.0970     0.0449  -999.2500
  730.0000    11.8849   119.1062     2.4982     0.0987     0.0462  -999.2500
  730.5000    11.8832   115.7214     2.4910     0.1004     0.0470  -999.2500
  731.0000    11.8814   114.9407     2.4822     0.0986     0.0494  -999.2500
  731.5000    11.8797   115.0148     2.4896     0.0955     0.0520  -999.2500
  732.0000    11.8779   115.7046     2.4964     0.0915     0.0537  -999.2500
  732.5000    11.8761   115.3791     2.5034     0.0891     0.0439  -999.2500
  733.0000    11.8744   113.8394     2.5085     0.0927     0.0344  -999.2500
  733.5000    11.8726   112.5178     2.5026     0.0988     0.0340  -999.2500
  734.0000    11.8709   111.7626     2.5016     0.0983     0.0333  -999.2500
  734.5000    11.8691   111.8225     2.5033     0.0975     0.0247  -999.2500
  735.0000    11.8674   112.4007     2.4986     0.0972     0.0177  -999.2500
  735.5000    11.8656   111.2300     2.4899     0.1026     0.0103  -999.2500
  736.0000    11.8639   109.3445     2.4817     0.1082     0.0101  -999.2500
  736.5000    11.8621   106.7185     2.4737     0.1145     0.0104  -999.2500
  737.0000    11.8600   102.5759     2.4662     0.1195     0.0109  -999.2500
  737.5000    11.8513   101.2249     2.4646     0.1195     0.0113  -999.2500
  738.0000    11.8400   101.7620     2.4639     0.1195     0.0117  -999.2500
  738.5000    11.8289   101.9447     2.4628     0.1150     0.0121  -999.2500
  739.0000    11.8177   101.1848     2.4672     0.1113     0.0125  -999.2500
  739.5000    11.8067   101.1782     2.4751     0.1076     0.0129  -999.2500
  740.0000    11.7956   102.6308     2.4830     0.1056     0.0133  -999.2500
  740.5000    11.7842   104.8320     2.4877     0.1036     0.0137  -999.2500
  741.0000    11.7801   111.9897     2.4857     0.1046     0.0140  -999.2500
  741.5000    11.7863   113.5907     2.4848     0.1064     0.0132  -999.2500
  742.0000    11.7912   115.6441     2.4740     0.1081     0.0122  -999.2500
  742.5000    11.7964   116.7314     2.4763     0.1084     0.0112  -999.2500
  743.0000    11.8015   118.3545     2.4796     0.1064     0.0102  -999.2500
  743.5000    11.8066   120.6348     2.4837     0.1062     0.0092  -999.2500
  744.0000    11.8118   120.0285     2.4851     0.1089     0.0082  -999.2500
  744.5000    11.8169   118.8279     2.4805     0.1116     0.0072  -999.2500
  745.0000    11.8221   115.5241     2.4743     0.1124     0.0061  -999.2500
  745.5000    11.8272   112.2785     2.4702     0.1125     0.0060  -999.2500
  746.0000    11.8323   109.6492     2.4692     0.1126     0.0060  -999.2500
  746.5000    11.8374   108.4380     2.4691     0.1128     0.0060  -999.2500
  747.0000    11.8426   108.4199     2.4691     0.1129     0.0060  -999.2500
  747.5000    11.8477   110.7272     2.4692     0.1130     0.0060  -999.2500
