~VERSION INFORMATION
 VERS.                2.0:   CWLS LOG ASCII STANDARD - VERSION 2.0
 WRAP.                 NO:   ONE LINE PER DEPTH STEP
~WELL INFORMATION
#MNEM.UNIT      DATA TYPE    INFORMATION
#----------   ------------   ------------------------------
 STRT.F           30.0000:   START DEPTH
 STOP.F          733.0000:   STOP DEPTH
 STEP.F            0.5000:   STEP LENGTH
 NULL.          -999.2500:   NO VALUE
 COMP. FENIX & SCISSON INC:   COMPANY
 WELL.    NPR-3 #51 S -34:   WELL
 FLD .             TEAPOT:   FIELD
 LOC .      S34 T39N R78W:   LOCATION
 CNTY.            NATRONA:   COUNTY
 STAT.            WYOMING:   STATE
 CTRY. UNITED STATES OF AMERICA:   COUNTRY
 SRVC.      Dresser Atlas:   SERVICE COMPANY
 DATE.        20-MAR-1977:   LOGDATE
 API .       490251031600:   API NUMBER
~CURVE INFORMATION
#MNEM.UNIT       API CODE    CURVE DESCRIPTION
#----------   ------------   ------------------------------
 DEPT.F                  :   
 CALD.IN     45 280 60 00:   CALIPER FROM DENSITY LOG
 GRD .GAPI   45 310 01 00:   GAMMA RAY FROM DENSITY LOG
 CORR.G/C3   45 356 01 00:   DENSITY CORRECTION
 DPHI.DEC    45 890 12 00:   DENSITY POROSITY SANDSTONE
 RHOB.G/C3   45 350 01 00:   BULK DENSITY
 SPR .MV     07 010 01 00:   SPONTANEOUS POTENTIAL
 ILD .OHMM   07 120 46 00:   INDUCTION LOG DEEP
 ILM .OHMM   07 120 44 00:   INDUCTION LOG MEDIUM
 SFL .OHMM   07 220 01 00:   SHALLOW FOCUSED LOG RESISTIVITY
~PARAMETER INFORMATION
#MNEM.UNIT          VALUE    DESCRIPTION
#----------   ------------   ------------------------------
 PD  .                 GL:   PERMANENT DATUM
 EPD .F              5065:   ELEVATION PERMANENT DATUM
 LMF .                 KB:   LOG MEASURED FROM
 DAPD.F                 4:   FEET ABOVE PERMANENT DATUM
 DMF .                 KB:   DRILLING MEASURED FROM
 EKB .F              5069:   KELLING BUSHING
 EGL .F              5065:   GROUND LEVEL
 DATE.        20-MAR-1977:   RUN DATE
 RUN .                  1:   RUN NUMBER
 DD  .F               735:   DEPTH DRILLER
 DL  .F               731:   DEPTH LOGGER
 BLI .F               729:   BOTTOM LOG INTERVAL
 TLI .F                42:   TOP LOG INTERVAL
 CS  .IN            8.625:   CASING SIZE
 CBD .F                40:   CASING BOTTOM DRILLER
 CBL .F                42:   CASING BOTTOM LOGGER
 BS  .IN            7.875:   BIT SIZE
 BSD .F               735:   BIT SIZE AT DEPTH
 DFT .           CHEM GEL:   DRILLING FLUID TYPE
 DFD .                9.0:   DRILLING FLUID DENSITY
 DFV .                 38:   DRILLING FLUID VISCOSITY
 DFPH.                8.5:   DRILLING FLUID PH
 DFL .                 72:   DRILLING FLUID LOSS
 MSS .           FLOWLINE:   MUD SAMPLE SOURCE
 RMS .OHMM             .4:   RESISTIVITY MUD SAMPLE
 MST .F                51:   MUD SAMPLE TEMPERATURE
 RMF .OHMM            .72:   RESISTIVITY MUD FILTRATE SAMPLE
 MFST.F                48:   MUD FILTRATE SAMPLE TEMPERATURE
 RMC .OHMM           1.16:   RESISTIVITY MUD CAKE
 MCST.F                48:   MUD CAKE SAMPLE TEMPERATURE
 MFSS.               MEAS:   MUD FILTRATE SAMPLE SOURCE
 MCSS.               MEAS:   MUD CAKE SAMPLE SOURCE
 RMB .OHMM            .31:   RESISTIVITY MUD AT BHT
 BHT .F                66:   BOTTOM HOLE TEMPERATURE
 TCS .HRS            0300:   TIME CURCULATED STOPPED
 MRT .F                66:   MAXIMUM RECORDED TEMPERATURE
 LUN .               6145:   LOGGING UNIT NUMBER
 LUL .              GLTTE:   LOGGING UNIT LOCATION
 ENGI.              RANCK:   RECORDING ENGINEER
 WITN.              BURKE:   WITNESSED BY
 CLNT.            A2DTECH:   CLIENT CODE
 ORIG.           5" PRINT:   ORIGIN OF DATA
 UWI .       490251031600:   UNIQUE WELL ID
 DICO. A2D Technologies, Inc.:   DIGITIZING COMPANY
~OTHER INFORMATION
~A   DEPT     CALD        GRD       CORR       DPHI       RHOB        SPR        ILD        ILM        SFL   
# ...
   66.5000     7.4693   106.2107     0.1551     0.2994     2.0757   -34.0353     2.2481     2.8566     2.7048
   67.0000     7.4563    99.8133     0.1356     0.2994     2.0503   -34.7671     2.2335     2.9387     2.7245
   67.5000     8.3999    95.7998     0.1117     0.2994     2.0201   -35.3507     2.2978     3.0231     3.1733
   68.0000     8.7905    93.7266     0.0832     0.2994     2.0000   -35.7850     2.4638     3.1315     4.7406
   68.5000     8.8821    86.5788     0.0532     0.2997     2.0228   -35.9208     2.6235     3.2439     4.9431
   69.0000     8.8691    79.1325     0.0368     0.2997     2.0800   -35.7581     2.8522     3.4071     4.8100
   69.5000     8.7664    80.3429     0.0324     0.2979     2.2498   -35.5953     3.1224     3.5294     4.6161
   70.0000     8.3349    89.7623     0.0325     0.2236     2.2999   -35.4326     3.3947     3.7070     4.4482
   70.5000     8.2471    90.2223     0.0357     0.2134     2.3067   -35.4191     3.5405     3.8400     4.2397
   71.0000     8.2640    88.0040     0.0403     0.2077     2.3151   -34.9579     3.5671     3.9231     4.1366
   71.5000     8.2959    86.3786     0.0435     0.1999     2.3257   -34.9445     3.5200     3.9255     4.4829
   72.0000     8.3127    88.1860     0.0451     0.1891     2.3370   -35.0802     3.3323     3.8206     4.7596
   72.5000     8.3296    87.9039     0.0468     0.1846     2.3468   -35.2164     3.2207     3.7186     4.9223
   73.0000     8.3166    86.7262     0.0424     0.1813     2.3537   -35.3522     3.1999     3.6697     4.8444
   73.5000     8.3036    85.1008     0.0410     0.1799     2.3583   -35.3383     3.2919     3.5965     4.6173
   74.0000     8.2906    86.4605     0.0412     0.1834     2.3569   -35.4746     3.3166     3.5242     4.4675
   74.5000     8.2776    87.9694     0.0413     0.1903     2.3457   -35.6104     3.3224     3.4544     4.3122
   75.0000     8.2795    88.4335     0.0369     0.1999     2.3225   -35.7463     3.2746     3.4090     4.1433
   75.5000     8.2665    88.3000     0.0325     0.2116     2.3062   -35.7322     3.1432     3.3405     4.0318
   76.0000     8.2685    88.7648     0.0236     0.2299     2.2877   -35.8687     2.9551     3.2070     3.9275
   76.5000     8.2704    86.9901     0.0087     0.2394     2.2545   -36.3023     2.7590     3.0784     3.9605
   77.0000     8.2723    89.8423    -0.0138     0.2552     2.2224   -36.5907     2.6483     2.9143     4.1055
   77.5000     8.2583    88.3661    -0.0332     0.2664     2.2081   -37.0250     2.5932     2.7590     4.2807
   78.0000     8.2302    89.5766    -0.0466     0.2742     2.1991   -37.6086     2.6512     2.6119     4.4235
   78.5000     8.2034    90.3392    -0.0525     0.2799     2.1888   -38.0429     2.6162     2.5951     3.9190
   79.0000     8.2054    90.8033    -0.0358     0.2754     2.1955   -38.3279     2.5286     2.6152     3.5657
   79.5000     8.2073    92.6108    -0.0040     0.2726     2.2088   -38.7622     2.4440     2.6718     3.4017
   80.0000     8.2242    95.9107    -0.0069     0.2876     2.1762   -39.1931     2.3785     2.7295     3.3102
   80.5000     8.2284    97.7181    -0.0053     0.2858     2.1735   -39.4782     2.3310     2.7312     3.7708
   81.0000     8.2430    98.0398     0.0009     0.2744     2.2012   -39.7632     2.3002     2.7519     4.4139
   81.5000     8.2599    97.7507     0.0070     0.2570     2.2487   -39.9024     2.2542     2.7537     4.6261
   82.0000     8.2768    96.5732     0.0328     0.2075     2.3163   -39.7396     2.2091     2.7171     4.6161
   82.5000     8.2792    90.6195     0.0480     0.1993     2.3232   -40.0213     2.1951     2.6449     4.1597
   83.0000     8.2960    89.5911     0.0496     0.2062     2.3187   -40.1605     2.1512     2.5565     3.8066
   83.5000     8.2980    89.3089     0.0498     0.2149     2.2881   -40.4422     2.1227     2.4539     3.5756
   84.0000     8.2999    92.1672     0.0483     0.2311     2.2657   -40.5813     2.0374     2.3719     3.3871
   84.5000     8.3019    93.3751     0.0410     0.2439     2.2485   -40.8663     1.9549     2.2926     3.3466
   85.0000     8.3038    93.6864     0.0381     0.2544     2.2313   -41.0021     1.8001     2.1704     3.4179
   85.5000     8.3057    93.4043     0.0382     0.2559     2.2262   -41.2838     1.7644     2.0690     3.4931
   86.0000     8.3221    93.5702     0.0399     0.2562     2.2300   -41.2703     1.7296     1.9860     3.5899
   86.5000     8.3091    92.0468     0.0400     0.2577     2.2331   -41.4061     1.7060     1.9461     3.3703
   87.0000     8.3115    89.3801     0.0402     0.2601     2.2227   -41.3927     1.7077     1.9208     3.2142
   87.5000     8.2980    88.3952     0.0373     0.2658     2.2100   -41.3792     1.7577     1.9354     3.1079
   88.0000     8.2701    89.0229     0.0314     0.2699     2.2034   -41.3657     1.8730     2.0328     3.1306
   88.5000     8.2426    90.5950     0.0255     0.2754     2.1982   -41.2030     2.0225     2.2724     3.2470
   89.0000     8.2291    93.5702     0.0181     0.2745     2.1953   -41.0403     2.3480     2.5757     3.6822
   89.5000     8.2161    94.2816     0.0092     0.2677     2.1931   -40.7283     2.7700     2.8200     4.7947
   90.0000     8.2031    93.8308     0.0078     0.2371     2.2307   -40.2671     3.0940     3.0241     5.5319
   90.5000     8.2055    93.7173     0.0230     0.1735     2.3160   -40.1044     3.2435     3.1984     5.6056
   91.0000     8.2075    93.8836     0.0382     0.1639     2.3727   -39.9416     3.3136     3.3362     4.7424
   91.5000     8.2094    95.5007     0.0384     0.1657     2.3803   -40.0774     3.3349     3.4083     4.3399
   92.0000     8.2263   100.1871     0.0385     0.1666     2.3774   -40.0640     3.2909     3.3869     4.1971
   92.5000     8.2282   101.6960     0.0416     0.1678     2.3752   -40.2031     3.1988     3.3193     4.2292
   93.0000     8.2301   102.4587     0.0493     0.1683     2.3738   -40.3389     3.0834     3.2531     4.2881
   93.5000     8.2321   103.3706     0.0525     0.1692     2.3731   -40.4747     2.9107     3.1444     4.2895
   94.0000     8.2490   104.2825     0.0571     0.1698     2.3733   -40.3086     2.7554     3.0183     4.1728
   94.5000     8.2509   104.1496     0.0633     0.1713     2.3718   -40.4478     2.5198     2.8972     4.0876
   95.0000     8.2528   103.7182     0.0664     0.1746     2.3682   -40.2817     2.3689     2.7811     3.9512
   95.5000     8.2548   103.1376     0.0696     0.1793     2.3615   -40.2682     2.1965     2.6881     3.8183
   96.0000     8.2413   101.2136     0.0742     0.1871     2.3526   -40.2547     2.0794     2.5803     3.7162
   96.5000     8.2437   101.6778     0.0759     0.1925     2.3354   -40.2413     1.9685     2.4597     3.6161
   97.0000     8.2456   101.2464     0.0730     0.1985     2.3213   -40.3804     1.9158     2.3286     3.5426
   97.5000     8.2321    98.7254     0.0596     0.2080     2.3101   -40.3636     1.8903     2.2198     3.4952
   98.0000     8.2346    96.6523     0.0431     0.2143     2.2975   -40.5028     1.8916     2.2212     3.3774
   98.5000     8.2365    95.9224     0.0342     0.2236     2.2788   -40.4859     1.9057     2.2692     3.2641
   99.0000     8.2384    97.5806     0.0314     0.2296     2.2683   -40.6251     1.9603     2.4000     3.1984
   99.5000     8.2254    98.7910     0.0300     0.2338     2.2616   -40.7609     2.0730     2.5559     3.1775
  100.0000     8.2269    99.2551     0.0271     0.2352     2.2586   -40.6900     2.1908     2.8376     3.8578
  100.5000     8.2111    98.8380     0.0267     0.2307     2.2639   -40.2790     2.3589     3.1942     4.6836
  101.0000     8.1975    98.2447     0.0262     0.2133     2.2827   -40.2611     2.5903     3.5215     5.0555
  101.5000     8.1839    99.0154     0.0290     0.1863     2.3352   -40.2431     2.9149     3.7504     4.9193
  102.0000     8.1704   100.2290     0.0307     0.1614     2.3817   -40.2251     3.4669     3.9119     4.6817
  102.5000     8.1568    99.8007     0.0278     0.1623     2.3840   -40.2072     3.8211     4.0341     4.5618
