~VERSION INFORMATION
 VERS.                2.0:   CWLS LOG ASCII STANDARD - VERSION 2.0
 WRAP.                 NO:   ONE LINE PER DEPTH STEP
~WELL INFORMATION
#MNEM.UNIT      DATA TYPE    INFORMATION
#----------   ------------   ------------------------------
 STRT.F            4.0000:   START DEPTH
 STOP.F          614.0000:   STOP DEPTH
 STEP.F            0.1000:   STEP LENGTH
 NULL.          -999.2500:   NO VALUE
 COMP.   FLUOR DANIEL INC:   COMPANY
 WELL.     63-4 X 3 #63-3:   WELL
 FLD .          N.P.R. #3:   FIELD
 LOC .       S3 T38N R78W:   LOCATION
 CNTY.            NATRONA:   COUNTY
 STAT.            WYOMING:   STATE
 CTRY. UNITED STATES OF AMERICA:   COUNTRY
 SRVC.      Western Atlas:   SERVICE COMPANY
 DATE.        01-JUN-1995:   LOGDATE
 API .       490252271300:   API NUMBER
~CURVE INFORMATION
#MNEM.UNIT       API CODE    CURVE DESCRIPTION
#----------   ------------   ------------------------------
 DEPT.F                  :   
 GRR .GAPI   07 310 01 00:   GAMMA RAY
 RILD.OHMM   07 120 46 00:   INDUCTION LOG DEEP RESISTIVITY
 RILM.OHMM   07 120 44 00:   INDUCTION LOG MEDIUM RESISTIVITY
~PARAMETER INFORMATION
#MNEM.UNIT          VALUE    DESCRIPTION
#----------   ------------   ------------------------------
 PD  .                 GL:   PERMANENT DATUM
 EPD .F              5173:   ELEVATION PERMANENT DATUM
 LMF .                 KB:   LOG MEASURED FROM
 DAPD.F                10:   FEET ABOVE PERMANENT DATUM
 DMF .                 KB:   DRILLING MEASURED FROM
 EKB .F              5183:   KELLING BUSHING
 EDF .F              5182:   DRILLING FLOOR
 EGL .F              5173:   GROUND LEVEL
 DATE.        01-JUN-1995:   RUN DATE
 RUN .                  1:   RUN NUMBER
 DD  .F               626:   DEPTH DRILLER
 DL  .F               622:   DEPTH LOGGER
 BLI .F               614:   BOTTOM LOG INTERVAL
 TLI .F                95:   TOP LOG INTERVAL
 CS  .IN            9.625:   CASING SIZE
 CBD .F                95:   CASING BOTTOM DRILLER
 CBL .F                95:   CASING BOTTOM LOGGER
 BS  .IN             8.75:   BIT SIZE
 BSD .F               626:   BIT SIZE AT DEPTH
 DFT .                AIR:   DRILLING FLUID TYPE
 MRT .F               147:   MAXIMUM RECORDED TEMPERATURE
 LUN .            HL 6530:   LOGGING UNIT NUMBER
 LUL .             CASPER:   LOGGING UNIT LOCATION
 ENGI.        VERN RAUTIO:   RECORDING ENGINEER
 WITN.        STEVE HARDY:   WITNESSED BY
 CLNT.            A2DTECH:   CLIENT CODE
 ORIG.           5" PRINT:   ORIGIN OF DATA
 UWI .       490252271300:   UNIQUE WELL ID
 DICO. A2D Technologies, Inc.:   DIGITIZING COMPANY
~OTHER INFORMATION
~A    DEPT       GRR     RILD       RILM   
# ...
  331.6000   126.5738     4.6731     4.9390
  331.7000   126.2368     4.7016     5.0112
  331.8000   125.7211     4.7346     5.0828
  331.9000   125.1885     4.7579     5.1607
  332.0000   124.1909     4.7680     5.1931
  332.1000   123.3653     4.7960     5.2629
  332.2000   122.7536     4.8443     5.2906
  332.3000   122.3558     4.8734     5.3223
  332.4000   122.1719     4.9030     5.3371
  332.5000   122.1719     4.9718     5.3491
  332.6000   122.1719     4.9965     5.3811
  332.7000   122.4161     5.0265     5.4134
  332.8000   122.6739     5.0869     5.4503
  332.9000   122.9317     5.1583     5.4785
  333.0000   123.5273     5.1944     5.5113
  333.1000   124.4211     5.2569     5.5443
  333.2000   124.9369     5.3307     5.5775
  333.3000   125.4902     5.4110     5.6109
  333.4000   125.9680     5.4868     5.6451
  333.5000   126.2886     5.5527     5.7230
  333.6000   126.3952     5.6195     5.7521
  333.7000   126.3952     5.6870     5.7866
  333.8000   126.3952     5.7553     5.8389
  333.9000   126.4149     5.8357     5.9087
  334.0000   126.6968     5.8946     5.9733
  334.1000   127.1642     5.9655     6.0091
  334.2000   127.8696     6.0373     6.0931
  334.3000   128.6431     6.1098     6.1235
  334.4000   129.4166     6.1767     6.1846
  334.5000   130.1318     6.2143     6.2402
  334.6000   130.6473     6.3005     6.2776
  334.7000   131.2217     6.3647     6.3211
  334.8000   131.6786     6.4413     6.3976
  334.9000   132.0096     6.5389     6.4424
  335.0000   131.9859     6.6291     6.4740
  335.1000   131.8250     6.6763     6.4878
  335.2000   131.7719     6.7558     6.5067
  335.3000   131.5234     6.8024     6.5456
  335.4000   131.5234     6.8373     6.5849
  335.5000   131.3002     6.8784     6.6254
  335.6000   131.0423     6.9198     6.6258
  335.7000   130.9201     6.9466     6.6261
  335.8000   130.9201     6.9549     6.6265
  335.9000   130.9679     6.9956     6.6268
  336.0000   131.2257     6.9959     6.6272
  336.1000   131.5234     7.0321     6.6276
  336.2000   131.9594     7.0452     6.6280
  336.3000   132.4750     7.0455     6.6283
  336.4000   133.1209     7.0458     6.6287
  336.5000   133.6350     7.0461     6.6290
  336.6000   133.5924     7.0464     6.6294
  336.7000   133.3333     7.0467     6.6298
  336.8000   132.7300     7.0470     6.6301
  336.9000   132.3045     7.0179     6.6305
  337.0000   131.6199     6.9988     6.6309
  337.1000   130.8465     6.9991     6.6312
  337.2000   130.0730     6.9994     6.6316
  337.3000   129.3369     6.9997     6.6320
  337.4000   128.8084     7.0000     6.6323
  337.5000   128.2051     7.0003     6.6327
  337.6000   127.7900     6.9711     6.6331
  337.7000   127.2744     6.9524     6.6334
  337.8000   126.7588     6.9371     6.6338
  337.9000   126.1671     6.8962     6.6111
  338.0000   125.4258     6.8574     6.5888
  338.1000   124.8869     6.8578     6.5892
  338.2000   124.3946     6.8580     6.5895
  338.3000   123.4743     6.8292     6.5899
  338.4000   123.0769     6.8111     6.5903
  338.5000   123.1916     6.8114     6.5906
  338.6000   123.5910     6.8117     6.5910
  338.7000   124.4183     6.8120     6.5914
  338.8000   125.7919     6.8123     6.5917
  338.9000   126.7553     6.8126     6.5921
  339.0000   127.3926     6.8128     6.5925
  339.1000   127.7551     6.8131     6.5928
  339.2000   128.0129     6.8134     6.5932
  339.3000   128.1396     6.8137     6.5935
  339.4000   127.9035     6.8140     6.5939
  339.5000   127.9035     6.8143     6.5943
  339.6000   127.6678     6.8145     6.5946
  339.7000   127.6018     6.8148     6.5950
  339.8000   127.4538     6.7923     6.5954
  339.9000   127.0918     6.7683     6.5957
  340.0000   126.6968     6.7592     6.5749
  340.1000   126.6804     6.7220     6.5510
  340.2000   126.3952     6.7223     6.5433
  340.3000   125.9342     6.6866     6.5065
  340.4000   125.6052     6.6763     6.5069
  340.5000   125.4902     6.6766     6.5072
  340.6000   125.3912     6.6608     6.4807
  340.7000   125.1334     6.6310     6.4631
  340.8000   124.8869     6.6283     6.4634
  340.9000   124.8869     6.5857     6.4638
  341.0000   124.6616     6.5860     6.4642
  341.1000   124.4038     6.5572     6.4646
  341.2000   124.2836     6.5409     6.4649
  341.3000   124.2836     6.5412     6.4652
  341.4000   124.4330     6.5415     6.4656
  341.5000   125.2065     6.5418     6.4659
  341.6000   126.0935     6.5421     6.4663
  341.7000   126.7536     6.5423     6.4667
  341.8000   127.5271     6.5719     6.4671
  341.9000   128.1681     6.5884     6.4353
  342.0000   128.6837     6.5887     6.4231
  342.1000   129.1101     6.5890     6.4045
  342.2000   129.1109     6.5892     6.3795
  342.3000   129.4118     6.5895     6.3738
  342.4000   129.4118     6.5898     6.3363
  342.5000   129.2408     6.6199     6.3367
  342.6000   129.1101     6.6362     6.3370
  342.7000   129.1101     6.6365     6.3373
  342.8000   129.1101     6.6368     6.3377
  342.9000   129.1101     6.6371     6.3380
  343.0000   129.1101     6.6374     6.3384
  343.1000   129.1101     6.6376     6.3387
  343.2000   129.1101     6.6682     6.3391
  343.3000   129.1101     6.6844     6.3394
  343.4000   129.1101     6.6847     6.3158
  343.5000   129.1443     6.6743     6.2964
  343.6000   129.4118     6.6390     6.2967
  343.7000   129.6600     6.6393     6.2921
  343.8000   129.9177     6.6396     6.2540
  343.9000   130.3360     6.6398     6.2544
  344.0000   130.7350     6.6401     6.2254
  344.1000   130.9928     6.6404     6.1890
  344.2000   131.2217     6.6298     6.1694
  344.3000   131.2217     6.5950     6.1698
  344.4000   131.2217     6.5953     6.1701
  344.5000   131.2217     6.5586     6.1705
  344.6000   131.2217     6.5502     6.1708
  344.7000   131.1103     6.5266     6.1711
  344.8000   130.8524     6.5054     6.1715
  344.9000   130.5946     6.4948     6.1718
  345.0000   130.3167     6.4565     6.1721
  345.1000   130.0791     6.4166     6.1687
  345.2000   130.0151     6.3806     6.1303
  345.3000   130.0151     6.3430     6.1306
  345.4000   130.0151     6.3056     6.1033
  345.5000   130.0151     6.2684     6.0890
  345.6000   130.0336     6.2208     6.0740
  345.7000   130.3167     6.1519     6.0385
  345.8000   130.7816     6.1141     6.0063
  345.9000   131.2973     6.0795     6.0067
  346.0000   131.9578     6.0153     5.9420
  346.1000   132.9334     5.9665     5.8985
  346.2000   134.2224     5.9314     5.8440
  346.3000   135.4847     5.8861     5.7895
  346.4000   136.3499     5.8210     5.7475
  346.5000   136.8044     5.7855     5.6826
  346.6000   136.9532     5.6870     5.6462
  346.7000   136.9532     5.5603     5.5567
  346.8000   136.9532     5.3895     5.4829
  346.9000   136.9014     5.2290     5.4007
  347.0000   136.6516     5.1061     5.3059
  347.1000   136.6516     4.9899     5.1990
  347.2000   136.4296     4.8992     5.0491
  347.3000   136.1717     5.0724     4.9183
  347.4000   135.7795     5.1465     4.8928
  347.5000   135.3545     5.1994     4.8642
  347.6000   135.1433     5.2307     4.8357
  347.7000   135.1461     5.2621     4.8183
  347.8000   135.4449     5.2892     4.8186
  347.9000   135.6617     5.2894     4.8189
  348.0000   136.0925     5.2168     4.8192
  348.1000   136.4790     5.1918     4.8194
  348.2000   136.8221     5.1217     4.8197
  348.3000   137.2963     5.0170     4.8199
  348.4000   137.5566     4.9265     4.8202
  348.5000   137.5566     4.8974     4.8148
  348.6000   137.7682     4.8681     4.7875
  348.7000   137.8582     4.8347     4.7878
  348.8000   137.7343     4.8586     4.7880
  348.9000   137.5566     4.8687     4.7883
  349.0000   137.4480     4.8690     4.8034
  349.1000   136.6516     4.8692     4.8221
  349.2000   136.0483     4.8694     4.8223
  349.3000   135.4293     4.8696     4.8226
  349.4000   134.6558     4.8698     4.8229
  349.5000   134.0010     4.8700     4.8231
  349.6000   133.4106     4.8702     4.8234
  349.7000   132.2845     4.8704     4.8237
