~VERSION INFORMATION
 VERS.                2.0:   CWLS LOG ASCII STANDARD - VERSION 2.0
 WRAP.                 NO:   ONE LINE PER DEPTH STEP
~WELL INFORMATION
#MNEM.UNIT      DATA TYPE    INFORMATION
#----------   ------------   ------------------------------
 STRT.F           93.0000:   START DEPTH
 STOP.F         1921.0000:   STOP DEPTH
 STEP.F            0.5000:   STEP LENGTH
 NULL.          -999.2500:   NO VALUE
 COMP. LAWRENCE-ALLISON &AS:   COMPANY
 WELL.  NPR 3 #15-1SHX2/T:   WELL
 FLD .             NPR #3:   :   FIELD
 LOC .       S2 T38N R78W:   LOCATION
 CNTY.            NATRONA:   COUNTY
 STAT.            WYOMING:   STATE
 CTRY. UNITED STATES OF AMERICA:   COUNTRY
 SRVC.       Schlumberger:   SERVICE COMPANY
 DATE.        10-JUN-1982:   LOGDATE
 API .       490251077600:   API NUMBER
~CURVE INFORMATION
#MNEM.UNIT       API CODE    CURVE DESCRIPTION
#----------   ------------   ------------------------------
 DEPT.F                  :   
 GR  .GAPI   70 310 01 00:   GAMMA RAY
 CALI.IN     70 280 01 00:   CALIPER
~PARAMETER INFORMATION
#MNEM.UNIT          VALUE    DESCRIPTION
#----------   ------------   ------------------------------
 PD  .                 GL:   PERMANENT DATUM
 EPD .F              5116:   ELEVATION PERMANENT DATUM
 LMF .                 KB:   LOG MEASURED FROM
 DAPD.F                10:   FEET ABOVE PERMANENT DATUM
 DMF .                 KB:   DRILLING MEASURED FROM
 EKB .F              5126:   KELLING BUSHING
 EGL .F              5116:   GROUND LEVEL
 DATE.        10-JUN-1982:   RUN DATE
 RUN .                  1:   RUN NUMBER
 DD  .F              2100:   DEPTH DRILLER
 DL  .F              1924:   DEPTH LOGGER
 BLI .F              1921:   BOTTOM LOG INTERVAL
 TLI .F               100:   TOP LOG INTERVAL
 CS  .IN            10.75:   CASING SIZE
 BS  .IN             8.75:   BIT SIZE
 BSD .F              2100:   BIT SIZE AT DEPTH
 DFT .                AIR:   DRILLING FLUID TYPE
 ENGI.        C. MARRINER:   RECORDING ENGINEER
 WITN.             SCOTTY:   WITNESSED BY
 CLNT.            A2DTECH:   CLIENT CODE
 ORIG.           5" PRINT:   ORIGIN OF DATA
 UWI .       490251077600:   UNIQUE WELL ID
 DICO. A2D Technologies, Inc.:   DIGITIZING COMPANY
~OTHER INFORMATION
~A   DEPT       GR       CALI   
# ...
  214.5000    99.0183    10.3686
  215.0000    99.0401    10.3547
  215.5000   100.1699    10.3555
  216.0000   100.6345    10.3564
  216.5000    99.3323    10.3573
  217.0000    99.5756    10.3581
  217.5000    99.5973    10.3590
  218.0000    98.9544    10.3599
  218.5000    97.4252    10.3608
  219.0000    96.1121    10.3616
  219.5000   100.1274    10.3625
  220.0000   102.5864    10.3634
  220.5000   103.2728    10.3643
  221.0000   100.8573    10.3651
  221.5000    95.5615    10.3662
  222.0000    91.5686    10.3671
  222.5000    89.5975    10.3679
  223.0000    89.2013    10.3688
  223.5000    90.1148    10.3697
  224.0000    89.4718    10.3706
  224.5000    86.6132    10.3714
  225.0000    83.5330    10.3723
  225.5000    82.8846    10.3732
  226.0000    88.2294    10.3740
  226.5000    94.4549    10.3749
  227.0000    99.1296    10.3610
  227.5000    98.2650    10.3619
  228.0000    93.8555    10.3628
  228.5000    92.9909    10.3637
  229.0000    94.3678    10.3646
  229.5000    95.2555    10.3656
  230.0000    94.6126    10.3663
  230.5000    95.0774    10.3673
  231.0000    95.9854    10.3682
  231.5000    97.7797    10.3691
  232.0000    99.5740    10.3550
  232.5000    99.5957    10.3561
  233.0000    97.6234    10.3569
  233.5000    92.5491    10.3578
  234.0000    88.1395    10.3587
  234.5000    89.9338    10.3595
  235.0000    95.9823    10.3604
  235.5000    99.7511    10.3613
  236.0000    99.3102    10.3622
  236.5000    96.8947    10.3631
  237.0000    95.3655    10.3640
  237.5000    97.8244    10.3648
  238.0000   100.7265    10.3659
  238.5000   103.1855    10.3667
  239.0000   102.7641    10.3676
  239.5000   101.2349    10.3685
  240.0000   102.1429    10.3693
  240.5000   105.9312    10.3702
  241.0000   108.6118    10.3711
  241.5000   108.8551    10.3720
  242.0000   106.1241    10.3728
  242.5000   103.7629    10.3737
  243.0000   102.0572    10.3746
  243.5000    99.1986    10.3755
  244.0000    96.1184    10.3765
  244.5000    93.9245    10.3774
  245.0000    93.0600    10.3783
  245.5000    93.0817    10.3792
  246.0000    92.8764    10.3800
  246.5000    93.8317    10.3659
  247.0000    94.8516    10.3670
  247.5000    95.5983    10.3679
  248.0000    94.2930    10.3538
  248.5000    90.9935    10.3548
  249.0000    92.1253    10.3557
  249.5000    95.0297    10.3566
  250.0000    98.5987    10.3575
  250.5000    99.7306    10.3583
  251.0000   100.4193    10.3592
  251.5000   101.3296    10.3603
  252.0000   100.4673    10.3612
  252.5000    98.7188    10.3620
  253.0000    98.7430    10.3628
  253.5000    98.7673    10.3638
  254.0000    98.6943    10.3647
  254.5000    98.1502    10.3655
  255.0000   100.8390    10.3664
  255.5000   102.4139    10.3673
  256.0000   102.8811    10.3681
  256.5000   101.1326    10.3690
  257.0000    99.3840    10.3699
  257.5000    98.7434    10.3855
  258.0000    97.2164    10.3865
  258.5000    91.9229    10.3873
  259.0000    87.7371    10.3884
  259.5000    85.7670    10.3742
  260.0000    84.6832    10.3606
  260.5000    86.0366    10.3614
  261.0000    88.9410    10.3623
  261.5000    93.4381    10.3632
  262.0000    95.6366    10.3491
  262.5000    95.6600    10.3501
  263.0000    93.2528    10.3510
  263.5000    92.3845    10.3519
  264.0000    94.6302    10.3528
  264.5000    96.4268    10.3536
  265.0000    97.3370    10.3545
  265.5000    97.5826    10.3554
  266.0000    95.1694    10.3563
  266.5000    89.6543    10.3573
  267.0000    87.6842    10.3582
  267.5000    86.3728    10.3591
  268.0000    88.8400    10.3600
  268.5000    91.7444    10.3608
  269.0000    93.5409    10.3617
  269.5000    94.0081    10.3626
  270.0000    93.5451    10.3634
  270.5000    92.5051    10.3643
  271.0000    94.6486    10.3652
  271.5000    97.6552    10.3661
  272.0000    98.5655    10.3669
  272.5000    98.5895    10.3678
  273.0000    98.6135    10.3687
  273.5000    96.4218    10.3696
  274.0000    93.1224    10.3706
  274.5000    91.1523    10.3715
  275.0000    89.8469    10.3724
  275.5000    89.2062    10.3732
  276.0000    90.1165    10.3741
  276.5000    95.4581    10.3750
  277.0000    99.4703    10.3759
  277.5000    99.0512    10.3767
  278.0000    95.2554    10.3776
  278.5000    88.1469    10.3785
  279.0000    84.8464    10.3793
  279.5000    81.6495    10.3802
  280.0000    77.9069    10.3811
  280.5000    73.0565    10.3820
  281.0000    74.4099    10.3829
  281.5000    81.5240    10.3839
  282.0000    90.8538    10.3848
  282.5000    94.4228    10.3707
  283.0000    94.2253    10.3718
  283.5000    92.2552    10.3725
  284.0000    89.1773    10.3587
  284.5000    86.0994    10.3596
  285.0000    83.2430    10.3605
  285.5000    81.7161    10.3464
  286.0000    83.7342    10.3475
  286.5000    90.0036    10.3336
  287.0000    92.4476    10.3344
  287.5000    90.8235    10.3353
  288.0000    90.4772    10.3362
  288.5000    92.7229    10.3371
  289.0000    94.0763    10.3381
  289.5000    92.5494    10.3390
  290.0000    89.1284    10.3399
  290.5000    83.5003    10.3408
  291.0000    77.9792    10.3416
  291.5000    73.5952    10.3425
  292.0000    75.5976    10.3434
  292.5000    78.9226    10.3292
  293.0000    82.4686    10.3303
  293.5000    86.2354    10.3312
  294.0000    90.6185    10.3321
  294.5000    92.2199    10.3330
  295.0000    90.9057    10.3338
  295.5000    89.8125    10.3347
  296.0000    90.7230    10.3208
  296.5000    92.9662    10.3219
  297.0000    94.2629    10.3078
  297.5000    92.1759    10.3089
  298.0000    90.0736    10.3097
  298.5000    88.5531    10.3106
  299.0000    87.2390    10.3115
  299.5000    86.5847    10.3123
  300.0000    86.3751    10.3132
  300.5000    85.9475    10.3142
  301.0000    85.7351    10.3152
  301.5000    85.5283    10.3163
  302.0000    85.5396    10.3173
  302.5000    85.5583    10.3183
  303.0000    85.8370    10.3195
  303.5000    87.4030    10.3205
  304.0000    90.2945    10.3215
  304.5000    91.1978    10.3075
  305.0000    89.2293    10.3088
  305.5000    86.8189    10.3098
  306.0000    84.8503    10.3108
  306.5000    84.2023    10.2970
  307.0000    84.2268    10.2833
  307.5000    85.5719    10.2696
  308.0000    88.2425    10.2706
  308.5000    88.7695    10.2716
  309.0000    87.8395    10.2727
  309.5000    87.8596    10.2737
  310.0000    93.1812    10.2749
  310.5000    97.4427    10.2760
  311.0000    95.7395    10.2770
  311.5000    90.0486    10.2780
  312.0000    88.1836    10.2790
  312.5000    89.9706    10.2801
  313.0000    91.3157    10.2811
  313.5000    91.1144    10.2821
  314.0000    90.4664    10.2831
  314.5000    89.6073    10.2842
  315.0000    88.4417    10.2852
  315.5000    82.8230    10.2862
  316.0000    81.9515    10.2872
  316.5000    85.0780    10.2882
  317.0000    85.5358    10.2893
  317.5000    82.6800    10.2903
  318.0000    80.9272    10.2913
  318.5000    83.3840    10.2923
  319.0000    85.8409    10.2934
  319.5000    86.7468    10.2944
  320.0000    85.8802    10.2954
  320.5000    87.6724    10.2965
  321.0000    88.1669    10.2975
  321.5000    86.6038    10.2987
  322.0000    81.9706    10.2847
  322.5000    78.8883    10.2860
  323.0000    79.8566    10.2870
  323.5000    83.0865    10.2880
  324.0000    87.8148    10.2889
  324.5000    88.9423    10.2901
  325.0000    89.4050    10.2910
  325.5000    90.3110    10.2921
  326.0000    90.7737    10.2932
  326.5000    88.1346    10.2942
  327.0000    85.7170    10.2952
  327.5000    86.6229    10.2962
  328.0000    93.2895    10.2973
  328.5000    97.7405    10.2983
  329.0000    98.6464    10.3141
  329.5000    95.5641    10.3003
  330.0000    92.4819    10.3013
  330.5000    91.3937    10.3024
  331.0000    91.6352    10.3034
  331.5000    92.1233    10.3044
  332.0000    93.3028    10.3055
  332.5000    93.9144    10.3065
  333.0000    92.8262    10.3077
  333.5000    91.2949    10.3088
  334.0000    89.5420    10.3098
  334.5000    88.4538    10.3108
  335.0000    88.0254    10.3118
  335.5000    90.2657    10.3129
