~VERSION INFORMATION
 VERS.                2.0:   CWLS LOG ASCII STANDARD - VERSION 2.0
 WRAP.                 NO:   ONE LINE PER DEPTH STEP
~WELL INFORMATION
#MNEM.UNIT      DATA TYPE    INFORMATION
#----------   ------------   ------------------------------
 STRT.F           20.0000:   START DEPTH
 STOP.F          710.0000:   STOP DEPTH
 STEP.F            0.5000:   STEP LENGTH
 NULL.          -999.2500:   NO VALUE
 COMP. FENIX & SCISSON INC:   COMPANY
 WELL.     NPR-3 #42SX-34:   WELL
 FLD .             TEAPOT:   FIELD
 LOC .      S34 T39N R78W:   LOCATION
 CNTY.            NATRONA:   COUNTY
 STAT.            WYOMING:   STATE
 CTRY. UNITED STATES OF AMERICA:   COUNTRY
 SRVC.           BIRDWELL:   SERVICE COMPANY
 DATE.        30-AUG-1978:   LOGDATE
 API .       490251070800:   API NUMBER
~CURVE INFORMATION
#MNEM.UNIT       API CODE    CURVE DESCRIPTION
#----------   ------------   ------------------------------
 DEPT.F                  :   
 SPR .MV     05 010 01 00:   SPONTANEOUS POTENTIAL
 SN  .OHMM   05 040 16 00:   SHORT NORMAL 16'
 ILD .OHMM   05 120 46 00:   INDUCTION LOG DEEP RESISTIVITY
 GRD .GAPI   45 310 01 00:   GAMMA RAY FROM DENSITY LOG
 CALD.IN     45 280 60 00:   CALIPER
 RHOB.G/C3   45 350 01 00:   BULK DENSITY
 DPHI.DEC    45 890 12 00:   DENSITY POROSITY SANDSTONE
 CORR.G/C3   45 356 01 00:   DENSITY CORRECTION
~PARAMETER INFORMATION
#MNEM.UNIT          VALUE    DESCRIPTION
#----------   ------------   ------------------------------
 PD  .                 GL:   PERMANENT DATUM
 EPD .F              5079:   ELEVATION PERMANENT DATUM
 LMF .                 KB:   LOG MEASURED FROM
 DAPD.F                 4:   FEET ABOVE PERMANENT DATUM
 DMF .                 KB:   DRILLING MEASURED FROM
 EKB .F              5083:   KELLING BUSHING
 EGL .F              5079:   GROUND LEVEL
 DATE.            8-30-78:   RUN DATE
 RUN .                  1:   RUN NUMBER
 DD  .F               705:   DEPTH DRILLER
 DL  .F               708:   DEPTH LOGGER
 BLI .F               702:   BOTTOM LOG INTERVAL
 TLI .F                50:   TOP LOG INTERVAL
 CS  .IN            8.625:   CASING SIZE
 CBD .F                40:   CASING BOTTOM DRILLER
 CBL .F                40:   CASING BOTTOM LOGGER
 BS  .IN            7.875:   BIT SIZE
 BSD .F               705:   BIT SIZE AT DEPTH
 DFT .                KCL:   DRILLING FLUID TYPE
 DFD .                8.6:   DRILLING FLUID DENSITY
 DFV .                 34:   DRILLING FLUID VISCOSITY
 DFPH.                  9:   DRILLING FLUID PH
 DFL .                7.4:   DRILLING FLUID LOSS
 MSS .           FLOWLINE:   MUD SAMPLE SOURCE
 RMS .OHMM             .3:   RESISTIVITY MUD SAMPLE
 MST .F                80:   MUD SAMPLE TEMPERATURE
 RMF .OHMM             .4:   RESISTIVITY MUD FILTRATE SAMPLE
 MFST.F                80:   MUD FILTRATE SAMPLE TEMPERATURE
 RMC .OHMM             .5:   RESISTIVITY MUD CAKE
 MCST.F                82:   MUD CAKE SAMPLE TEMPERATURE
 MFSS.               MEAS:   MUD FILTRATE SAMPLE SOURCE
 MCSS.               MEAS:   MUD CAKE SAMPLE SOURCE
 RMB .OHMM            .32:   RESISTIVITY MUD AT BHT
 BHT .F                73:   BOTTOM HOLE TEMPERATURE
 TCS .HRS               3:   TIME CURCULATED STOPPED
 MRT .F                73:   MAXIMUM RECORDED TEMPERATURE
 LUN .               3006:   LOGGING UNIT NUMBER
 LUL .               CASP:   LOGGING UNIT LOCATION
 ENGI.            POINTER:   RECORDING ENGINEER
 WITN.              AMEND:   WITNESSED BY
 CLNT.            A2DTECH:   CLIENT CODE
 ORIG.           5" PRINT:   ORIGIN OF DATA
 UWI .       490251070800:   UNIQUE WELL ID
 DICO. A2D Technologies, Inc.:   DIGITIZING COMPANY
~OTHER INFORMATION
~A   DEPT      SPR         SN        ILD         GRD      CALD       RHOB       DPHI       CORR   
# ...
  384.5000   -49.0464     9.6771     9.3859    87.5627     9.0191     2.4676     0.1343     0.0308
  385.0000   -49.1390     9.5360     9.1714    89.3549     9.0235     2.4643     0.1368     0.0305
  385.5000   -49.2316     9.3971     8.9638    89.3177     9.0277     2.4610     0.1380     0.0301
  386.0000   -49.3233     9.2601     8.7609    87.9326     9.0322     2.4575     0.1387     0.0319
  386.5000   -49.4167     9.1252     8.5625    88.1579     9.0293     2.4555     0.1393     0.0345
  387.0000   -49.5091     8.9922     8.3687    92.4175     9.0239     2.4587     0.1396     0.0372
  387.5000   -49.5980     8.8612     8.1792    96.9852     9.0185     2.4547     0.1438     0.0397
  388.0000   -49.6984     8.7320     7.9940    97.7021     9.0134     2.4469     0.1476     0.0418
  388.5000   -49.8084     8.4501     7.8130    96.5521     9.0082     2.4397     0.1516     0.0398
  389.0000   -50.3172     7.9167     7.6038    94.4889     9.0029     2.4316     0.1599     0.0380
  389.5000   -50.8995     7.4170     6.9870    92.5308     8.9979     2.4208     0.1683     0.0361
  390.0000   -51.4925     6.9488     6.2979    90.6168     8.9923     2.4074     0.1768     0.0340
  390.5000   -52.0801     6.5102     5.6767    88.6592     8.9920     2.3946     0.1905     0.0340
  391.0000   -52.6544     6.0992     5.1168    86.6162     8.9918     2.3721     0.2095     0.0340
  391.5000   -53.2452     5.7142     4.6122    85.7789     8.9907     2.3447     0.2287     0.0337
  392.0000   -53.1209     5.3535     4.1573    85.8636     8.9894     2.3182     0.2476     0.0380
  392.5000   -52.6307     5.0156     3.8462    85.2060     8.9881     2.2768     0.2692     0.0485
  393.0000   -51.9428     4.6990     3.7521    82.9068     8.9868     2.2403     0.2701     0.0594
  393.5000   -51.0873     4.4024     3.6463    80.5262     8.9854     2.2401     0.2635     0.0692
  394.0000   -50.2768     4.1245     3.5433    80.5458     8.9841     2.2479     0.2444     0.0764
  394.5000   -49.4410     4.0647     3.4437    81.7590     8.9828     2.3127     0.1987     0.0599
  395.0000   -49.3083     4.1403     3.5259    86.1956     8.9815     2.3803     0.1831     0.0437
  395.5000   -49.1814     4.2475     3.6631    90.6844     8.9802     2.3838     0.1823     0.0537
  396.0000   -49.0920     4.4907     3.9296    95.2358     8.9789     2.3868     0.1621     0.0586
  396.5000   -49.0037     4.7101     4.2774    99.0351     8.9775     2.4340     0.1494     0.0478
  397.0000   -49.0535     5.1208     4.6560    98.5774     8.9762     2.4531     0.1364     0.0424
  397.5000   -49.1015     5.5095     5.0682    97.3011     8.9749     2.4612     0.1306     0.0456
  398.0000   -49.1523     5.9276     5.5168    95.9210     8.9736     2.4685     0.1247     0.0482
  398.5000   -49.2030     6.3775     6.0051    95.4570     8.9723     2.4763     0.1203     0.0499
  399.0000   -49.2526     6.8615     6.5367    95.4367     8.9710     2.4831     0.1197     0.0500
  399.5000   -49.2982     7.2220     6.8082    96.0216     8.9697     2.4827     0.1208     0.0500
  400.0000   -49.3547     7.2993     6.8082    97.6031     8.9683     2.4824     0.1226     0.0500
  400.5000   -49.4128     7.3865     6.9660    99.0398     8.9670     2.4712     0.1242     0.0500
  401.0000   -49.7120     7.4734     7.0200   101.2140     8.9657     2.4724     0.1259     0.0500
  401.5000   -50.0013     7.8002     7.0745   103.8729     8.9644     2.4726     0.1273     0.0500
  402.0000   -50.3036     8.0346     7.1301   106.5462     8.9631     2.4692     0.1283     0.0501
  402.5000   -50.6000     8.0103     7.1969   106.9030     8.9618     2.4661     0.1294     0.0499
  403.0000   -50.8951     7.9860     7.1970   105.1830     8.9605     2.4656     0.1304     0.0496
  403.5000   -51.1993     7.9618     7.1974   106.7768     8.9592     2.4666     0.1332     0.0441
  404.0000   -51.4883     7.9373     7.0611   104.2269     8.9578     2.4584     0.1433     0.0385
  404.5000   -51.7785     7.9149     6.8145   101.1687     8.9567     2.4474     0.1533     0.0322
  405.0000   -51.8712     7.8892     6.5766    98.0880     8.9552     2.4380     0.1633     0.0326
  405.5000   -52.0244     7.6590     6.3470    97.4861     8.9539     2.4190     0.1772     0.0389
  406.0000   -52.1595     7.3958     6.1255   101.4397     8.9534     2.3943     0.1683     0.0447
  406.5000   -52.3022     7.1417     5.9116   105.5734     8.9416     2.3987     0.1597     0.0499
  407.0000   -52.4300     6.8963     5.7052   107.0123     8.9162     2.4135     0.1581     0.0530
  407.5000   -52.5864     6.7464     5.5060   103.5814     8.8919     2.4199     0.1565     0.0559
  408.0000   -52.3149     6.6498     5.3138    97.5198     8.8675     2.4243     0.1548     0.0585
  408.5000   -51.9622     6.5545     5.2605    91.9092     8.8426     2.4305     0.1437     0.0617
  409.0000   -51.5990     6.4607     5.2605    86.7224     8.8188     2.4367     0.1379     0.0554
  409.5000   -51.2443     6.6064     5.7476    86.5707     8.7923     2.4549     0.1396     0.0493
  410.0000   -50.8875     6.8173     6.1939    88.7211     8.7768     2.4524     0.1404     0.0467
  410.5000   -50.5298     7.0350     6.6749    91.4604     8.7598     2.4514     0.1377     0.0578
  411.0000   -50.1720     7.2597     6.9347    94.0719     8.7436     2.4540     0.1353     0.0678
  411.5000   -49.8150     7.4915     6.9347    96.5233     8.7271     2.4567     0.1348     0.0824
  412.0000   -49.4583     7.7308     6.9347    96.2902     8.7108     2.4597     0.1348     0.0978
  412.5000   -49.0969     7.9777     6.9347    96.0272     8.6941     2.4614     0.1297     0.1135
  413.0000   -48.7476     8.2324     7.0637    95.5599     8.6778     2.4661     0.1212     0.1195
  413.5000   -48.3873     8.4953     7.4609    96.1550     8.6714     2.4763     0.1239     0.1205
  414.0000   -47.9982     8.8111     7.8892    97.6108     8.6934     2.4762     0.1287     0.1280
  414.5000   -47.8849     8.9454     8.0358    98.9815     8.7116     2.4646     0.1325     0.1461
  415.0000   -48.2412     9.1081     8.0655   100.3149     8.7300     2.4634     0.1328     0.1548
  415.5000   -48.5622     9.2811     8.1630   101.7031     8.7509     2.4621     0.1332     0.1616
  416.0000   -48.8823     9.2255     8.1852   103.1457     8.7395     2.4608     0.1355     0.1747
  416.5000   -49.2153     9.1153     8.1852   104.0099     8.7154     2.4593     0.1380     0.1947
  417.0000   -49.5403     9.0064     8.1852   103.9765     8.6924     2.4624     0.1367     0.2354
  417.5000   -49.7972     8.8988     8.1852   105.5315     8.6717     2.4774     0.1306     0.2415
  418.0000   -49.7985     8.8111     8.1852   106.8665     8.6703     2.4835     0.1246     0.2466
  418.5000   -49.8042     8.5946     7.8232   104.8198     8.6708     2.4830     0.1185     0.2490
  419.0000   -49.8061     8.4147     7.5280   102.4722     8.6728     2.4916     0.1125     0.2391
  419.5000   -49.7472     8.2372     7.2439   100.1816     8.7157     2.5017     0.1070     0.2198
  420.0000   -49.5790     8.0649     6.9706    98.0052     8.7609     2.5111     0.1052     0.1913
  420.5000   -49.4171     7.8958     6.7076    97.8050     8.8100     2.4889     0.1249     0.1642
  421.0000   -49.2519     7.7296     6.4545    98.9938     8.8333     2.4850     0.1438     0.1380
  421.5000   -49.0807     7.5666     6.2109   101.3781     8.8311     2.4407     0.1583     0.1308
  422.0000   -48.9328     7.4072     6.0958   102.9897     8.8312     2.4196     0.1640     0.1577
  422.5000   -48.7525     7.1980     6.2063    99.5232     8.8316     2.4123     0.1506     0.1876
  423.0000   -48.5356     7.3815     6.4421    96.0571     8.8314     2.4393     0.1320     0.1997
  423.5000   -48.1585     7.7154     6.6375    92.1497     8.8313     2.4845     0.1134     0.1883
  424.0000   -48.2107     8.0601     6.8878    91.6501     8.8389     2.5150     0.1021     0.1612
  424.5000   -48.2003     8.4202     7.1476    95.6197     8.8499     2.5412     0.0939     0.1264
