~VERSION INFORMATION
 VERS.                2.0:   CWLS LOG ASCII STANDARD - VERSION 2.0
 WRAP.                 NO:   ONE LINE PER DEPTH STEP
~WELL INFORMATION
#MNEM.UNIT      DATA TYPE    INFORMATION
#----------   ------------   ------------------------------
 STRT.F           42.0000:   START DEPTH
 STOP.F         3140.0000:   STOP DEPTH
 STEP.F            0.5000:   STEP LENGTH
 NULL.          -999.2500:   NO VALUE
 COMP. LAWRENCE-ALLISON & AS:   COMPANY
 WELL.     88 X 33 #88-33:   WELL
 FLD .             NPR #3:   FIELD
 LOC .      S33 T39N R78W:   LOCATION
 CNTY.            NATRONA:   COUNTY
 STAT.            WYOMING:   STATE
 CTRY. UNITED STATES OF AMERICA:   COUNTRY
 SRVC.       Schlumberger:   SERVICE COMPANY
 DATE.        13-DEC-1987:   LOGDATE
 API .       490251120300:   API NUMBER
~CURVE INFORMATION
#MNEM.UNIT       API CODE    CURVE DESCRIPTION
#----------   ------------   ------------------------------
 DEPT.F                  :   
 GRR .GAPI   07 310 01 00:   GAMMA RAY FROM RES
 SPR .MV     07 010 01 00:   SPONTANEOUS POTENTIAL
 ILD .OHMM   07 120 46 00:   INDUCTION LOG DEEP RES
 ILM .OHMM   07 120 44 00:   INDUCTION LOG MEDIUM RES
 SFLU.OHMM   07 220 01 00:   SPHERICALLY FOCUSED LOG UNAVERAGED RES
 DPHI.DEC    45 890 12 00:   DENSITY POROSITY SANDSTONE
 NPHI.DEC    42 890 03 00:   NEUTRON POROSITY SANDSTONE
 CALD.IN     45 280 60 00:   CALIPER FROM DENSITY LOG
 DRHO.G/C3   45 356 01 00:   DENSITY CORRECTION
 RHOB.G/C3   45 350 01 00:   BULK DENSITY
~PARAMETER INFORMATION
#MNEM.UNIT          VALUE    DESCRIPTION
#----------   ------------   ------------------------------
 PD  .                 GL:   PERMANENT DATUM
 EPD .F              5746:   ELEVATION PERMANENT DATUM
 LMF .                 KB:   LOG MEASURED FROM
 DAPD.F                11:   FEET ABOVE PERMANENT DATUM
 DMF .                 KB:   DRILLING MEASURED FROM
 EKB .F              5157:   KELLING BUSHING
 EGL .F              5146:   GROUND LEVEL
 DATE.        13-DEC-1987:   RUN DATE
 RUN .                  1:   RUN NUMBER
 DD  .F              3155:   DEPTH DRILLER
 DL  .F              3140:   DEPTH LOGGER
 BLI .F              3132:   BOTTOM LOG INTERVAL
 TLI .F               614:   TOP LOG INTERVAL
 CS  .IN            9.625:   CASING SIZE
 CBD .F               608:   CASING BOTTOM DRILLER
 CBL .F               614:   CASING BOTTOM LOGGER
 BS  .IN            7.875:   BIT SIZE
 BSD .F              3155:   BIT SIZE AT DEPTH
 DFT .       KCL DIS. PAC:   DRILLING FLUID TYPE
 DFD .                  9:   DRILLING FLUID DENSITY
 DFV .                 41:   DRILLING FLUID VISCOSITY
 DFPH.                9.5:   DRILLING FLUID PH
 DFL .                8.4:   DRILLING FLUID LOSS
 MSS .           FLOWLINE:   MUD SAMPLE SOURCE
 RMS .OHMM          0.523:   RESISTIVITY MUD SAMPLE
 MST .F                63:   MUD SAMPLE TEMPERATURE
 RMF .OHMM          0.435:   RESISTIVITY MUD FILTRATE SAMPLE
 MFST.F                63:   MUD FILTRATE SAMPLE TEMPERATURE
 RMC .OHMM          0.489:   RESISTIVITY MUD CAKE
 MCST.F                63:   MUD CAKE SAMPLE TEMPERATURE
 MFSS.              PRESS:   MUD FILTRATE SAMPLE SOURCE
 MCSS.               CALC:   MUD CAKE SAMPLE SOURCE
 RMB .OHMM          0.288:   RESISTIVITY MUD AT BHT
 BHT .F               120:   BOTTOM HOLE TEMPERATURE
 TCS .HRS            0600:   TIME CURCULATED STOPPED
 TLAB.HRS            1430:   TIME LOGGER AT BOTTOM
 MRT .F               120:   MAXIMUM RECORDED TEMPERATURE
 LUN .               8198:   LOGGING UNIT NUMBER
 LUL .             CASPER:   LOGGING UNIT LOCATION
 ENGI.          W. BENSON:   RECORDING ENGINEER
 WITN.        GARY STRONG:   WITNESSED BY
 CLNT.            A2DTECH:   CLIENT CODE
 ORIG.           5" PRINT:   ORIGIN OF DATA
 UWI .       490251120300:   UNIQUE WELL ID
 DICO. A2D Technologies, Inc.:   DIGITIZING COMPANY
~OTHER INFORMATION
~A   DEPT      GRR        SPR        ILD        ILM       SFLU       DPHI       NPHI       CALD       DRHO       RHOB   
# ...
 1784.0000   119.6471   -44.5303     6.0094     5.8858     7.9445     0.0630     0.3124     9.0987    -0.0327     2.5418
 1784.5000   119.4178   -44.2303     5.7647     5.5683     7.5692     0.0726     0.3260     9.0988    -0.0304     2.5290
 1785.0000   122.8008   -43.9305     5.3787     5.0186     6.7758     0.0868     0.3404     9.0990    -0.0274     2.5035
 1785.5000   124.6035   -43.7814     5.1240     4.3690     5.5818     0.1075     0.3428     9.0991    -0.0229     2.4592
 1786.0000   123.6954   -43.6323     5.0535     4.4918     4.9967     0.1180     0.3371     9.1142    -0.0155     2.4450
 1786.5000   120.0765   -43.6342     5.1596     4.8813     5.0668     0.1198     0.3196     9.1144    -0.0058     2.4510
 1787.0000   121.2015   -44.2381     5.3787     5.2316     5.6218     0.1099     0.3061     9.1165    -0.0125     2.4810
 1787.5000   126.8453   -44.8420     5.6461     5.3787     6.8252     0.0918     0.2983     9.1297    -0.0193     2.5126
 1788.0000   133.6172   -44.9941     5.8858     5.6071     7.5728     0.0770     0.2968     9.1299    -0.0274     2.5314
 1788.5000   135.4211   -44.9956     6.1357     5.8858     8.0048     0.0662     0.2950     9.1300    -0.0309     2.5366
 1789.0000   131.8010   -44.8461     6.3962     6.0935     8.0053     0.0647     0.2910     9.1302    -0.0301     2.5396
 1789.5000   125.6971   -44.8480     6.6217     6.3097     8.0615     0.0631     0.2886     9.1303    -0.0278     2.5434
 1790.0000   124.5029   -44.8494     6.8078     6.4885     8.1745     0.0610     0.2904     9.1305    -0.0263     2.5471
 1790.5000   127.4954   -44.8509     6.8160     6.5306     8.3467     0.0580     0.2986     9.1306    -0.0270     2.5487
 1791.0000   127.5105   -44.7018     6.7608     6.5306     8.3557     0.0577     0.3049     9.1308    -0.0277     2.5487
 1791.5000   124.5496   -44.5527     6.5760     6.3893     8.3478     0.0589     0.3109     9.1309    -0.0306     2.5464
 1792.0000   118.2198   -44.2490     6.3962     6.0622     8.1767     0.0625     0.3154     9.1460    -0.0298     2.5389
 1792.5000   117.5301   -43.9533     6.2213     5.1955     7.6832     0.0670     0.3193     9.1462    -0.0261     2.5252
 1793.0000   121.3797   -43.7882     6.0094     4.9839     6.9738     0.0767     0.3217     9.1763    -0.0224     2.5035
 1793.5000   125.0109   -43.6551     5.7647     5.0535     5.9063     0.0876     0.3220     9.1915    -0.0194     2.4937
 1794.0000   127.6898   -43.8353     5.5678     5.1596     5.4347     0.0938     0.3205     9.1766    -0.0186     2.4885
 1794.5000   127.2334   -44.1102     5.5299     5.3415     5.5934     0.0958     0.3130     9.1318    -0.0223     2.4879
 1795.0000   127.2289   -44.1117     5.6097     5.5683     6.0820     0.0923     0.3067     9.0870    -0.0274     2.4955
 1795.5000   127.7041   -44.1132     5.7286     5.7249     6.6679     0.0855     0.3015     9.0871    -0.0303     2.5154
 1796.0000   130.9997   -43.9637     5.8907     5.8451     7.3926     0.0765     0.2790     9.0873    -0.0355     2.5241
 1796.5000   133.1257   -43.9656     6.0636     5.9267     7.8649     0.0712     0.2774     9.0874    -0.0384     2.5277
 1797.0000   130.3733   -43.9671     6.2721     6.1357     8.1922     0.0695     0.2817     9.0876    -0.0399     2.5277
 1797.5000   121.7845   -43.9686     6.5760     6.3962     8.3548     0.0692     0.2886     9.0877    -0.0406     2.5277
 1798.0000   117.9397   -44.2713     6.7141     6.5760     8.1271     0.0692     0.2913     9.0879    -0.0390     2.5277
 1798.5000   118.8388   -44.7246     6.8552     6.6217     7.9605     0.0689     0.2913     9.0880    -0.0346     2.5300
 1799.0000   120.8674   -45.0273     6.9029     6.6678     7.9061     0.0668     0.2913     9.0882    -0.0308     2.5360
 1799.5000   123.1220   -44.8778     6.9509     6.7141     8.0170     0.0622     0.2916     9.0883    -0.0278     2.5420
 1800.0000   127.6356   -44.8795     6.9508     6.6678     8.2033     0.0597     0.2925     9.0885    -0.0263     2.5450
 1800.5000   129.4429   -44.8810     6.9504     6.7608     8.4163     0.0571     0.2940     9.0886    -0.0240     2.5485
 1801.0000   133.2922   -44.8825     6.9019     6.7608     8.5936     0.0559     0.2982     9.0888    -0.0249     2.5518
 1801.5000   136.9112   -44.8840     6.9014     6.7608     8.7140     0.0553     0.3120     9.0889    -0.0285     2.5526
 1802.0000   136.9247   -44.8855     6.8533     6.7141     8.5948     0.0568     0.3238     9.0891    -0.0322     2.5533
 1802.5000   128.7877   -44.8872     6.8055     6.6678     8.3605     0.0637     0.3256     9.0892    -0.0357     2.5373
 1803.0000   125.8555   -44.8887     6.7580     6.5760     8.0208     0.0670     0.3237     9.0894    -0.0351     2.5315
 1803.5000   127.8932   -45.0408     6.7109     6.5306     7.9110     0.0631     0.3246     9.0895    -0.0321     2.5347
 1804.0000   130.8344   -44.8913     6.5723     6.4407     7.8028     0.0593     0.3300     9.0897    -0.0269     2.5454
 1804.5000   130.3872   -44.7422     6.5265     6.3962     7.8575     0.0574     0.3397     9.0898    -0.0253     2.5503
 1805.0000   130.8435   -44.5931     6.4810     6.3520     7.9127     0.0588     0.3403     9.0900    -0.0276     2.5388
 1805.5000   134.0107   -44.2938     6.5256     6.3520     7.9132     0.0626     0.3345     9.0901    -0.0305     2.5375
 1806.0000   136.7260   -43.9937     6.5251     6.3520     7.9226     0.0628     0.3201     9.0903    -0.0320     2.5413
 1806.5000   134.0197   -43.8446     6.5720     6.3962     7.9143     0.0604     0.3090     9.0904    -0.0320     2.5435
 1807.0000   129.9580   -44.1477     6.7098     6.4407     7.9699     0.0601     0.3059     9.0906    -0.0327     2.5450
 1807.5000   128.1553   -44.4504     6.8504     6.5760     8.0816     0.0604     0.3047     9.0907    -0.0334     2.5450
 1808.0000   127.0303   -44.6025     6.9940     6.7608     8.4251     0.0614     0.3029     9.0909    -0.0348     2.5420
 1808.5000   124.3240   -44.6040     7.1903     6.9029     8.6623     0.0634     0.2984     9.0910    -0.0363     2.5390
 1809.0000   121.1659   -44.6055     7.3410     7.0479     9.0304     0.0653     0.2951     9.0912    -0.0377     2.5360
 1809.5000   120.0407   -44.4561     7.4949     7.1462     9.4142     0.0670     0.2915     9.0913    -0.0377     2.5345
 1810.0000   123.4340   -44.1568     7.6485     7.2460     9.6125     0.0655     0.2803     9.0915    -0.0370     2.5398
 1810.5000   128.1825   -44.1583     7.7011     7.2964     9.8150     0.0607     0.2740     9.0919    -0.0362     2.5488
 1811.0000   129.3165   -44.1598     7.7006     7.2964     9.8837     0.0559     0.2731     9.0924    -0.0354     2.5526
 1811.5000   127.7397   -44.3119     7.5940     7.1462     9.4823     0.0574     0.2833     9.0930    -0.0339     2.5503
 1812.0000   126.1618   -44.4640     7.3818     6.9509     9.0342     0.0643     0.2956     9.0935    -0.0332     2.5353
 1812.5000   128.8783   -44.6161     7.1297     6.7608     8.5479     0.0698     0.3035     9.0941    -0.0331     2.5285
 1813.0000   129.1087   -44.7682     6.8822     6.5760     8.0320     0.0682     0.3110     9.0946    -0.0331     2.5323
 1813.5000   127.0801   -45.0709     6.7482     6.5306     7.7056     0.0655     0.3089     9.0951    -0.0331     2.5360
 1814.0000   122.3407   -44.9214     6.7521     6.5760     7.6000     0.0655     0.2983     9.0957    -0.0331     2.5345
 1814.5000   119.6332   -44.7723     6.8414     6.6217     7.6007     0.0649     0.2947     9.0962    -0.0331     2.5353
 1815.0000   121.8979   -44.4730     6.7421     6.5306     7.8147     0.0640     0.2923     9.0968    -0.0323     2.5383
 1815.5000   125.7428   -44.0227     6.5072     6.3081     8.0348     0.0628     0.2923     9.0973    -0.0315     2.5405
 1816.0000   125.0696   -43.5724     6.1087     5.8858     8.2040     0.0628     0.2923     9.0979    -0.0300     2.5420
 1816.5000   125.3001   -43.2723     5.3757     5.1596     8.0359     0.0646     0.2938     9.1134    -0.0300     2.5398
 1817.0000   128.0154   -42.9730     4.5508     4.3690     7.7629     0.0688     0.3043     9.1587    -0.0292     2.5285
