~VERSION INFORMATION
 VERS.                2.0:   CWLS LOG ASCII STANDARD - VERSION 2.0
 WRAP.                 NO:   ONE LINE PER DEPTH STEP
~WELL INFORMATION
#MNEM.UNIT      DATA TYPE    INFORMATION
#----------   ------------   ------------------------------
 STRT.F            0.0000:   START DEPTH
 STOP.F          633.0000:   STOP DEPTH
 STEP.F            0.5000:   STEP LENGTH
 NULL.          -999.2500:   NO VALUE
 COMP.       F D SERV INC:   COMPANY
 WELL.    82-1 SX-3 #82-3:   WELL
 FLD .          NPR NO. 3:   FIELD
 LOC .       S3 T38N R78W:   LOCATION
 CNTY.            NATRONA:   COUNTY
 STAT.            WYOMING:   STATE
 CTRY. UNITED STATES OF AMERICA:   COUNTRY
 SRVC.     Atlas Wireline:   SERVICE COMPANY
 DATE.        14-APR-1992:   LOGDATE
 API .       490252250600:   API NUMBER
~CURVE INFORMATION
#MNEM.UNIT       API CODE    CURVE DESCRIPTION
#----------   ------------   ------------------------------
 DEPT.F                  :   
 GRR .GAPI   07 310 01 00:   GAMMA RAY FROM RES
 RILD.OHMM   07 120 46 00:   INDUCTION LOG DEEP RESISTIVITY
 RILM.OHMM   07 120 44 00:   INDUCTION LOG MEDIUM RESISTIVITY
~PARAMETER INFORMATION
#MNEM.UNIT          VALUE    DESCRIPTION
#----------   ------------   ------------------------------
 PD  .                 GL:   PERMANENT DATUM
 EPD .F              5120:   ELEVATION PERMANENT DATUM
 LMF .                 KB:   LOG MEASURED FROM
 DAPD.F                 5:   FEET ABOVE PERMANENT DATUM
 DMF .                 KB:   DRILLING MEASURED FROM
 EKB .F              5125:   KELLING BUSHING
 EDF .F              5124:   DRILLING FLOOR
 EGL .F              5120:   GROUND LEVEL
 DATE.        14-APR-1992:   RUN DATE
 RUN .                  1:   RUN NUMBER
 DD  .F               640:   DEPTH DRILLER
 DL  .F               636:   DEPTH LOGGER
 BLI .F               633:   BOTTOM LOG INTERVAL
 CS  .IN            8.625:   CASING SIZE
 CBD .F                43:   CASING BOTTOM DRILLER
 CBL .F                42:   CASING BOTTOM LOGGER
 BS  .IN            7.875:   BIT SIZE
 BSD .F               640:   BIT SIZE AT DEPTH
 DFT .                AIR:   DRILLING FLUID TYPE
 LUN .           HL- 6321:   LOGGING UNIT NUMBER
 LUL .        RK. SPRINGS:   LOGGING UNIT LOCATION
 ENGI.            TRIBBLE:   RECORDING ENGINEER
 WITN.             STRONG:   WITNESSED BY
 CLNT.            A2DTECH:   CLIENT CODE
 ORIG.           5" PRINT:   ORIGIN OF DATA
 UWI .       490252250600:   UNIQUE WELL ID
 DICO. A2D Technologies, Inc.:   DIGITIZING COMPANY
~OTHER INFORMATION
~A    DEPT     GRR       RILD       RILM   
# ...
   91.0000   111.2354     7.3189     7.3703
   91.5000   111.5206     7.2666     7.3176
   92.0000   117.8664     7.2650     7.2656
   92.5000   121.8182     7.1636     7.1636
   93.0000   123.8914     7.0629     7.0631
   93.5000   119.3237     7.0127     7.0126
   94.0000   117.4878     6.9628     6.9628
   94.5000   118.9851     6.9133     6.9133
   95.0000   121.3916     6.8642     6.8641
   95.5000   123.1920     6.8632     6.8632
   96.0000   121.0529     6.8144     6.8622
   96.5000   119.8230     6.8135     6.8613
   97.0000   119.5022     6.8604     6.8604
   97.5000   121.6056     6.9076     6.9076
   98.0000   126.4348     7.0530     6.9552
   98.5000   127.3306     7.1018     7.0522
   99.0000   124.5810     7.2007     7.1586
   99.5000   121.8360     7.3015     7.3014
  100.0000   118.4848     7.6669     7.4259
  100.5000   113.8091     7.8851     7.6200
  101.0000   110.8561     7.9411     7.8283
  101.5000   111.1415     7.9416     8.0500
  102.0000   112.9302     7.9421     8.1631
  102.5000   116.2400     7.8873     7.9928
  103.0000   119.8528     7.8328     7.8262
  103.5000   117.7080     7.6651     7.6096
  104.0000   111.9269     7.4074     7.3406
  104.5000   111.6003     7.1033     7.0447
  105.0000   114.6566     6.8595     6.8498
  105.5000   113.6685     6.7174     6.7541
  106.0000   113.9480     6.7179     6.7536
  106.5000   114.8335     6.7655     6.8007
  107.0000   115.7191     6.8135     6.8001
  107.5000   117.8167     6.8618     6.8474
  108.0000   120.2174     6.9636     6.9015
  108.5000   122.9211     7.1073     7.0409
  109.0000   123.5036     7.2080     7.1395
  109.5000   120.4439     7.3101     7.2398
  110.0000   117.6930     7.4136     7.3928
  110.5000   114.9422     7.4662     7.4443
  111.0000   112.4944     7.5191     7.5486
  111.5000   112.7739     7.5725     7.6545
  112.0000   114.2655     7.6262     7.6539
  112.5000   114.8485     7.6803     7.7072
  113.0000   115.1374     7.6809     7.7066
  113.5000   116.4970     7.7354     7.7603
  114.0000   123.2563     7.7359     7.7597
  114.5000   126.2689     7.7364     7.7591
  115.0000   125.0274     7.6830     7.7045
  115.5000   121.6705     7.6835     7.7040
  116.0000   119.5257     7.6304     7.6496
  116.5000   117.9870     7.5249     7.6491
  117.0000   114.9331     7.4691     7.5952
  117.5000   113.0657     7.3696     7.4891
  118.0000   113.3650     7.3187     7.4364
  118.5000   116.9778     7.2681     7.3840
  119.0000   122.7118     7.2687     7.3835
  119.5000   126.9307     7.2692     7.2803
  120.0000   127.2160     7.2189     7.2290
  120.5000   124.1563     7.2195     7.1781
  121.0000   117.7691     7.1697     7.1276
  121.5000   112.8818     7.1201     7.1271
  122.0000   111.3576     7.1206     7.0769
  122.5000   113.4501     7.1212     7.1261
  123.0000   113.7355     7.1217     7.1757
  123.5000   112.4939     7.1722     7.1751
  124.0000   113.0764     7.2231     7.2251
  124.5000   116.3862     7.2743     7.2754
  125.0000   119.9990     7.2748     7.3260
  125.5000   122.0967     7.3264     7.3769
  126.0000   123.2852     7.3269     7.3763
  126.5000   124.4738     7.3274     7.4276
  127.0000   123.2322     7.3280     7.4270
  127.5000   120.1784     7.3285     7.4265
  128.0000   118.6397     7.3805     7.4782
  128.5000   121.9495     7.4328     7.5303
  129.0000   125.2651     7.4855     7.5826
  129.5000   121.9023     7.4861     7.5820
  130.0000   119.7576     7.4866     7.6347
  130.5000   118.7889     7.5397     7.6342
  131.0000   118.1894     7.5402     7.6336
  131.5000   119.6810     7.6471     7.6868
  132.0000   125.1120     7.7013     7.7402
  132.5000   124.4824     7.7560     7.7941
  133.0000   123.8587     7.8658     7.9033
  133.5000   126.5565     7.9772     7.9582
  134.0000   127.7454     8.0902     8.0699
  134.5000   124.3273     8.1476     8.1260
  135.0000   119.5161     8.2054     8.2400
  135.5000   122.5170     8.2636     8.2973
  136.0000   120.9783     8.2643     8.2966
  136.5000   117.9244     8.3229     8.2960
  137.0000   118.2039     8.3235     8.2955
  137.5000   123.0288     8.3825     8.3532
  138.0000   128.1568     8.3831     8.3604
  138.5000   130.2545     8.4425     8.4698
  139.0000   128.9879     8.5621     8.5884
  139.5000   127.4742     8.6242     8.7090
  140.0000   128.0567     8.7532     8.8931
  140.5000   129.8513     8.8690     9.0812
  141.0000   133.1611     8.9319     9.2732
  141.5000   135.2587     9.0584     9.3421
  142.0000   133.7200     9.1867     9.4687
  142.5000   128.5450     9.3823     9.5345
  143.0000   120.0061     9.5152     9.7360
  143.5000   116.2394     9.7177     9.8728
  144.0000   114.5349     9.9246    10.0814
  144.5000   116.3236    10.0739    10.2228
  145.0000   116.9062    10.2796    10.3662
  145.5000   115.3674    10.4253    10.4480
  146.0000   110.7984    10.4992    10.6589
  146.5000   108.6537    10.4999    10.6582
  147.0000   110.1453    10.5744    10.5831
  147.5000   114.1363    10.5012    10.3625
  148.0000   118.8801    10.2838    10.2178
  148.5000   118.5536    10.1413    10.0751
  149.0000   117.3179     9.9237     9.9343
  149.5000   117.2943     9.7259     9.7954
  150.0000   121.5132     9.7267     9.7265
  150.5000   121.8073     9.7274     9.7938
  151.0000   121.7925     9.6601     9.7921
  151.5000   122.3867     9.6609     9.7908
  152.0000   123.5870     9.5940     9.7894
  152.5000   122.6660     9.5277     9.7198
  153.0000   119.6239     9.3306     9.5162
  153.5000   118.0969     9.2013     9.4486
  154.0000   118.0850     9.0742     9.3160
  154.5000   118.6792     9.0748     9.3147
  155.0000   120.1796     9.0755     9.3134
  155.5000   122.2889     9.1398     9.3121
  156.0000   122.8861     9.1406     9.3109
  156.5000   120.1440     9.1412     9.3096
  157.0000   119.5261     9.0781     9.3083
  157.5000   121.9385     9.0787     9.2421
  158.0000   122.5356     9.0793     9.2408
  158.5000   120.0966     9.0799     9.2393
  159.0000   117.6605     9.0172     9.2380
  159.5000   118.8869     9.0178     9.2368
  160.0000   121.3536     8.9556     9.1711
  160.5000   123.9856     8.9563     9.1698
  161.0000   127.6101     8.9569     9.1686
  161.5000   132.4467     8.9575     9.1673
  162.0000   133.6499     9.0211     9.1021
  162.5000   129.9988     9.0217     9.1009
  163.0000   124.2293     8.9592     9.0992
  163.5000   121.1872     8.8975     8.9719
  164.0000   127.5390     8.7744     8.7840
  164.5000   134.1938     8.5871     8.5403
  165.0000   134.7880     8.2979     8.2455
  165.5000   134.4731     8.0694     7.9609
  166.0000   136.8825     7.7924     7.6325
  166.5000   138.0828     7.4725     7.4729
  167.0000   137.1618     7.3176     7.3680
  167.5000   132.6045     7.3182     7.3670
  168.0000   128.6533     7.3701     7.3660
  168.5000   129.2475     7.4745     7.5212
  169.0000   134.0841     7.6873     7.6844
  169.5000   137.7086     7.8597     7.8513
  170.0000   138.6061     8.0745     8.0629
  170.5000   135.5424     8.1889     8.2328
  171.0000   129.6222     8.3632     8.3480
  171.5000   125.2340     8.4225     8.4645
  172.0000   119.7676     8.4822     8.4631
  172.5000   113.9982     8.4235     8.4619
  173.0000   108.5318     8.4242     8.4608
  173.5000   109.1260     8.3660     8.4006
  174.0000   116.3868     8.3666     8.3409
  174.5000   125.4659     8.3673     8.3983
  175.0000   128.4844     8.3679     8.3971
  175.5000   126.6543     8.3685     8.4550
  176.0000   121.7818     8.4278     8.4535
  176.5000   117.7798     8.5472     8.5120
  177.0000   117.2248     8.5478     8.6305
  177.5000   120.8464     8.6084     8.6903
  178.0000   122.3497     8.6694     8.8113
  178.5000   122.6438     8.7309     8.8719
  179.0000   122.6290     8.7930     8.9330
  179.5000   120.1929     8.8553     8.9318
  180.0000   114.7265     8.8559     8.8683
  180.5000   113.1995     8.8566     8.7438
  181.0000   115.3088     8.8572     8.6208
  181.5000   117.4192     8.6737     8.5595
