~VERSION INFORMATION
 VERS.                2.0:   CWLS LOG ASCII STANDARD - VERSION 2.0
 WRAP.                 NO:   ONE LINE PER DEPTH STEP
~WELL INFORMATION
#MNEM.UNIT      DATA TYPE    INFORMATION
#----------   ------------   ------------------------------
 STRT.F           30.0000:   START DEPTH
 STOP.F          515.0000:   STOP DEPTH
 STEP.F            0.5000:   STEP LENGTH
 NULL.          -999.2500:   NO VALUE
 COMP. FENIX & SCISSON INC:   COMPANY
 WELL.      FP SX-3 #63-3:   WELL
 FLD .              NPR 3:   FIELD
 LOC .       S3 T38N R78W:   LOCATION
 CNTY.            NATRONA:   COUNTY
 STAT.            WYOMING:   STATE
 CTRY. UNITED STATES OF AMERICA:   COUNTRY
 SRVC.              Welex:   SERVICE COMPANY
 DATE.        21-JUN-1980:   LOGDATE
 API .       490251082100:   API NUMBER
~CURVE INFORMATION
#MNEM.UNIT       API CODE    CURVE DESCRIPTION
#----------   ------------   ------------------------------
 DEPT.F                  :   
 SPR .MV     07 010 01 00:   SPONTANEOUS POTENTIAL
 SGRD.OHMM   07 220 05 00:   SHALLOW GUARD RESISTIVITY
 ILD .OHMM   07 120 46 00:   INDUCTION LOG DEEP RESISTIVITY
 ILM .OHMM   07 120 44 00:   INDUCTION LOG MEDIUM
 CALD.IN     45 280 60 00:   CALIPER
 GRD .GAPI   45 310 01 00:   GAMMA RAY FROM DENSITY LOG
 CORR.G/C3   45 356 01 00:   DENSITY CORRECTION
 RHOB.G/C3   45 350 01 00:   BULK DENSITY
 DPHI.DEC    45 890 12 00:   DENSITY POROSITY SANDSTONE
 NPHI.DEC    42 890 03 00:   NEUTRON POROSITY SANDSTONE
~PARAMETER INFORMATION
#MNEM.UNIT          VALUE    DESCRIPTION
#----------   ------------   ------------------------------
 PD  .                 GL:   PERMANENT DATUM
 EPD .F              5160:   ELEVATION PERMANENT DATUM
 LMF .                 KB:   LOG MEASURED FROM
 DAPD.F                 5:   FEET ABOVE PERMANENT DATUM
 DMF .                 KB:   DRILLING MEASURED FROM
 EKB .F              5165:   KELLING BUSHING
 EGL .F              5160:   GROUND LEVEL
 DATE.            6-21-80:   RUN DATE
 RUN .                  1:   RUN NUMBER
 DD  .F               508:   DEPTH DRILLER
 DL  .F               517:   DEPTH LOGGER
 BLI .F               515:   BOTTOM LOG INTERVAL
 TLI .F                35:   TOP LOG INTERVAL
 BS  .IN            9.875:   BIT SIZE
 BSD .F               508:   BIT SIZE AT DEPTH
 DFT .            KCL MUD:   DRILLING FLUID TYPE
 DFD .                9.2:   DRILLING FLUID DENSITY
 DFV .                 50:   DRILLING FLUID VISCOSITY
 DFPH.                8.5:   DRILLING FLUID PH
 DFL .                  8:   DRILLING FLUID LOSS
 MSS .           FLOWLINE:   MUD SAMPLE SOURCE
 RMS .OHMM            .42:   RESISTIVITY MUD SAMPLE
 MST .F                63:   MUD SAMPLE TEMPERATURE
 RMF .OHMM            .34:   RESISTIVITY MUD FILTRATE SAMPLE
 MFST.F                63:   MUD FILTRATE SAMPLE TEMPERATURE
 RMC .OHMM             .5:   RESISTIVITY MUD CAKE
 MCST.F                63:   MUD CAKE SAMPLE TEMPERATURE
 MFSS.           MEASURED:   MUD FILTRATE SAMPLE SOURCE
 MCSS.           MEASURED:   MUD CAKE SAMPLE SOURCE
 RMB .OHMM            .35:   RESISTIVITY MUD AT BHT
 BHT .F                75:   BOTTOM HOLE TEMPERATURE
 TCS .HRS             1.5:   TIME CURCULATED STOPPED
 MRT .F                75:   MAXIMUM RECORDED TEMPERATURE
 LUN .               9685:   LOGGING UNIT NUMBER
 LUL .             CASPER:   LOGGING UNIT LOCATION
 ENGI.            TOTHILL:   RECORDING ENGINEER
 WITN.           DINSMORE:   WITNESSED BY
 CLNT.            A2DTECH:   CLIENT CODE
 ORIG.           5" PRINT:   ORIGIN OF DATA
 UWI .       490251082100:   UNIQUE WELL ID
 DICO. A2D Technologies, Inc.:   DIGITIZING COMPANY
~OTHER INFORMATION
~A   DEPT      SPR       SGRD        ILD        ILM        CALD       GRD         CORR       RHOB       DPHI       NPHI 
# ...
  465.5000   -22.0530     9.4919     7.6645     8.1043     9.9579    96.7600     0.1237     2.5484     0.0836     0.2643
  466.0000   -22.1772     9.2577     7.6223     8.1043     9.9579    96.0957     0.1207     2.5451     0.0852     0.2673
  466.5000   -22.5590     9.2329     7.5804     8.1044     9.9579    95.7574     0.1180     2.5419     0.0883     0.2711
  467.0000   -22.9440     9.2329     7.5388     8.0813     9.9579    96.1111     0.1154     2.5371     0.0927     0.2747
  467.5000   -23.3980     9.2329     7.4972     8.0484     9.9579    97.3697     0.1085     2.5289     0.1005     0.2742
  468.0000   -23.3202     8.9661     7.4524     8.0157     9.9579    98.6565     0.0985     2.5172     0.1083     0.2734
  468.5000   -22.9372     8.6819     7.4535     7.9833     9.9579    99.9404     0.0885     2.5052     0.1111     0.2736
  469.0000   -22.5680     8.4007     7.2527     7.9547     9.9579   101.2238     0.0784     2.4931     0.1123     0.2765
  469.5000   -23.0909     8.2510     7.1047     7.7866     9.9579   102.5086     0.0727     2.4881     0.1154     0.2795
  470.0000   -23.7479     8.3335     6.9598     7.5620     9.9579   103.7918     0.0681     2.4845     0.1192     0.2797
  470.5000   -23.9764     8.2745     6.8178     7.3438     9.9579   104.2495     0.0636     2.4786     0.1219     0.2796
  471.0000   -23.7800     8.1951     6.7010     7.2395     9.9579   103.9931     0.0591     2.4725     0.1235     0.2787
  471.5000   -23.5825     8.1164     6.6270     7.1875     9.9579   103.7431     0.0560     2.4690     0.1249     0.2792
  472.0000   -23.9170     8.0385     6.5539     7.1359     9.9579   103.4938     0.0544     2.4662     0.1260     0.2819
  472.5000   -24.4307     7.9615     6.4816     7.0847     9.9579   103.2441     0.0523     2.4633     0.1294     0.2847
  473.0000   -24.5758     7.8846     6.4101     7.0338     9.9579   102.9914     0.0469     2.4605     0.1340     0.2884
  473.5000   -24.2084     7.8095     6.3394     6.9824     9.9579   102.9902     0.0416     2.4578     0.1386     0.2926
  474.0000   -23.8439     7.6426     6.2695     6.7715     9.9579   103.6269     0.0360     2.4498     0.1436     0.2954
  474.5000   -23.6565     7.4366     6.1862     6.6903     9.9579   104.2733     0.0298     2.4406     0.1436     0.2946
  475.0000   -23.9954     7.3152     6.1883     6.6440     9.9579   104.9252     0.0234     2.4328     0.1421     0.2899
  475.5000   -24.3152     7.4971     6.1718     6.5981     9.9579   105.1078     0.0204     2.4322     0.1391     0.2847
  476.0000   -24.5578     7.7027     6.1614     6.5525     9.9579   104.9116     0.0237     2.4358     0.1347     0.2805
  476.5000   -24.1607     7.8037     6.1511     6.5071     9.9579   104.5129     0.0311     2.4421     0.1303     0.2792
  477.0000   -23.7659     7.6796     6.1408     6.4757     9.9579   104.1112     0.0383     2.4485     0.1273     0.2799
  477.5000   -23.7110     7.5928     6.1310     6.4514     9.9579   103.9088     0.0456     2.4548     0.1257     0.2820
  478.0000   -24.0960     7.6943     6.0825     6.4273     9.9579   104.1415     0.0497     2.4612     0.1217     0.2835
  478.5000   -24.4785     7.8079     6.0275     6.4033     9.9579   106.2856     0.0528     2.4637     0.1153     0.2827
  479.0000   -24.8017     7.5935     5.9728     6.3792     9.9579   108.4756     0.0575     2.4723     0.1145     0.2801
  479.5000   -24.5031     7.2721     5.9187     6.3499     9.9579   111.9631     0.0630     2.4810     0.1094     0.2774
  480.0000   -23.6852     6.9824     5.8650     6.3023     9.9579   115.6096     0.0694     2.4832     0.1023     0.2747
  480.5000   -23.2342     6.9824     5.8118     6.2556     9.9579   119.2512     0.0816     2.4941     0.0970     0.2715
  481.0000   -23.6122     7.0083     5.7592     6.2091     9.9608   122.8862     0.0939     2.5047     0.0987     0.2668
  481.5000   -23.9723     7.0288     5.6440     6.1630     9.9650   126.8690     0.1062     2.5132     0.1007     0.2620
  482.0000   -24.0765     7.0477     5.5016     6.1173     9.9692   133.8793     0.1073     2.5110     0.1013     0.2573
  482.5000   -23.4510     6.9620     5.4300     6.0719     9.9734   143.5968     0.1062     2.5078     0.1023     0.2560
  483.0000   -22.9620     6.8388     5.4096     6.0268     9.9775   155.2299     0.1075     2.5046     0.1042     0.2634
  483.5000   -23.1555     6.7179     5.3410     5.9820     9.9817   168.4548     0.1077     2.5014     0.1046     0.2693
  484.0000   -23.4379     6.5991     5.2657     5.9600     9.9859   182.5088     0.1051     2.4981     0.1054     0.2844
  484.5000   -23.7232     6.5403     5.1308     5.9600     9.9901   195.0619     0.1042     2.4969     0.1074     0.2922
  485.0000   -23.9932     6.6834     4.9987     5.9600     9.9943   194.5793     0.1041     2.4962     0.1094     0.2986
  485.5000   -23.6879     6.8450     4.8702     5.8329     9.9979   165.1488     0.1023     2.4928     0.1094  -999.2500
  486.0000   -23.9230     6.9887     4.7454     5.6888     9.9884   143.7613     0.1005     2.4888     0.1060  -999.2500
  486.5000   -24.3880     6.5251     4.6216     5.4341     9.9776   139.2866     0.1002     2.4908     0.1051  -999.2500
  487.0000   -24.7977     6.0256     4.5413     5.0873     9.9669   134.0088     0.1011     2.4950     0.1038  -999.2500
  487.5000   -24.6899     4.7647     4.5138     4.9935     9.9561   122.8607     0.1020     2.4992     0.0981  -999.2500
  488.0000   -23.5751     3.9196     4.5072     4.9935     9.9454   111.7349     0.1057     2.5072     0.0925  -999.2500
  488.5000   -22.5414     6.3025     4.5072     5.4226     9.9378   103.1712     0.1136     2.5157     0.0882  -999.2500
  489.0000   -22.5893     6.9700     4.6030     5.7213     9.9464   101.1391     0.1215     2.5243     0.0865  -999.2500
  489.5000   -22.7809     7.3293     4.7776     5.9192     9.9560    99.1539     0.1237     2.5318     0.0843  -999.2500
  490.0000   -22.9793     7.5983     4.9589     6.1313     9.9656    97.1638     0.1230     2.5378     0.0789  -999.2500
  490.5000   -22.4447     7.8810     5.1470     6.2657     9.9753    95.5207     0.1223     2.5475     0.0731  -999.2500
  491.0000   -21.7109     7.9296     5.3423     6.4085     9.9767    96.8673     0.1240     2.5574     0.0718  -999.2500
  491.5000   -21.5877     7.9731     5.5449     6.5530     9.9751    98.2596     0.1280     2.5660     0.0707  -999.2500
  492.0000   -21.7731     8.0670     5.7553     6.7009     9.9734    98.9437     0.1320     2.5724     0.0671  -999.2500
  492.5000   -21.9575     8.1620     5.9736     6.7913     9.9717    98.2977     0.1360     2.5788     0.0655  -999.2500
  493.0000   -21.9675     8.2582     6.1250     6.8704     9.9700    97.5666     0.1382     2.5845     0.0676  -999.2500
  493.5000   -21.9492     8.3339     6.2624     6.9682     9.9683    97.2803     0.1359     2.5803     0.0704  -999.2500
  494.0000   -21.5147     8.2179     6.4029     7.0477     9.9666    97.1664     0.1334     2.5762     0.0732  -999.2500
  494.5000   -21.2040     8.0791     6.5417     7.1136     9.9649    97.0561     0.1309     2.5676     0.0760  -999.2500
  495.0000   -21.5254     8.0292     6.5417     7.0663     9.9632    96.9846     0.1301     2.5570     0.0777  -999.2500
  495.5000   -21.7518     8.3352     6.5032     7.0209     9.9615    97.2300     0.1303     2.5540     0.0769  -999.2500
  496.0000   -21.3358     8.4119     6.4664     6.9755     9.9598    97.4798     0.1349     2.5557     0.0758  -999.2500
  496.5000   -20.9151     8.1041     6.4298     6.9305     9.9581    97.7262     0.1393     2.5575     0.0751  -999.2500
  497.0000   -20.4968     7.8810     6.3934     6.8860     9.9510    97.9675     0.1438     2.5594     0.0760  -999.2500
  497.5000   -20.0756     7.8810     6.3572     6.8535     9.9433    98.2658     0.1460     2.5570     0.0789  -999.2500
  498.0000   -19.9778     7.8810     6.3212     6.8966     9.9379   100.3612     0.1444     2.5531     0.0818  -999.2500
  498.5000   -20.1423     7.8810     6.3026     6.9371     9.9306   102.6083     0.1429     2.5491     0.0810  -999.2500
