~VERSION INFORMATION
 VERS.                2.0:   CWLS LOG ASCII STANDARD - VERSION 2.0
 WRAP.                 NO:   ONE LINE PER DEPTH STEP
~WELL INFORMATION
#MNEM.UNIT      DATA TYPE    INFORMATION
#----------   ------------   ------------------------------
 STRT.F            0.0000:   START DEPTH
 STOP.F          652.0000:   STOP DEPTH
 STEP.F            0.5000:   STEP LENGTH
 NULL.          -999.2500:   NO VALUE
 COMP.   FLUOR DANIEL INC:   COMPANY
 WELL.   68-1 X 34 #68-34:   WELL
 FLD .             TEAPOT:   FIELD
 LOC .      S34 T39N R78W:   LOCATION
 CNTY.            NATRONA:   COUNTY
 STAT.            WYOMING:   STATE
 CTRY. UNITED STATES OF AMERICA:   COUNTRY
 SRVC.      Western Atlas:   SERVICE COMPANY
 DATE.        08-APR-1995:   LOGDATE
 API .       490252269900:   API NUMBER
~CURVE INFORMATION
#MNEM.UNIT       API CODE    CURVE DESCRIPTION
#----------   ------------   ------------------------------
 DEPT.F                  :   
 GRR .GAPI   07 310 01 00:   GAMMA RAY
 RILD.OHMM   07 120 46 00:   INDUCTION LOG DEEP RESISTIVITY
 RILM.OHMM   07 120 44 00:   RESITIVITY LONG MEDIUM
~PARAMETER INFORMATION
#MNEM.UNIT          VALUE    DESCRIPTION
#----------   ------------   ------------------------------
 PD  .                 GL:   PERMANENT DATUM
 EPD .F              5106:   ELEVATION PERMANENT DATUM
 LMF .                 KB:   LOG MEASURED FROM
 DAPD.F                10:   FEET ABOVE PERMANENT DATUM
 DMF .                 KB:   DRILLING MEASURED FROM
 EKB .F              5116:   KELLING BUSHING
 EDF .F              5115:   DRILLING FLOOR
 EGL .F              5106:   GROUND LEVEL
 DATE.        08-APR-1995:   RUN DATE
 RUN .                  1:   RUN NUMBER
 DD  .F               660:   DEPTH DRILLER
 DL  .F               660:   DEPTH LOGGER
 BLI .F               652:   BOTTOM LOG INTERVAL
 TLI .F                54:   TOP LOG INTERVAL
 CS  .IN            9.625:   CASING SIZE
 CBD .F                53:   CASING BOTTOM DRILLER
 CBL .F                54:   CASING BOTTOM LOGGER
 BS  .IN             8.75:   BIT SIZE
 BSD .F               660:   BIT SIZE AT DEPTH
 DFT .                AIR:   DRILLING FLUID TYPE
 MRT .F                90:   MAXIMUM RECORDED TEMPERATURE
 LUN .            HL 6530:   LOGGING UNIT NUMBER
 LUL .             CASPER:   LOGGING UNIT LOCATION
 ENGI.      PAT RASMUSSEN:   RECORDING ENGINEER
 WITN.        GARY STRONG:   WITNESSED BY
 CLNT.            A2DTECH:   CLIENT CODE
 ORIG.           5" PRINT:   ORIGIN OF DATA
 UWI .       490252269900:   UNIQUE WELL ID
 DICO. A2D Technologies, Inc.:   DIGITIZING COMPANY
~OTHER INFORMATION
~A    DEPT      GRR      RILD       RILM   
# ...
  455.0000    85.3887    20.2242    20.5063
  455.5000    83.2999    20.6568    20.6568
  456.0000    77.9162    21.0987    21.2453
  456.5000    73.1328    21.7272    22.1693
  457.0000    71.6414    23.1065    23.7555
  457.5000    69.5512    24.9451    26.1842
  458.0000    67.7364    27.3057    27.8789
  458.5000    63.8752    28.9015    31.6241
  459.0000    60.2880    29.6978    31.6046
  459.5000    58.1978    30.1237    31.3987
  460.0000    58.5030    30.1355    31.1970
  460.5000    58.8092    29.7354    30.5677
  461.0000    59.7130    29.5389    29.9538
  461.5000    61.2156    28.5475    29.1468
  462.0000    65.7137    27.0195    27.9714
  462.5000    70.8091    25.7535    26.1127
  463.0000    75.0063    24.2068    25.2338
  463.5000    77.1357    23.7160    23.8832
  464.0000    78.9111    23.2334    23.4012
  464.5000    79.8149    22.6136    23.0906
  465.0000    80.4193    22.3135    22.4685
  465.5000    82.0060    22.0130    21.8632
  466.0000    84.3242    21.2607    21.4084
  466.5000    85.5274    20.9898    21.1356
  467.0000    86.1318    21.2929    21.2929
  467.5000    86.7376    21.7483    21.7483
  468.0000    86.7432    22.2365    22.2365
  468.5000    86.7488    22.5343    22.8486
  469.0000    86.1556    22.5431    23.1763
  469.5000    84.3662    22.0882    23.1954
  470.0000    83.7716    21.4952    22.7175
  470.5000    83.8164    20.7718    21.9550
  471.0000    80.4922    20.0727    21.0697
  471.5000    81.0966    19.2633    20.2201
  472.0000    87.3896    18.2340    19.2726
  472.5000    90.9881    17.7427    18.6240
  473.0000    93.3903    17.3847    17.8730
  473.5000    93.6953    17.2663    17.2663
  474.0000    92.2039    16.6918    16.9229
  474.5000    88.5808    16.3534    16.5831
  475.0000    85.9291    16.0249    16.4734
  475.5000    85.3345    15.8107    16.3677
  476.0000    85.9403    15.8184    16.3757
  476.5000    88.3425    15.8246    16.2674
  477.0000    89.5457    15.8307    16.2754
  477.5000    88.9525    15.8384    16.2833
  478.0000    86.2635    15.8446    16.2897
  478.5000    84.7721    15.8508    16.2960
  479.0000    86.5755    15.8570    16.3024
  479.5000    88.6769    15.8647    16.3103
  480.0000    91.1178    16.0922    16.4301
  480.5000    93.4800    16.4365    16.5507
  481.0000    94.3838    17.1405    16.9047
  481.5000    93.4912    17.7530    18.0006
  482.0000    90.5042    18.1328    19.5680
  482.5000    88.7134    18.5206    21.1251
  483.0000    85.4256    18.9169    20.8360
  483.5000    81.8383    18.7954    20.0041
  484.0000    80.9458    18.8027    18.9334
  484.5000    82.4498    18.6784    18.9408
  485.0000    86.9464    18.4180    18.6748
  485.5000    91.5092    17.8119    18.1859
  486.0000    93.2464    17.2125    17.5738
  486.5000    92.3538    16.6332    16.7487
  487.0000    91.4612    16.1850    16.1866
  487.5000    92.0670    15.8600    15.9686
  488.0000    92.6714    15.6464    15.7551
  488.5000    93.2758    15.6540    15.6540
  489.0000    93.8803    15.5521    15.5521
  489.5000    95.3843    15.5596    15.3441
  490.0000    95.9887    15.4568    15.2457
  490.5000    95.6935    14.9380    15.1464
  491.0000    94.7785    14.6366    14.9439
  491.5000    92.7135    14.5413    14.8465
  492.0000    92.4183    14.5483    14.9570
  492.5000    94.5211    14.7571    14.9629
  493.0000    96.6239    14.7642    14.9701
  493.5000    97.2283    14.8726    15.0800
  494.0000    94.5393    15.0859    15.0859
  494.5000    91.2515    15.6236    15.5158
  495.0000    90.9577    15.2040    15.4146
  495.5000    92.4617    14.9993    15.1035
  496.0000    92.7667    15.1109    15.1109
  496.5000    92.7465    15.1183    15.0139
  497.0000    90.0847    14.8132    14.9147
  497.5000    90.3897    14.5129    14.7167
  498.0000    92.4911    14.4197    14.5199
  498.5000    98.7856    14.3258    14.3258
  499.0000    99.0892    14.2325    14.2339
  499.5000    97.2998    14.1398    14.3384
  500.0000    96.7066    14.2450    14.4436
  500.5000    97.0092    14.4507    14.5511
  501.0000    96.4132    15.0160    15.0121
  501.5000    94.9197    15.4424    15.3324
  502.0000    93.7249    15.6617    15.5527
  502.5000    92.8294    15.6657    15.5577
  503.0000    92.5328    15.5617    15.5627
  503.5000    92.2362    15.3518    15.3535
  504.0000    92.5390    15.0412    14.9397
  504.5000    91.6068    14.7360    14.5360
  505.0000    91.3470    14.1413    14.0455
  505.5000    92.8475    13.7588    13.6670
  506.0000    94.6787    13.4787    13.4821
  506.5000    97.6442    13.2977    13.3019
  507.0000    98.8445    13.1183    13.1231
  507.5000    99.4461    13.0312    13.1284
  508.0000    99.7490    13.0354    13.0408
  508.5000    99.4524    12.9489    13.0461
  509.0000    98.2575    12.9531    13.0514
  509.5000    95.5664    12.8662    12.9644
  510.0000    94.3709    12.7816    12.8801
  510.5000    94.6738    12.6968    12.7953
  511.0000    94.9766    12.6133    12.8004
  511.5000    94.0812    12.6165    12.6283
  512.0000    93.4845    12.4463    12.4585
  512.5000    92.8892    12.3637    12.3775
  513.0000    95.2878    12.2823    12.3815
  513.5000    97.6858    12.1175    12.2989
  514.0000    97.3851    12.1206    12.2189
  514.5000    94.9975    12.1237    12.1395
  515.0000    95.5991    12.1269    12.1434
  515.5000    99.4941    12.0464    12.1473
  516.0000   102.7909    12.0502    12.1522
  516.5000   103.3925    12.0534    12.1562
  517.0000   104.8923    12.0572    12.1601
  517.5000   105.4946    11.9764    12.1640
  518.0000   104.2998    11.9803    12.1689
  518.5000   102.5061    11.9834    12.1729
  519.0000   101.2774    12.0705    12.1768
  519.5000    98.6202    12.1574    12.2664
  520.0000    96.2270    12.2450    12.2704
  520.5000    96.8552    12.4197    12.3597
  521.0000    99.5274    12.4229    12.4498
  521.5000    99.8296    12.5124    12.5414
  522.0000    99.5330    12.6901    12.5454
  522.5000    99.8358    12.7822    12.6368
  523.0000   100.4374    12.7855    12.7298
  523.5000   100.7396    12.5261    12.6449
  524.0000    98.9467    12.1040    12.4749
  524.5000    98.6493    11.9400    12.2232
  525.0000   100.7486    11.7789    11.8938
  525.5000   104.3449    11.6207    11.7329
  526.0000   105.5453    11.4647    11.5760
  526.5000   105.8475    11.4677    11.4998
  527.0000   104.9301    11.3130    11.4241
  527.5000   102.5603    11.1604    11.4287
  528.0000    99.8685    11.0863    11.3535
  528.5000    99.2725    11.0898    11.3581
  529.0000   101.9705    11.0934    11.3617
  529.5000   103.7697    11.0963    11.2868
  530.0000   103.7925    11.0992    11.2126
  530.5000   100.7820    11.1020    11.2171
  531.0000    99.8858    11.1827    11.2208
  531.5000   101.3863    11.4202    11.5399
  532.0000   104.0844    11.7438    12.0347
  532.5000   104.3866    12.2456    12.6370
  533.0000   101.6948    12.9460    13.6425
  533.5000    96.0613    13.8771    15.3545
  534.0000    85.8327    15.5410    17.0420
  534.5000    78.6499    19.2220    21.2802
  535.0000    76.2575    21.3299    25.0127
  535.5000    75.0633    23.6690    27.7117
  536.0000    73.5691    26.8173    28.6980
  536.5000    71.1767    28.3510    28.7073
  537.0000    72.0783    28.7517    28.5183
  537.5000    75.0751    28.3657    28.1371
  538.0000    79.8683    27.9848    26.6282
  538.5000    81.9676    27.6073    25.1749
  539.0000    81.6703    26.6754    24.1836
  539.5000    80.4762    25.9555    24.3596
  540.0000    79.2416    25.7815    24.8794
  540.5000    78.3859    25.9689    25.5891
  541.0000    77.1918    26.3378    26.3169
  541.5000    75.0607    26.7132    26.3254
  542.0000    72.4076    26.3529    26.1378
  542.5000    71.8109    25.8181    25.2716
  543.0000    72.4132    24.7761    24.0827
  543.5000    76.3089    23.4479    22.7912
  544.0000    82.2997    22.1908    21.5707
  544.5000    84.0989    20.7138    20.6988
  545.0000    85.5993    19.7395    20.1394
  545.5000    86.5003    19.3389    19.4483
