~VERSION INFORMATION
 VERS.                2.0:   CWLS LOG ASCII STANDARD - VERSION 2.0
 WRAP.                 NO:   ONE LINE PER DEPTH STEP
~WELL INFORMATION
#MNEM.UNIT      DATA TYPE    INFORMATION
#----------   ------------   ------------------------------
 STRT.F           19.0000:   START DEPTH
 STOP.F         1200.0000:   STOP DEPTH
 STEP.F            0.5000:   STEP LENGTH
 NULL.          -999.2500:   NO VALUE
 COMP.       INTEX OIL CO:   COMPANY
 WELL.     NPR 3 #73 S-14:   WELL
 FLD .             TEAPOT:   FIELD
 LOC .      S14 T38N R78W:   LOCATION
 CNTY.            NATRONA:   COUNTY
 STAT.            WYOMING:   STATE
 CTRY. UNITED STATES OF AMERICA:   COUNTRY
 SRVC.       Schlumberger:   SERVICE COMPANY
 DATE.        24-AUG-1966:   LOGDATE
 API .       490250970900:   API NUMBER
~CURVE INFORMATION
#MNEM.UNIT       API CODE    CURVE DESCRIPTION
#----------   ------------   ------------------------------
 DEPT.F                  :   
 SPR .MV     05 010 01 00:   SPONTANEOUS POTENTIAL FROM RES.
 ILD .OHMM   05 120 46 00:   INDUCTION LOG DEEP
 ASN .OHMM   05 041 16 00:   AMPLIFIED SHORT NORMAL 16"
 CILD.MMHO   05 110 46 00:   CONDUCTIVITY INDUCTION LOG DEEP
 CALD.IN     45 280 60 00:   CALIPER
 GRD .GAPI   45 310 01 00:   GAMMA RAY FROM DENSITY LOG
 CORR.G/C3   45 356 01 00:   DENSITY CORRECTION
 RHOB.G/C3   45 350 01 00:   BULK DENSITY
 DPHI.DEC    45 890 12 00:   DENSITY POROSITY SANDSTONE
~PARAMETER INFORMATION
#MNEM.UNIT          VALUE    DESCRIPTION
#----------   ------------   ------------------------------
 PD  .                 GL:   PERMANENT DATUM
 EPD .F              5274:   ELEVATION PERMANENT DATUM
 LMF .                 KB:   LOG MEASURED FROM
 DAPD.F                 5:   FEET ABOVE PERMANENT DATUM
 DMF .                 KB:   DRILLING MEASURED FROM
 EKB .F              5279:   KELLING BUSHING
 EGL .F              5274:   GROUND LEVEL
 DATE.            8-24-66:   RUN DATE
 RUN .                  1:   RUN NUMBER
 DD  .F              1200:   DEPTH DRILLER
 DL  .F              1200:   DEPTH LOGGER
 BLI .F              1199:   BOTTOM LOG INTERVAL
 TLI .F                86:   TOP LOG INTERVAL
 CS  .IN            8.625:   CASING SIZE
 CBD .F                10:   CASING BOTTOM DRILLER
 BS  .IN             6.75:   BIT SIZE
 BSD .F              1200:   BIT SIZE AT DEPTH
 DFT .                GEL:   DRILLING FLUID TYPE
 DFD .               10.1:   DRILLING FLUID DENSITY
 DFV .                 60:   DRILLING FLUID VISCOSITY
 MSS .          FLOW LINE:   MUD SAMPLE SOURCE
 RMS .OHMM            1.8:   RESISTIVITY MUD SAMPLE
 MST .F                67:   MUD SAMPLE TEMPERATURE
 RMF .OHMM            1.4:   RESISTIVITY MUD FILTRATE SAMPLE
 MFST.F                77:   MUD FILTRATE SAMPLE TEMPERATURE
 MFSS.                  M:   MUD FILTRATE SAMPLE SOURCE
 RMB .OHMM            1.1:   RESISTIVITY MUD AT BHT
 BHT .F               112:   BOTTOM HOLE TEMPERATURE
 TCS .HRS               1:   TIME CURCULATED STOPPED
 MRT .F               112:   MAXIMUM RECORDED TEMPERATURE
 LUN .               4507:   LOGGING UNIT NUMBER
 LUL .               CSPR:   LOGGING UNIT LOCATION
 ENGI.            MANGOLD:   RECORDING ENGINEER
 WITN.                MAY:   WITNESSED BY
 CLNT.            A2DTECH:   CLIENT CODE
 ORIG.           5" PRINT:   ORIGIN OF DATA
 UWI .       490250970900:   UNIQUE WELL ID
 DICO. A2D Technologies, Inc.:   DIGITIZING COMPANY
~OTHER INFORMATION
~A   DEPT      SPR        ILD        ASN       CILD       CALD         GRD        CORR     RHOB       DPHI   
# ...
  420.5000   -54.2240     5.7780     6.5210   163.5510     7.2550    98.3450     0.0480     2.4840     0.1000
  421.0000   -54.2120     5.7580     6.4140   165.3350     7.2540    97.1310     0.0460     2.5150     0.0880
  421.5000   -54.1990     5.7850     6.3230   166.3340     7.2550    93.5410     0.0530     2.5180     0.0910
  422.0000   -54.1850     5.8100     6.2350   165.9630     7.2550    90.7080     0.0470     2.5070     0.1010
  422.5000   -54.1720     5.8340     6.2460   165.4600     7.2550    87.2210     0.0360     2.4800     0.1120
  423.0000   -54.1590     5.8600     6.4520   164.9560     7.2550    85.2530     0.0300     2.4650     0.1100
  423.5000   -54.1450     5.8850     6.6180   164.4530     7.2550    84.6410     0.0360     2.4800     0.1060
  424.0000   -54.1320     5.9100     6.5950   163.9500     7.2550    83.1370     0.0410     2.4880     0.1050
  424.5000   -54.1190     5.9370     6.5420   163.4470     7.2550    84.1050     0.0480     2.4710     0.1090
  425.0000   -54.1050     5.9610     6.5330   162.9440     7.2550    87.2840     0.0380     2.4580     0.1130
  425.5000   -54.0920     5.9860     6.5730   162.4410     7.2550    89.7950     0.0260     2.4410     0.1170
  426.0000   -54.0790     6.0160     6.6460   161.9380     7.2550    93.2360     0.0280     2.4390     0.1230
  426.5000   -54.0650     6.0380     6.6940   161.3390     7.2550    94.0560     0.0330     2.4380     0.1210
  427.0000   -54.0520     6.1100     6.7150   157.2390     7.2550    90.9380     0.0410     2.4490     0.1150
  427.5000   -54.0390     6.2760     6.7070   152.1680     7.2550    86.6820     0.0480     2.4710     0.1090
  428.0000   -54.0250     6.4630     6.7250   147.0970     7.2550    87.3150     0.0550     2.4920     0.1030
  428.5000   -54.0130     6.6380     6.8920   142.0260     7.2550    91.3460     0.0580     2.5090     0.0970
  429.0000   -53.9990     6.8150     7.2240   137.3630     7.2550    93.6200     0.0520     2.5100     0.0920
  429.5000   -53.9860     6.9970     7.5840   131.6560     7.2550    91.1040     0.0450     2.5040     0.0910
  430.0000   -53.9730     7.1720     7.8860   126.3740     7.2550    87.5060     0.0370     2.4860     0.0990
  430.5000   -53.9590     7.3480     8.2710   122.3780     7.2550    88.5930     0.0300     2.4690     0.1080
  431.0000   -53.9480     7.5350     8.6200   122.3780     7.2550    91.6590     0.0230     2.4500     0.1170
  431.5000   -53.9310     7.5770     8.5920   123.6180     7.2550    94.4020     0.0280     2.4440     0.1260
  432.0000   -53.9220     7.4270     8.3640   127.1400     7.2550    95.6370     0.0370     2.4510     0.1160
  432.5000   -53.9750     7.2480     8.1800   130.6610     7.2550    94.8430     0.0480     2.4560     0.1130
  433.0000   -54.0750     7.0850     7.9780   134.1820     7.2550    93.5810     0.0350     2.4620     0.1220
  433.5000   -54.1710     6.9260     7.7760   137.7040     7.2550    92.3150     0.0390     2.4680     0.1230
  434.0000   -54.2700     6.7410     7.5810   141.2250     7.2550    91.0070     0.0450     2.4720     0.1210
  434.5000   -54.3680     6.5560     7.4220   144.7470     7.2550    90.0730     0.0330     2.4690     0.1190
  435.0000   -54.4620     6.5300     7.3670   147.3530     7.2550    90.8410     0.0250     2.4520     0.1180
  435.5000   -54.5720     6.6110     7.3310   147.3530     7.2550    92.6130     0.0140     2.4310     0.1280
  436.0000   -54.6640     6.6520     7.2790   147.3530     7.2550    94.4640     0.0100     2.4340     0.1260
  436.5000   -54.6640     6.6940     7.3040   144.3560     7.2550    96.2830     0.0130     2.4410     0.1240
  437.0000   -54.5360     6.7640     7.4080   141.6750     7.2550    98.3330     0.0170     2.4510     0.1220
  437.5000   -54.4200     6.7810     7.5320   138.1540     7.2550   100.6060     0.0170     2.4470     0.1180
  438.0000   -54.3280     6.8610     7.6400   134.6320     7.2550   102.8490     0.0100     2.4380     0.1190
  438.5000   -54.1630     7.1280     7.7460   131.1110     7.2550   105.2190     0.0130     2.4300     0.1360
  439.0000   -54.2970     7.4290     7.7560   127.5890     7.2550   106.3500     0.0220     2.4260     0.1350
  439.5000   -54.6770     7.6840     7.8470   124.0680     7.2550   100.8690     0.0220     2.4270     0.1310
  440.0000   -54.7250     7.9590     8.2150   120.5460     7.2540    97.1890     0.0210     2.4300     0.1270
  440.5000   -54.6250     8.2410     8.5210   117.0250     7.2550    95.2860     0.0160     2.4450     0.1230
  441.0000   -54.6270     8.4960     8.8080   113.5030     7.2530    92.8070     0.0340     2.4610     0.1190
  441.5000   -54.5750     8.6540     9.1110   109.9820     7.2470    91.9110     0.0470     2.4710     0.1160
  442.0000   -54.5360     8.6350     9.4020   107.3930     7.2420    94.1810     0.0280     2.4730     0.1140
  442.5000   -54.5090     8.4720     9.6640   107.3930     7.2370    96.3840     0.0320     2.4800     0.1160
  443.0000   -54.4600     8.2940     9.6620   108.3920     7.2320    98.6960     0.0400     2.4860     0.1190
  443.5000   -54.4340     8.1370     9.5130   114.3070     7.2270    99.3900     0.0530     2.4910     0.1150
  444.0000   -54.3880     7.9630     9.3840   119.3010     7.2220    98.2230     0.0480     2.4760     0.1100
  444.5000   -54.3600     7.8060     9.2400   124.2950     7.2180    96.6720     0.0290     2.4570     0.1180
  445.0000   -54.3140     7.6290     9.0180   129.2890     7.2090    95.1320     0.0180     2.4450     0.1270
  445.5000   -54.1570     7.4500     8.7650   134.3660     7.1970    93.6440     0.0270     2.4420     0.1190
  446.0000   -53.9810     7.4390     8.5120   131.6480     7.1830    91.8350     0.0370     2.4670     0.1060
  446.5000   -53.8190     7.5490     8.2560   128.8850     7.1720    87.7850     0.0490     2.5040     0.0930
  447.0000   -53.6390     7.6400     8.0470   126.1220     7.1570    83.3860     0.0550     2.5400     0.0800
  447.5000   -53.4860     7.7400     8.0330   123.3590     7.1650    79.3110     0.0650     2.5440     0.0660
  448.0000   -53.2930     7.8400     8.3210   120.5960     7.1870    74.7540     0.0350     2.5470     0.0790
  448.5000   -53.1270     7.9290     8.6530   117.3830     7.2060    80.0340     0.0390     2.5420     0.0910
  449.0000   -53.1280     8.0530     9.0590   117.3830     7.2250    88.3720     0.0460     2.5100     0.1040
  449.5000   -53.1850     8.0310     9.3930   117.3830     7.2450    95.8910     0.0420     2.4860     0.1090
  450.0000   -53.2120     7.7550     9.4490   118.3820     7.2560    97.0390     0.0340     2.4860     0.1070
  450.5000   -53.2400     7.4170     9.3710   125.5000     7.2540    97.9190     0.0380     2.4910     0.1050
  451.0000   -53.2960     7.1130     8.9280   133.3180     7.2550    98.8250     0.0480     2.5030     0.1020
  451.5000   -53.2960     6.7930     8.4100   141.1350     7.2540    99.9370     0.0580     2.5160     0.1020
  452.0000   -53.1090     6.4670     7.9730   148.9530     7.2550   100.1040     0.0690     2.5210     0.1050
  452.5000   -52.8830     6.2530     7.4660   158.3420     7.2540    96.7320     0.0730     2.5060     0.1080
  453.0000   -52.7210     6.2180     7.1530   157.4980     7.2550    93.2880     0.0620     2.4910     0.1110
  453.5000   -52.5020     6.2240     7.0620   156.4410     7.2560    91.4570     0.0510     2.4770     0.1140
  454.0000   -52.3190     6.2000     7.0110   155.3850     7.2570    93.9400     0.0400     2.4610     0.1180
  454.5000   -52.2970     6.1940     7.0060   154.3280     7.2580    96.4310     0.0270     2.4500     0.1210
  455.0000   -52.3170     6.1830     7.0400   153.2720     7.2580    99.1090     0.0220     2.4530     0.1240
  455.5000   -52.2990     6.1660     7.0500   152.3480     7.2590   101.6390     0.0290     2.4590     0.1260
  456.0000   -52.3140     6.1610     7.0870   154.5670     7.2600   104.3520     0.0340     2.4650     0.1230
  456.5000   -52.3970     6.1400     6.9980   156.5390     7.2610   106.1330     0.0400     2.4720     0.1190
