~VERSION INFORMATION
 VERS.                2.0:   CWLS LOG ASCII STANDARD - VERSION 2.0
 WRAP.                 NO:   ONE LINE PER DEPTH STEP
~WELL INFORMATION
#MNEM.UNIT      DATA TYPE    INFORMATION
#----------   ------------   ------------------------------
 STRT.F           12.0000:   START DEPTH
 STOP.F          563.5000:   STOP DEPTH
 STEP.F            0.5000:   STEP LENGTH
 NULL.          -999.2500:   NO VALUE
 COMP.       F D SERV INC:   COMPANY
 WELL. N P R 3 SX-3 #52-3:   WELL
 FLD .             TEAPOT:   FIELD
 LOC .       S3 T38N R78W:   LOCATION
 CNTY.            NATRONA:   COUNTY
 STAT.            WYOMING:   STATE
 CTRY. UNITED STATES OF AMERICA:   COUNTRY
 SRVC.     Atlas Wireline:   SERVICE COMPANY
 DATE.        27-APR-1992:   LOGDATE
 API .       490252252000:   API NUMBER
~CURVE INFORMATION
#MNEM.UNIT       API CODE    CURVE DESCRIPTION
#----------   ------------   ------------------------------
 DEPT.F                  :   
 PORZ.DEC    45 890 12 00:   DENSITY POROSITY
 CNC .DEC    42 890 03 00:   NEUTRON POROSITY SANDSTONE
 CALD.IN     45 280 60 00:   CALIPER FROM DENSITY
 GRD .GAPI   45 310 01 00:   GAMMA RAY FROM DENSITY LOG
 ZCOR.G/C3   45 356 01 00:   DENSITY CORRECTION
 ZDEN.G/C3   45 350 01 00:   BULK DENSITY
 RILD.OHMM   07 120 46 00:   INDUCTION LOG DEEP RESISTIVITY
 RILM.OHMM   07 120 44 00:   INDUCTION LOG MEDIUM RESISTIVITY
 RFOC.OHMM   07 220 04 00:   RESISTIVITY FOCUSED LOG
~PARAMETER INFORMATION
#MNEM.UNIT          VALUE    DESCRIPTION
#----------   ------------   ------------------------------
 PD  .                 GL:   PERMANENT DATUM
 EPD .F              5145:   ELEVATION PERMANENT DATUM
 LMF .                 KB:   LOG MEASURED FROM
 DAPD.F                 5:   FEET ABOVE PERMANENT DATUM
 DMF .                 KB:   DRILLING MEASURED FROM
 EKB .F              5150:   KELLING BUSHING
 EDF .F              5149:   DRILLING FLOOR
 EGL .F              5145:   GROUND LEVEL
 DATE.        27-APR-1992:   RUN DATE
 RUN .                  1:   RUN NUMBER
 DD  .F               565:   DEPTH DRILLER
 DL  .F               565:   DEPTH LOGGER
 BLI .F               563:   BOTTOM LOG INTERVAL
 CS  .IN            8.625:   CASING SIZE
 CBD .F                48:   CASING BOTTOM DRILLER
 CBL .F                51:   CASING BOTTOM LOGGER
 BS  .IN            7.875:   BIT SIZE
 BSD .F               565:   BIT SIZE AT DEPTH
 DFT .              WATER:   DRILLING FLUID TYPE
 TCS .HRS            0200:   TIME CURCULATED STOPPED
 MRT .F                88:   MAXIMUM RECORDED TEMPERATURE
 LUN .           HL- 6274:   LOGGING UNIT NUMBER
 LUL .             CASPER:   LOGGING UNIT LOCATION
 ENGI.             RAUTIO:   RECORDING ENGINEER
 WITN.        GARY STRONG:   WITNESSED BY
 CLNT.            A2DTECH:   CLIENT CODE
 ORIG.           5" PRINT:   ORIGIN OF DATA
 UWI .       490252252000:   UNIQUE WELL ID
 DICO. A2D Technologies, Inc.:   DIGITIZING COMPANY
~OTHER INFORMATION
~A   DEPT     PORZ        CNC       CALD        GRD       ZCOR       ZDEN       RILD       RILM       RFOC   
# ...
  523.0000     0.0761     0.3339     7.9202   108.3603     0.0352     2.5228    10.0125    10.2094    10.1443
  523.5000     0.0767     0.3360     7.9199   111.0607     0.0368     2.5213     9.9358    10.0712     9.9319
  524.0000     0.0812     0.3418     7.9046   110.4676     0.0293     2.5176     9.8657     9.9298     9.9285
  524.5000     0.0818     0.3433     7.9043   109.2757     0.0278     2.5124     9.9314     9.9273     9.9244
  525.0000     0.0803     0.3436     7.9040   107.1856     0.0309     2.5132     9.9264     9.8561     9.7843
  525.5000     0.0785     0.3439     7.9037   106.8920     0.0340     2.5178     9.9925     9.9229     9.7810
  526.0000     0.0782     0.3439     7.9034   108.3961     0.0295     2.5193    10.1270     9.9197     9.8467
  526.5000     0.0776     0.3430     7.8881   109.5995     0.0251     2.5201    10.1934    10.1261    10.0496
  527.0000     0.0767     0.3415     7.8878   108.7070     0.0236     2.5209    10.2602    10.2651    10.1162
  527.5000     0.0752     0.3331     7.8876   106.9162     0.0267     2.5219    10.2550    10.4054    10.1833
  528.0000     0.0716     0.3228     7.8872   107.5449     0.0298     2.5308    10.2509    10.3308    10.1704
  528.5000     0.0682     0.3234     7.8869   110.2226     0.0329     2.5414    10.1760    10.2567     9.9659
  529.0000     0.0676     0.3250     7.8717   112.6236     0.0359     2.5422    10.1016    10.0426     9.8252
  529.5000     0.0731     0.3265     7.8714   115.3239     0.0390     2.5384     9.9585     9.7650     9.6865
  530.0000     0.0776     0.3280     7.8710   116.5272     0.0376     2.5308     9.7495     9.4293     9.4181
  530.5000     0.0809     0.3292     7.8707   115.9342     0.0361     2.5232     9.4689     9.1686     8.9685
  531.0000     0.0824     0.3289     7.8854   113.7486     0.0377     2.5154     9.1513     9.1610     8.9034
  531.5000     0.0815     0.3262     7.8852   112.0548     0.0392     2.5153     8.8973     9.1000     8.9004
  532.0000     0.0769     0.3232     7.8848   112.0606     0.0440     2.5193     8.7712     9.0977     8.8352
  532.5000     0.0743     0.3232     7.8845   112.6651     0.0484     2.5260     8.7071     9.0324     8.8322
  533.0000     0.0752     0.3268     7.8842   114.1678     0.0440     2.5268     8.6435     9.0301     8.8293
  533.5000     0.0818     0.3377     7.8839   116.5869     0.0365     2.5200     8.5803     9.0279     8.7652
  534.0000     0.0866     0.3401     7.8837   116.5745     0.0320     2.5087     8.6365     8.9631     8.7017
  534.5000     0.0872     0.3413     7.8833   116.5817     0.0336     2.5049     8.6322     8.8988     8.6988
  535.0000     0.0869     0.3426     7.8830   116.2866     0.0367     2.5057     8.6288     8.7687     8.6357
  535.5000     0.0911     0.3444     7.8827   116.5931     0.0352     2.5057     8.2737     8.3548     8.8144
  536.0000     0.0968     0.3472     7.8825   117.4971     0.0307     2.5034     7.9333     8.1804     8.9961
  536.5000     0.1017     0.3577     7.8671   120.9224     0.0248     2.4966     7.6069     7.7902     8.9931
  537.0000     0.1071     0.3655     7.8668   127.6896     0.0203     2.4838     7.4472     7.2657     8.9901
  537.5000     0.1083     0.3704     7.8665   135.1804     0.0173     2.4762     7.3921     7.2135     8.8632
  538.0000     0.1056     0.3631     7.8663   141.4851     0.0189     2.4740     7.3891     7.1618     7.3461
  538.5000     0.1008     0.3510     7.8660  -999.2500     0.0371     2.4755     7.5415     7.2099     7.2928
  539.0000     0.0950     0.3372     7.8506  -999.2500     0.0402     2.4800     7.8044     7.4198     7.5026
  539.5000     0.0893     0.3336     7.8654  -999.2500     0.0342     2.4876     8.1328     7.9971     8.0869
  540.0000     0.0836     0.3309     7.8501  -999.2500     0.0312     2.5004     8.5340     8.4519     8.7256
  540.5000     0.0806     0.3297     7.8498  -999.2500     0.0328     2.5119     8.8406     8.8708     9.4803
  541.0000     0.0782     0.3318     7.8494  -999.2500     0.0344     2.5177     9.2022     9.3104     9.5439
  541.5000     0.0761     0.3659     7.8491  -999.2500     0.0359     2.5207     9.4573     9.5709     9.6071
  542.0000     0.0749     0.3747     7.8489  -999.2500     0.0375     2.5252     9.7204     9.9060     9.8052
  542.5000     0.0746     0.3002     7.8486  -999.2500     0.0376     2.5275     9.9888    10.1120    10.1480
  543.0000     0.0773     0.3011     7.8482  -999.2500     0.0361     2.5283    10.1947    10.3282    10.2958
  543.5000     0.0806     0.3011     7.8479  -999.2500     0.0362     2.5274    10.4049    10.6098    10.4993
  544.0000     0.0851     0.2957     7.8476  -999.2500     0.0362     2.5222    10.5460    10.6071    10.6425
  544.5000     0.0881  -999.2500     7.8474  -999.2500     0.0333     2.5154    10.6890    10.6790    10.7130
  545.0000     0.0911  -999.2500     7.8471  -999.2500     0.0258     2.5079    10.6836    10.6017    10.7085
  545.5000     0.0914  -999.2500     7.8467  -999.2500     0.0213     2.5011    10.6794    10.5991    10.7049
  546.0000     0.0884  -999.2500     7.8464  -999.2500     0.0259     2.5004    10.5280    10.5964    10.5538
  546.5000     0.0833  -999.2500     7.8462  -999.2500     0.0307     2.5079    10.4511    10.5204    10.3327
  547.0000     0.0788  -999.2500     7.8459  -999.2500     0.0351     2.5192    10.3674    10.5116    10.2571
  547.5000     0.0794  -999.2500     7.8305  -999.2500     0.0352     2.5222    10.2266    10.4416    10.1827
  548.0000     0.0800  -999.2500     7.8153  -999.2500     0.0337     2.5215    10.1519    10.3667    10.1793
  548.5000     0.0779  -999.2500     7.8150  -999.2500     0.0262     2.5222    10.0777    10.3641    10.1759
  549.0000     0.0767  -999.2500     7.8297  -999.2500     0.0263     2.5238    10.0736    10.3615    10.1725
  549.5000     0.0761  -999.2500     7.8294  -999.2500     0.0311     2.5268    10.0000    10.3589    10.1690
  550.0000     0.0746  -999.2500     7.8290  -999.2500     0.0445     2.5275     9.9960    10.2134    10.1656
  550.5000     0.0737  -999.2500     7.8288  -999.2500     0.0566     2.5290    10.0615    10.1401    10.1621
  551.0000     0.0800  -999.2500     7.8285  -999.2500     0.0522     2.5268     9.9179     9.9919    10.0877
  551.5000     0.0839  -999.2500     7.8282  -999.2500     0.0447     2.5199     9.7774     9.7207    10.0843
  552.0000     0.0854  -999.2500     7.8278  -999.2500     0.0387     2.5094     9.5355     9.5178    10.0809
  552.5000     0.0830  -999.2500     7.8275  -999.2500     0.0403     2.5132     9.2623     9.1906    10.0078
  553.0000     0.0815  -999.2500     7.8273  -999.2500     0.0388     2.5177     8.9892     8.9365     9.9353
  553.5000     0.0848  -999.2500     7.8420  -999.2500     0.0359     2.5170     8.6755     8.5696     9.7273
  554.0000     0.0872  -999.2500     7.8417  -999.2500     0.0344     2.5147     8.4347     8.2750     9.1267
  554.5000     0.0914  -999.2500     7.8263  -999.2500     0.0420     2.5101     8.0318     8.0462     8.6381
  555.0000     0.0950  -999.2500     7.8261  -999.2500     0.0558     2.5034     2.6837     7.6580     8.2830
  555.5000     0.0992  -999.2500     7.8258  -999.2500     0.0587     2.4959  -999.2500     7.3985     7.9425
  556.0000     0.1020  -999.2500     7.8255  -999.2500     0.0573     2.4906  -999.2500     7.1442     7.6159
  556.5000     0.1023  -999.2500     7.8251  -999.2500     0.0528     2.4876  -999.2500     6.8034     7.3537
  557.0000     0.1059  -999.2500     7.8249  -999.2500     0.0484     2.4846  -999.2500     6.3895     7.1998
  557.5000     0.1224  -999.2500     7.8246  -999.2500     0.0394     2.4788  -999.2500     5.5981     6.8560
  558.0000     0.1426  -999.2500     7.8243  -999.2500     0.0205     2.4424  -999.2500     4.4195     6.5166
  558.5000     0.1953  -999.2500     7.8089  -999.2500     0.0033     2.4047  -999.2500     3.8187     5.8807
  559.0000     0.2353  -999.2500     7.8087  -999.2500     0.0034     2.3376  -999.2500     3.1867     5.1168
