~VERSION INFORMATION
 VERS.                2.0:   CWLS LOG ASCII STANDARD - VERSION 2.0
 WRAP.                 NO:   ONE LINE PER DEPTH STEP
~WELL INFORMATION
#MNEM.UNIT      DATA TYPE    INFORMATION
#----------   ------------   ------------------------------
 STRT.F           40.0000:   START DEPTH
 STOP.F          512.0000:   STOP DEPTH
 STEP.F            0.5000:   STEP LENGTH
 NULL.          -999.2500:   NO VALUE
 COMP. FENIX & SCISSON INC:   COMPANY
 WELL.    SX 3FO 55 #52-3:   WELL
 FLD .             TEAPOT:   FIELD
 LOC .       S3 T38N R78W:   LOCATION
 CNTY.            NATRONA:   COUNTY
 STAT.            WYOMING:   STATE
 CTRY. UNITED STATES OF AMERICA:   COUNTRY
 SRVC.              Welex:   SERVICE COMPANY
 DATE.        28-JUN-1980:   LOGDATE
 API .       490251081600:   API NUMBER
~CURVE INFORMATION
#MNEM.UNIT       API CODE    CURVE DESCRIPTION
#----------   ------------   ------------------------------
 DEPT.F                  :   
 GRD .GAPI   45 310 01 00:   GAMMA RAY FROM DENSITY LOG
 CALD.IN     45 280 60 00:   CALIPER
 RHOB.G/C3   45 350 01 00:   BULK DENSITY
 DPHI.DEC    45 890 12 00:   DENSITY POROSITY SANDSTONE
 CORR.G/C3   45 356 01 00:   DENSITY CORRECTION
~PARAMETER INFORMATION
#MNEM.UNIT          VALUE    DESCRIPTION
#----------   ------------   ------------------------------
 PD  .                 GL:   PERMANENT DATUM
 EPD .F              5161:   ELEVATION PERMANENT DATUM
 LMF .                 KB:   LOG MEASURED FROM
 DAPD.F                 5:   FEET ABOVE PERMANENT DATUM
 DMF .                 KB:   DRILLING MEASURED FROM
 EKB .F              5166:   KELLING BUSHING
 EGL .F              5161:   GROUND LEVEL
 DATE.            6-28-80:   RUN DATE
 RUN .                  1:   RUN NUMBER
 DD  .F               514:   DEPTH DRILLER
 DL  .F               514:   DEPTH LOGGER
 BLI .F               512:   BOTTOM LOG INTERVAL
 TLI .F                46:   TOP LOG INTERVAL
 CS  .IN                7:   CASING SIZE
 BS  .IN             6.25:   BIT SIZE
 BSD .F               514:   BIT SIZE AT DEPTH
 DFT .        AIR DRILLED:   DRILLING FLUID TYPE
 BHT .F                74:   BOTTOM HOLE TEMPERATURE
 TCS .HRS               2:   TIME CURCULATED STOPPED
 MRT .F                74:   MAXIMUM RECORDED TEMPERATURE
 ENGI.            TOTHILL:   RECORDING ENGINEER
 WITN.              AMEND:   WITNESSED BY
 CLNT.            A2DTECH:   CLIENT CODE
 ORIG.           5" PRINT:   ORIGIN OF DATA
 UWI .       490251081600:   UNIQUE WELL ID
 DICO. A2D Technologies, Inc.:   DIGITIZING COMPANY
~OTHER INFORMATION
~A   DEPT       GRD        CALD       RHOB       DPHI       CORR 
   40.0000    91.6932     6.9982     1.5624     0.4751     0.0080
   40.5000    92.4900     6.9821     1.5763     0.4727     0.0140
   41.0000    93.7614     6.9821     1.5903     0.4684     0.0220
   41.5000    95.0817     6.9821     1.5993     0.4631     0.0259
   42.0000    96.0667     6.9578     1.6080     0.4639     0.0336
   42.5000    96.4660     6.9134     1.6165     0.4529     0.0440
   43.0000    95.7942     6.8688     1.6245     0.4415     0.0505
   43.5000    95.3111     6.8239     1.6884     0.4301     0.0583
   44.0000    97.8211     6.7794     1.7570     0.4156     0.0663
   44.5000   100.4695     6.7404     1.8252     0.3867     0.1132
   45.0000   103.1112     6.7338     1.8934     0.3578     0.2222
   45.5000   105.7550     6.7261     1.9617     0.3289     0.3287
   46.0000   108.3768     6.7176     2.3089     0.3006     0.4192
   46.5000   110.5549     6.7075     2.2946     0.2200     0.3930
   47.0000   110.4543     6.7180     2.2805     0.2318     0.3202
   47.5000   109.6555     7.1517     2.2700     0.2427     0.2233
   48.0000   109.3187     7.6583     2.3470     0.2423     0.1212
   48.5000   109.3778     7.3587     2.4205     0.1420     0.0418
   49.0000   110.2960     6.9655     2.4805     0.1146     0.0573
   49.5000   111.2986     6.6391     2.4759     0.1169     0.0597
   50.0000   112.3014     6.4651     2.4661     0.1217     0.0520
   50.5000   113.3070     6.3902     2.4667     0.1242     0.0443
   51.0000   113.9608     6.3635     2.4640     0.1249     0.0431
   51.5000   113.0261     6.3622     2.4615     0.1274     0.0421
   52.0000   112.0736     6.3607     2.4653     0.1255     0.0471
   52.5000   111.6418     6.3593     2.4685     0.1222     0.0543
   53.0000   112.7434     6.3578     2.4679     0.1222     0.0571
   53.5000   113.8225     6.3563     2.4653     0.1238     0.0546
   54.0000   114.7608     6.3548     2.4607     0.1269     0.0521
   54.5000   114.2238     6.3533     2.4602     0.1269     0.0507
   55.0000   114.7330     6.3518     2.4624     0.1266     0.0568
   55.5000   115.3333     6.3503     2.4689     0.1237     0.0630
   56.0000   115.5445     6.3488     2.4755     0.1207     0.0693
   56.5000   114.3556     6.3473     2.4738     0.1182     0.0755
   57.0000   113.2121     6.3457     2.4668     0.1209     0.0652
   57.5000   112.0643     6.3390     2.4536     0.1299     0.0537
   58.0000   111.3505     6.3139     2.4426     0.1389     0.0468
   58.5000   114.5556     6.2887     2.4307     0.1437     0.0507
   59.0000   118.0750     6.2614     2.4355     0.1457     0.0618
   59.5000   119.5228     6.3851     2.4442     0.1400     0.0753
   60.0000   118.1814     6.5187     2.4530     0.1330     0.0888
   60.5000   116.8211     6.4711     2.4607     0.1278     0.1024
   61.0000   115.5719     6.4170     2.4637     0.1262     0.1132
   61.5000   115.9296     6.3655     2.4787     0.1126     0.1234
   62.0000   116.2584     6.3512     2.4844     0.1150     0.1260
   62.5000   116.6106     6.3384     2.4882     0.1114     0.1409
   63.0000   117.5847     6.3256     2.5034     0.1031     0.1570
   63.5000   118.5744     6.3131     2.5170     0.0962     0.1733
   64.0000   119.4268     6.3313     2.5238     0.0926     0.1817
   64.5000   118.8798     6.4009     2.5266     0.0922     0.1663
   65.0000   118.2440     6.4283     2.4934     0.1062     0.1285
   65.5000   117.5738     6.3829     2.4779     0.1182     0.0984
   66.0000   117.5632     6.3595     2.4818     0.1155     0.0877
   66.5000   118.0250     6.3515     2.4811     0.1145     0.0751
   67.0000   118.4854     6.3914     2.4753     0.1166     0.0624
   67.5000   118.6676     6.5074     2.4655     0.1250     0.0500
   68.0000   118.3130     6.4599     2.4781     0.1205     0.0507
   68.5000   117.9686     6.4132     2.5010     0.1080     0.0757
   69.0000   117.6118     6.3651     2.5239     0.0965     0.1005
   69.5000   117.0652     6.2983     2.5412     0.0874     0.1119
   70.0000   115.9734     6.3530     2.5511     0.0850     0.1195
   70.5000   114.9168     6.4435     2.5454     0.0853     0.1179
   71.0000   113.8485     6.5186     2.5372     0.0869     0.1157
   71.5000   114.2411     6.5020     2.5395     0.0890     0.1076
   72.0000   115.0713     6.4781     2.5182     0.0902     0.0908
   72.5000   115.8229     6.4285     2.5243     0.0878     0.0884
   73.0000   116.0738     6.4057     2.5205     0.0906     0.0856
   73.5000   115.9032     6.4076     2.5248     0.0862     0.0872
   74.0000   115.3455     6.4095     2.5388     0.0805     0.0957
   74.5000   114.7993     6.4116     2.5386     0.0791     0.0924
   75.0000   114.6035     6.4137     2.5342     0.0806     0.0873
   75.5000   115.4171     6.4158     2.5219     0.0967     0.0596
   76.0000   116.1970     6.4179     2.4996     0.1050     0.0397
   76.5000   116.9747     6.4199     2.4899     0.1093     0.0336
   77.0000   117.7552     6.4220     2.4853     0.1129     0.0258
   77.5000   118.5604     6.4241     2.4758     0.1202     0.0162
   78.0000   118.6917     6.4301     2.4639     0.1251     0.0185
   78.5000   118.3351     6.4368     2.4657     0.1242     0.0226
   79.0000   117.9645     6.4433     2.4655     0.1226     0.0254
   79.5000   117.6657     6.4419     2.4549     0.1283     0.0223
   80.0000   118.6336     6.4392     2.4496     0.1337     0.0209
   80.5000   119.6426     6.4365     2.4541     0.1327     0.0260
   81.0000   120.5505     6.4338     2.4583     0.1293     0.0310
   81.5000   120.2140     6.4312     2.4609     0.1271     0.0347
   82.0000   119.8519     6.4285     2.4613     0.1266     0.0356
   82.5000   119.4966     6.4258     2.4536     0.1296     0.0232
   83.0000   119.1436     6.4256     2.4449     0.1345     0.0104
   83.5000   118.7815     6.4285     2.4503     0.1373     0.0120
   84.0000   118.4328     6.4314     2.4630     0.1273     0.0214
   84.5000   118.6356     6.4343     2.4755     0.1191     0.0307
   85.0000   118.8857     6.4372     2.4799     0.1153     0.0395
   85.5000   119.1345     6.4402     2.4848     0.1141     0.0456
   86.0000   119.4340     6.4430     2.4932     0.1050     0.0518
   86.5000   118.9710     6.4608     2.5042     0.1029     0.0580
   87.0000   118.2498     6.4873     2.5128     0.0993     0.0639
   87.5000   117.8434     6.4940     2.5111     0.0966     0.0609
   88.0000   117.9682     6.4691     2.5056     0.1012     0.0498
   88.5000   118.0845     6.4444     2.4997     0.1046     0.0376
   89.0000   118.0124     6.4197     2.4957     0.1064     0.0321
   89.5000   117.0093     6.3948     2.4902     0.1074     0.0291
   90.0000   116.0178     6.3904     2.4837     0.1106     0.0262
   90.5000   115.3939     6.4061     2.4843     0.1135     0.0233
   91.0000   115.6197     6.4217     2.4793     0.1148     0.0204
   91.5000   115.8517     6.4375     2.4767     0.1194     0.0198
   92.0000   116.3480     6.4448     2.4854     0.1133     0.0318
   92.5000   117.3938     6.4459     2.4979     0.1042     0.0476
   93.0000   119.2118     6.4470     2.4955     0.1051     0.0449
   93.5000   121.1060     6.4480     2.4910     0.1083     0.0420
   94.0000   120.8852     6.4491     2.4872     0.1114     0.0400
   94.5000   120.6192     6.4502     2.4872     0.1103     0.0430
   95.0000   120.5430     6.4512     2.4907     0.1088     0.0460
   95.5000   120.7248     6.4523     2.4910     0.1074     0.0491
   96.0000   120.8753     6.4534     2.4881     0.1091     0.0501
   96.5000   121.0257     6.4544     2.4851     0.1111     0.0504
   97.0000   121.1794     6.4555     2.4829     0.1130     0.0507
   97.5000   121.3595     6.4566     2.4816     0.1137     0.0510
   98.0000   120.4671     6.4576     2.4841     0.1129     0.0514
   98.5000   119.2193     6.4587     2.4877     0.1111     0.0517
   99.0000   117.9467     6.4598     2.4895     0.1094     0.0513
   99.5000   116.5613     6.4608     2.4894     0.1094     0.0490
  100.0000   115.1057     6.4619     2.4815     0.1143     0.0362
  100.5000   113.7364     6.4629     2.4657     0.1234     0.0122
