~VERSION INFORMATION
 VERS.                2.0:   CWLS LOG ASCII STANDARD - VERSION 2.0
 WRAP.                 NO:   ONE LINE PER DEPTH STEP
~WELL INFORMATION
#MNEM.UNIT      DATA TYPE    INFORMATION
#----------   ------------   ------------------------------
 STRT.F           30.0000:   START DEPTH
 STOP.F          444.0000:   STOP DEPTH
 STEP.F            0.5000:   STEP LENGTH
 NULL.          -999.2500:   NO VALUE
 COMP. FENIX & SCISSON INC:   COMPANY
 WELL.       SX 3FO #54-3:   WELL
 FLD .             TEAPOT:   FIELD
 LOC .       S3 T38N R78W:   LOCATION
 CNTY.            NATRONA:   COUNTY
 STAT.            WYOMING:   STATE
 CTRY. UNITED STATES OF AMERICA:   COUNTRY
 SRVC.              Welex:   SERVICE COMPANY
 DATE.        08-JUL-1980:   LOGDATE
 API .       490251082800:   API NUMBER
~CURVE INFORMATION
#MNEM.UNIT       API CODE    CURVE DESCRIPTION
#----------   ------------   ------------------------------
 DEPT.F                  :   
 GRD .GAPI   45 310 01 00:   GAMMA RAY FROM DENSITY LOG
 CALD.IN     45 280 60 00:   CALIPER
 RHOB.G/C3   45 350 01 00:   BULK DENSITY
 DPHI.DEC    45 890 12 00:   DENSITY POROSITY SANDSTONE
 CORR.G/C3   45 356 01 00:   DENSITY CORRECTION
~PARAMETER INFORMATION
#MNEM.UNIT          VALUE    DESCRIPTION
#----------   ------------   ------------------------------
 PD  .                 GL:   PERMANENT DATUM
 EPD .F              5162:   ELEVATION PERMANENT DATUM
 LMF .                 KB:   LOG MEASURED FROM
 DAPD.F                 5:   FEET ABOVE PERMANENT DATUM
 DMF .                 KB:   DRILLING MEASURED FROM
 EKB .F              5167:   KELLING BUSHING
 EGL .F              5162:   GROUND LEVEL
 DATE.             7-8-80:   RUN DATE
 RUN .                  1:   RUN NUMBER
 DD  .F               470:   DEPTH DRILLER
 DL  .F               446:   DEPTH LOGGER
 BLI .F               444:   BOTTOM LOG INTERVAL
 TLI .F                30:   TOP LOG INTERVAL
 CS  .IN                7:   CASING SIZE
 CBD .F                43:   CASING BOTTOM DRILLER
 BS  .IN             6.25:   BIT SIZE
 BSD .F               470:   BIT SIZE AT DEPTH
 DFT .        AIR DRILLED:   DRILLING FLUID TYPE
 BHT .F                75:   BOTTOM HOLE TEMPERATURE
 TCS .HRS             2.5:   TIME CURCULATED STOPPED
 MRT .F                75:   MAXIMUM RECORDED TEMPERATURE
 ENGI.               REIN:   RECORDING ENGINEER
 WITN.            RHOADES:   WITNESSED BY
 CLNT.            A2DTECH:   CLIENT CODE
 ORIG.           5" PRINT:   ORIGIN OF DATA
 UWI .       490251082800:   UNIQUE WELL ID
 DICO. A2D Technologies, Inc.:   DIGITIZING COMPANY
~OTHER INFORMATION
~A   DEPT       GRD      CALD       RHOB       DPHI       CORR   
   30.0000    79.7818  -999.2500  -999.2500  -999.2500  -999.2500
   30.5000    78.1143  -999.2500  -999.2500  -999.2500  -999.2500
   31.0000    76.3591  -999.2500  -999.2500  -999.2500  -999.2500
   31.5000    74.1766  -999.2500  -999.2500  -999.2500  -999.2500
   32.0000    71.9754  -999.2500  -999.2500  -999.2500  -999.2500
   32.5000    69.7861  -999.2500  -999.2500  -999.2500  -999.2500
   33.0000    68.4312  -999.2500  -999.2500  -999.2500  -999.2500
   33.5000    67.2608  -999.2500  -999.2500  -999.2500  -999.2500
   34.0000    67.5564  -999.2500  -999.2500  -999.2500  -999.2500
   34.5000    68.4796  -999.2500  -999.2500  -999.2500  -999.2500
   35.0000    69.3957  -999.2500  -999.2500  -999.2500  -999.2500
   35.5000    70.3545  -999.2500  -999.2500  -999.2500  -999.2500
   36.0000    72.7882  -999.2500  -999.2500  -999.2500  -999.2500
   36.5000    75.1224  -999.2500  -999.2500  -999.2500  -999.2500
   37.0000    77.1765  -999.2500  -999.2500  -999.2500  -999.2500
   37.5000    76.6861  -999.2500  -999.2500  -999.2500  -999.2500
   38.0000    76.1266  -999.2500  -999.2500  -999.2500  -999.2500
   38.5000    79.2821  -999.2500  -999.2500  -999.2500  -999.2500
   39.0000    82.4462  -999.2500  -999.2500  -999.2500  -999.2500
   39.5000    84.2457  -999.2500  -999.2500  -999.2500  -999.2500
   40.0000    85.2385  -999.2500  -999.2500  -999.2500  -999.2500
   40.5000    83.8700  -999.2500  -999.2500  -999.2500  -999.2500
   41.0000    84.4710  -999.2500  -999.2500  -999.2500  -999.2500
   41.5000    85.2127  -999.2500  -999.2500  -999.2500  -999.2500
   42.0000    82.4690  -999.2500  -999.2500  -999.2500  -999.2500
   42.5000    83.7577  -999.2500  -999.2500  -999.2500  -999.2500
   43.0000    85.4967  -999.2500  -999.2500  -999.2500  -999.2500
   43.5000    83.7243  -999.2500  -999.2500  -999.2500  -999.2500
   44.0000    81.0977  -999.2500  -999.2500  -999.2500  -999.2500
   44.5000    81.3295  -999.2500  -999.2500  -999.2500  -999.2500
   45.0000    82.8117  -999.2500  -999.2500  -999.2500  -999.2500
   45.5000    84.2363  -999.2500  -999.2500  -999.2500  -999.2500
   46.0000    86.4375  -999.2500  -999.2500  -999.2500  -999.2500
   46.5000    89.4162  -999.2500  -999.2500  -999.2500  -999.2500
   47.0000    93.5452  -999.2500  -999.2500  -999.2500  -999.2500
   47.5000    98.8378     6.6188  -999.2500  -999.2500  -999.2500
   48.0000   104.1743     6.1386     2.5654     0.0763     0.0858
   48.5000   109.6991     5.9802     2.5700     0.0784     0.1457
   49.0000   109.2656     5.9180     2.5458     0.0868     0.1206
   49.5000   107.9878     5.8614     2.5216     0.0952     0.0963
   50.0000   110.1124     5.8424     2.5257     0.1015     0.0776
   50.5000   111.2420     5.9216     2.5063     0.1076     0.0595
   51.0000   109.2336     5.9600     2.5056     0.1070     0.0598
   51.5000   110.3484     5.9558     2.5061     0.1057     0.0536
   52.0000   112.5595     5.9511     2.5064     0.1078     0.0466
   52.5000   111.9883     5.9461     2.5049     0.1068     0.0395
   53.0000   110.9480     5.9412     2.5033     0.1094     0.0322
   53.5000   109.9059     5.9406     2.5018     0.1088     0.0289
   54.0000   109.0817     5.9406     2.5006     0.1078     0.0259
   54.5000   108.9941     5.9406     2.5054     0.1082     0.0283
   55.0000   109.9394     5.9406     2.5106     0.1052     0.0316
   55.5000   110.8776     5.9408     2.5117     0.1026     0.0348
   56.0000   111.7107     5.9543     2.5009     0.1075     0.0373
   56.5000   110.8325     5.9799     2.4947     0.1146     0.0362
   57.0000   110.9311     5.9688     2.4999     0.1110     0.0359
   57.5000   112.6276     5.9555     2.5050     0.1060     0.0402
   58.0000   114.0768     5.9424     2.5111     0.1009     0.0489
   58.5000   114.4319     5.9492     2.5255     0.0945     0.0579
   59.0000   115.5511     5.9591     2.5399     0.0878     0.0598
   59.5000   117.0883     5.9521     2.5358     0.0874     0.0586
   60.0000   116.1698     5.9408     2.5290     0.0925     0.0575
   60.5000   114.4267     5.9547     2.5222     0.0970     0.0569
   61.0000   112.7528     5.9710     2.5152     0.1016     0.0562
   61.5000   111.3515     5.9786     2.5139     0.1030     0.0587
   62.0000   109.9472     5.9718     2.5222     0.0988     0.0643
   62.5000   108.6216     5.9655     2.5250     0.0967     0.0699
   63.0000   107.3082     5.9639     2.5199     0.0984     0.0739
   63.5000   106.5203     5.9810     2.5176     0.1001     0.0740
   64.0000   108.0209     5.9989     2.5247     0.0986     0.0786
   64.5000   109.7091     5.9605     2.5351     0.0918     0.0969
   65.0000   110.4143     5.9435     2.5434     0.0846     0.1054
   65.5000   109.9187     5.9263     2.5340     0.0886     0.0985
   66.0000   110.0121     5.9568     2.5198     0.0943     0.0937
   66.5000   111.2536     5.9954     2.5185     0.0994     0.0961
   67.0000   112.4774     5.9663     2.5240     0.0958     0.0985
   67.5000   113.7206     5.9420     2.5337     0.0911     0.1009
   68.0000   112.7148     5.9695     2.5432     0.0863     0.1115
   68.5000   112.7303     5.9977     2.5525     0.0811     0.1237
   69.0000   113.2274     6.0143     2.5463     0.0818     0.1212
   69.5000   113.7192     5.9836     2.5382     0.0879     0.1168
   70.0000   114.1307     5.9576     2.5301     0.0926     0.1085
   70.5000   113.7810     5.9484     2.5219     0.0958     0.1002
   71.0000   113.3869     5.9417     2.5242     0.0956     0.1006
   71.5000   112.9896     5.9486     2.5230     0.0954     0.1038
   72.0000   113.2016     5.9552     2.5199     0.0979     0.1011
   72.5000   113.9051     5.9604     2.5312     0.0944     0.0980
   73.0000   114.6064     5.9533     2.5421     0.0884     0.1017
   73.5000   115.2595     5.9462     2.5529     0.0818     0.1053
   74.0000   115.9676     5.9424     2.5591     0.0788     0.1078
   74.5000   116.7758     5.9531     2.5638     0.0754     0.1035
   75.0000   117.2967     5.9635     2.5693     0.0737     0.0987
   75.5000   116.7378     5.9738     2.5620     0.0771     0.0939
   76.0000   115.6946     5.9735     2.5503     0.0816     0.0891
   76.5000   113.6261     5.9558     2.5448     0.0844     0.0840
   77.0000   111.5830     5.9382     2.5522     0.0828     0.0858
   77.5000   109.9431     5.9216     2.5495     0.0814     0.0852
   78.0000   109.9232     5.9321     2.5487     0.0826     0.0800
   78.5000   110.4254     5.9437     2.5550     0.0816     0.0798
   79.0000   110.8217     5.9554     2.5502     0.0822     0.0789
   79.5000   110.1142     5.9410     2.5440     0.0862     0.0747
   80.0000   109.5281     5.9326     2.5380     0.0898     0.0701
   80.5000   110.1228     5.9664     2.5374     0.0894     0.0682
   81.0000   111.9183     5.9684     2.5353     0.0896     0.0737
   81.5000   113.7302     5.9490     2.5310     0.0914     0.0720
   82.0000   115.5334     5.9294     2.5266     0.0933     0.0700
   82.5000   116.3250     5.9306     2.5264     0.0938     0.0774
   83.0000   115.2474     5.9467     2.5281     0.0925     0.0859
   83.5000   114.1933     5.9591     2.5313     0.0910     0.0941
   84.0000   113.1490     5.9476     2.5346     0.0897     0.1022
   84.5000   113.0717     5.9367     2.5379     0.0868     0.1102
   85.0000   112.9781     5.9257     2.5411     0.0842     0.1182
   85.5000   112.8802     5.9329     2.5434     0.0850     0.1235
   86.0000   112.7786     5.9539     2.5387     0.0876     0.1151
   86.5000   112.7280     5.9760     2.5335     0.0904     0.1078
   87.0000   113.3454     5.9587     2.5283     0.0934     0.1068
   87.5000   114.0091     5.9306     2.5231     0.0966     0.1058
   88.0000   114.6749     5.9022     2.5205     0.0986     0.1002
   88.5000   115.0880     5.9084     2.5254     0.0956     0.0957
   89.0000   113.7468     5.9167     2.5310     0.0911     0.0967
   89.5000   112.0447     5.9050     2.5365     0.0876     0.0979
   90.0000   109.1548     5.8890     2.5405     0.0887     0.0929
   90.5000   109.7248     5.9471     2.5394     0.0888     0.0857
