~VERSION INFORMATION
 VERS.                2.0:   CWLS LOG ASCII STANDARD - VERSION 2.0
 WRAP.                 NO:   ONE LINE PER DEPTH STEP
~WELL INFORMATION
#MNEM.UNIT      DATA TYPE    INFORMATION
#----------   ------------   ------------------------------
 STRT.F           40.0000:   START DEPTH
 STOP.F          950.5000:   STOP DEPTH
 STEP.F            0.5000:   STEP LENGTH
 NULL.          -999.2500:   NO VALUE
 COMP. FENIX & SCISSON INC:   COMPANY
 WELL.       NPR 3 #44-14:   WELL
 FLD .             TEAPOT:   FIELD
 LOC .      S14 T38N R78W:   LOCATION
 CNTY.            NATRONA:   COUNTY
 STAT.            WYOMING:   STATE
 CTRY. UNITED STATES OF AMERICA:   COUNTRY
 SRVC.            Unknown:   SERVICE COMPANY
 DATE.        05-JAN-1979:   LOGDATE
 API .       490251076100:   API NUMBER
~CURVE INFORMATION
#MNEM.UNIT       API CODE    CURVE DESCRIPTION
#----------   ------------   ------------------------------
 DEPT.F                  :   
 SPR .MV     05 010 01 00:   SPONTANEOUS POTENTIAL FROM RES.
 SN  .OHMM   05 040 16 00:   SHORT NORMAL 16"
 IL  .OHMM   05 120 00 00:   INDUCTION LOG
 CALD.IN     45 280 60 00:   CALIPER
 GRD .GAPI   45 310 01 00:   GAMMA RAY FROM DENSITY LOG
 RHOB.G/C3   45 350 01 00:   BULK DENSITY
 DPHI.DEC    45 890 12 00:   DENSITY POROSITY SANDSTONE
 CORR.G/C3   45 356 01 00:   DENSITY CORRECTION
~PARAMETER INFORMATION
#MNEM.UNIT          VALUE    DESCRIPTION
#----------   ------------   ------------------------------
 PD  .                 GL:   PERMANENT DATUM
 EPD .F              5266:   ELEVATION PERMANENT DATUM
 LMF .                 KB:   LOG MEASURED FROM
 DAPD.F                 4:   FEET ABOVE PERMANENT DATUM
 DMF .                 KB:   DRILLING MEASURED FROM
 EKB .F              5270:   KELLING BUSHING
 EGL .F              5266:   GROUND LEVEL
 DATE.             1-5-79:   RUN DATE
 RUN .                  1:   RUN NUMBER
 DD  .F               950:   DEPTH DRILLER
 DL  .F               943:   DEPTH LOGGER
 BLI .F               937:   BOTTOM LOG INTERVAL
 TLI .F                40:   TOP LOG INTERVAL
 CS  .IN            8.625:   CASING SIZE
 CBL .F                40:   CASING BOTTOM LOGGER
 BS  .IN            7.875:   BIT SIZE
 BSD .F               950:   BIT SIZE AT DEPTH
 DFT .                KCL:   DRILLING FLUID TYPE
 DFV .                 42:   DRILLING FLUID VISCOSITY
 DFL .               10.5:   DRILLING FLUID LOSS
 MSS .           FLOWLINE:   MUD SAMPLE SOURCE
 RMS .OHMM            .23:   RESISTIVITY MUD SAMPLE
 RMF .OHMM            .23:   RESISTIVITY MUD FILTRATE SAMPLE
 RMC .OHMM             .2:   RESISTIVITY MUD CAKE
 MFSS.           MEASURED:   MUD FILTRATE SAMPLE SOURCE
 MCSS.           MEASURED:   MUD CAKE SAMPLE SOURCE
 RMB .OHMM             .2:   RESISTIVITY MUD AT BHT
 BHT .F                70:   BOTTOM HOLE TEMPERATURE
 TCS .HRS               5:   TIME CURCULATED STOPPED
 MRT .F                70:   MAXIMUM RECORDED TEMPERATURE
 LUL .             CASPER:   LOGGING UNIT LOCATION
 ENGI.             MILLER:   RECORDING ENGINEER
 WITN.           DINSMORE:   WITNESSED BY
 CLNT.            A2DTECH:   CLIENT CODE
 ORIG.           5" PRINT:   ORIGIN OF DATA
 UWI .       490251076100:   UNIQUE WELL ID
 DICO. A2D Technologies, Inc.:   DIGITIZING COMPANY
~OTHER INFORMATION
~A   DEPT      SPR           SN         IL     CALD        GRD       RHOB       DPHI       CORR   
# ...
  890.5000   -29.2630     9.3060    11.2910     7.7140   100.4370     2.4480     0.1490     0.1060
  891.0000   -29.5920     9.3060    11.4720     7.7200    94.8200     2.4690     0.1380     0.1300
  891.5000   -29.9140     9.3060    11.6540     7.7260    90.3300     2.4900     0.1250     0.1540
  892.0000   -30.0430     9.3060    11.9290     7.7320    86.5750     2.5150     0.1190     0.1710
  892.5000   -29.9780     9.3060    11.9140     7.7380    88.9380     2.5080     0.1150     0.1760
  893.0000   -29.9140     9.3300    11.8820     7.7360    93.3930     2.4980     0.1090     0.1880
  893.5000   -29.7160     9.3520    11.8500     7.7120    91.2700     2.5250     0.1030     0.2090
  894.0000   -29.3570     9.3750    11.8200     7.6890    93.2060     2.5260     0.1000     0.2310
  894.5000   -29.0000     9.3920    11.3390     7.6670    96.1170     2.5280     0.0960     0.2540
  895.0000   -28.6350     9.3330    10.9520     7.6450    93.6280     2.5340     0.0860     0.3220
  895.5000   -28.7560     9.2860    10.8200     7.6180    93.7820     2.5490     0.0720     0.3880
  896.0000   -29.1550     9.2390    10.6870     7.4900    93.1870     2.5650     0.0540     0.4530
  896.5000   -29.4880     9.1910    10.5550     7.3620    90.6070     2.6080     0.0240     0.5060
  897.0000   -29.4210     9.1440    10.4220     7.2350    90.7270     2.6550     0.0160     0.5050
  897.5000   -29.3610     9.0960    10.2900     7.1100    93.2700     2.6750     0.0040     0.5030
  898.0000   -29.2960     9.0490    10.1580     7.0820    88.7830     2.7550    -0.0390     0.4970
  898.5000   -29.5650     9.0020    10.0170     7.0760    83.3110     2.6760    -0.0260     0.3560
  899.0000   -29.8880     8.9450    10.0170     7.1100    87.8240     2.5510     0.1150     0.2080
  899.5000   -29.9560     8.8710    10.0170     7.1750    93.7720     2.4110     0.1660     0.0740
  900.0000   -30.0220     8.7970    10.0170     7.2700    92.9640     2.4250     0.1570     0.0490
  900.5000   -30.0580     8.7220    10.0170     7.3650    91.7630     2.4500     0.1470     0.0370
  901.0000   -29.5670     8.6480    10.0160     7.4590    91.1280     2.4520     0.1420     0.0290
  901.5000   -29.5060     8.5740    10.0180     7.5540    93.0740     2.4550     0.1410     0.0320
  902.0000   -29.9880     8.5000    10.0080     7.6480    96.0770     2.4530     0.1420     0.0360
  902.5000   -30.2760     8.4250    10.1090     7.7180    95.0020     2.4440     0.1460     0.0400
  903.0000   -30.2740     8.3510    10.0030     7.7550    92.5370     2.4480     0.1480     0.0490
  903.5000   -30.2770     8.2770     9.8220     7.7910    90.6560     2.4540     0.1400     0.0660
  904.0000   -30.2930     8.2020     9.6420     7.8130    91.6350     2.4600     0.1370     0.0840
  904.5000   -30.6070     8.1280     9.4620     7.7650    93.8180     2.4630     0.1370     0.0990
  905.0000   -31.7910     7.9400     9.2820     7.7790    97.4980     2.4580     0.1370     0.1150
  905.5000   -31.7230     7.7070     9.1020     7.7960   101.2010     2.4680     0.1320     0.1240
  906.0000   -31.5670     7.4740     8.8170     7.8130   103.9880     2.4880     0.1250     0.1210
  906.5000   -31.4110     7.2410     8.2420     7.8290   100.7260     2.4740     0.1380     0.0980
  907.0000   -31.2710     7.0080     7.6670     7.8200    99.3170     2.4470     0.1480     0.0810
  907.5000   -31.4080     6.8010     7.0920     7.7370    99.6450     2.4410     0.1490     0.0710
  908.0000   -31.9780     6.4650     6.5160     7.6620    98.6720     2.4410     0.1510     0.0700
  908.5000   -32.0580     6.1280     5.9410     7.6220    99.7610     2.4410     0.1520     0.0670
  909.0000   -31.7390     5.7920     5.2130     7.5400   103.9630     2.4300     0.1590     0.0650
  909.5000   -31.4210     5.4550     5.2790     7.4000   111.6510     2.4180     0.1650     0.0700
  910.0000   -31.3270     5.3100     5.3680     7.2660   119.3850     2.4070     0.1710     0.0770
  910.5000   -31.4470     5.7430     5.4580     7.1900   127.2740     2.4030     0.1740     0.0840
  911.0000   -31.5650     6.2250     5.5470     7.1570   121.4270     2.4000     0.1750     0.0660
  911.5000   -31.6850     6.7070     5.8410     7.1860   108.3280     2.4060     0.1660     0.0450
  912.0000   -31.8110     7.1890     6.2460     7.1910    95.3130     2.4300     0.1530     0.0240
  912.5000   -31.5190     7.6710     6.9160     7.1490    89.5380     2.4550     0.1400     0.0160
  913.0000   -31.0860     7.9130     7.5200     7.1080    91.6400     2.4790     0.1210     0.0190
  913.5000   -31.3070     8.1540     8.0170     7.0690    94.3890     2.4850     0.1230     0.0240
  914.0000   -31.5150     8.4110     8.5150     7.1770    96.8250     2.4770     0.1270     0.0300
  914.5000   -31.6580     8.4400     9.0530     7.2970    93.9890     2.4700     0.1310     0.0300
  915.0000   -31.4900     8.4950     9.0820     7.3960    91.6870     2.4710     0.1310     0.0270
  915.5000   -31.1680     8.5490     9.1130     7.4360    96.8260     2.4670     0.1320     0.0230
  916.0000   -30.8470     8.6040     9.1360     7.4770   101.3740     2.4570     0.1390     0.0210
  916.5000   -30.5260     8.6770     9.4590     7.5170   101.5860     2.4560     0.1370     0.0270
  917.0000   -30.2040     8.8070     9.7380     7.5580    99.5730     2.4580     0.1340     0.0340
  917.5000   -29.8830     8.9360    10.0170     7.5990    97.5590     2.4630     0.1320     0.0330
  918.0000   -29.5640     9.0650    10.2950     7.6400    95.5250     2.4710     0.1300     0.0350
  918.5000   -29.2390     9.1950    10.5850     7.6800    95.1060     2.4780     0.1270     0.0380
  919.0000   -29.3400     9.3240    10.6850     7.7210    95.7380     2.4860     0.1250     0.0420
  919.5000   -29.7730     9.4530    10.8660     7.7490    96.3730     2.4890     0.1220     0.0460
  920.0000   -30.0620     9.5820    11.0480     7.7760    97.0150     2.4860     0.1200     0.0530
  920.5000   -29.9650     9.7120    11.2300     7.8040    97.6560     2.4920     0.1150     0.0680
  921.0000   -29.8670     9.8410    11.3160     7.8320    98.2770     2.5050     0.1100     0.0840
  921.5000   -29.5020     9.9700    11.3730     7.8600   100.2080     2.5120     0.1050     0.0980
  922.0000   -29.2460    10.1000    11.4300     7.8550   102.6150     2.5240     0.1010     0.1130
  922.5000   -29.1380    10.2030    11.4880     7.8470   104.7450     2.5400     0.0960     0.1280
  923.0000   -29.0300    10.2030    11.5450     7.8390   101.9290     2.5520     0.0890     0.1370
  923.5000   -28.9260    10.2030    11.6050     7.8310    98.7900     2.5370     0.0930     0.1090
  924.0000   -28.6850    10.2030    11.6940     7.8230    95.6400     2.5220     0.0990     0.0890
  924.5000   -28.4080    10.2030    11.7880     7.8150    92.4790     2.5130     0.1050     0.0780
  925.0000   -28.1270    10.2030    11.9290     7.8070    91.7850     2.5140     0.1050     0.0680
  925.5000   -28.4550    10.2030    11.9140     7.7870    91.5040     2.4990     0.1130     0.0590
  926.0000   -28.8430    10.2030    11.8820     7.7470    91.5770     2.4900     0.1220     0.0570
  926.5000   -29.2230    10.2030    11.8510     7.7080    91.6470     2.4940     0.1180     0.0710
  927.0000   -29.5030    10.2030    11.8200     7.6690    91.6930     2.4870     0.1230     0.0880
  927.5000   -29.4710    10.2030    11.6350     7.6300    93.1550     2.4940     0.1200     0.1090
  928.0000   -29.4170    10.2030    11.4540     7.5900    95.4120     2.5020     0.1140     0.1310
  928.5000   -29.3670    10.2030    11.2720     7.5570    97.6670     2.5050     0.1080     0.1600
  929.0000   -29.3180    10.2030    11.0910     7.5360    99.2130     2.5310     0.1020     0.1890
  929.5000   -29.2690    10.2030    10.9100     7.5160    96.9170     2.5710     0.1000     0.2100
  930.0000   -29.2190    10.2020    10.7280     7.4960    95.9440     2.5800     0.0990     0.1730
  930.5000   -29.1700    10.2020    10.5470     7.4750    97.5420     2.5540     0.1000     0.1250
