~VERSION INFORMATION
 VERS.                2.0:   CWLS LOG ASCII STANDARD - VERSION 2.0
 WRAP.                 NO:   ONE LINE PER DEPTH STEP
~WELL INFORMATION
#MNEM.UNIT      DATA TYPE    INFORMATION
#----------   ------------   ------------------------------
 STRT.F          502.0000:   START DEPTH
 STOP.F         5661.0000:   STOP DEPTH
 STEP.F            0.5000:   STEP LENGTH
 NULL.          -999.2500:   NO VALUE
 COMP. FENIX & SCISSON INC:   COMPANY
 WELL.   NPR 3 #32DX22-22:   WELL
 FLD .             TEAPOT:   FIELD
 LOC .      S22 T38N R78W:   LOCATION
 CNTY.            NATRONA:   COUNTY
 STAT.            WYOMING:   STATE
 CTRY. UNITED STATES OF AMERICA:   COUNTRY
 SRVC.       Schlumberger:   SERVICE COMPANY
 DATE.        29-NOV-1978:   LOGDATE
 API .       490251073100:   API NUMBER
~CURVE INFORMATION
#MNEM.UNIT       API CODE    CURVE DESCRIPTION
#----------   ------------   ------------------------------
 DEPT.F                  :   
 SPR .MV     07 010 01 00:   SPONTANEOUS POTENTIAL
 GRR .GAPI   07 310 01 00:   GAMMA RAY FROM RES. LOG.
 SFL .OHMM   07 220 01 00:   SHALLOW FOCUSED LOG RESISTIVITY
 ILD .OHMM   07 120 46 00:   INDUCTION LOG DEEP
 ILM .OHMM   07 120 44 00:   INDUCTION LOG MEDIUM
 NPHI.DEC    42 890 03 00:   NEUTRON POROSITY SANDSTONE
 DPHI.DEC    45 890 12 00:   DENSITY POROSITY SANDSTONE
 RHOB.G/C3   45 350 01 00:   BULK DENSITY
 CORR.G/C3   45 356 01 00:   DENSITY CORRECTION
 CALD.IN     45 280 60 00:   CALIPER
~PARAMETER INFORMATION
#MNEM.UNIT          VALUE    DESCRIPTION
#----------   ------------   ------------------------------
 PD  .                 GL:   PERMANENT DATUM
 EPD .F              5514:   ELEVATION PERMANENT DATUM
 LMF .                 KB:   LOG MEASURED FROM
 DAPD.F                10:   FEET ABOVE PERMANENT DATUM
 DMF .                 KB:   DRILLING MEASURED FROM
 EKB .F              5524:   KELLING BUSHING
 EGL .F              5514:   GROUND LEVEL
 DATE.           11-29-78:   RUN DATE
 RUN .                  1:   RUN NUMBER
 DD  .F              5680:   DEPTH DRILLER
 DL  .F              5667:   DEPTH LOGGER
 BLI .F              5661:   BOTTOM LOG INTERVAL
 TLI .F               530:   TOP LOG INTERVAL
 CS  .IN            8.625:   CASING SIZE
 CBD .F               513:   CASING BOTTOM DRILLER
 CBL .F               530:   CASING BOTTOM LOGGER
 BS  .IN            7.875:   BIT SIZE
 BSD .F              5680:   BIT SIZE AT DEPTH
 DFT .                FGM:   DRILLING FLUID TYPE
 DFD .                9.2:   DRILLING FLUID DENSITY
 DFV .                 50:   DRILLING FLUID VISCOSITY
 DFPH.               11.5:   DRILLING FLUID PH
 DFL .                6.8:   DRILLING FLUID LOSS
 MSS .               TANK:   MUD SAMPLE SOURCE
 RMS .OHMM           1.45:   RESISTIVITY MUD SAMPLE
 MST .F                56:   MUD SAMPLE TEMPERATURE
 RMF .OHMM           1.16:   RESISTIVITY MUD FILTRATE SAMPLE
 MFST.F                56:   MUD FILTRATE SAMPLE TEMPERATURE
 MFSS.               MEAS:   MUD FILTRATE SAMPLE SOURCE
 RMB .OHMM            .62:   RESISTIVITY MUD AT BHT
 BHT .F               132:   BOTTOM HOLE TEMPERATURE
 TCS .HRS            0700:   TIME CURCULATED STOPPED
 TLAB.HRS            1200:   TIME LOGGER AT BOTTOM
 MRT .F               132:   MAXIMUM RECORDED TEMPERATURE
 LUN .               8039:   LOGGING UNIT NUMBER
 LUL .               CSPR:   LOGGING UNIT LOCATION
 ENGI.           STADULIS:   RECORDING ENGINEER
 WITN.           DINSMORE:   WITNESSED BY
 CLNT.            A2DTECH:   CLIENT CODE
 ORIG.       2", 5" PRINT:   ORIGIN OF DATA
 UWI .       490251073100:   UNIQUE WELL ID
 DICO. A2D Technologies, Inc.:   DIGITIZING COMPANY
~OTHER INFORMATION
~A   DEPT      SPR         GRR       SFL        ILD        ILM       NPHI       DPHI       RHOB       CORR       CALD   
# ...
 5292.5000   -25.6207   125.9262     3.7319     2.6151     2.8286     0.4054     0.0084     2.6406     0.2514     9.3875
 5293.0000   -25.5967   133.1607     3.6083     2.6052     2.8286     0.4098     0.0482     2.5807     0.2507     9.5161
 5293.5000   -25.5731   136.9193     3.4897     2.8014     2.8451     0.4142     0.0804     2.5172     0.2382     9.6442
 5294.0000   -25.5734   137.2597     3.3989     2.7557     2.8908     0.4183     0.0860     2.5047     0.2156     9.7168
 5294.5000   -25.6584   128.0433     3.4303     2.7183     2.9345     0.4098     0.0903     2.4991     0.1924     9.6514
 5295.0000   -25.7402   118.0587     3.6210     2.6835     2.9345     0.3973     0.0888     2.5032     0.1854     9.5789
 5295.5000   -25.8220   108.2043     3.8111     2.6492     2.9345     0.3880     0.0858     2.5080     0.2078     9.5314
 5296.0000   -25.9037   106.3879     3.9368     2.6284     2.9210     0.3849     0.0833     2.5095     0.2350     9.5771
 5296.5000   -25.9855   110.5655     3.8347     2.6802     2.8446     0.3967     0.0844     2.5099     0.2514     9.8228
 5297.0000   -26.0672   114.9499     3.5929     2.7443     2.8028     0.4084     0.0819     2.5142     0.2447     9.9885
 5297.5000   -26.1490   117.9726     3.3989     2.8431     2.9345     0.4187     0.0785     2.5182     0.2145     9.8215
 5298.0000   -26.2307   118.1718     3.3370     2.9455     3.1594     0.4191     0.0797     2.5098     0.1551     9.6207
 5298.5000   -26.3125   117.9527     3.6985     3.0515     3.4616     0.3757     0.0869     2.5036     0.0839     9.4200
 5299.0000   -26.3943   117.7176     4.2588     3.1614     3.6448     0.3272     0.0628     2.5434     0.0510     9.2166
 5299.5000   -26.4752   117.4488     5.0110     3.2609     3.6917     0.2961     0.0325     2.5951     0.0387     9.0834
 5300.0000   -26.5534   117.9537     5.9062     3.3195     3.8652     0.2926     0.0000     2.6322     0.0840     9.0085
 5300.5000   -26.5793   122.6640     6.5794     3.3792     3.7833     0.2986     0.0084     2.6482     0.1218     9.0156
 5301.0000   -28.1360   128.3548     6.0788     3.4303     3.6917     0.3200     0.0250     2.6131     0.1426     9.0222
 5301.5000   -31.7634   131.3413     5.1783     3.3835     3.5267     0.3439     0.0358     2.5905     0.1636     9.0258
 5302.0000   -35.8419   130.2758     4.4110     3.2816     3.3635     0.3693     0.0483     2.5707     0.1780     9.0791
 5302.5000   -39.9406   128.5627     3.7949     3.1446     3.2078     0.3774     0.0631     2.5511     0.1909     9.1656
 5303.0000   -44.2234   127.4668     3.6272     3.0133     3.0594     0.3857     0.0715     2.5340     0.1761     9.2527
 5303.5000   -49.2069   127.1935     3.6431     2.8875     2.9889     0.3988     0.0716     2.5282     0.1596     9.3323
 5304.0000   -54.5079   126.0444     3.6698     2.8547     2.9889     0.4189     0.0560     2.5397     0.1705     9.3285
 5304.5000   -59.8172   124.6378     3.6917     2.9076     3.0213     0.3861     0.0472     2.5644     0.1871     9.4082
 5305.0000   -62.6215   123.9041     3.6917     3.0212     3.1100     0.3449     0.0502     2.5710     0.1963     9.5128
 5305.5000   -63.4883   122.8744     3.8006     3.1407     3.2225     0.3035     0.0532     2.5642     0.1349     9.5953
 5306.0000   -64.1199   120.3474     4.3348     3.2648     3.3390     0.2885     0.0416     2.5636     0.0924     9.5189
 5306.5000   -64.2910   118.1916     5.3228     3.3939     3.4598     0.2994     0.0291     2.5796     0.0654     9.1356
 5307.0000   -64.4418   120.5831     6.4223     3.4943     3.5988     0.3191     0.0361     2.5958     0.1070     8.9489
 5307.5000   -64.5961   127.9230     6.7677     3.5869     3.7504     0.3619     0.0681     2.5988     0.1577     8.9459
 5308.0000   -64.7510   134.3511     5.9258     3.7393     3.9074     0.3713     0.1030     2.5551     0.1991     8.9483
 5308.5000   -64.9067   139.6393     4.9906     3.9414     4.0532     0.3572     0.1231     2.4884     0.1579     8.9508
 5309.0000   -65.2432   142.6435     4.8182     4.0779     4.1996     0.3407     0.1120     2.4540     0.0793     8.9530
 5309.5000   -65.6438   142.8267     5.0316     4.2049     4.3842     0.3162     0.0908     2.4455     0.0245     8.9552
 5310.0000   -65.8510   138.8014     5.5600     4.3358     4.6125     0.2918     0.0701     2.4791     0.0053     8.9574
 5310.5000   -65.2116   130.0986     6.3526     4.4419     4.8528     0.2785     0.0635     2.5137     0.0052     8.9595
 5311.0000   -64.5917   124.6917     7.2581     4.5269     5.0446     0.2873     0.0555     2.5393     0.0090     8.9617
 5311.5000   -63.9703   123.6486     8.0374     4.6495     5.0170     0.2891     0.0476     2.5510     0.0155     8.9639
 5312.0000   -63.3496   125.1006     8.2139     4.8182     4.9831     0.2906     0.0416     2.5626     0.0262     8.9669
 5312.5000   -63.0414   126.5439     7.3957     4.8108     4.9528     0.2949     0.0534     2.5742     0.0442     8.9735
 5313.0000   -62.7456   129.4502     6.7063     4.8000     4.9203     0.2996     0.0666     2.5789     0.0520     8.9800
 5313.5000   -62.5040   133.2003     6.1175     4.7892     4.8845     0.3130     0.0756     2.5566     0.0448     8.9865
 5314.0000   -62.4338   137.1364     6.0616     4.7741     4.8626     0.3167     0.0782     2.5309     0.0348     8.9930
 5314.5000   -62.3618   138.8442     6.3307     4.9528     5.1107     0.2894     0.0715     2.5190     0.0239     8.9996
 5315.0000   -62.2894   134.0393     7.0309     4.9450     5.3289     0.2721     0.0648     2.5250     0.0209     9.0059
 5315.5000   -62.2182   128.0349     8.3170     4.9356     5.5808     0.2685     0.0624     2.5346     0.0174     9.0050
 5316.0000   -62.1410   125.9703     9.5011     4.9262     5.5470     0.2934     0.0645     2.5438     0.0197     9.0038
 5316.5000   -62.3734   132.9614     9.8685     4.9169     5.1549     0.3186     0.0702     2.5443     0.0247     9.0026
 5317.0000   -62.7451   150.0108     8.0157     4.9078     4.9331     0.3374     0.0757     2.5378     0.0419     9.0014
 5317.5000   -63.1166   151.5479     6.8637     4.9305     4.8182     0.3393     0.0808     2.5252     0.0591     9.0003
 5318.0000   -63.0942   154.9413     5.8816     4.9540     4.9322     0.3262     0.0825     2.5149     0.0721     8.9991
 5318.5000   -63.0497   157.2449     4.8626     4.9775     5.1182     0.3094     0.0711     2.5133     0.0772     8.9980
 5319.0000   -63.0071   156.9947     5.3471     5.0011     5.3112     0.2908     0.0608     2.5264     0.0600     8.9968
 5319.5000   -62.9642   154.9948     6.1715     5.0249     5.5115     0.2700     0.0532     2.5453     0.0428     8.9957
 5320.0000   -62.9310   152.9953     7.5831     5.0864     5.7194     0.2560     0.0538     2.5614     0.0342     8.9945
 5320.5000   -63.1259   152.5565     8.8375     5.3333     5.9351     0.2615     0.0602     2.5574     0.0291     8.9933
 5321.0000   -63.3393   153.5103     9.5943     5.5929     6.0930     0.2671     0.0602     2.5487     0.0265     8.9922
 5321.5000   -63.5186   154.3357     9.3318     5.8520     6.2277     0.2709     0.0572     2.5504     0.0254     8.9910
 5322.0000   -63.1742   151.8828     9.1000     6.1072     6.3654     0.2744     0.0529     2.5543     0.0213     8.9899
 5322.5000   -62.8216   147.8242     8.8856     6.2937     6.4207     0.2779     0.0415     2.5624     0.0093     8.9887
 5323.0000   -62.4704   144.4579     8.7520     6.2617     6.4637     0.2814     0.0295     2.5816     0.0019     8.9875
 5323.5000   -62.1324   143.7510     8.8404     6.1039     6.3610     0.2849     0.0227     2.6029     0.0059     8.9864
 5324.0000   -62.1190   144.9135     8.9210     5.9502     6.1857     0.2913     0.0326     2.6112     0.0153     8.9868
 5324.5000   -62.0506   150.5582     8.4858     5.7539     6.0161     0.2977     0.0478     2.5812     0.0244     8.9887
 5325.0000   -61.7217   161.0020     7.8507     5.5399     5.8513     0.3002     0.0632     2.5535     0.0217     8.9905
 5325.5000   -61.4028   167.0443     7.2733     5.3641     5.6910     0.3033     0.0735     2.5356     0.0165     8.9924
