~VERSION INFORMATION
 VERS.                2.0:   CWLS LOG ASCII STANDARD - VERSION 2.0
 WRAP.                 NO:   ONE LINE PER DEPTH STEP
~WELL INFORMATION
#MNEM.UNIT      DATA TYPE    INFORMATION
#----------   ------------   ------------------------------
 STRT.F           39.5000:   START DEPTH
 STOP.F          591.0000:   STOP DEPTH
 STEP.F            0.5000:   STEP LENGTH
 NULL.          -999.2500:   NO VALUE
 COMP. FENIX & SCISSON INC:   COMPANY
 WELL.      26 SX 3 #26-3:   WELL
 FLD .             TEAPOT:   FIELD
 LOC .       S3 T38N R78W:   LOCATION
 CNTY.            NATRONA:   COUNTY
 STAT.            WYOMING:   STATE
 CTRY. UNITED STATES OF AMERICA:   COUNTRY
 SRVC.           BIRDWELL:   SERVICE COMPANY
 DATE.        01-OCT-1978:   LOGDATE
 API .       490251071500:   API NUMBER
~CURVE INFORMATION
#MNEM.UNIT       API CODE    CURVE DESCRIPTION
#----------   ------------   ------------------------------
 DEPT.F                  :   
 SPR .MV     05 010 01 00:   SPONTANEOUS POTENTIAL FROM RES.
 SN  .OHMM   05 040 16 00:   SHORT NORMAL 16"
 ILD .OHMM   05 120 46 00:   INDUCTION LOG DEEP
 RHOB.G/C3   45 350 01 00:   BULK DENSITY
 CORR.G/C3   45 356 01 00:   DENSITY CORRECTION
 DPHI.DEC    45 890 12 00:   DENSITY POROSITY SANDSTONE
 GRD .GAPI   45 310 01 00:   GAMMA RAY FROM DENSITY LOG
 CALD.IN     45 280 60 00:   CALIPER
~PARAMETER INFORMATION
#MNEM.UNIT          VALUE    DESCRIPTION
#----------   ------------   ------------------------------
 PD  .                 GL:   PERMANENT DATUM
 EPD .F              5225:   ELEVATION PERMANENT DATUM
 LMF .                 KB:   LOG MEASURED FROM
 DAPD.F                 4:   FEET ABOVE PERMANENT DATUM
 DMF .                 KB:   DRILLING MEASURED FROM
 EKB .F              5229:   KELLING BUSHING
 EGL .F              5225:   GROUND LEVEL
 DATE.            10-1-78:   RUN DATE
 RUN .                  1:   RUN NUMBER
 DD  .F               600:   DEPTH DRILLER
 DL  .F               597:   DEPTH LOGGER
 BLI .F               591:   BOTTOM LOG INTERVAL
 TLI .F                60:   TOP LOG INTERVAL
 CS  .IN            8.625:   CASING SIZE
 CBD .F                40:   CASING BOTTOM DRILLER
 BS  .IN            7.875:   BIT SIZE
 BSD .F               600:   BIT SIZE AT DEPTH
 DFT .                KCL:   DRILLING FLUID TYPE
 DFD .                8.7:   DRILLING FLUID DENSITY
 DFV .                 34:   DRILLING FLUID VISCOSITY
 DFPH.                  9:   DRILLING FLUID PH
 DFL .                 10:   DRILLING FLUID LOSS
 MSS .            MUD PIT:   MUD SAMPLE SOURCE
 RMS .OHMM            .24:   RESISTIVITY MUD SAMPLE
 MST .F                65:   MUD SAMPLE TEMPERATURE
 RMF .OHMM            .45:   RESISTIVITY MUD FILTRATE SAMPLE
 MFST.F                65:   MUD FILTRATE SAMPLE TEMPERATURE
 RMC .OHMM             .4:   RESISTIVITY MUD CAKE
 MCST.F                65:   MUD CAKE SAMPLE TEMPERATURE
 MFSS.               MEAS:   MUD FILTRATE SAMPLE SOURCE
 TCS .HRS               3:   TIME CURCULATED STOPPED
 LUN .               2958:   LOGGING UNIT NUMBER
 LUL .               CASP:   LOGGING UNIT LOCATION
 ENGI.             MILLER:   RECORDING ENGINEER
 WITN.           DINSMORE:   WITNESSED BY
 CLNT.            A2DTECH:   CLIENT CODE
 ORIG.       2", 5" PRINT:   ORIGIN OF DATA
 UWI .       490251071500:   UNIQUE WELL ID
 DICO. A2D Technologies, Inc.:   DIGITIZING COMPANY
~OTHER INFORMATION
~A   DEPT      SPR         SN        ILD       RHOB       CORR       DPHI        GRD         CALD 
# ...
  404.0000    -5.8528    13.2158    17.8572     2.4052     0.0136     0.1635    85.1408     7.7077
  404.5000    -6.3509    13.2015    17.4210     2.4050     0.0129     0.1652    87.5359     7.7029
  405.0000    -6.7737    13.1873    17.4249     2.4049     0.0098     0.1661    92.3367     7.6981
  405.5000    -7.0188    13.1730    17.4052     2.4041     0.0063     0.1683    98.8962     7.6932
  406.0000    -7.2881    13.1588    17.3942     2.3993     0.0098     0.1726   100.0827     7.6884
  406.5000    -8.0445    13.1445    17.3832     2.3947     0.0176     0.1709    98.4733     7.6836
  407.0000    -8.8499    13.1303    17.3722     2.3938     0.0256     0.1671    96.9408     7.6788
  407.5000    -9.6764    13.1161    17.3613     2.3986     0.0296     0.1619    97.5982     7.6740
  408.0000    -9.5454    13.1019    17.3503     2.4034     0.0328     0.1602    98.9121     7.6692
  408.5000    -3.7143    13.0878    17.3394     2.4078     0.0358     0.1614   100.2306     7.6647
  409.0000    -2.3143    13.0736    17.3284     2.4087     0.0396     0.1640   101.2133     7.6456
  409.5000    -2.2909    13.0595    17.3175     2.4070     0.0564     0.1628    98.4473     7.6234
  410.0000    -2.3184    13.0453    17.3065     2.4060     0.0735     0.1570    94.6452     7.6013
  410.5000    -2.3357    13.0312    17.2959     2.4109     0.0817     0.1513    95.1282     7.5833
  411.0000    -2.3502    13.0171    17.2850     2.4235     0.0807     0.1480    97.0588     7.5814
  411.5000    -2.3647    13.0031    17.2738     2.4299     0.0774     0.1482    99.1749     7.5792
  412.0000    -2.3792    12.9890    17.1109     2.4324     0.0752     0.1523    99.2473     7.5770
  412.5000    -2.3938    12.9749    16.7210     2.4224     0.0765     0.1598    98.5029     7.5748
  413.0000    -2.4083    12.9609    16.4923     2.4124     0.0776     0.1657    98.5049     7.5726
  413.5000    -2.4228    12.9469    16.5185     2.4024     0.0788     0.1679    97.9331     7.5704
  414.0000    -2.4373    12.9329    16.5402     2.4018     0.0799     0.1693    96.6658     7.5681
  414.5000    -2.4518    12.9189    16.5620     2.3982     0.0811     0.1691    95.7081     7.5660
  415.0000    -2.4662    12.9049    16.5839     2.3958     0.0822     0.1641    96.0417     7.5675
  415.5000    -2.4801    12.8910    16.6057     2.4038     0.0806     0.1574    97.6946     7.5813
  416.0000    -2.4995    12.8770    16.6276     2.4118     0.0733     0.1549   102.7420     7.5946
  416.5000    -2.6302    12.8631    16.6495     2.4197     0.0721     0.1525   109.0174     7.6079
  417.0000    -2.7633    12.8492    16.6714     2.4248     0.0711     0.1501   115.4126     7.6213
  417.5000    -2.8957    12.8353    16.6934     2.4298     0.0702     0.1447   122.0289     7.6342
  418.0000    -3.0281    12.8214    16.7154     2.4380     0.0686     0.1352   123.8095     7.6358
  418.5000    -3.1604    12.8076    16.7375     2.4471     0.0517     0.1313   127.0992     7.6089
  419.0000    -3.2927    12.7937    16.7595     2.4557     0.0338     0.1320   128.7339     7.5826
  419.5000    -3.4251    12.7797    16.7816     2.4550     0.0270     0.1367   127.7904     7.5562
  420.0000    -3.5575    12.7664    16.7980     2.4481     0.0238     0.1415   124.7883     7.5298
  420.5000    -3.6898    12.7534    16.5342     2.4402     0.0162     0.1446   115.9790     7.5036
  421.0000    -3.8220    12.6262    16.3416     2.4374     0.0150     0.1454   107.0197     7.4768
  421.5000    -3.8970    12.4821    16.1182     2.4362     0.0150     0.1414    99.6456     7.4503
  422.0000    -3.9062    12.3388    15.8648     2.4365     0.0150     0.1344    99.9183     7.4053
  422.5000    -3.9158    12.1808    15.6154     2.4482     0.0150     0.1327   101.5489     7.3601
  423.0000    -3.9253    12.2073    15.3699     2.4565     0.0150     0.1346   103.3036     7.3137
  423.5000    -3.9349    12.2375    15.1283     2.4536     0.0150     0.1358   104.6257     7.2695
  424.0000    -3.9444    12.2678    14.8899     2.4509     0.0150     0.1366   105.0223     7.2886
  424.5000    -3.9540    12.2981    14.7711     2.4482     0.0150     0.1416   104.1834     7.3053
  425.0000    -3.9635    12.3285    14.7711     2.4440     0.0150     0.1458   102.6879     7.2912
  425.5000    -3.9730    12.3590    14.7716     2.4381     0.0150     0.1457   100.6007     7.3608
  426.0000    -3.9826    12.3895    14.7715     2.4329     0.0150     0.1411   100.4512     7.4051
  426.5000    -3.9921    12.4202    14.7715     2.4393     0.0145     0.1365    97.6509     7.4060
  427.0000    -4.0017    12.4507    14.7716     2.4470     0.0129     0.1331    93.4542     7.4061
  427.5000    -4.0112    12.4817    14.7717     2.4546     0.0113     0.1321    91.3914     7.4059
  428.0000    -4.0208    12.5210    14.7709     2.4555     0.0097     0.1318    92.3823     7.3986
  428.5000    -4.0303    12.4284    14.5632     2.4561     0.0081     0.1315    94.8751     7.3620
  429.0000    -4.0398    12.3017    14.3567     2.4566     0.0065     0.1323    99.9258     7.3265
  429.5000    -4.0494    12.1763    14.2553     2.4567     0.0049     0.1335   104.7423     7.3092
  430.0000    -4.0589    12.0695    14.1550     2.4548     0.0033     0.1369   108.8700     7.3115
  430.5000    -4.0685    12.0810    14.1089     2.4479     0.0048     0.1439   117.7095     7.5428
  431.0000    -4.0780    12.0911    14.1242     2.4410     0.0071     0.1494   121.8026     7.4704
  431.5000    -4.0876    12.1013    14.1344     2.4341     0.0094     0.1525   123.7068     7.5368
  432.0000    -4.0879    12.1114    14.1447     2.4270     0.0117     0.1475   124.5749     7.5023
  432.5000    -4.0811    12.1216    14.1549     2.4286     0.0132     0.1407   124.3969     7.4915
  433.0000    -4.0742    12.1317    14.1650     2.4365     0.0137     0.1346   124.1263     7.5049
  433.5000    -4.0673    12.1419    14.1753     2.4469     0.0142     0.1304   123.1291     7.5180
  434.0000    -4.0603    12.1521    14.1855     2.4575     0.0146     0.1227   121.1170     7.5862
  434.5000    -4.0534    12.1622    14.1957     2.4751     0.0139     0.1154   117.6953     7.7131
  435.0000    -4.0465    12.1725    14.2059     2.4844     0.0087     0.1142   117.5057     7.7391
  435.5000    -4.0396    12.1803    14.2162     2.4833     0.0065     0.1204   118.0839     7.7354
  436.0000    -4.0327    12.1757    14.2264     2.4794     0.0058     0.1225   119.2695     7.7306
  436.5000    -4.0258    12.1713    14.2369     2.4754     0.0050     0.1249   120.4483     7.7261
  437.0000    -4.0189    12.1670    14.2388     2.4715     0.0093     0.1280   120.5029     7.7217
  437.5000    -4.0120    12.1626    14.2388     2.4675     0.0155     0.1281   120.3657     7.7173
  438.0000    -4.0051    12.1583    14.2388     2.4643     0.0209     0.1259   117.1763     7.7129
  438.5000    -3.9982    12.1539    14.2388     2.4685     0.0192     0.1230   113.5499     7.7085
  439.0000    -3.9913    12.1496    14.2388     2.4728     0.0245     0.1204   113.1985     7.7046
  439.5000    -3.9843    12.1452    14.2388     2.4756     0.0306     0.1182   113.7072     7.6710
  440.0000    -3.9774    12.1409    14.2388     2.4784     0.0367     0.1177   117.5898     7.6299
  440.5000    -3.9705    12.1366    14.2388     2.4814     0.0367     0.1180   123.2630     7.6029
  441.0000    -3.9636    12.1322    14.2388     2.4813     0.0362     0.1199   123.2330     7.6013
  441.5000    -3.9567    12.1279    14.2388     2.4783     0.0357     0.1231   120.3524     7.5992
  442.0000    -3.9498    12.1236    14.2388     2.4749     0.0351     0.1333   118.6622     7.5972
  442.5000    -3.9429    12.1192    14.2388     2.4646     0.0430     0.1423   118.0249     7.5952
  443.0000    -3.9360    12.1149    14.2390     2.4526     0.0708     0.1390   118.7922     7.5932
  443.5000    -3.9290    12.1106    14.2377     2.4439     0.1081     0.1335   121.4651     7.5912
  444.0000    -3.9221    12.1062    14.2430     2.4542     0.1445     0.1135   125.2217     7.5893
