~VERSION INFORMATION
 VERS.                2.0:   CWLS LOG ASCII STANDARD - VERSION 2.0
 WRAP.                 NO:   ONE LINE PER DEPTH STEP
~WELL INFORMATION
#MNEM.UNIT      DATA TYPE    INFORMATION
#----------   ------------   ------------------------------
 STRT.F            0.0000:   START DEPTH
 STOP.F          550.0000:   STOP DEPTH
 STEP.F            0.1000:   STEP LENGTH
 NULL.          -999.2500:   NO VALUE
 COMP.       F D SERV INC:   COMPANY
 WELL. NAVAL PETROLEUM RESERVE 3 SX-3 #77-4-3:   WELL
 FLD .          N.P.R. #3:   FIELD
 LOC .       S3 T38N R78W:   LOCATION
 CNTY.            NATRONA:   COUNTY
 STAT.            WYOMING:   STATE
 CTRY. UNITED STATES OF AMERICA:   COUNTRY
 SRVC.      Western Atlas:   SERVICE COMPANY
 DATE.        28-OCT-1992:   LOGDATE
 API .       490252255100:   API NUMBER
~CURVE INFORMATION
#MNEM.UNIT       API CODE    CURVE DESCRIPTION
#----------   ------------   ------------------------------
 DEPT.F                  :   
 GRR .GAPI   07 310 01 00:   GAMMA RAY FROM RESISTIVITY
 RILD.OHMM   07 120 46 00:   DEEP INDUCTION RESISTIVITY
 RILM.OHMM   07 120 44 00:   INDUCTION LOG MEDIUM RESISTIVITY
~PARAMETER INFORMATION
#MNEM.UNIT          VALUE    DESCRIPTION
#----------   ------------   ------------------------------
 PD  .                 GL:   PERMANENT DATUM
 EPD .F              5160:   ELEVATION PERMANENT DATUM
 LMF .                 KB:   LOG MEASURED FROM
 DAPD.F                10:   FEET ABOVE PERMANENT DATUM
 DMF .                 KB:   DRILLING MEASURED FROM
 EKB .F              5170:   KELLING BUSHING
 EDF .F              5169:   DRILLING FLOOR
 EGL .F              5160:   GROUND LEVEL
 DATE.        28-OCT-1992:   RUN DATE
 RUN .                  1:   RUN NUMBER
 DD  .F               555:   DEPTH DRILLER
 DL  .F               558:   DEPTH LOGGER
 BLI .F               550:   BOTTOM LOG INTERVAL
 CS  .IN            8.625:   CASING SIZE
 CBD .F                54:   CASING BOTTOM DRILLER
 CBL .F                54:   CASING BOTTOM LOGGER
 BS  .IN            7.875:   BIT SIZE
 BSD .F               555:   BIT SIZE AT DEPTH
 DFT .           AIR FOAM:   DRILLING FLUID TYPE
 TCS .HRS               1:   TIME CURCULATED STOPPED
 MRT .F                65:   MAXIMUM RECORDED TEMPERATURE
 LUN .            HL-6274:   LOGGING UNIT NUMBER
 LUL .             CASPER:   LOGGING UNIT LOCATION
 ENGI.             RAUTIO:   RECORDING ENGINEER
 WITN.     BRUCE ANDERSON:   WITNESSED BY
 CLNT.            A2DTECH:   CLIENT CODE
 ORIG.           5" PRINT:   ORIGIN OF DATA
 UWI .       490252255100:   UNIQUE WELL ID
 DICO. A2D Technologies, Inc.:   DIGITIZING COMPANY
~OTHER INFORMATION
~A    DEPT      GRR      RILD       RILM   
# ...
  236.6000   125.8706     3.8296     4.4297
  236.7000   127.2290     3.8624     4.5417
  236.8000   128.5753     3.8919     4.6719
  236.9000   129.3245     3.9398     4.7919
  237.0000   129.9210     4.0148     4.8680
  237.1000   130.3250     4.0789     4.9739
  237.2000   130.5208     4.1504     5.0605
  237.3000   130.6199     4.2356     5.1285
  237.4000   130.8181     4.3424     5.2183
  237.5000   130.8157     4.4750     5.3189
  237.6000   130.8133     4.6790     5.4029
  237.7000   130.8109     4.8026     5.4977
  237.8000   130.8085     4.8839     5.5778
  237.9000   130.8060     4.9549     5.6526
  238.0000   130.8036     5.0501     5.7483
  238.1000   130.8012     5.1655     5.8222
  238.2000   130.5499     5.2665     5.8830
  238.3000   130.4943     5.3480     5.9276
  238.4000   130.4918     5.4416     5.9619
  238.5000   130.4894     5.5214     5.9965
  238.6000   130.4870     5.5945     6.0345
  238.7000   130.4845     5.6899     6.1125
  238.8000   130.2357     5.7647     6.1441
  238.9000   129.9819     5.9121     6.1550
  239.0000   129.8731     6.0385     6.1724
  239.1000   129.7764     6.1276     6.2082
  239.2000   129.5662     6.1894     6.2442
  239.3000   129.5637     6.2251     6.2846
  239.4000   129.5613     6.2664     6.3169
  239.5000   129.5589     6.2973     6.3535
  239.6000   129.6991     6.3099     6.3903
  239.7000   129.9480     6.3097     6.4274
  239.8000   130.2381     6.3095     6.4616
  239.9000   130.7576     6.3093     6.4615
  240.0000   131.4804     6.3091     6.4614
  240.1000   132.2320     6.3090     6.4869
  240.2000   133.4042     6.3088     6.5064
  240.3000   135.1783     6.3245     6.5063
  240.4000   137.3221     6.3526     6.5062
  240.5000   138.9002     6.3524     6.5061
  240.6000   140.5728     6.3522     6.5060
  240.7000   141.9530     6.3520     6.5059
  240.8000   142.7940     6.3748     6.5058
  240.9000   143.1202     6.3961     6.5057
  241.0000   143.1541     6.3959     6.5056
  241.1000   143.4174     6.3957     6.5055
  241.2000   143.4151     6.3955     6.4727
  241.3000   143.2266     6.3954     6.4602
  241.4000   142.9728     6.3727     6.4426
  241.5000   142.7190     6.3506     6.4053
  241.6000   142.4653     6.3504     6.3706
  241.7000   142.1944     6.3503     6.3705
  241.8000   141.7233     6.3135     6.3386
  241.9000   141.0344     6.3058     6.3019
  242.0000   140.2779     6.2840     6.2654
  242.1000   139.4393     6.2476     6.2244
  242.2000   138.4000     6.2113     6.1706
  242.3000   137.0439     6.1747     6.1094
  242.4000   136.1136     6.1046     6.0487
  242.5000   135.6496     6.0341     5.9790
  242.6000   135.5263     5.9645     5.9100
  242.7000   135.5239     5.8956     5.8417
  242.8000   135.5215     5.8218     5.7742
  242.9000   135.5188     5.7182     5.6981
  243.0000   135.9758     5.6226     5.6418
  243.1000   136.2973     5.5502     5.5767
  243.2000   136.6743     5.4684     5.5124
  243.3000   137.3293     5.3851     5.4330
  243.4000   138.2526     5.3307     5.3081
  243.5000   138.5255     5.3183     5.1685
  243.6000   139.2048     5.3059     5.0927
  243.7000   139.7801     5.2934     5.0048
  243.8000   140.2804     5.2810     4.9312
  243.9000   140.8556     5.2686     4.8742
  244.0000   141.5831     5.2492     4.8193
  244.1000   142.1363     5.1851     4.7871
  244.2000   142.5837     5.1010     4.7870
  244.3000   142.7359     4.9919     4.7691
  244.4000   142.8568     4.8924     4.7293
  244.5000   143.0332     4.8263     4.6813
  244.6000   143.0308     4.7983     4.6541
  244.7000   143.0281     4.7684     4.6229
  244.8000   143.0260     4.7428     4.5780
  244.9000   142.8519     4.7152     4.5420
  245.0000   142.7190     4.6879     4.5157
  245.1000   142.6465     4.6607     4.4895
  245.2000   142.3734     4.6336     4.4645
  245.3000   141.8051     4.6044     4.4644
  245.4000   141.1432     4.5800     4.4644
  245.5000   140.7251     4.5722     4.4643
  245.6000   140.3529     4.5587     4.4642
  245.7000   139.7801     4.5402     4.4642
  245.8000   139.0099     4.5400     4.4650
  245.9000   138.0524     4.5399     4.4952
  246.0000   137.0948     4.5398     4.4952
  246.1000   136.1372     4.5397     4.4951
  246.2000   135.1796     4.5525     4.5063
  246.3000   134.2221     4.5711     4.5324
  246.4000   133.2180     4.5733     4.5579
  246.5000   131.2021     4.6028     4.5579
  246.6000   130.5547     4.6264     4.5798
  246.7000   130.1269     4.6531     4.6063
  246.8000   129.8731     4.6670     4.6330
  246.9000   129.4937     4.6744     4.6538
  247.0000   128.7613     4.7014     4.6544
  247.1000   128.4685     4.7321     4.6862
  247.2000   128.4665     4.7800     4.7312
  247.3000   128.4641     4.8169     4.7690
  247.4000   128.5728     4.8578     4.8084
  247.5000   128.9426     4.9068     4.8644
  247.6000   129.7231     4.9385     4.9210
  247.7000   131.4751     5.0375     4.9787
  247.8000   132.1039     5.0876     5.0365
  247.9000   133.1747     5.1664     5.1320
  248.0000   134.6466     5.2707     5.2394
  248.1000   136.4036     5.3861     5.3380
  248.2000   138.1461     5.4788     5.4619
  248.3000   139.6177     5.5527     5.5374
  248.4000   140.4471     5.6070     5.5900
  248.5000   141.7643     5.6512     5.6349
  248.6000   142.6320     5.6838     5.6676
  248.7000   142.6852     5.7167     5.7005
  248.8000   142.9294     5.7507     5.7335
  248.9000   142.6243     5.8292     5.7731
  249.0000   142.4169     5.8852     5.8002
  249.1000   142.0085     5.9536     5.8339
  249.2000   141.3994     6.0228     5.8957
  249.3000   140.6960     6.0928     5.9845
  249.4000   140.1885     6.1630     6.0197
  249.5000   139.2865     6.2054     6.1889
  249.6000   138.6756     6.2640     6.2762
  249.7000   137.7668     6.3144     6.4089
  249.8000   136.6574     6.3659     6.5129
  249.9000   135.0429     6.4347     6.5661
  250.0000   132.0242     6.4841     6.6810
  250.1000   132.1615     6.5335     6.7453
  250.2000   132.2989     6.5829     6.8096
  250.3000   132.4363     6.6323     6.8740
  250.4000   132.5737     6.6817     6.9383
  250.5000   132.6375     6.7311     6.9895
  250.6000   132.7206     6.7805     7.0436
  250.7000   132.9710     6.8299     7.1201
  250.8000   133.2473     6.8723     7.1651
  250.9000   134.1400     6.9335     7.2406
  251.0000   135.1360     7.0141     7.2952
  251.1000   136.1320     7.0913     7.3375
  251.2000   137.2521     7.1370     7.3800
  251.3000   138.7367     7.2113     7.4227
  251.4000   140.2070     7.2665     7.4726
  251.5000   141.2255     7.3088     7.5091
  251.6000   142.1703     7.3403     7.5254
  251.7000   142.7253     7.3429     7.5436
  251.8000   143.0183     7.3925     7.5786
  251.9000   143.5390     7.4287     7.5789
  252.0000   143.7785     7.4450     7.5792
  252.1000   143.8447     7.4454     7.6133
  252.2000   143.8465     7.4547     7.6328
  252.3000   143.8483     7.4983     7.6331
  252.4000   143.8501     7.4987     7.6334
  252.5000   143.8522     7.4991     7.6338
  252.6000   143.6355     7.4995     7.6341
  252.7000   143.5535     7.4842     7.6344
  252.8000   143.4441     7.4482     7.6347
  252.9000   143.2550     7.4487     7.6350
  253.0000   143.2528     7.4491     7.6325
  253.1000   142.9568     7.4182     7.5827
  253.2000   142.7593     7.3760     7.5461
  253.3000   142.2217     7.3341     7.5307
  253.4000   141.4779     7.2966     7.5128
  253.5000   140.6959     7.2971     7.4701
  253.6000   139.6424     7.2975     7.4275
  253.7000   138.7113     7.2694     7.3855
  253.8000   137.8985     7.2476     7.3436
  253.9000   137.1547     7.2372     7.3019
  254.0000   136.6284     7.1981     7.2311
  254.1000   136.6492     7.1986     7.1136
  254.2000   136.9344     7.1643     7.0269
  254.3000   136.9359     7.1236     6.9899
  254.4000   137.2584     7.0831     6.9502
  254.5000   137.8640     7.0512     6.9306
  254.6000   138.6114     7.0516     6.9309
  254.7000   139.3601     7.0117     6.9312
