~VERSION INFORMATION
 VERS.                2.0:   CWLS LOG ASCII STANDARD - VERSION 2.0
 WRAP.                 NO:   ONE LINE PER DEPTH STEP
~WELL INFORMATION
#MNEM.UNIT      DATA TYPE    INFORMATION
#----------   ------------   ------------------------------
 STRT.F            8.0000:   START DEPTH
 STOP.F          970.0000:   STOP DEPTH
 STEP.F            0.1000:   STEP LENGTH
 NULL.          -999.2500:   NO VALUE
 COMP.       F D SERV INC:   COMPANY
 WELL. N P R 3 STX-35 #15-35:   WELL
 FLD .             TEAPOT:   FIELD
 LOC .      S35 T39N R78W:   LOCATION
 CNTY.            NATRONA:   COUNTY
 STAT.            WYOMING:   STATE
 CTRY. UNITED STATES OF AMERICA:   COUNTRY
 SRVC.     Atlas Wireline:   SERVICE COMPANY
 DATE.        02-FEB-1992:   LOGDATE
 API .       490252250100:   API NUMBER
~CURVE INFORMATION
#MNEM.UNIT       API CODE    CURVE DESCRIPTION
#----------   ------------   ------------------------------
 DEPT.F                  :   
 GRR .GAPI   07 310 01 00:   GAMMA RAY
 RILD.OHMM   07 120 46 00:   INDUCTION LOG DEEP RESISTIVITY
 RILM.OHMM   07 120 44 00:   INDUCTION LOG MEDIUM RESISTIVITY
~PARAMETER INFORMATION
#MNEM.UNIT          VALUE    DESCRIPTION
#----------   ------------   ------------------------------
 PD  .                 GL:   PERMANENT DATUM
 EPD .F              5084:   ELEVATION PERMANENT DATUM
 LMF .                 KB:   LOG MEASURED FROM
 DAPD.F                10:   FEET ABOVE PERMANENT DATUM
 DMF .                 KB:   DRILLING MEASURED FROM
 EKB .F              5094:   KELLING BUSHING
 EDF .F              5093:   DRILLING FLOOR
 EGL .F              5084:   GROUND LEVEL
 DATE.        02-FEB-1982:   RUN DATE
 RUN .                  1:   RUN NUMBER
 DD  .F               980:   DEPTH DRILLER
 CS  .IN            8.625:   CASING SIZE
 BSD .F               980:   BIT SIZE AT DEPTH
 DFT .                AIR:   DRILLING FLUID TYPE
 LUN .            HL-6272:   LOGGING UNIT NUMBER
 LUL .             CASPER:   LOGGING UNIT LOCATION
 ENGI.       R. RASMLSSEN:   RECORDING ENGINEER
 WITN.          G. STRONG:   WITNESSED BY
 CLNT.            A2DTECH:   CLIENT CODE
 ORIG.           5" PRINT:   ORIGIN OF DATA
 UWI .       490252250100:   UNIQUE WELL ID
 DICO. A2D Technologies, Inc.:   DIGITIZING COMPANY
~OTHER INFORMATION
~A    DEPT      GRR      RILD       RILM   
# ...
  208.2000   128.8857     6.8382     6.7834
  208.3000   127.9285     6.8623     6.8258
  208.4000   127.1733     6.8864     6.8263
  208.5000   126.9232     6.8868     6.8269
  208.6000   126.6731     6.8870     6.8275
  208.7000   126.5745     6.8873     6.8407
  208.8000   126.4760     6.8558     6.8761
  208.9000   126.2759     6.8402     6.8767
  209.0000   126.2788     6.8405     6.8772
  209.1000   125.9787     6.8408     6.8778
  209.2000   125.7786     6.8411     6.8584
  209.3000   125.5285     6.8414     6.8315
  209.4000   125.2784     6.8416     6.8280
  209.5000   125.0283     6.8419     6.7854
  209.6000   124.7782     6.8264     6.7510
  209.7000   124.5281     6.7952     6.7128
  209.8000   124.2780     6.7954     6.6935
  209.9000   124.0279     6.7487     6.6831
  210.0000   123.7778     6.7489     6.6483
  210.1000   123.4772     6.7258     6.6490
  210.2000   122.9745     6.7028     6.6160
  210.3000   122.7244     6.6953     6.6041
  210.4000   122.0703     6.6569     6.5869
  210.5000   121.6181     6.6188     6.5596
  210.6000   121.2670     6.5809     6.5578
  210.7000   121.0170     6.5432     6.5154
  210.8000   121.7770     6.5207     6.4838
  210.9000   122.9920     6.5135     6.4713
  211.0000   123.8020     6.4761     6.4386
  211.1000   125.2691     6.4316     6.3742
  211.2000   126.9382     6.4021     6.3396
  211.3000   128.4557     6.3655     6.3403
  211.4000   129.9734     6.3436     6.3407
  211.5000   131.2383     6.3366     6.3182
  211.6000   132.3014     6.3003     6.2670
  211.7000   133.3140     6.3005     6.2037
  211.8000   134.2255     6.2717     6.1685
  211.9000   134.8845     6.2358     6.1272
  212.0000   135.1394     6.2001     6.0988
  212.1000   135.7484     6.1645     6.0644
  212.2000   135.9523     6.1292     6.0300
  212.3000   135.9043     6.0940     6.0030
  212.4000   135.6542     6.0313     6.0035
  212.5000   135.1515     5.9621     5.9694
  212.6000   133.6388     5.8937     5.9084
  212.7000   131.1160     5.8260     5.8612
  212.8000   128.9972     5.7592     5.8280
  212.9000   127.4340     5.7196     5.7950
  213.0000   126.2748     5.6934     5.7617
  213.1000   125.4686     5.6608     5.7296
  213.2000   125.4715     5.6154     5.6971
  213.3000   125.7265     5.5573     5.6649
  213.4000   125.9814     5.5255     5.6328
  213.5000   126.2363     5.4938     5.6009
  213.6000   126.3903     5.4624     5.5681
  213.7000   126.3927     5.4310     5.5377
  213.8000   126.3952     5.3875     5.5064
  213.9000   126.0950     5.3318     5.4578
  214.0000   125.2888     5.3013     5.4066
  214.1000   124.2812     5.2648     5.3714
  214.2000   123.2736     5.2407     5.3069
  214.3000   122.2153     5.2107     5.2499
  214.4000   120.9552     5.1808     5.2123
  214.5000   120.2001     5.1511     5.1668
  214.6000   119.4449     5.1216     5.1081
  214.7000   118.6897     5.0629     5.0462
  214.8000   118.0356     5.0281     4.9538
  214.9000   117.5330     4.9820     4.8757
  215.0000   117.0303     4.9248     4.8125
  215.1000   117.0332     4.8628     4.7437
  215.2000   117.8432     4.7791     4.6710
  215.3000   118.7042     4.7244     4.6121
  215.4000   119.4642     4.6702     4.4976
  215.5000   120.1737     4.6008     4.4052
  215.6000   120.6812     4.5218     4.3227
  215.7000   121.4412     4.4440     4.2369
  215.8000   121.9992     4.3676     4.1407
  215.9000   122.6582     4.2777     4.0486
  216.0000   123.4182     4.2190     3.9718
  216.1000   124.1277     4.1324     3.9318
  216.2000   124.6353     4.0472     3.8871
  216.3000   126.4052     3.9821     3.8534
  216.4000   127.7712     3.9364     3.8256
  216.5000   129.1879     3.8689     3.7836
  216.6000   130.7055     3.8377     3.7593
  216.7000   132.2231     3.8157     3.7596
  216.8000   133.7406     3.7939     3.7599
  216.9000   135.2587     3.7765     3.7602
  217.0000   136.2708     3.8030     3.7605
  217.1000   137.3843     3.8032     3.7608
  217.2000   138.2958     3.8033     3.7612
  217.3000   138.9548     3.8167     3.7799
  217.4000   139.2097     3.8302     3.8021
  217.5000   139.4646     3.8348     3.8342
  217.6000   139.7196     3.8572     3.8736
  217.7000   139.6715     3.8797     3.8963
  217.8000   139.3204     3.9024     3.9230
  217.9000   138.6663     3.9252     3.9611
  218.0000   137.4061     3.9482     3.9928
  218.1000   133.7726     3.9666     4.0260
  218.2000   133.1685     3.9668     4.0678
  218.3000   132.2618     3.9900     4.0916
  218.4000   131.2541     4.0134     4.1202
  218.5000   130.2970     4.0368     4.1592
  218.6000   129.5418     4.0699     4.1930
  218.7000   129.0392     4.1126     4.2176
  218.8000   128.5366     4.1367     4.2472
  218.9000   128.0340     4.1947     4.2970
  219.0000   127.5314     4.2144     4.3220
  219.1000   127.0792     4.2539     4.3474
  219.2000   126.8291     4.2935     4.3878
  219.3000   126.3265     4.3237     4.4292
  219.4000   126.0258     4.3741     4.4551
  219.5000   125.7757     4.3997     4.4818
  219.6000   125.4246     4.4255     4.5329
  219.7000   124.9220     4.4514     4.5654
  219.8000   124.4194     4.4878     4.5771
  219.9000   124.4223     4.5349     4.5969
  220.0000   124.2222     4.5614     4.6462
  220.1000   123.9721     4.5934     4.6746
  220.2000   123.8231     4.6364     4.7008
  220.3000   123.8760     4.6742     4.7284
  220.4000   124.1309     4.7126     4.7712
  220.5000   124.1333     4.7621     4.8172
  220.6000   124.3378     4.7899     4.8415
  220.7000   124.4413     4.8179     4.8419
  220.8000   124.4437     4.8686     4.8685
  220.9000   124.4966     4.9255     4.9179
  221.0000   124.7515     4.9831     4.9601
  221.1000   125.0575     5.0354     4.9798
  221.2000   125.2614     5.0648     4.9838
  221.3000   125.5163     5.1240     5.0153
  221.4000   125.8723     5.1600     5.0423
  221.5000   126.3798     5.1902     5.0719
  221.6000   126.8873     5.2084     5.1016
  221.7000   127.1422     5.2086     5.1224
  221.8000   127.5992     5.2088     5.1259
  221.9000   127.8036     5.2091     5.1590
  222.0000   127.7051     5.2335     5.1862
  222.1000   127.4045     5.2458     5.2166
  222.2000   126.9018     5.2460     5.2323
  222.3000   126.6517     5.2463     5.2241
  222.4000   126.6036     5.2465     5.1970
  222.5000   126.4545     5.2164     5.1975
  222.6000   126.3055     5.2106     5.1979
  222.7000   126.2574     5.1927     5.1983
  222.8000   126.0073     5.1749     5.1846
  222.9000   126.0102     5.1692     5.1632
  223.0000   126.0121     5.1395     5.1636
  223.1000   126.0145     5.1398     5.1642
  223.2000   126.0170     5.1163     5.1646
  223.3000   126.0194     5.1046     5.1455
  223.4000   126.0218     5.1048     5.1297
  223.5000   126.2768     5.0991     5.1301
  223.6000   126.5317     5.0699     5.1292
  223.7000   126.6351     5.0701     5.0956
  223.8000   126.7386     5.0703     5.0959
  223.9000   126.9936     5.0705     5.0964
  224.0000   127.2485     5.0708     5.0968
  224.1000   127.5544     5.0710     5.0905
  224.2000   127.9604     5.0712     5.0624
  224.3000   128.3163     5.0714     5.0629
  224.4000   128.6723     5.0716     5.0393
  224.5000   129.1293     5.0718     5.0287
  224.6000   129.3842     5.0603     5.0171
  224.7000   130.1442     5.0371     4.9947
  224.8000   130.9043     5.0373     4.9951
  224.9000   131.5127     5.0376     4.9956
  225.0000   132.0202     5.0145     4.9729
  225.1000   132.5277     4.9858     4.9618
  225.2000   133.0352     4.9687     4.9510
  225.3000   133.2901     4.9631     4.9230
  225.4000   133.7471     4.9347     4.8947
  225.5000   134.1031     4.9065     4.8951
  225.6000   134.4590     4.8559     4.8735
  225.7000   134.9160     4.7837     4.8621
  225.8000   135.1709     4.7123     4.8520
  225.9000   134.8708     4.6529     4.8245
  226.0000   134.4686     4.5728     4.7963
  226.1000   133.9660     4.5100     4.7701
  226.2000   133.3625     4.4277     4.7223
  226.3000   132.6073     4.3266     4.6686
