~VERSION INFORMATION
 VERS.                2.0:   CWLS LOG ASCII STANDARD - VERSION 2.0
 WRAP.                 NO:   ONE LINE PER DEPTH STEP
~WELL INFORMATION
#MNEM.UNIT      DATA TYPE    INFORMATION
#----------   ------------   ------------------------------
 STRT.F            0.0000:   START DEPTH
 STOP.F          479.0000:   STOP DEPTH
 STEP.F            0.5000:   STEP LENGTH
 NULL.          -999.2500:   NO VALUE
 COMP. BROWN JOHN E&C INC:   COMPANY
 WELL.  63-3 SX-10 #63-10:   WELL
 FLD .             TEAPOT:   FIELD
 LOC .      S10 T38N R78W:   LOCATION
 CNTY.            NATRONA:   COUNTY
 STAT.            WYOMING:   STATE
 CTRY. UNITED STATES OF AMERICA:   COUNTRY
 SRVC.     Atlas Wireline:   SERVICE COMPANY
 DATE.        25-APR-1992:   LOGDATE
 API .       490252252900:   API NUMBER
~CURVE INFORMATION
#MNEM.UNIT       API CODE    CURVE DESCRIPTION
#----------   ------------   ------------------------------
 DEPT.F                  :   
 GRR .GAPI   07 310 01 00:   GAMMA RAY
 SPR .MV     07 010 01 00:   SPONTANEOUS POTENTIAL
 RILD.OHMM   07 120 46 00:   INDUCTION LOG DEEP RESISTIVITY
 RILM.OHMM   07 120 44 00:   INDUCTION LOG MEDIUM RESISTIVITY
 RFOC.OHMM   07 220 04 00:   RESISTIVITY FOCUSED LOG
 PORD.DEC    45 890 12 00:   POROSITY DENSITY SANDSTONE
 CNC .DEC    42 890 03 00:   NEUTRON POROSITY SANDSTONE
 CALD.IN     45 280 60 00:   CALIPER FROM DENSITY
 CORR.G/C3   45 356 01 00:   DENSITY CORRECTION
 DEN .G/C3   45 350 01 00:   COMPENSATED BULK DENSTIY
~PARAMETER INFORMATION
#MNEM.UNIT          VALUE    DESCRIPTION
#----------   ------------   ------------------------------
 PD  .                 GL:   PERMANENT DATUM
 EPD .F              5189:   ELEVATION PERMANENT DATUM
 LMF .                 KB:   LOG MEASURED FROM
 DAPD.F                10:   FEET ABOVE PERMANENT DATUM
 DMF .                 KB:   DRILLING MEASURED FROM
 EKB .F              5199:   KELLING BUSHING
 EGL .F              5189:   GROUND LEVEL
 DATE.        25-APR-1992:   RUN DATE
 RUN .                  1:   RUN NUMBER
 DD  .F               480:   DEPTH DRILLER
 DL  .F               482:   DEPTH LOGGER
 BLI .F               480:   BOTTOM LOG INTERVAL
 CS  .IN            8.625:   CASING SIZE
 CBD .F               130:   CASING BOTTOM DRILLER
 CBL .F               143:   CASING BOTTOM LOGGER
 BS  .IN            7.875:   BIT SIZE
 BSD .F               480:   BIT SIZE AT DEPTH
 DFT .     DISP. WEIGHTED:   DRILLING FLUID TYPE
 DFD .               15.1:   DRILLING FLUID DENSITY
 DFV .                 44:   DRILLING FLUID VISCOSITY
 DFPH.                8.4:   DRILLING FLUID PH
 DFL .                  7:   DRILLING FLUID LOSS
 MSS .           FLOWLINE:   MUD SAMPLE SOURCE
 TCS .HRS            0230:   TIME CURCULATED STOPPED
 LUN .           HL- 6272:   LOGGING UNIT NUMBER
 LUL .             CASPER:   LOGGING UNIT LOCATION
 ENGI.       P. RASMUSSEN:   RECORDING ENGINEER
 WITN.          G. STRONG:   WITNESSED BY
 CLNT.            A2DTECH:   CLIENT CODE
 ORIG.           5" PRINT:   ORIGIN OF DATA
 UWI .       490252252900:   UNIQUE WELL ID
 DICO. A2D Technologies, Inc.:   DIGITIZING COMPANY
~OTHER INFORMATION
~A    DEPT      GRR       SPR       RILD       RILM       RFOC       PORD        CNC       CALD       CORR        DEN   
# ...
  134.0000    59.7030  -999.2500  -999.2500  -999.2500  -999.2500  -999.2500     0.4949  -999.2500  -999.2500  -999.2500
  134.5000    60.6085  -999.2500  -999.2500  -999.2500  -999.2500  -999.2500     0.4744  -999.2500  -999.2500  -999.2500
  135.0000    58.1841  -999.2500  -999.2500  -999.2500  -999.2500  -999.2500     0.4602  -999.2500  -999.2500  -999.2500
  135.5000    56.3657  -999.2500  -999.2500  -999.2500  -999.2500  -999.2500     0.4478  -999.2500  -999.2500  -999.2500
  136.0000    58.1781  -999.2500  -999.2500  -999.2500  -999.2500  -999.2500     0.4409  -999.2500  -999.2500  -999.2500
  136.5000    60.2939  -999.2500  -999.2500  -999.2500  -999.2500  -999.2500     0.4391  -999.2500  -999.2500  -999.2500
  137.0000    58.4747  -999.2500  -999.2500  -999.2500  -999.2500  -999.2500     0.4533  -999.2500  -999.2500  -999.2500
  137.5000    56.0511  -999.2500  -999.2500  -999.2500  -999.2500  -999.2500     0.4795  -999.2500  -999.2500  -999.2500
  138.0000    55.1404  -999.2500  -999.2500  -999.2500  -999.2500  -999.2500     0.5028  -999.2500  -999.2500  -999.2500
  138.5000    57.2554  -999.2500  -999.2500  -999.2500  -999.2500  -999.2500     0.5085  -999.2500  -999.2500  -999.2500
  139.0000    59.9755  -999.2500  -999.2500  -999.2500  -999.2500  -999.2500     0.5122  -999.2500  -999.2500  -999.2500
  139.5000    61.4854  -999.2500  -999.2500  -999.2500  -999.2500  -999.2500     0.5058  -999.2500  -999.2500  -999.2500
  140.0000    61.7857  -999.2500  -999.2500  -999.2500  -999.2500  -999.2500     0.4871  -999.2500  -999.2500  -999.2500
  140.5000    61.3880  -999.2500  -999.2500  -999.2500  -999.2500  -999.2500     0.4720  -999.2500  -999.2500  -999.2500
  141.0000    60.9630  -999.2500  -999.2500  -999.2500  -999.2500  -999.2500     0.4605  -999.2500  -999.2500  -999.2500
  141.5000    55.2988  -999.2500  -999.2500  -999.2500  -999.2500  -999.2500     0.4533  -999.2500  -999.2500  -999.2500
  142.0000    50.8805  -999.2500  -999.2500  -999.2500  -999.2500  -999.2500     0.4470     8.1248    -0.4618     2.4216
  142.5000    52.0872  -999.2500  -999.2500  -999.2500  -999.2500  -999.2500     0.4370     8.0782    -0.2139     2.4718
  143.0000    59.2435   -21.7865     2.9854  9868.0791     0.6238     0.1343     0.4192     8.0471    -0.0175     2.4743
  143.5000    69.6652   -42.7577     4.1279  9663.1230     1.3183     0.1769     0.3949     8.0463    -0.0009     2.3897
  144.0000    82.0330   -59.5058     5.2704  9865.7031     2.6749     0.1829     0.3756     8.0455     0.0081     2.3496
  144.5000    85.3583   -70.2540     4.7124   672.6011     5.2940     0.1612     0.3555     8.0296     0.0065     2.3926
  145.0000    84.7502   -73.7253     4.0003     4.0246     5.0063     0.1458     0.3431     8.0440     0.0019     2.4083
  145.5000    83.2343   -77.5201    12.8023     5.3804     4.9708     0.1391     0.3477     8.0432    -0.0012     2.4226
  146.0000    82.3236   -80.0986   394.4914     7.7209     5.1823     0.1261     0.3543     8.0425    -0.0011     2.4542
  146.5000    81.1103   -82.0649  7469.5127    10.6617     5.4408     0.1077     0.3561     8.0571     0.0017     2.4737
  147.0000    80.5021   -83.7667  9860.9678    14.8160     5.6369     0.1014     0.3465     8.0715     0.0033     2.4835
  147.5000    80.4991   -86.3548   290.3394    19.3355     5.8764     0.0981     0.3419     8.0860     0.0062     2.4872
  148.0000    80.4961   -89.1173     8.7901    20.9378     6.2143     0.0958     0.3410     8.0850     0.0106     2.4894
  148.5000    80.4931   -91.5366     7.3850    14.1757     6.2943     0.0942     0.3462     8.0842     0.0151     2.4953
  149.0000    80.7927   -93.6542     7.4367    13.8813     6.2495     0.0911     0.3525     8.0835     0.0194     2.4990
  149.5000    81.6974   -95.1685     7.4367    14.1723     6.2486     0.0893     0.3537     8.0827     0.0194     2.5004
  150.0000    83.2073   -96.6827     7.4887    13.2169     6.4692     0.0896     0.3468     8.0819     0.0193     2.5004
  150.5000    85.3403   -97.5937     7.5960    10.5760     6.8391     0.0902     0.3396     8.0812     0.0207     2.5010
  151.0000    87.4734   -98.3539     7.7635     8.5219     6.9828     0.0911     0.3376     8.0804     0.0206     2.5011
  151.5000    89.2769   -98.8123     7.9732     8.0591     7.0796     0.0914     0.3347     8.0796     0.0175     2.5010
  152.0000    89.1740   -98.9691     7.5229     7.8367     7.0786     0.0908     0.3338     8.0789     0.0084     2.4995
  152.5000    87.3828   -98.6735     7.0827     7.7273     7.1274     0.0887     0.3338     8.0821     0.0008     2.4987
  153.0000    86.5174   -98.0761     6.9362     7.7262     7.1261     0.0875     0.3347     8.0861    -0.0008     2.5032
  153.5000    86.8163   -97.3280     6.9362     7.7791     7.1752     0.0887     0.3362     8.0901     0.0036     2.5062
  154.0000    87.7962   -96.5798     7.1322     7.8871     7.3255     0.0935     0.3384     8.0913     0.0066     2.5016
  154.5000    89.0445   -95.9825     7.3850     7.9411     7.4275     0.0944     0.3399     8.0903     0.0050     2.4978
  155.0000    90.4079   -95.5360     7.5937     8.0589     7.4263     0.0926     0.3360     8.0895     0.0049     2.4963
  155.5000    91.0085   -95.2388     7.8629     8.1733     7.3737     0.0899     0.3305     8.1040     0.0079     2.4978
  156.0000    90.6984   -95.2463     8.0851     8.3922     7.3727     0.0889     0.3284     8.1032     0.0108     2.5000
  156.5000    89.7847   -95.5540     8.1986     8.3910     7.3716     0.0886     0.3299     8.1024     0.0153     2.5030
  157.0000    88.8710   -95.8616     8.0851     8.2165     7.4222     0.0877     0.3333     8.1017     0.0182     2.5046
  157.5000    86.7470   -96.0184     8.0290     7.9897     7.4747     0.0862     0.3388     8.1009     0.0076     2.5061
  158.0000    83.7152   -96.0244     8.0851     7.7692     7.5810     0.0868     0.3403     8.1003     0.0029     2.5075
  158.5000    80.9861   -96.0304     8.1986     7.7143     7.7358     0.0871     0.3426     8.0996     0.0044     2.5074
  159.0000    80.9238   -96.0364     8.2559     7.8216     7.6276     0.0862     0.3441     8.0988     0.0089     2.5081
  159.5000    83.9998   -96.1932     8.3136     7.9853     7.5209     0.0850     0.3444     8.0965     0.0103     2.5074
  160.0000    86.4143   -96.3500     8.3717     8.0403     7.4158     0.0844     0.3444     8.0821     0.0011     2.5081
  160.5000    87.9212   -96.5068     8.3717     7.8181     7.4148     0.0874     0.3435     8.0813    -0.0050     2.5096
  161.0000    87.3100   -96.6637     8.3717     7.6555     7.4658     0.0883     0.3466     8.0805    -0.0081     2.5065
  161.5000    87.3040   -96.6696     8.3136     7.6013     7.3101     0.0871     0.3493     8.0798    -0.0112     2.5042
  162.0000    88.2057   -96.3740     8.3136     7.6003     7.1083     0.0862     0.3496     8.0790    -0.0007     2.5041
  162.5000    90.0151   -96.2167     8.3136     7.5992     7.0579     0.0865     0.3493     8.0631     0.0068     2.5057
  163.0000    90.3117   -96.0843     8.3136     7.4931     7.1065     0.0874     0.3484     8.0623     0.0052     2.5071
  163.5000    90.9268   -96.5430     8.1986     7.4401     7.1053     0.0874     0.3478     8.0615     0.0036     2.5049
  164.0000    92.7442   -96.7260     7.8629     7.2348     7.0550     0.0871     0.3487     8.0760     0.0096     2.5033
  164.5000    94.8322   -96.8579     7.4887     6.9843     6.8602     0.0883     0.3532     8.0752     0.0216     2.5025
  165.0000    90.4282   -96.7131     7.1821     6.6934     6.5784     0.0913     0.3623     8.0744     0.0215     2.5017
  165.5000    86.2995   -95.9649     7.0335     6.3751     6.3082     0.0952     0.3659     8.0737     0.0199     2.4968
  166.0000    87.5322   -95.2167     6.8402     6.1046     6.0071     0.1034     0.3701     8.0883     0.0138     2.4790
  166.5000    94.2015   -93.8653     6.3356     5.8669     5.7604     0.1066     0.3798     8.1027     0.0092     2.4722
  167.0000    94.4996   -92.3630     5.5889     5.6654     5.4855     0.1115     0.3877     8.1171     0.0076     2.4688
