~VERSION INFORMATION
 VERS.                2.0:   CWLS LOG ASCII STANDARD - VERSION 2.0
 WRAP.                 NO:   ONE LINE PER DEPTH STEP
~WELL INFORMATION
#MNEM.UNIT      DATA TYPE    INFORMATION
#----------   ------------   ------------------------------
 STRT.F            0.0000:   START DEPTH
 STOP.F          890.0000:   STOP DEPTH
 STEP.F            0.1000:   STEP LENGTH
 NULL.          -999.2500:   NO VALUE
 COMP.   FLUOR DANIEL INC:   COMPANY
 WELL.   35-1 X 14 #35-14:   WELL
 FLD .             TEAPOT:   FIELD
 LOC .      S14 T38N R78W:   LOCATION
 CNTY.            NATRONA:   COUNTY
 STAT.            WYOMING:   STATE
 CTRY. UNITED STATES OF AMERICA:   COUNTRY
 SRVC.      Western Atlas:   SERVICE COMPANY
 DATE.        23-JUL-1995:   LOGDATE
 API .       490252273300:   API NUMBER
~CURVE INFORMATION
#MNEM.UNIT       API CODE    CURVE DESCRIPTION
#----------   ------------   ------------------------------
 DEPT.F                  :   
 RILM.OHMM   07 120 44 00:   RESITIVITY LONG MEDIUM
 RILD.OHMM   07 120 46 00:   INDUCTION LOG DEEP RESISTIVITY
 GRR .GAPI   07 310 01 00:   GAMMA RAY
~PARAMETER INFORMATION
#MNEM.UNIT          VALUE    DESCRIPTION
#----------   ------------   ------------------------------
 PD  .                 GL:   PERMANENT DATUM
 EPD .F              5238:   ELEVATION PERMANENT DATUM
 LMF .                 KB:   LOG MEASURED FROM
 DAPD.F                10:   FEET ABOVE PERMANENT DATUM
 DMF .                 KB:   DRILLING MEASURED FROM
 EKB .F              5248:   KELLING BUSHING
 EDF .F              5247:   DRILLING FLOOR
 EGL .F              5238:   GROUND LEVEL
 DATE.        23-JUL-1995:   RUN DATE
 RUN .                  1:   RUN NUMBER
 DD  .F               898:   DEPTH DRILLER
 DL  .F               898:   DEPTH LOGGER
 BLI .F               890:   BOTTOM LOG INTERVAL
 CS  .IN            9.625:   CASING SIZE
 CBD .F                78:   CASING BOTTOM DRILLER
 CBL .F                80:   CASING BOTTOM LOGGER
 BS  .IN             8.75:   BIT SIZE
 BSD .F               898:   BIT SIZE AT DEPTH
 DFT .                AIR:   DRILLING FLUID TYPE
 MRT .F                94:   MAXIMUM RECORDED TEMPERATURE
 LUN .            HL 6530:   LOGGING UNIT NUMBER
 LUL .             CASPER:   LOGGING UNIT LOCATION
 ENGI.       VERRN RAUTIO:   RECORDING ENGINEER
 WITN.        GARY STRONG:   WITNESSED BY
 CLNT.            A2DTECH:   CLIENT CODE
 ORIG.           5" PRINT:   ORIGIN OF DATA
 UWI .       490252273300:   UNIQUE WELL ID
 DICO. A2D Technologies, Inc.:   DIGITIZING COMPANY
~OTHER INFORMATION
~A    DEPT    RILM       RILD         GRR  
# ...
  400.4000     7.8924     7.8327   125.5057
  400.5000     7.8750     7.8332   125.6858
  400.6000     7.8575     7.8338   125.7208
  400.7000     7.8401     7.8343   125.9904
  400.8000     7.8227     7.8350   126.2380
  400.9000     7.8028     7.8354   127.3038
  401.0000     7.8032     7.8360   128.5922
  401.1000     7.8038     7.8365   129.5432
  401.2000     7.8043     7.8370   130.1269
  401.3000     7.8049     7.8376   130.8544
  401.4000     7.8014     7.8381   131.1348
  401.5000     7.7519     7.8388   131.6073
  401.6000     7.7524     7.8392   131.7414
  401.7000     7.7530     7.8398   131.8888
  401.8000     7.7535     7.8403   132.1474
  401.9000     7.7540     7.8389   132.4061
  402.0000     7.7546     7.8330   132.6647
  402.1000     7.7552     7.8270   132.9560
  402.2000     7.7535     7.8210   133.1819
  402.3000     7.7518     7.8150   133.4405
  402.4000     7.7500     7.8091   133.8344
  402.5000     7.7482     7.8031   134.3503
  402.6000     7.7465     7.7971   134.8664
  402.7000     7.7447     7.7912   135.3825
  402.8000     7.7430     7.7852   135.9857
  402.9000     7.7412     7.7792   136.2006
  403.0000     7.7395     7.7732   136.6284
  403.1000     7.7377     7.7673   137.2517
  403.2000     7.7360     7.7613   137.9896
  403.3000     7.7342     7.7553   138.7274
  403.4000     7.7325     7.7493   139.4653
  403.5000     7.7307     7.7434   139.8338
  403.6000     7.7289     7.7379   139.9444
  403.7000     7.7272     7.7384   139.9462
  403.8000     7.7254     7.7388   139.9480
  403.9000     7.7237     7.7392   139.9499
  404.0000     7.7219     7.7397   139.9517
  404.1000     7.7202     7.7401   139.9535
  404.2000     7.7184     7.7360   139.8038
  404.3000     7.7167     7.6874   139.5527
  404.4000     7.7149     7.6878   139.3547
  404.5000     7.7143     7.6882   139.3485
  404.6000     7.7017     7.6660   138.7544
  404.7000     7.6618     7.6359   138.5480
  404.8000     7.6625     7.6363   137.9794
  404.9000     7.6630     7.6367   137.3319
  405.0000     7.6635     7.6371   136.6464
  405.1000     7.6640     7.6376   135.3723
  405.2000     7.6645     7.6380   133.6293
  405.3000     7.6651     7.6384   132.3400
  405.4000     7.6656     7.6388   131.1561
  405.5000     7.6626     7.6393   130.1460
  405.6000     7.6595     7.6397   129.2713
  405.7000     7.6563     7.6401   128.7487
  405.8000     7.6531     7.6405   127.8999
  405.9000     7.6499     7.6410   127.4569
  406.0000     7.6467     7.6403   126.9527
  406.1000     7.6435     7.6329   126.5726
  406.2000     7.6404     7.6255   126.3964
  406.3000     7.6372     7.6181   126.3982
  406.4000     7.6340     7.6108   126.4002
  406.5000     7.6308     7.6034   126.8611
  406.6000     7.6276     7.5960   127.5493
  406.7000     7.6245     7.5914   128.4414
  406.8000     7.6213     7.5919   129.3728
  406.9000     7.6205     7.5923   130.1336
  407.0000     7.6210     7.5927   130.9427
  407.1000     7.6215     7.5931   131.4181
  407.2000     7.6220     7.5935   131.9259
  407.3000     7.6226     7.5775   132.2951
  407.4000     7.5847     7.5418   132.4604
  407.5000     7.5708     7.5423   132.5025
  407.6000     7.5714     7.5427   132.7662
  407.7000     7.5719     7.5431   133.0121
  407.8000     7.5724     7.5435   133.2668
  407.9000     7.5730     7.5439   133.6674
  408.0000     7.5735     7.5443   134.2718
  408.1000     7.5740     7.5448   134.9375
  408.2000     7.5745     7.5452   135.1940
  408.3000     7.5750     7.5108   135.9500
  408.4000     7.5756     7.4938   136.3062
  408.5000     7.5761     7.4942   136.8672
  408.6000     7.5351     7.4857   137.6279
  408.7000     7.5247     7.4432   138.3338
  408.8000     7.5252     7.4436   138.8472
  408.9000     7.5257     7.4440   139.7387
  409.0000     7.5186     7.4179   139.9496
  409.1000     7.4746     7.3933   140.0441
  409.2000     7.4751     7.3843   140.1571
  409.3000     7.4756     7.3429   140.4119
  409.4000     7.4762     7.3434   140.6537
  409.5000     7.4591     7.3437   140.3537
  409.6000     7.4254     7.3441   140.1386
  409.7000     7.4259     7.3445   140.0550
  409.8000     7.4265     7.3450   139.7016
  409.9000     7.3912     7.3438   138.8060
  410.0000     7.3760     7.2950   137.5431
  410.1000     7.3765     7.2953   136.1349
  410.2000     7.3771     7.2957   135.4645
  410.3000     7.3776     7.2961   135.2320
  410.4000     7.3781     7.2965   135.1081
  410.5000     7.3786     7.2970   134.9335
  410.6000     7.3791     7.2974   134.9901
  410.7000     7.3796     7.2978   135.5415
  410.8000     7.3801     7.2982   136.2368
  410.9000     7.3806     7.2986   136.8155
  411.0000     7.3812     7.2990   137.3232
  411.1000     7.3817     7.2994   137.8309
  411.2000     7.3822     7.2998   138.3388
  411.3000     7.3827     7.3002   138.8756
  411.4000     7.3832     7.3007   139.8311
  411.5000     7.4239     7.3010   140.4662
  411.6000     7.4357     7.3014   140.9740
  411.7000     7.4600     7.3222   141.3907
  411.8000     7.4887     7.3531   141.6455
  411.9000     7.4962     7.3535   141.9076
  412.0000     7.5420     7.3540   142.1551
  412.1000     7.5425     7.3924   142.2133
  412.2000     7.5772     7.4358   142.2151
  412.3000     7.5961     7.4581   142.2169
  412.4000     7.6140     7.4714   142.2187
  412.5000     7.6591     7.5152   142.2206
  412.6000     7.7041     7.5637   141.9206
  412.7000     7.7047     7.6038   141.5144
  412.8000     7.7051     7.6485   141.1649
  412.9000     7.7057     7.6934   140.7027
  413.0000     7.7062     7.7246   139.9457
  413.1000     7.7068     7.7251   139.1741
  413.2000     7.7093     7.7255   137.7018
  413.3000     7.7617     7.7672   136.8592
  413.4000     7.7621     7.7802   136.1728
  413.5000     7.7627     7.7806   135.6687
  413.6000     7.7632     7.7811   135.2282
  413.7000     7.7762     7.7815   134.9914
  413.8000     7.8184     7.7820   134.9936
  413.9000     7.8191     7.8246   134.7768
  414.0000     7.8195     7.8370   134.6949
  414.1000     7.8520     7.8620   134.5766
  414.2000     7.8752     7.8925   134.3255
  414.3000     7.8757     7.8930   134.0526
  414.4000     7.8763     7.8934   133.4939
  414.5000     7.8769     7.8939   133.0443
  414.6000     7.9201     7.9287   132.5402
  414.7000     7.9329     7.9498   132.0361
  414.8000     7.9334     7.9502   131.5319
  414.9000     7.9340     7.9506   131.0279
  415.0000     7.9345     7.9511   130.4835
  415.1000     7.9351     7.9960   130.0196
  415.2000     7.9474     8.0074   129.5155
  415.3000     7.9601     8.0078   129.2804
  415.4000     7.9728     8.0083   129.2822
  415.5000     7.9855     8.0087   129.2840
  415.6000     7.9982     8.0092   129.2859
  415.7000     8.0109     8.0096   129.7678
  415.8000     8.0236     8.0101   130.2756
  415.9000     8.0364     8.0105   130.7833
  416.0000     8.0513     8.0110   131.2910
  416.1000     8.0518     8.0114   131.7118
  416.2000     8.0523     8.0119   131.7136
  416.3000     8.0529     8.0123   132.2101
  416.4000     8.0534     8.0127   132.5197
  416.5000     8.0540     8.0132   132.6254
  416.6000     8.0546     8.0136   132.6272
  416.7000     8.0551     8.0141   132.6290
  416.8000     8.0557     8.0145   132.6308
  416.9000     8.0562     8.0151   132.6330
  417.0000     8.0568     8.0154   132.6344
  417.1000     8.0574     8.0159   132.4800
  417.2000     8.0580     8.0163   132.3360
  417.3000     8.0585     8.0167   132.2798
  417.4000     8.0590     8.0172   132.0286
  417.5000     8.0596     8.0177   131.7374
  417.6000     8.0602     8.0181   131.5263
  417.7000     8.0607     8.0185   131.1115
  417.8000     8.0613     8.0190   130.6074
  417.9000     8.0618     8.0194   130.0381
  418.0000     8.0274     8.0199   129.2970
  418.1000     8.0071     8.0204   128.7271
  418.2000     8.0077     8.0208   128.2888
  418.3000     8.0082     8.0212   127.7847
  418.4000     8.0088     8.0217   127.2806
  418.5000     8.0093     8.0221   126.8490
