~VERSION INFORMATION
 VERS.                2.0:   CWLS LOG ASCII STANDARD - VERSION 2.0
 WRAP.                 NO:   ONE LINE PER DEPTH STEP
~WELL INFORMATION
#MNEM.UNIT      DATA TYPE    INFORMATION
#----------   ------------   ------------------------------
 STRT.F           60.0000:   START DEPTH
 STOP.F         3052.0000:   STOP DEPTH
 STEP.F            0.5000:   STEP LENGTH
 NULL.          -999.2500:   NO VALUE
 COMP.   FLUOR DANIEL INC:   COMPANY
 WELL. NAVAL PETROLEUM RESERVE 3 X-14 #57-14:   WELL
 FLD .            WILDCAT:   FIELD
 LOC .      S14 T38N R78W:   LOCATION
 CNTY.            NATRONA:   COUNTY
 STAT.            WYOMING:   STATE
 CTRY. UNITED STATES OF AMERICA:   COUNTRY
 SRVC.            Unknown:   SERVICE COMPANY
 DATE.        16-MAY-1995:   LOGDATE
 API .       490252272000:   API NUMBER
~CURVE INFORMATION
#MNEM.UNIT       API CODE    CURVE DESCRIPTION
#----------   ------------   ------------------------------
 DEPT.F                  :   
 ROP .FT/HR  91 810 01 00:   RAT OF DRILLING PENETRATION
 TGAS.TC/CC  91 830 01 00:   TOTAL GAS UNIT
~PARAMETER INFORMATION
#MNEM.UNIT          VALUE    DESCRIPTION
#----------   ------------   ------------------------------
 EKB .F              5312:   KELLING BUSHING
 EGL .F              5302:   GROUND LEVEL
 DATE.        16-MAY-1995:   RUN DATE
 RUN .                  1:   RUN NUMBER
 BLI .F              3062:   BOTTOM LOG INTERVAL
 TLI .F                60:   TOP LOG INTERVAL
 ENGI.     C.TOWER/R.HUSK:   RECORDING ENGINEER
 CLNT.            A2DTECH:   CLIENT CODE
 ORIG.           5" PRINT:   ORIGIN OF DATA
 UWI .       490252272000:   UNIQUE WELL ID
 DICO. A2D Technologies, Inc.:   DIGITIZING COMPANY
~OTHER INFORMATION
~A   DEPT        ROP       TGAS 
# ...
  789.0000     0.6948     1.0717
  789.5000     0.6857     1.0616
  790.0000     0.6860     1.0515
  790.5000     0.6863     1.0414
  791.0000     0.6959     1.0313
  791.5000     0.6962     1.0212
  792.0000     0.6964     1.0111
  792.5000     0.7529     1.0010
  793.0000     0.7531     0.9909
  793.5000     0.7534     0.9808
  794.0000     0.7537     0.9707
  794.5000     0.7539     0.9606
  795.0000     0.7542     0.9505
  795.5000     0.7545     0.9404
  796.0000     0.7548     0.9303
  796.5000     0.7551     0.9202
  797.0000     0.7554     0.9101
  797.5000     0.7556     0.9000
  798.0000     0.7559     0.8899
  798.5000     0.7562     0.8798
  799.0000     0.7565     0.8697
  799.5000     0.7567     0.8596
  800.0000     0.7383     0.8495
  800.5000     0.7385     0.8394
  801.0000     0.7387     0.8293
  801.5000     0.7389     0.8192
  802.0000     0.7391     0.8091
  802.5000     0.7486     0.7990
  803.0000     0.7488     0.7889
  803.5000     0.7490     0.7788
  804.0000     0.7492     0.7687
  804.5000     0.7494     0.7595
  805.0000     0.7495     0.7718
  805.5000     0.7497     0.7831
  806.0000     0.7499     0.7944
  806.5000     0.7501     0.8058
  807.0000     0.7503     0.8171
  807.5000     0.7505     0.8284
  808.0000     0.7507     0.8397
  808.5000     0.7509     0.8511
  809.0000     0.7510     0.8624
  809.5000     0.7512     0.8737
  810.0000     0.7514     0.8850
  810.5000     0.7516     0.8964
  811.0000     0.7518     0.9077
  811.5000     0.7520     0.9190
  812.0000     0.7521     0.9303
  812.5000     0.7524     0.9417
  813.0000     0.7526     0.9530
  813.5000     0.7527     0.9643
  814.0000     0.7529     0.9757
  814.5000     0.7531     0.9870
  815.0000     0.7533     0.9983
  815.5000     0.7535     1.0096
  816.0000     0.7536     1.0210
  816.5000     0.7538     1.0323
  817.0000     0.7541     1.0436
  817.5000     0.7542     1.0549
  818.0000     0.7544     1.0663
  818.5000     0.7546     1.0776
  819.0000     0.7548     1.0889
  819.5000     0.7550     1.1002
  820.0000     0.7551     1.1116
  820.5000     0.7553     1.1229
  821.0000     0.7555     1.1342
  821.5000     0.7557     1.1455
  822.0000     0.7559     1.1569
  822.5000     0.7561     1.1682
  823.0000     0.7563     1.1795
  823.5000     0.7565     1.1908
  824.0000     0.7567     1.2022
  824.5000     0.7568     1.2135
  825.0000     0.7570     1.2248
  825.5000     0.7572     1.2361
  826.0000     0.7574     1.2475
  826.5000     0.7576     1.2588
  827.0000     0.7578     1.2701
  827.5000     0.7580     1.2827
  828.0000     0.7581     1.2911
  828.5000     0.7583     1.3012
  829.0000     0.7585     1.3101
  829.5000     0.7587     1.3196
  830.0000     0.7589     1.3291
  830.5000     0.7591     1.3386
  831.0000     0.7593     1.3481
  831.5000     0.7594     1.3576
  832.0000     0.7597     1.3671
  832.5000     0.7598     1.3766
  833.0000     0.7600     1.3861
  833.5000     0.7602     1.3956
  834.0000     0.7604     1.3630
  834.5000     0.7606     1.2825
  835.0000     0.7608     1.1850
  835.5000     0.7609     1.0540
  836.0000     0.7611     1.0616
  836.5000     0.7613     1.0657
  837.0000     0.7615     1.0699
  837.5000     0.7617     1.0741
  838.0000     0.7619     1.0783
  838.5000     0.7621     1.0825
  839.0000     0.7623     1.0867
  839.5000     0.7624     1.0909
  840.0000     0.7626     1.0951
  840.5000     0.7628     1.0993
  841.0000     0.7630     1.1034
  841.5000     0.7632     1.1076
  842.0000     0.7634     1.1118
  842.5000     0.7636     1.1160
  843.0000     0.7638     1.1202
  843.5000     0.7639     1.1244
  844.0000     0.7641     1.1286
  844.5000     0.7643     1.1328
  845.0000     0.7645     1.1370
  845.5000     0.7647     1.1411
  846.0000     0.7649     1.1453
  846.5000     0.7557     1.1495
  847.0000     0.7559     1.1537
  847.5000     0.7561     1.1579
  848.0000     0.7563     1.1621
  848.5000     0.6256     1.1663
  849.0000     0.6258     1.1705
  849.5000     0.6353     1.1747
  850.0000     0.6542     1.1789
  850.5000     0.6541     1.1830
  851.0000     0.6634     1.1872
  851.5000     0.6633     1.1914
  852.0000     0.6632     1.1956
  852.5000     0.6631     1.1998
  853.0000     0.6723     1.2040
  853.5000     0.6722     1.2082
  854.0000     0.6721     1.2076
  854.5000     0.6720     1.2029
  855.0000     0.6720     1.1982
  855.5000     0.6719     1.1935
  856.0000     0.6718     1.1888
  856.5000     0.6717     1.1841
  857.0000     0.6716     1.1794
  857.5000     0.6715     1.1747
  858.0000     0.6714     1.1700
  858.5000     0.6713     1.1653
  859.0000     0.6712     1.1605
  859.5000     0.6711     1.1558
  860.0000     0.6710     1.1511
  860.5000     0.6522     1.1464
  861.0000     0.6615     1.1417
  861.5000     0.6614     1.1370
  862.0000     0.6613     1.1323
  862.5000     0.6612     1.1276
  863.0000     0.6611     1.1229
  863.5000     0.6704     1.1182
  864.0000     0.6703     1.1135
  864.5000     0.6702     1.1087
  865.0000     0.6701     1.1040
  865.5000     0.6700     1.0993
  866.0000     0.6699     1.0946
  866.5000     0.6698     1.0899
  867.0000     0.6697     1.0852
  867.5000     0.6696     1.0805
  868.0000     0.6695     1.0758
  868.5000     0.6694     1.0711
  869.0000     0.6693     1.0664
  869.5000     0.6692     1.0617
  870.0000     0.6691     1.0570
  870.5000     0.6691     1.0522
  871.0000     0.6690     1.0475
  871.5000     0.6689     1.0428
  872.0000     0.6688     1.0381
  872.5000     0.6687     1.0348
  873.0000     0.6686     1.0367
  873.5000     0.6685     1.0386
  874.0000     0.6684     1.0407
  874.5000     0.6683     1.0393
  875.0000     0.6402     1.0377
  875.5000     0.6588     1.0360
  876.0000     0.6680     1.0344
  876.5000     0.6679     1.0327
  877.0000     0.6678     1.0311
  877.5000     0.6678     1.0294
  878.0000     0.6677     1.0278
  878.5000     0.6676     1.0261
  879.0000     0.6675     1.0245
  879.5000     0.6674     1.0228
  880.0000     0.6673     1.0212
  880.5000     0.6765     1.0195
  881.0000     0.6764     1.0179
  881.5000     0.6763     1.0162
  882.0000     0.6763     1.0146
  882.5000     0.6762     1.0129
  883.0000     0.6761     1.0113
  883.5000     0.6760     1.0096
  884.0000     0.6759     1.0080
  884.5000     0.6758     1.0063
  885.0000     0.6757     1.0047
  885.5000     0.6756     1.0030
  886.0000     0.6755     1.0014
  886.5000     0.6754     0.9997
  887.0000     0.6753     0.9981
  887.5000     0.6752     0.9964
  888.0000     0.6378     0.9948
  888.5000     0.6376     0.9931
  889.0000     0.6376     0.9915
  889.5000     0.6375     0.9898
  890.0000     0.6467     0.9882
  890.5000     0.6653     0.9865
  891.0000     0.6652     0.9849
  891.5000     0.6651     0.9832
  892.0000     0.6650     0.9816
  892.5000     0.6743     0.9799
  893.0000     0.6368     0.9782
  893.5000     0.6367     0.9766
  894.0000     0.6647     0.9749
  894.5000     0.6646     0.9733
  895.0000     0.6645     0.9716
  895.5000     0.6644     0.9700
  896.0000     0.6643     0.9683
  896.5000     0.6362     0.9667
  897.0000     0.6454     0.9650
  897.5000     0.6453     0.9634
  898.0000     0.6452     0.9617
  898.5000     0.6451     0.9601
  899.0000     0.6450     0.9584
  899.5000     0.6543     0.9568
  900.0000     0.6355     0.9551
  900.5000     0.6355     0.9535
  901.0000     0.6355     0.9560
  901.5000     0.6355     0.9657
  902.0000     0.6355     0.9754
  902.5000     0.6355     0.9850
  903.0000     0.6355     0.9947
  903.5000     0.6355     1.0044
  904.0000     0.6355     1.0140
  904.5000     0.6355     1.0237
  905.0000     0.6355     1.0334
  905.5000     0.6355     1.0430
  906.0000     0.6355     1.0527
  906.5000     0.6355     1.0624
  907.0000     0.6355     1.0720
  907.5000     0.6355     1.0817
  908.0000     0.6355     1.0914
  908.5000     0.6355     1.1010
  909.0000     0.6355     1.1107
  909.5000     0.6355     1.1204
  910.0000     0.7757     1.1300
