~VERSION INFORMATION
 VERS.                2.0:   CWLS LOG ASCII STANDARD - VERSION 2.0
 WRAP.                 NO:   ONE LINE PER DEPTH STEP
~WELL INFORMATION
#MNEM.UNIT      DATA TYPE    INFORMATION
#----------   ------------   ------------------------------
 STRT.F         1420.5000:   START DEPTH
 STOP.F         2350.5000:   STOP DEPTH
 STEP.F            0.5000:   STEP LENGTH
 NULL.          -999.2500:   NO VALUE
 COMP. BROWN JOHN E&C INC:   COMPANY
 WELL.   15 STX-14 #15-14:   WELL
 FLD .             TEAPOT:   FIELD
 LOC .      S14 T38N R78W:   LOCATION
 CNTY.            NATRONA:   COUNTY
 STAT.            WYOMING:   STATE
 CTRY. UNITED STATES OF AMERICA:   COUNTRY
 SRVC.            Unknown:   SERVICE COMPANY
 DATE.        02-JUN-1991:   LOGDATE
 API .       490251096000:   API NUMBER
~CURVE INFORMATION
#MNEM.UNIT       API CODE    CURVE DESCRIPTION
#----------   ------------   ------------------------------
 DEPT.F                  :   
 ROP .MIN/FT 91 810 01 00:   RATE OF DRILLING PENETRATION
 TGAS.UNITS  91 830 01 00:   TOTAL GAS
~PARAMETER INFORMATION
#MNEM.UNIT          VALUE    DESCRIPTION
#----------   ------------   ------------------------------
 EKB .F              5241:   KELLING BUSHING
 EGL .F              5231:   GROUND LEVEL
 DATE.             6-2-91:   RUN DATE
 DD  .F              2350:   DEPTH DRILLER
 BLI .F              2347:   BOTTOM LOG INTERVAL
 TLI .F              1420:   TOP LOG INTERVAL
 ENGI.              TOWER:   RECORDING ENGINEER
 CLNT.            A2DTECH:   CLIENT CODE
 ORIG.         2.5" PRINT:   ORIGIN OF DATA
 UWI .       490251096000:   UNIQUE WELL ID
 DICO. A2D Technologies, Inc.:   DIGITIZING COMPANY
~OTHER INFORMATION
~A  DEPT       ROP        TGAS  
# ...
 2028.0000     0.7144  1989.8046
 2028.5000     0.7143  1991.4734
 2029.0000     0.7142  2009.7490
 2029.5000     0.7141  2010.3137
 2030.0000     0.7140  2016.8402
 2030.5000     0.7139  2030.2720
 2031.0000     0.7138  2040.0315
 2031.5000     0.7137  2050.2300
 2032.0000     0.6758  2063.2224
 2032.5000     0.5797  2070.1882
 2033.0000     0.5430  2089.6692
 2033.5000     0.5429  2090.1895
 2034.0000     0.5617  2109.5396
 2034.5000     0.5806  2111.7817
 2035.0000     0.6184  2132.7925
 2035.5000     0.6394  2153.8030
 2036.0000     0.6940  2174.8118
 2036.5000     0.6938  2195.8191
 2037.0000     0.6937  2216.8298
 2037.5000     0.6747  2237.8403
 2038.0000     0.6557  2245.8577
 2038.5000     0.6366  2261.0281
 2039.0000     0.6366  2265.8879
 2039.5000     0.6554  2285.2363
 2040.0000     0.6553  2304.6025
 2040.5000     0.6552  2305.1675
 2041.0000     0.6551  2305.7324
 2041.5000     0.6550  2306.2971
 2042.0000     0.6549  2306.8618
 2042.5000     0.6548  2316.1372
 2043.0000     0.6737  2316.4951
 2043.5000     0.6736  2308.5564
 2044.0000     0.6768  2309.1213
 2044.5000     0.6990  2309.7871
 2045.0000     0.7112  2310.3074
 2045.5000     0.7300  2310.8276
 2046.0000     0.7678  2311.3809
 2046.5000     0.7867  2311.9456
 2047.0000     0.8055  2312.5105
 2047.5000     0.8325  2313.0754
 2048.0000     0.8432  2313.6404
 2048.5000     0.8431  2314.2053
 2049.0000     0.8430  2314.7700
 2049.5000     0.8429  2315.3347
 2050.0000     0.8301  2315.8999
 2050.5000     0.7762  2316.5500
 2051.0000     0.6911  2317.0703
 2051.5000     0.6342  2317.5945
 2052.0000     0.6131  2318.1592
 2052.5000     0.5772  2318.7241
 2053.0000     0.5581  2319.2888
 2053.5000     0.5580  2319.8538
 2054.0000     0.5579  2320.4187
 2054.5000     0.5579  2320.9834
 2055.0000     0.5603  2321.5483
 2055.5000     0.5766  2322.1130
 2056.0000     0.6144  2322.6780
 2056.5000     0.6332  2323.3127
 2057.0000     0.6900  2323.8328
 2057.5000     0.7094  2324.3726
 2058.0000     0.7277  2324.9373
 2058.5000     0.7276  2321.5667
 2059.0000     0.7085  2307.2385
 2059.5000     0.6327  2307.8032
 2060.0000     0.6136  2308.3682
 2060.5000     0.5757  2298.5305
 2061.0000     0.6001  2290.6694
 2061.5000     0.6412  2291.2344
 2062.0000     0.6890  2291.8979
 2062.5000     0.7079  2273.5898
 2063.0000     0.7459  2274.1101
 2063.5000     0.7682  2274.6655
 2064.0000     0.7904  2272.3367
 2064.5000     0.8316  2256.9666
 2065.0000     0.8589  2251.4116
 2065.5000     0.8777  2231.5310
 2066.0000     0.8966  2221.0044
 2066.5000     0.9154  2210.6033
 2067.0000     0.9153  2203.3054
 2067.5000     0.9152  2189.6667
 2068.0000     0.9151  2185.6067
 2068.5000     0.8961  2167.3818
 2069.0000     0.8738  2149.0735
 2069.5000     0.8257  2147.8074
 2070.0000     0.7822  2131.2854
 2070.5000     0.7063  2126.8770
 2071.0000     0.6684  2106.9995
 2071.5000     0.6493  2087.1167
 2072.0000     0.6552  2077.1548
 2072.5000     0.6655  2077.7197
 2073.0000     0.6758  2065.1365
 2073.5000     0.6861  2060.0208
 2074.0000     0.6964  2041.8250
 2074.5000     0.7067  2042.3452
 2075.0000     0.7170  2042.8871
 2075.5000     0.7273  2043.4519
 2076.0000     0.7376  2044.0166
 2076.5000     0.7479  2044.5815
 2077.0000     0.7582  2045.1464
 2077.5000     0.7685  2045.7113
 2078.0000     0.7788  2046.2761
 2078.5000     0.7891  2046.8409
 2079.0000     0.7994  2047.4059
 2079.5000     0.8097  2048.0674
 2080.0000     0.8200  2029.7593
 2080.5000     0.8303  2030.2793
 2081.0000     0.8406  2030.8368
 2081.5000     0.8509  2028.4366
 2082.0000     0.8612  2013.1379
 2082.5000     0.8715  2013.7029
 2083.0000     0.8641  2014.2677
 2083.5000     0.7796  2005.4033
 2084.0000     0.7038  1985.5176
 2084.5000     0.6642  1952.9813
 2085.0000     0.6468  1912.6613
 2085.5000     0.6467  1866.5454
 2086.0000     0.6655  1829.4087
 2086.5000     0.6844  1772.8531
 2087.0000     0.6843  1732.5441
 2087.5000     0.6842  1688.6655
 2088.0000     0.7030  1622.7528
 2088.5000     0.7219  1534.8048
 2089.0000     0.7596  1424.7384
 2089.5000     0.7785  1292.6295
 2090.0000     0.8365  1173.3280
 2090.5000     0.8824  1058.4364
 2091.0000     0.9189   893.7083
 2091.5000     0.9864   762.4294
 2092.0000     1.0053   687.6359
 2092.5000     1.0241   629.9765
 2093.0000     1.0241   594.5339
 2093.5000     1.0240   591.0742
 2094.0000     1.0239   565.4830
 2094.5000     1.0238   532.4841
 2095.0000     1.0237   521.5482
 2095.5000     1.0615   522.1129
 2096.0000     1.0803   510.5081
 2096.5000     1.0879   504.4142
 2097.0000     1.1180   505.0736
 2097.5000     1.1368   505.5938
 2098.0000     1.1367   506.1141
 2098.5000     1.1556   509.5288
 2099.0000     1.1555   563.1648
 2099.5000     1.1554   719.0073
 2100.0000     1.1553   997.6694
 2100.5000     1.0418  1304.4684
 2101.0000     1.0419  1719.0505
 2101.5000     1.0420  2446.2405
 2102.0000     1.0231  2842.5825
 2102.5000     0.9825  2954.6484
 2103.0000     0.9142  3087.1145
 2103.5000     0.8340  3354.1501
 2104.0000     0.7583  3486.2852
 2104.5000     0.7003  3505.4492
 2105.0000     0.6771  3416.7061
 2105.5000     0.6450  3260.8870
 2106.0000     0.6261  3125.8967
 2106.5000     0.6262  3000.3516
 2107.0000     0.6453  2921.6196
 2107.5000     0.6643  2867.6321
 2108.0000     0.6833  2830.3108
 2108.5000     0.7403  2752.7776
 2109.0000     0.7835  2714.4973
 2109.5000     0.8351  2687.8828
 2110.0000     0.8542  2646.0190
 2110.5000     0.8732  2614.6174
 2111.0000     0.8922  2593.8762
 2111.5000     0.8923  2588.1589
 2112.0000     0.8924  2569.7339
 2112.5000     0.8736  2570.0835
 2113.0000     0.8547  2567.3857
 2113.5000     0.8548  2552.0085
 2114.0000     0.8360  2552.3850
 2114.5000     0.8172  2552.7615
 2115.0000     0.7794  2553.1382
 2115.5000     0.7605  2553.5146
 2116.0000     0.7606  2535.0984
 2116.5000     0.7607  2535.4343
 2117.0000     0.7608  2516.9414
 2117.5000     0.7609  2517.3640
 2118.0000     0.7610  2517.7405
 2118.5000     0.7611  2518.1169
 2119.0000     0.7612  2518.4937
 2119.5000     0.7613  2518.8701
 2120.0000     0.7614  2519.2915
 2120.5000     0.7615  2538.4556
 2121.0000     0.7616  2538.8284
 2121.5000     0.7617  2539.2051
 2122.0000     0.7617  2539.5815
 2122.5000     0.7618  2539.9580
 2123.0000     0.7619  2540.3345
 2123.5000     0.7620  2540.7112
 2124.0000     0.7811  2541.1414
 2124.5000     0.8052  2541.4773
 2125.0000     0.8286  2560.6697
 2125.5000     0.8382  2557.1794
 2126.0000     0.8761  2524.1367
 2126.5000     0.8952  2478.0505
 2127.0000     0.9142  2435.8445
 2127.5000     0.9143  2385.8782
 2128.0000     0.8765  2337.0503
 2128.5000     0.8366  2318.5574
 2129.0000     0.7627  2280.1831
 2129.5000     0.6306  2259.4419
 2130.0000     0.6117  2238.7009
 2130.5000     0.6118  2217.9597
 2131.0000     0.6358  2197.2188
 2131.5000     0.6781  2176.4780
 2132.0000     0.7447  2151.7871
 2132.5000     0.7827  2114.4661
 2133.0000     0.8396  2095.9731
 2133.5000     0.8664  2093.5037
 2134.0000     0.8966  2077.9080
 2134.5000     0.9156  2070.8438
 2135.0000     0.9138  2059.8325
 2135.5000     0.8906  2048.1965
 2136.0000     0.8591  2041.7573
 2136.5000     0.8213  2042.1737
 2137.0000     0.7070  2023.6809
 2137.5000     0.6653  2024.0586
 2138.0000     0.6420  2024.4352
 2138.5000     0.6323  2024.8118
 2139.0000     0.6324  2025.1882
 2139.5000     0.6514  2025.5648
 2140.0000     0.6780  2025.9414
 2140.5000     0.7084  2026.3667
 2141.0000     0.7275  2026.7023
 2141.5000     0.7654  2027.0712
 2142.0000     0.7845  2031.5930
 2142.5000     0.8139  2046.6527
 2143.0000     0.8225  2047.0293
 2143.5000     0.8228  2047.4059
 2144.0000     0.8417  2047.7825
 2144.5000     0.8228  2048.2166
 2145.0000     0.7661  2048.5525
 2145.5000     0.7473  2048.9124
 2146.0000     0.6845  2049.2888
 2146.5000     0.5927  2049.6653
 2147.0000     0.5392  2050.0417
 2147.5000     0.5393  2060.9255
 2148.0000     0.5394  2069.6233
 2148.5000     0.5395  2070.0667
 2149.0000     0.5396  2070.4023
