~VERSION INFORMATION
 VERS.                2.0:   CWLS LOG ASCII STANDARD - VERSION 2.0
 WRAP.                 NO:   ONE LINE PER DEPTH STEP
~WELL INFORMATION
#MNEM.UNIT      DATA TYPE    INFORMATION
#----------   ------------   ------------------------------
 STRT.F           10.0000:   START DEPTH
 STOP.F          756.0000:   STOP DEPTH
 STEP.F            0.1000:   STEP LENGTH
 NULL.          -999.2500:   NO VALUE
 COMP. BROWN JOHN E&C INC:   COMPANY
 WELL. N P R 3 SHX- #31-1-X-14:   WELL
 FLD .             TEAPOT:   FIELD
 LOC .      S14 T38N R78W:   LOCATION
 CNTY.            NATRONA:   COUNTY
 STAT.            WYOMING:   STATE
 CTRY. UNITED STATES OF AMERICA:   COUNTRY
 SRVC.     Atlas Wireline:   SERVICE COMPANY
 DATE.        07-JAN-1992:   LOGDATE
 API .       490252249700:   API NUMBER
~CURVE INFORMATION
#MNEM.UNIT       API CODE    CURVE DESCRIPTION
#----------   ------------   ------------------------------
 DEPT.F                  :   
 GRR .GAPI   07 310 01 00:   GAMMA RAY
 RFOC.OHMM   07 220 04 00:   RESISTIVITY FOCUSED LOG RES.
 RILD.OHMM   07 120 46 00:   INDUCTION LOG DEEP RESISTIVITY
 RILM.OHMM   07 120 44 00:   INDUCTION LOG MEDIUM  RESISTIVITY
~PARAMETER INFORMATION
#MNEM.UNIT          VALUE    DESCRIPTION
#----------   ------------   ------------------------------
 PD  .                 GL:   PERMANENT DATUM
 EPD .F              5210:   ELEVATION PERMANENT DATUM
 LMF .                 KB:   LOG MEASURED FROM
 DAPD.F                10:   FEET ABOVE PERMANENT DATUM
 DMF .                 KB:   DRILLING MEASURED FROM
 EKB .F              5220:   KELLING BUSHING
 EDF .F              5219:   DRILLING FLOOR
 EGL .F              5210:   GROUND LEVEL
 DATE.        07-JAN-1992:   RUN DATE
 RUN .                  1:   RUN NUMBER
 DD  .F               762:   DEPTH DRILLER
 DL  .F               760:   DEPTH LOGGER
 BLI .F               758:   BOTTOM LOG INTERVAL
 CS  .IN            9.625:   CASING SIZE
 CBD .F                48:   CASING BOTTOM DRILLER
 CBL .F                50:   CASING BOTTOM LOGGER
 BS  .IN             8.75:   BIT SIZE
 BSD .F               762:   BIT SIZE AT DEPTH
 DFT .    FORMATION FLUID:   DRILLING FLUID TYPE
 MRT .F                90:   MAXIMUM RECORDED TEMPERATURE
 LUN .            HL-6274:   LOGGING UNIT NUMBER
 LUL .             CASPER:   LOGGING UNIT LOCATION
 ENGI.             RAUTIC:   RECORDING ENGINEER
 WITN.        GARY STRONG:   WITNESSED BY
 CLNT.            A2DTECH:   CLIENT CODE
 ORIG.           5" PRINT:   ORIGIN OF DATA
 UWI .       490252249700:   UNIQUE WELL ID
 DICO. A2D Technologies, Inc.:   DIGITIZING COMPANY
~OTHER INFORMATION
~A   DEPT       GRR      RFOC       RILD       RILM   
# ...
  652.4000    88.1884    14.7677    12.7821    13.8405
  652.5000    88.1873    14.7677    12.7825    13.8405
  652.6000    88.3561    14.7677    12.7828    13.8405
  652.7000    88.4870    14.7238    12.7832    13.8405
  652.8000    88.5526    14.6651    12.7835    13.8405
  652.9000    88.7868    14.6651    12.7839    13.8405
  653.0000    88.7853    14.6651    12.7843    13.8405
  653.1000    88.9986    14.6651    12.7846    13.8245
  653.2000    89.2479    14.6058    12.7850    13.7447
  653.3000    89.4973    14.5215    12.7853    13.7447
  653.4000    89.7467    14.4620    12.7857    13.7447
  653.5000    89.9960    14.4620    12.7860    13.7447
  653.6000    90.2886    14.4620    12.7864    13.7447
  653.7000    90.7016    14.3882    12.7867    13.7447
  653.8000    91.3570    14.3615    12.7871    13.7447
  653.9000    92.3153    14.3615    12.7874    13.7447
  654.0000    93.5144    14.3615    12.7878    13.7447
  654.1000    94.5124    14.3615    12.7957    13.7447
  654.2000    94.5112    14.3615    12.8778    13.7447
  654.3000    94.3101    14.3615    12.8781    13.7606
  654.4000    93.9102    14.3615    12.8784    13.8405
  654.5000    93.5045    14.3615    12.8788    13.8405
  654.6000    93.2076    14.3615    12.8576    13.8405
  654.7000    92.6924    14.3615    12.7903    13.8405
  654.8000    92.2031    14.3615    12.7907    13.8405
  654.9000    91.8934    14.3615    12.7910    13.8405
  655.0000    91.6415    14.3615    12.6148    13.8405
  655.1000    91.3896    14.3615    12.6151    13.8405
  655.2000    91.1379    14.3615    12.6155    13.8405
  655.3000    90.8724    14.3615    12.6212    13.8405
  655.4000    90.8713    14.3615    12.7042    13.8405
  655.5000    90.8701    14.4305    12.7045    13.8405
  655.6000    90.8689    14.4620    12.7049    13.8405
  655.7000    91.1140    14.4620    12.7052    13.8405
  655.8000    91.8647    14.4620    12.7056    13.8405
  655.9000    92.6778    14.4629    12.7059    13.8405
  656.0000    93.3657    14.5632    12.7063    13.8405
  656.1000    93.9381    14.5632    12.7066    13.7929
  656.2000    94.4380    14.5632    12.7070    13.5550
  656.3000    94.9378    14.5632    12.7073    13.6495
  656.4000    95.4376    14.5632    12.7077    13.7130
  656.5000    95.9938    14.5632    12.7081    13.7926
  656.6000    96.4374    14.5632    12.7085    13.8726
  656.7000    96.9373    14.5632    12.7088    13.9531
  656.8000    97.3180    14.5632    12.7091    14.0341
  656.9000    97.5674    14.5632    12.7095    14.0341
  657.0000    97.8168    14.5483    12.7098    14.0341
  657.1000    98.1013    14.4620    12.7102    14.0341
  657.2000    98.1003    14.4620    12.7106    14.0017
  657.3000    97.9355    14.4620    12.6504    13.9049
  657.4000    97.6838    14.4148    12.6232    13.7447
  657.5000    97.3717    14.3316    12.5929    13.5085
  657.6000    96.8695    14.2617    12.5364    13.2762
  657.7000    96.2814    14.2617    12.5368    13.0927
  657.8000    95.8645    14.1832    12.5372    12.9420
  657.9000    95.5186    14.1013    12.5375    12.8076
  658.0000    95.2669    14.0642    12.5378    12.7336
  658.1000    95.0151    14.0642    12.5382    12.6602
  658.2000    94.7633    14.0530    12.5385    12.6455
  658.3000    94.4614    13.9665    12.5389    12.6455
  658.4000    94.0594    13.9665    12.5392    12.6455
  658.5000    93.5570    13.9665    12.5976    12.6455
  658.6000    92.8595    13.9240    12.6274    12.6455
  658.7000    91.9019    13.8955    12.6277    12.6455
  658.8000    91.1323    13.9665    12.6420    12.6455
  658.9000    90.3965    13.9665    12.7165    12.6455
  659.0000    89.8369    13.9665    12.7169    12.6455
  659.1000    89.4763    13.9665    12.7172    12.6455
  659.2000    89.2246    13.9665    12.7604    12.6455
  659.3000    89.0115    13.9665    12.8067    12.6455
  659.4000    89.0102    13.9665    12.8070    12.6455
  659.5000    89.0091    13.9665    12.8074    12.6455
  659.6000    89.3801    13.9665    12.8077    12.6749
  659.7000    89.7455    13.9665    12.8081    12.7336
  659.8000    89.9948    13.9665    12.8084    12.7336
  659.9000    90.2756    13.9665    12.8088    12.7336
  660.0000    90.8156    13.9665    12.8092    12.7336
  660.1000    91.0449    13.9665    12.8095    12.7336
  660.2000    91.2943    13.9665    12.7392    12.7336
  660.3000    91.5436    13.9665    12.7215    12.7336
  660.4000    91.7172    13.9665    12.6814    12.7336
  660.5000    91.7160    13.9665    12.6341    12.7336
  660.6000    91.7147    13.9665    12.6344    12.7928
  660.7000    91.9368    13.9665    12.6348    12.8224
  660.8000    91.8429    13.9665    12.7042    12.8224
  660.9000    91.7112    13.9138    12.7782    12.8373
  661.0000    91.6415    13.8695    12.8526    12.9117
  661.1000    91.3898    13.8893    12.9025    12.9117
  661.2000    91.1032    13.9665    12.9126    12.9117
  661.3000    90.8861    13.9665    12.9932    12.9117
  661.4000    90.6343    13.9665    12.9935    12.9117
  661.5000    90.3826    14.0180    12.9939    12.9117
  661.6000    90.1309    14.0642    12.9943    12.9117
  661.7000    89.8888    14.0827    13.0187    12.9117
  661.8000    89.8874    14.1626    13.0856    12.9117
  661.9000    89.8864    14.1626    13.0860    12.9117
  662.0000    89.7282    14.1626    13.0864    12.8820
  662.1000    89.5819    14.1626    13.0867    12.8224
  662.2000    89.5807    14.1626    13.0871    12.8224
  662.3000    89.5795    14.1626    13.0874    12.8224
  662.4000    89.5780    14.1626    13.0878    12.8224
  662.5000    89.3756    14.1626    13.0882    12.8224
  662.6000    89.2737    14.2284    13.0885    12.8224
  662.7000    89.1742    14.2617    13.0889    12.8224
  662.8000    88.9692    14.2942    13.0893    12.8224
  662.9000    88.9680    14.3772    13.1117    12.8224
  663.0000    88.9668    14.4620    13.1813    12.8224
  663.1000    89.1597    14.6279    13.1817    12.8224
  663.2000    89.2665    14.7315    13.1820    12.8224
  663.3000    89.2653    14.8669    13.1824    12.8224
  663.4000    89.2640    15.0075    13.1828    12.8224
  663.5000    89.2628    15.1094    13.1831    12.8224
  663.6000    89.5001    15.2916    13.1835    12.8819
  663.7000    89.7494    15.3773    13.1839    12.9117
  663.8000    89.9988    15.4666    13.1842    12.9117
  663.9000    90.2481    15.4564    13.1846    12.9117
  664.0000    90.4974    15.3360    13.1850    12.9117
  664.1000    90.7661    15.1464    13.1654    12.9117
  664.2000    90.9962    14.8710    13.0943    12.8522
  664.3000    91.2455    14.6293    13.0948    12.8224
  664.4000    91.3668    14.3165    13.0951    12.8224
  664.5000    91.3656    13.9460    13.0955    12.8224
  664.6000    91.3893    13.4969    13.0618    12.8224
  664.7000    91.6651    12.9683    13.0055    12.9117
  664.8000    91.6640    12.4922    13.0058    12.9117
  664.9000    91.6628    12.2279    13.0062    12.9117
  665.0000    91.6616    11.9978    12.9435    12.9117
  665.1000    91.6604    11.7911    12.9168    12.9117
  665.2000    91.6592    11.6087    12.9172    12.9117
  665.3000    91.6578    11.4822    12.9175    12.9117
  665.4000    91.6568    11.4097    12.9156    12.9117
  665.5000    91.6556    11.3500    12.8288    12.8671
  665.6000    91.5408    11.3305    12.7680    12.8224
  665.7000    91.3511    11.3305    12.6948    12.8076
  665.8000    91.3394    11.3305    12.6220    12.7336
  665.9000    91.0463    11.3305    12.5338    12.6602
  666.0000    91.0453    11.3305    12.3900    12.5871
  666.1000    91.0441    11.3305    12.2216    12.5145
  666.2000    91.1493    11.3305    12.1646    12.4422
  666.3000    91.3438    11.3621    12.0525    12.3704
  666.4000    91.3457    11.4280    11.9422    12.2989
  666.5000    91.6433    11.4896    11.8737    12.2138
  666.6000    91.8445    11.4896    11.8055    12.1575
  666.7000    91.9432    11.5475    11.7379    12.0456
  666.8000    91.9420    11.5699    11.6706    11.9344
  666.9000    91.9408    11.5699    11.6437    11.8655
