~VERSION INFORMATION
 VERS.                2.0:   CWLS LOG ASCII STANDARD - VERSION 2.0
 WRAP.                 NO:   ONE LINE PER DEPTH STEP
~WELL INFORMATION
#MNEM.UNIT      DATA TYPE    INFORMATION
#----------   ------------   ------------------------------
 STRT.F           14.0000:   START DEPTH
 STOP.F          513.0000:   STOP DEPTH
 STEP.F            0.1000:   STEP LENGTH
 NULL.          -999.2500:   NO VALUE
 COMP.       F D SERV INC:   COMPANY
 WELL.    52-1 SX-3 #52-3:   WELL
 FLD .             TEAPOT:   FIELD
 LOC .       S3 T38N R78W:   LOCATION
 CNTY.            NATRONA:   COUNTY
 STAT.            WYOMING:   STATE
 CTRY. UNITED STATES OF AMERICA:   COUNTRY
 SRVC.     Atlas Wireline:   SERVICE COMPANY
 DATE.        21-APR-1992:   LOGDATE
 API .       490252251400:   API NUMBER
~CURVE INFORMATION
#MNEM.UNIT       API CODE    CURVE DESCRIPTION
#----------   ------------   ------------------------------
 DEPT.F                  :   
 GRR .GAPI   07 310 01 00:   GAMMA RAY
 RILD.OHMM   07 120 46 00:   INDUCTION LOG DEEP RESISTIVITY
 RILM.OHMM   07 120 44 00:   INDUCTION LOG MEDIUM RESISTIVITY
~PARAMETER INFORMATION
#MNEM.UNIT          VALUE    DESCRIPTION
#----------   ------------   ------------------------------
 PD  .                 GL:   PERMANENT DATUM
 EPD .F              5115:   ELEVATION PERMANENT DATUM
 LMF .                 KB:   LOG MEASURED FROM
 DAPD.F                 5:   FEET ABOVE PERMANENT DATUM
 DMF .                 KB:   DRILLING MEASURED FROM
 EKB .F              5120:   KELLING BUSHING
 EDF .F              5119:   DRILLING FLOOR
 EGL .F              5115:   GROUND LEVEL
 DATE.        21-APR-1992:   RUN DATE
 RUN .                  1:   RUN NUMBER
 DD  .F               515:   DEPTH DRILLER
 DL  .F               520:   DEPTH LOGGER
 BLI .F               517:   BOTTOM LOG INTERVAL
 TLI .F                50:   TOP LOG INTERVAL
 CS  .IN            9.625:   CASING SIZE
 CBD .F                45:   CASING BOTTOM DRILLER
 CBL .F                50:   CASING BOTTOM LOGGER
 BS  .IN            7.875:   BIT SIZE
 BSD .F               515:   BIT SIZE AT DEPTH
 DFT .                AIR:   DRILLING FLUID TYPE
 LUN .            HL-6272:   LOGGING UNIT NUMBER
 LUL .             CASPER:   LOGGING UNIT LOCATION
 ENGI.       P. RASMUSSEN:   RECORDING ENGINEER
 WITN.          G. STRONG:   WITNESSED BY
 CLNT.            A2DTECH:   CLIENT CODE
 ORIG.           5" PRINT:   ORIGIN OF DATA
 UWI .       490252251400:   UNIQUE WELL ID
 DICO. A2D Technologies, Inc.:   DIGITIZING COMPANY
~OTHER INFORMATION
~A   DEPT      GRR       RILD       RILM   
# ...
  159.6000   120.8578     7.9418     7.5537
  159.7000   121.0828     7.9371     7.5025
  159.8000   121.4981     7.8858     7.5018
  159.9000   121.8715     7.8854     7.5009
  160.0000   122.1753     7.8850     7.5001
  160.1000   122.6602     7.8653     7.4993
  160.2000   122.9035     7.8294     7.4984
  160.3000   123.1468     7.8290     7.4976
  160.4000   123.5295     7.8286     7.4968
  160.5000   123.8520     7.8281     7.5195
  160.6000   123.8767     7.8277     7.5474
  160.7000   124.1477     7.8273     7.5466
  160.8000   124.1450     7.8268     7.5456
  160.9000   124.1420     7.8263     7.5449
  161.0000   124.1390     7.8653     7.5440
  161.1000   124.0850     7.8802     7.5432
  161.2000   123.8308     7.8797     7.5536
  161.3000   123.8278     7.8793     7.5942
  161.4000   123.6391     7.8788     7.5931
  161.5000   123.3897     7.8784     7.5924
  161.6000   123.1404     7.8780     7.5916
  161.7000   122.8911     7.8775     7.5907
  161.8000   122.6038     7.8771     7.5899
  161.9000   122.1835     7.8766     7.5890
  162.0000   121.8409     7.8762     7.5882
  162.1000   121.5915     7.8758     7.5874
  162.2000   121.3008     7.8753     7.6102
  162.3000   120.7763     7.8749     7.6386
  162.4000   120.5414     7.8745     7.6427
  162.5000   120.2920     7.8740     7.6901
  162.6000   119.9222     7.9186     7.6893
  162.7000   119.4912     7.9281     7.7187
  162.8000   119.2508     7.9277     7.7412
  162.9000   119.2472     7.9272     7.7404
  163.0000   119.0453     7.9319     7.7413
  163.1000   119.0832     7.9816     7.7925
  163.2000   119.2387     7.9812     7.7918
  163.3000   119.3317     7.9808     7.7909
  163.4000   120.1387     7.9803     7.7900
  163.5000   120.8036     7.9903     7.7973
  163.6000   120.7058     8.0351     7.8426
  163.7000   120.2101     8.0347     7.8417
  163.8000   119.7144     8.0343     7.8409
  163.9000   119.2175     8.0338     7.8400
  164.0000   118.4773     8.0491     7.8391
  164.1000   118.1152     8.0890     7.8383
  164.2000   117.8659     8.0885     7.8373
  164.3000   117.6165     8.0881     7.8768
  164.4000   117.3897     8.0876     7.8903
  164.5000   117.3863     8.0872     7.8894
  164.6000   117.5968     8.0867     7.8885
  164.7000   117.8401     8.0863     7.8877
  164.8000   118.2864     8.1326     7.9416
  164.9000   118.9766     8.1418     7.9409
  165.0000   119.4863     8.1414     7.9400
  165.1000   120.1921     8.1571     7.9571
  165.2000   121.1085     8.1974     7.9938
  165.3000   121.8415     8.1968     7.9927
  165.4000   122.1934     8.2388     7.9919
  165.5000   122.1772     8.2531     7.9910
  165.6000   121.8847     8.2527     8.0146
  165.7000   121.6785     8.2636     8.0449
  165.8000   121.4292     8.3094     8.0489
  165.9000   121.1799     8.3089     8.0991
  166.0000   120.9305     8.3084     8.0983
  166.1000   120.6614     8.3080     8.1289
  166.2000   120.8854     8.3244     8.1530
  166.3000   121.1287     8.3651     8.1637
  166.4000   121.3720     8.3645     8.2081
  166.5000   121.7936     8.4077     8.2070
  166.6000   122.7759     8.4220     8.2062
  166.7000   123.7581     8.4441     8.2337
  166.8000   124.3521     8.4799     8.2801
  166.9000   124.7033     8.4807     8.3185
  167.0000   124.8640     8.5380     8.3174
  167.1000   124.8610     8.5376     8.3623
  167.2000   124.8576     8.5372     8.3736
  167.3000   124.4204     8.5367     8.3981
  167.4000   123.9247     8.5362     8.4301
  167.5000   123.2175     8.5357     8.4292
  167.6000   122.2791     8.5353     8.4281
  167.7000   121.5196     8.5688     8.4273
  167.8000   120.5546     8.5939     8.4589
  167.9000   119.7511     8.6059     8.4842
  168.0000   119.0091     8.6529     8.4832
  168.1000   118.2671     8.6524     8.4823
  168.2000   117.5250     8.6520     8.5403
  168.3000   116.6672     8.6515     8.5396
  168.4000   115.8332     8.6510     8.5680
  168.5000   114.8449     8.6505     8.5972
  168.6000   114.1454     8.6500     8.5963
  168.7000   113.8151     8.6496     8.5953
  168.8000   113.0270     8.6491     8.6415
  168.9000   113.0242     8.6486     8.6533
  169.0000   113.3716     8.6481     8.6524
  169.1000   113.8612     8.6476     8.6514
  169.2000   114.4781     8.6471     8.6505
  169.3000   115.4604     8.6871     8.6494
  169.4000   116.6339     8.7065     8.6485
  169.5000   117.4250     8.7061     8.6476
  169.6000   118.5500     8.7056     8.6466
  169.7000   119.6917     8.7051     8.6456
  169.8000   120.6739     8.7046     8.6447
  169.9000   121.7550     8.7394     8.6435
  170.0000   122.4169     8.7644     8.6428
  170.1000   122.8214     8.7639     8.6418
  170.2000   122.9547     8.7634     8.6408
  170.3000   122.9517     8.7628     8.6399
  170.4000   122.9486     8.7624     8.6389
  170.5000   122.9456     8.7620     8.6380
  170.6000   122.9426     8.7615     8.6370
  170.7000   122.9396     8.7610     8.6360
  170.8000   123.0139     8.7605     8.6351
  170.9000   123.2572     8.7600     8.6341
  171.0000   123.5343     8.7595     8.6330
  171.1000   123.5317     8.7344     8.5889
  171.2000   123.6850     8.6978     8.5714
  171.3000   123.8278     8.6973     8.5705
  171.4000   123.8695     8.6968     8.5695
  171.5000   124.1237     8.6554     8.5676
  171.6000   124.3561     8.6356     8.5081
  171.7000   124.5994     8.6161     8.5073
  171.8000   124.8427     8.5748     8.4777
  171.9000   125.0860     8.5743     8.4465
  172.0000   125.3414     8.5279     8.4378
  172.1000   125.9179     8.5139     8.3861
  172.2000   126.1180     8.5134     8.3852
  172.3000   126.5082     8.4994     8.3843
  172.4000   126.9978     8.4507     8.3586
  172.5000   127.4522     8.3943     8.3244
  172.6000   127.7158     8.3541     8.3192
  172.7000   128.1645     8.3062     8.2647
  172.8000   128.4842     8.2771     8.2639
  172.9000   128.7275     8.2766     8.2319
  173.0000   129.0292     8.2761     8.1840
  173.1000   129.5162     8.2757     8.1471
  173.2000   129.7595     8.2752     8.1462
  173.3000   130.0028     8.2748     8.1451
  173.4000   130.2461     8.2743     8.1444
  173.5000   130.5710     8.2738     8.1162
  173.6000   131.0094     8.2733     8.0862
  173.7000   131.0057     8.2729     8.0853
  173.8000   131.0030     8.3019     8.0843
  173.9000   131.0000     8.3297     8.0835
  174.0000   130.9970     8.3293     8.0826
  174.1000   130.9450     8.3288     8.0817
  174.2000   130.6887     8.3283     8.0808
  174.3000   130.2068     8.3629     8.0799
  174.4000   129.8949     8.3855     8.0789
  174.5000   129.5176     8.3851     8.0781
  174.6000   128.9499     8.3846     8.0772
  174.7000   128.2078     8.3841     8.0763
  174.8000   127.3470     8.3837     8.0754
  174.9000   126.3102     8.3533     8.0745
  175.0000   124.9245     8.3246     8.0736
  175.1000   123.1577     8.3242     8.0727
  175.2000   121.0957     8.3237     8.0718
  175.3000   119.7793     8.2777     8.0709
  175.4000   120.0064     8.2651     8.0700
  175.5000   120.2497     8.2646     8.0691
  175.6000   120.6115     8.2642     8.0682
  175.7000   121.1011     8.2637     8.0673
  175.8000   121.5975     8.2632     8.0664
  175.9000   122.4798     8.2628     8.0655
  176.0000   123.4643     8.2623     8.0646
  176.1000   124.4097     8.2619     8.0636
  176.2000   124.8882     8.2614     8.0628
  176.3000   124.8852     8.2609     8.0320
  176.4000   124.8819     8.2605     8.0052
  176.5000   124.6586     8.2249     8.0043
  176.6000   124.5740     8.2023     8.0034
  176.7000   124.5710     8.2019     8.0025
  176.8000   124.5680     8.2014     8.0016
  176.9000   124.5649     8.2009     8.0008
  177.0000   124.5619     8.2409     7.9999
  177.1000   124.7468     8.2573     7.9990
  177.2000   124.8580     8.2568     7.9980
  177.3000   124.9313     8.2564     7.9972
  177.4000   125.1952     8.2559     7.9963
  177.5000   125.7549     8.2554     7.9954
  177.6000   125.7523     8.2550     8.0079
  177.7000   125.7492     8.2545     8.0495
