~VERSION INFORMATION
 VERS.                2.0:   CWLS LOG ASCII STANDARD - VERSION 2.0
 WRAP.                 NO:   ONE LINE PER DEPTH STEP
~WELL INFORMATION
#MNEM.UNIT      DATA TYPE    INFORMATION
#----------   ------------   ------------------------------
 STRT.F            0.0000:   START DEPTH
 STOP.F          666.0000:   STOP DEPTH
 STEP.F            0.1000:   STEP LENGTH
 NULL.          -999.2500:   NO VALUE
 COMP.   FLUOR DANIEL INC:   COMPANY
 WELL.   77-2 X 34 #77-34:   WELL
 FLD .             TEAPOT:   FIELD
 LOC .      S34 T39N R78W:   LOCATION
 CNTY.            NATRONA:   COUNTY
 STAT.            WYOMING:   STATE
 CTRY. UNITED STATES OF AMERICA:   COUNTRY
 SRVC.      Western Atlas:   SERVICE COMPANY
 DATE.        01-APR-1995:   LOGDATE
 API .       490252270000:   API NUMBER
~CURVE INFORMATION
#MNEM.UNIT       API CODE    CURVE DESCRIPTION
#----------   ------------   ------------------------------
 DEPT.F                  :   
 GRR .GAPI   07 310 01 00:   GAMMA RAY
 RILD.OHMM   07 120 46 00:   INDUCTION LOG DEEP RESISTIVITY
 RILM.OHMM   07 120 44 00:   INDUCTION LOG MEDIUM RESISTIVITY
~PARAMETER INFORMATION
#MNEM.UNIT          VALUE    DESCRIPTION
#----------   ------------   ------------------------------
 PD  .                 GL:   PERMANENT DATUM
 EPD .F              5106:   ELEVATION PERMANENT DATUM
 LMF .                 KB:   LOG MEASURED FROM
 DAPD.F                10:   FEET ABOVE PERMANENT DATUM
 DMF .                 KB:   DRILLING MEASURED FROM
 EKB .F              5116:   KELLING BUSHING
 EDF .F              5115:   DRILLING FLOOR
 EGL .F              5106:   GROUND LEVEL
 DATE.        01-APR-1995:   RUN DATE
 RUN .                  1:   RUN NUMBER
 DD  .F               674:   DEPTH DRILLER
 DL  .F               674:   DEPTH LOGGER
 BLI .F               666:   BOTTOM LOG INTERVAL
 TLI .F                52:   TOP LOG INTERVAL
 CS  .IN            9.625:   CASING SIZE
 CBD .F                52:   CASING BOTTOM DRILLER
 CBL .F                52:   CASING BOTTOM LOGGER
 BS  .IN             8.75:   BIT SIZE
 BSD .F               674:   BIT SIZE AT DEPTH
 DFT .                AIR:   DRILLING FLUID TYPE
 MRT .F                89:   MAXIMUM RECORDED TEMPERATURE
 LUN .            HL 6530:   LOGGING UNIT NUMBER
 LUL .             CASPER:   LOGGING UNIT LOCATION
 ENGI.      PAT RASMUSSEN:   RECORDING ENGINEER
 WITN.        GARY STRONG:   WITNESSED BY
 CLNT.            A2DTECH:   CLIENT CODE
 ORIG.           5" PRINT:   ORIGIN OF DATA
 UWI .       490252270000:   UNIQUE WELL ID
 DICO. A2D Technologies, Inc.:   DIGITIZING COMPANY
~OTHER INFORMATION
~A    DEPT      GRR      RILD       RILM   
# ...
  382.2000   126.7173     6.8814     6.4503
  382.3000   126.7155     6.8018     6.3767
  382.4000   126.7137     6.7432     6.3335
  382.5000   126.4203     6.6918     6.2721
  382.6000   126.1068     6.6143     6.1994
  382.7000   126.0585     6.5318     6.1433
  382.8000   125.8015     6.4621     6.0901
  382.9000   125.5509     6.4143     5.9862
  383.0000   125.4962     6.3771     5.9069
  383.1000   125.4944     6.3280     5.8483
  383.2000   125.5924     6.2594     5.7368
  383.3000   125.8926     6.2207     5.6346
  383.4000   126.3948     6.1536     5.5607
  383.5000   126.9951     6.0824     5.4665
  383.6000   127.3991     6.0121     5.3953
  383.7000   127.9011     5.9541     5.3406
  383.8000   128.4033     5.9147     5.2580
  383.9000   128.8519     5.8423     5.1813
  384.0000   129.1020     5.7787     5.1213
  384.1000   129.3976     5.6873     5.0592
  384.2000   129.3961     5.6065     4.9623
  384.3000   128.9243     5.5416     4.9365
  384.4000   128.2735     5.4822     4.9277
  384.5000   127.7676     5.4489     4.9276
  384.6000   127.2619     5.4296     4.9187
  384.7000   126.6718     5.4093     4.8931
  384.8000   126.2503     5.3890     4.8930
  384.9000   125.9049     5.4097     4.9189
  385.0000   125.6511     5.4413     4.9269
  385.1000   125.2755     5.4731     4.9417
  385.2000   124.5289     5.5050     4.9704
  385.3000   123.9460     5.5371     5.0030
  385.4000   123.5174     5.5754     5.0653
  385.5000   122.8476     5.6020     5.0928
  385.6000   122.2041     5.6347     5.1223
  385.7000   121.6983     5.6675     5.1521
  385.8000   121.1926     5.7006     5.1820
  385.9000   120.6169     5.7339     5.2075
  386.0000   120.1809     5.7727     5.2074
  386.1000   120.0103     5.8010     5.2072
  386.2000   120.1263     5.8570     5.2301
  386.3000   120.4446     5.9100     5.2433
  386.4000   120.9467     5.9356     5.2431
  386.5000   121.5111     5.9397     5.2430
  386.6000   121.9511     6.0188     5.2428
  386.7000   122.2821     6.0492     5.3024
  386.8000   122.6538     6.0845     5.3401
  386.9000   123.0841     6.1371     5.3893
  387.0000   123.3344     6.1988     5.4521
  387.1000   123.6119     6.2349     5.5218
  387.2000   123.6103     6.2754     5.6196
  387.3000   123.7832     6.3408     5.6846
  387.4000   124.0334     6.3892     5.7510
  387.5000   124.2836     6.4265     5.8182
  387.6000   124.5337     6.4755     5.8861
  387.7000   124.8077     6.5472     5.9475
  387.8000   124.8060     6.5887     5.9827
  387.9000   124.9826     6.6238     6.1076
  388.0000   125.2328     6.6905     6.1657
  388.1000   125.4830     6.7483     6.2603
  388.2000   125.7331     6.7876     6.3703
  388.3000   126.0035     6.8325     6.4821
  388.4000   126.6969     6.9177     6.5947
  388.5000   127.6330     6.9555     6.6846
  388.6000   128.6392     6.9961     6.7497
  388.7000   129.6455     7.0369     6.8031
  388.8000   130.5525     7.0780     6.8426
  388.9000   130.8192     7.1193     6.8823
  389.0000   131.0528     7.1625     6.9222
  389.1000   130.9317     7.2027     6.9684
  389.2000   130.6780     7.2124     7.0028
  389.3000   130.2516     7.2606     7.0435
  389.4000   129.5304     7.3295     7.0654
  389.5000   128.9984     7.3723     7.0870
  389.6000   128.5189     7.4160     7.1640
  389.7000   128.2023     7.4159     7.1638
  389.8000   127.9485     7.4500     7.2000
  389.9000   127.6947     7.4935     7.2418
  390.0000   127.4409     7.5372     7.2636
  390.1000   127.1776     7.5812     7.2634
  390.2000   127.1759     7.6251     7.2668
  390.3000   127.1740     7.6250     7.3137
  390.4000   127.1722     7.6611     7.3515
  390.5000   127.1704     7.6781     7.3643
  390.6000   127.1686     7.6970     7.3855
  390.7000   127.1668     7.7419     7.4153
  390.8000   127.1650     7.7856     7.4151
  390.9000   127.1632     7.7855     7.4149
  391.0000   127.1614     7.8235     7.4540
  391.1000   127.0624     7.8397     7.4662
  391.2000   126.8561     7.8396     7.4660
  391.3000   126.8543     7.8510     7.4798
  391.4000   126.3528     7.8943     7.5178
  391.5000   126.0472     7.8941     7.5175
  391.6000   125.7935     7.9338     7.5580
  391.7000   125.5397     7.9492     7.6019
  391.8000   125.3370     7.9709     7.6222
  391.9000   125.3351     8.0046     7.6371
  392.0000   125.3330     8.0044     7.6750
  392.1000   125.5353     8.0043     7.6748
  392.2000   125.9395     8.0457     7.6746
  392.3000   126.5460     8.0601     7.6744
  392.4000   127.2454     8.0600     7.6741
  392.5000   127.7477     8.0599     7.6900
  392.6000   128.3387     8.0598     7.7346
  392.7000   128.3372     8.0597     7.7810
  392.8000   128.3354     8.1024     7.7808
  392.9000   128.2257     8.1497     7.8156
  393.0000   127.9136     8.1725     7.8347
  393.1000   127.4078     8.1724     7.8517
  393.2000   126.8196     8.1723     7.8890
  393.3000   126.6071     8.1721     7.8887
  393.4000   126.1921     8.2166     7.8885
  393.5000   125.6863     8.2291     7.9246
  393.6000   125.2424     8.2290     7.9431
  393.7000   125.0009     8.2289     7.9613
  393.8000   124.9988     8.2288     7.9981
  393.9000   125.2119     8.2286     7.9979
  394.0000   125.6270     8.2746     7.9976
  394.1000   126.1291     8.2860     8.0352
  394.2000   126.6313     8.2859     8.0531
  394.3000   127.1493     8.2858     8.0528
  394.4000   128.0046     8.2856     8.0526
  394.5000   128.2212     8.2855     8.0535
  394.6000   128.4714     8.2854     8.1083
  394.7000   128.6027     8.2853     8.1081
  394.8000   128.5317     8.2852     8.1079
  394.9000   128.2974     8.3042     8.1077
  395.0000   128.2954     8.3429     8.1075
  395.1000   128.0720     8.3428     8.1093
  395.2000   127.8182     8.3427     8.1636
  395.3000   127.5644     8.3821     8.1634
  395.4000   127.3106     8.4008     8.1942
  395.5000   127.0799     8.4007     8.2199
  395.6000   127.0779     8.4006     8.2197
  395.7000   126.8509     8.4018     8.2194
  395.8000   126.7729     8.4591     8.2192
  395.9000   126.6450     8.4590     8.2605
  396.0000   126.5440     8.4589     8.2761
  396.1000   126.7942     8.4588     8.2759
  396.2000   127.0671     8.4586     8.2757
  396.3000   127.0655     8.4585     8.2754
  396.4000   127.4225     8.4584     8.2752
  396.5000   127.9246     8.4583     8.3177
  396.6000   128.4268     8.4582     8.3325
  396.7000   128.9290     8.4581     8.3323
  396.8000   129.4695     8.4579     8.3321
  396.9000   129.4679     8.4578     8.3318
  397.0000   129.6490     8.4577     8.3316
  397.1000   129.7659     8.4576     8.3314
  397.2000   129.8478     8.4914     8.3311
  397.3000   130.0642     8.5165     8.3309
  397.4000   129.7604     8.5164     8.3307
  397.5000   129.5224     8.5163     8.3304
  397.6000   128.8952     8.5162     8.3302
  397.7000   128.2744     8.5160     8.3300
  397.8000   127.6814     8.5159     8.3297
  397.9000   126.9612     8.5158     8.3295
  398.0000   126.4313     8.5157     8.3131
  398.1000   126.1896     8.5156     8.2713
  398.2000   125.9359     8.5154     8.2711
  398.3000   125.8226     8.4694     8.2708
  398.4000   125.7299     8.4561     8.2706
  398.5000   125.5173     8.4559     8.2704
  398.6000   125.5155     8.4558     8.2701
  398.7000   126.0008     8.4557     8.2699
  398.8000   126.6969     8.4556     8.2697
  398.9000   127.4510     8.4555     8.2695
  399.0000   128.1106     8.4553     8.2325
  399.1000   128.5680     8.4552     8.2117
  399.2000   128.8229     8.4371     8.2114
  399.3000   129.0683     8.3962     8.2112
  399.4000   129.3185     8.3961     8.2110
  399.5000   129.4208     8.3960     8.2108
  399.6000   129.4190     8.3959     8.1732
  399.7000   129.4172     8.3672     8.1534
  399.8000   129.4154     8.3231     8.1346
  399.9000   129.4136     8.2867     8.0964
  400.0000   129.8151     8.2792     8.0962
  400.1000   130.1679     8.2791     8.4414
  400.2000   130.3179     8.2789     8.4415
  400.3000   130.3185     8.2788     8.4416
