~VERSION INFORMATION
 VERS.                2.0:   CWLS LOG ASCII STANDARD - VERSION 2.0
 WRAP.                 NO:   ONE LINE PER DEPTH STEP
~WELL INFORMATION
#MNEM.UNIT      DATA TYPE    INFORMATION
#----------   ------------   ------------------------------
 STRT.F           16.5000:   START DEPTH
 STOP.F          640.0000:   STOP DEPTH
 STEP.F            0.5000:   STEP LENGTH
 NULL.          -999.2500:   NO VALUE
 COMP. FENIX & SCISSON INC:   COMPANY
 WELL.     11 SX 14 #3-14:   WELL
 FLD .             TEAPOT:   FIELD
 LOC .      S14 T38N R78W:   LOCATION
 CNTY.            NATRONA:   COUNTY
 STAT.            WYOMING:   STATE
 CTRY. UNITED STATES OF AMERICA:   COUNTRY
 SRVC.            Unknown:   SERVICE COMPANY
 DATE.        18-DEC-1978:   LOGDATE
 API .       490251075700:   API NUMBER
~CURVE INFORMATION
#MNEM.UNIT       API CODE    CURVE DESCRIPTION
#----------   ------------   ------------------------------
 DEPT.F                  :   
 SPR .MV     05 010 01 00:   SPONTANEOUS POTENTIAL FROM RES.
 SN  .OHMM   05 040 16 00:   SHORT NORMAL 16"
 IL  .OHMM   05 120 00 00:   INDUCTION LOG
 GRD .GAPI   45 310 01 00:   GAMMA RAY FROM DENSITY LOG
 CALD.IN     45 280 60 00:   CALIPER
 RHOB.G/C3   45 350 01 00:   BULK DENSITY
 DPHI.DEC    45 890 12 00:   DENSITY POROSITY SANDSTONE
 CORR.G/C3   45 356 01 00:   DENSITY CORRECTION
~PARAMETER INFORMATION
#MNEM.UNIT          VALUE    DESCRIPTION
#----------   ------------   ------------------------------
 PD  .                 GL:   PERMANENT DATUM
 EPD .F              5217:   ELEVATION PERMANENT DATUM
 LMF .                 KB:   LOG MEASURED FROM
 DAPD.F                 4:   FEET ABOVE PERMANENT DATUM
 DMF .                 KB:   DRILLING MEASURED FROM
 EKB .F              5221:   KELLING BUSHING
 EGL .F              5217:   GROUND LEVEL
 DATE.           12-18-78:   RUN DATE
 RUN .                  1:   RUN NUMBER
 DD  .F               653:   DEPTH DRILLER
 DL  .F               640:   DEPTH LOGGER
 BLI .F               634:   BOTTOM LOG INTERVAL
 TLI .F                32:   TOP LOG INTERVAL
 CS  .IN            8.625:   CASING SIZE
 CBD .F                40:   CASING BOTTOM DRILLER
 CBL .F                30:   CASING BOTTOM LOGGER
 BS  .IN            7.875:   BIT SIZE
 BSD .F               653:   BIT SIZE AT DEPTH
 DFT .                KCL:   DRILLING FLUID TYPE
 DFD .                8.3:   DRILLING FLUID DENSITY
 DFV .                 36:   DRILLING FLUID VISCOSITY
 DFPH.               12.5:   DRILLING FLUID PH
 DFL .               12.3:   DRILLING FLUID LOSS
 MSS .           FLOWLINE:   MUD SAMPLE SOURCE
 MST .F                56:   MUD SAMPLE TEMPERATURE
 RMF .OHMM            .44:   RESISTIVITY MUD FILTRATE SAMPLE
 MFST.F                58:   MUD FILTRATE SAMPLE TEMPERATURE
 RMC .OHMM            .58:   RESISTIVITY MUD CAKE
 MCST.F                66:   MUD CAKE SAMPLE TEMPERATURE
 MFSS.           MEASURED:   MUD FILTRATE SAMPLE SOURCE
 MCSS.           MEASURED:   MUD CAKE SAMPLE SOURCE
 BHT .F                58:   BOTTOM HOLE TEMPERATURE
 TCS .HRS               4:   TIME CURCULATED STOPPED
 MRT .F                58:   MAXIMUM RECORDED TEMPERATURE
 LUL .             CASPER:   LOGGING UNIT LOCATION
 ENGI.         B. ROLLINS:   RECORDING ENGINEER
 WITN.              AMEND:   WITNESSED BY
 CLNT.            A2DTECH:   CLIENT CODE
 ORIG.           5" PRINT:   ORIGIN OF DATA
 UWI .       490251075700:   UNIQUE WELL ID
 DICO. A2D Technologies, Inc.:   DIGITIZING COMPANY
~OTHER INFORMATION
~A   DEPT      SPR         SN         IL         GRD      CALD       RHOB       DPHI       CORR   
# ...
  462.0000  -999.2500    10.7740    11.3730   100.6170     7.6730     2.5310     0.0990     0.0450
  462.5000  -999.2500    10.9880    11.3930   100.4200     7.6950     2.5240     0.0950     0.0470
  463.0000  -999.2500    11.3300    11.5040   100.2290     7.7390     2.5220     0.0880     0.0520
  463.5000  -999.2500    12.0060    11.6380    99.6860     7.7820     2.5340     0.0810     0.0660
  464.0000  -999.2500    12.7630    12.0240    98.8290     7.8020     2.5460     0.0880     0.0740
  464.5000  -999.2500    13.5200    12.7720    98.0150     7.7620     2.5480     0.0990     0.0800
  465.0000  -999.2500    14.2760    13.5210    98.9240     7.7020     2.5290     0.1130     0.0810
  465.5000  -999.2500    15.0330    14.2690    99.6790     7.7150     2.5080     0.1240     0.0950
  466.0000  -999.2500    15.7900    15.0180    99.1630     7.6910     2.4810     0.1250     0.1210
  466.5000  -999.2500    16.5470    15.7660    95.9160     7.6100     2.4770     0.1250     0.1510
  467.0000  -999.2500    17.3040    16.5150    90.7680     7.5480     2.4770     0.1280     0.1770
  467.5000  -999.2500    17.8640    17.1050    83.1840     7.5080     2.4740     0.1260     0.1940
  468.0000  -999.2500    18.3130    17.6040    72.3590     7.5050     2.4720     0.1270     0.1980
  468.5000   -96.7690    18.7610    18.1040    65.9970     7.6000     2.4760     0.1470     0.1820
  469.0000   -96.7660    19.2100    18.5780    65.6310     7.7550     2.4700     0.1890     0.1240
  469.5000   -96.8290    19.5280    18.7820    66.3070     7.7620     2.4120     0.2050     0.0620
  470.0000   -96.9210    19.6910    18.9770    67.1680     7.7160     2.3500     0.2080     0.0540
  470.5000   -95.8900    19.8540    19.1710    67.4790     7.6840     2.3400     0.2070     0.0550
  471.0000   -94.6880    20.0170    19.3650    65.4010     7.6880     2.3400     0.2050     0.0560
  471.5000   -94.7170    20.1790    19.5590    63.2530     7.6910     2.3460     0.1980     0.0620
  472.0000   -94.9590    20.3420    19.7540    63.4380     7.6940     2.3560     0.1910     0.0690
  472.5000   -94.8040    20.5050    19.8210    63.7540     7.6980     2.3650     0.1970     0.0710
  473.0000   -94.1520    20.6680    19.8300    63.7760     7.7010     2.3700     0.2070     0.0630
  473.5000   -93.4870    20.7560    19.8390    63.7890     7.7110     2.3490     0.2130     0.0600
  474.0000   -93.1830    20.7670    19.8480    63.8050     7.7310     2.3350     0.2120     0.0590
  474.5000   -92.9940    20.7770    19.8570    63.8210     7.7730     2.3320     0.2170     0.0580
  475.0000   -92.8110    20.7880    19.8660    63.8370     7.8960     2.3290     0.2210     0.0570
  475.5000   -92.6320    20.7980    19.8760    63.8520     8.0090     2.3190     0.2160     0.0660
  476.0000   -92.5910    20.8080    19.8850    63.8680     7.9230     2.3200     0.2100     0.0750
  476.5000   -92.9400    20.8190    19.8940    63.8840     7.7370     2.3330     0.2020     0.0790
  477.0000   -93.2670    20.8290    19.9030    63.9000     7.7090     2.3470     0.1910     0.0790
  477.5000   -93.1090    20.8390    19.9120    63.9170     7.7170     2.3600     0.1760     0.1070
  478.0000   -90.3360    20.8500    19.9210    63.9350     7.7320     2.3960     0.1530     0.1460
  478.5000   -89.7580    20.8600    19.9300    63.9520     7.7780     2.4460     0.1300     0.1730
  479.0000   -89.7770    20.8700    19.9390    64.0510     7.9440     2.4980     0.1100     0.1800
  479.5000   -89.8170    20.8810    19.9490    65.1770     7.8500     2.5060     0.1180     0.1610
  480.0000   -89.8580    20.8910    19.9580    66.7600     7.7660     2.5020     0.1430     0.1240
  480.5000   -89.8830    20.9020    19.9670    68.0830     7.7110     2.4630     0.1660     0.0860
  481.0000   -89.4040    20.9120    19.9760    68.3780     7.8670     2.4150     0.1750     0.0570
  481.5000   -88.8980    20.9220    19.9850    68.4820     7.7260     2.3940     0.1750     0.0430
  482.0000   -88.3850    20.9340    19.9980    68.5920     7.7280     2.3950     0.1740     0.0440
  482.5000   -88.5100    20.9440    19.9230    68.7140     7.7360     2.3980     0.1760     0.0440
  483.0000   -88.7520    20.7750    19.7070    68.2180     7.7440     2.3940     0.1770     0.0480
  483.5000   -89.0040    20.6000    19.4920    67.5520     7.7500     2.3920     0.1760     0.0520
  484.0000   -88.6120    20.4240    19.2770    66.8820     7.7570     2.3950     0.1700     0.0540
  484.5000   -87.5020    20.2490    19.0470    66.4800     7.7600     2.4020     0.1660     0.0550
  485.0000   -86.3680    20.0730    18.7470    66.1470     7.7460     2.4090     0.1700     0.0490
  485.5000   -86.4000    19.7460    18.4480    66.0400     7.7320     2.4050     0.1730     0.0420
  486.0000   -86.5000    19.3100    18.1490    66.6140     7.7180     2.3980     0.1780     0.0360
  486.5000   -86.5990    18.8740    17.8500    68.0230     7.7040     2.3930     0.1720     0.0320
  487.0000   -86.6960    18.4380    17.5510    70.7760     7.6900     2.3960     0.1750     0.0270
  487.5000   -86.7950    18.0020    17.2510    71.6890     7.6760     2.3980     0.1800     0.0240
  488.0000   -86.8870    17.7010    16.9520    71.5160     7.6720     2.3890     0.1870     0.0220
  488.5000   -86.4650    17.5040    16.6530    70.1220     7.7540     2.3780     0.1900     0.0220
  489.0000   -85.9890    17.3070    16.3540    70.0080     7.9810     2.3690     0.1870     0.0270
  489.5000   -85.5140    17.1100    16.1590    70.0850     8.2070     2.3720     0.1790     0.0330
  490.0000   -85.1160    16.9130    16.1120    71.3890     8.1890     2.3870     0.1700     0.0370
  490.5000   -85.2030    16.7160    16.0650    72.9620     8.0210     2.3990     0.1680     0.0360
  491.0000   -85.2950    16.5190    16.0180    72.8970     7.8520     2.4040     0.1660     0.0340
  491.5000   -85.3880    16.3280    15.9710    73.8480     7.8120     2.4080     0.1640     0.0340
  492.0000   -85.4950    16.3170    15.9250    75.4180     7.8240     2.4080     0.1650     0.0350
  492.5000   -84.9330    16.3050    15.8780    75.9110     7.8750     2.4060     0.1670     0.0360
  493.0000   -84.1970    16.2940    15.8310    75.9960     7.9210     2.4080     0.1600     0.0440
  493.5000   -83.4140    16.2820    15.7840    76.0930     7.9350     2.4150     0.1610     0.0450
  494.0000   -82.6310    16.2710    15.7370    77.4850     7.9480     2.4180     0.1630     0.0450
  494.5000   -81.8460    16.2600    15.6900    79.0840     7.9600     2.4150     0.1690     0.0450
  495.0000   -81.0620    16.2480    15.6430    79.2090     7.9730     2.4070     0.1760     0.0440
  495.5000   -80.3220    16.2370    15.5960    77.0810     7.9860     2.3960     0.1810     0.0440
  496.0000   -80.3380    16.2250    15.5490    75.6960     7.9990     2.3840     0.1820     0.0440
  496.5000   -80.3840    16.2140    15.5020    75.1780     8.0120     2.3820     0.1840     0.0440
  497.0000   -80.4300    16.2030    15.4550    75.7540     8.0280     2.3810     0.1860     0.0430
  497.5000   -80.4750    16.1920    15.3810    76.3180     8.1030     2.3770     0.1850     0.0470
  498.0000   -80.5210    16.1800    15.3030    76.9020     8.3350     2.3770     0.1800     0.0540
  498.5000   -80.5670    16.0310    15.2250    76.9980     8.2260     2.3860     0.1700     0.0600
  499.0000   -80.6130    15.8650    15.1460    76.8980     8.0020     2.3950     0.1700     0.0610
  499.5000   -80.6590    15.6980    15.0680    76.7920     7.8630     2.4010     0.1700     0.0610
  500.0000   -80.6770    15.5320    14.9900    76.6850     8.0440     2.4010     0.1700     0.0560
  500.5000   -80.2560    15.4310    14.9120    76.5770     7.9280     2.4020     0.1700     0.0500
  501.0000   -79.8480    15.3950    14.8340    76.4920     7.8040     2.4020     0.1710     0.0400
  501.5000   -79.4460    15.3590    14.7550    76.6640     7.8160     2.4010     0.1760     0.0300
  502.0000   -79.0890    15.3220    14.6770    76.8300     7.8570     2.3940     0.1800     0.0230
