~VERSION INFORMATION
 VERS.                2.0:   CWLS LOG ASCII STANDARD - VERSION 2.0
 WRAP.                 NO:   ONE LINE PER DEPTH STEP
~WELL INFORMATION
#MNEM.UNIT      DATA TYPE    INFORMATION
#----------   ------------   ------------------------------
 STRT.F          276.0000:   START DEPTH
 STOP.F         2768.0000:   STOP DEPTH
 STEP.F            0.5000:   STEP LENGTH
 NULL.          -999.2500:   NO VALUE
 COMP.       TESORD PETRO:   COMPANY
 WELL. AX-20 NPR #3 #83-20:   WELL
 FLD .            WILDCAT:   FIELD
 LOC .      S20 T39N R78W:   LOCATION
 CNTY.            NATRONA:   COUNTY
 STAT.            WYOMING:   STATE
 CTRY. UNITED STATES OF AMERICA:   COUNTRY
 SRVC.       Schlumberger:   SERVICE COMPANY
 DATE.        20-JUL-1971:   LOGDATE
 API .       490251022000:   API NUMBER
~CURVE INFORMATION
#MNEM.UNIT       API CODE    CURVE DESCRIPTION
#----------   ------------   ------------------------------
 DEPT.F                  :   
 SPR .MV     05 010 01 00:   SPONTANEOUS POTENTIAL FROM RES.
 ASN .OHMM   05 041 16 00:   AMPLIFIED SHORT NORMAL 16"
 ILD .OHMM   05 120 46 00:   INDUCTION LOG DEEP
 CALD.IN     45 280 60 00:   CALIPER FROM DENSITY
 CORR.G/C3   45 356 01 00:   DENSITY CORRECTION
 DPHI.DEC    45 890 12 00:   DENSITY POROSITY SANDSTONE
 GRD .GAPI   45 310 01 00:   GAMMA RAY FROM DENSITY LOG
 RHOB.G/C3   45 350 01 00:   BULK DENSITY
 CILD.MMHO   05 110 46 00:   CONDUCTIVITY INDUCTION LOG DEEP
~PARAMETER INFORMATION
#MNEM.UNIT          VALUE    DESCRIPTION
#----------   ------------   ------------------------------
 PD  .                 GL:   PERMANENT DATUM
 EPD .F              4994:   ELEVATION PERMANENT DATUM
 LMF .                 KB:   LOG MEASURED FROM
 DAPD.F                11:   FEET ABOVE PERMANENT DATUM
 DMF .                 KB:   DRILLING MEASURED FROM
 EKB .F              5005:   KELLING BUSHING
 EGL .F              4994:   GROUND LEVEL
 DATE.        20-JUL-1971:   RUN DATE
 RUN .                  1:   RUN NUMBER
 DD  .F              2770:   DEPTH DRILLER
 DL  .F              2769:   DEPTH LOGGER
 BLI .F              2768:   BOTTOM LOG INTERVAL
 TLI .F               276:   TOP LOG INTERVAL
 CS  .IN            10.75:   CASING SIZE
 CBD .F               274:   CASING BOTTOM DRILLER
 CBL .F               276:   CASING BOTTOM LOGGER
 BS  .IN                9:   BIT SIZE
 BSD .F              2770:   BIT SIZE AT DEPTH
 DFT .      FRESH GEL MUD:   DRILLING FLUID TYPE
 DFD .                 10:   DRILLING FLUID DENSITY
 DFV .                 82:   DRILLING FLUID VISCOSITY
 DFPH.                  8:   DRILLING FLUID PH
 DFL .                4.8:   DRILLING FLUID LOSS
 MSS .           FLOWLINE:   MUD SAMPLE SOURCE
 RMS .OHMM            1.8:   RESISTIVITY MUD SAMPLE
 MST .F                73:   MUD SAMPLE TEMPERATURE
 RMF .OHMM            1.4:   RESISTIVITY MUD FILTRATE SAMPLE
 MFST.F                73:   MUD FILTRATE SAMPLE TEMPERATURE
 MFSS.               MEAS:   MUD FILTRATE SAMPLE SOURCE
 RMB .OHMM           1.15:   RESISTIVITY MUD AT BHT
 BHT .F               116:   BOTTOM HOLE TEMPERATURE
 TCS .HRS               2:   TIME CURCULATED STOPPED
 MRT .F               116:   MAXIMUM RECORDED TEMPERATURE
 LUN .               7037:   LOGGING UNIT NUMBER
 LUL .               CSPR:   LOGGING UNIT LOCATION
 ENGI.             JENSEN:   RECORDING ENGINEER
 WITN.                MAY:   WITNESSED BY
 CLNT.            A2DTECH:   CLIENT CODE
 ORIG.     1", 2.5" PRINT:   ORIGIN OF DATA
 UWI .       490251022000:   UNIQUE WELL ID
 DICO. A2D Technologies, Inc.:   DIGITIZING COMPANY
~OTHER INFORMATION
~A   DEPT      SPR          ASN        ILD     CALD       CORR       DPHI        GRD       RHOB       CILD   
# ...
 1736.0000   -32.4541    14.4537    10.7972     9.2406     0.0010     0.1267   113.5333     2.4208  -999.2500
 1736.5000   -32.7556    14.5976    10.9431     9.2400     0.0010     0.1363   117.1065     2.4321  -999.2500
 1737.0000   -33.0571    14.4439    11.0893     9.2394     0.0042     0.1333   113.5156     2.4345  -999.2500
 1737.5000   -33.0601    14.2902    11.0859     9.2388     0.0063     0.1291   108.1336     2.4345  -999.2500
 1738.0000   -32.7642    14.1365    11.0830     9.2382     0.0128     0.1243   105.8859     2.4412  -999.2500
 1738.5000   -32.1705    13.8335    11.2291     9.2377     0.0173     0.1190   110.3547     2.4503  -999.2500
 1739.0000   -31.8750    13.8291    11.2259     9.2370     0.0202     0.1148   111.6891     2.4670  -999.2500
 1739.5000   -31.2809    13.8246    11.2229     9.2364     0.0187     0.1106   119.7399     2.4681  -999.2500
 1740.0000   -31.2839    14.1187    11.2199     9.2358     0.0067     0.1220   127.7907     2.4245  -999.2500
 1740.5000   -31.5854    14.4127    11.2170     9.2352     0.0072     0.1406   125.9908     2.3946  -999.2500
 1741.0000   -32.1853    14.4082    11.2140     9.2346     0.0007     0.1442   124.1909     2.3826  -999.2500
 1741.5000   -32.1883    14.4038    11.2111     9.2340    -0.0038     0.1478   124.1792     2.3810  -999.2500
 1742.0000   -32.1913    14.2501    11.2081     9.2334     0.0021     0.1389   124.1254     2.4004  -999.2500
 1742.5000   -31.8957    13.7979    11.2051     9.2327     0.0125     0.1287   121.4778     2.4318  -999.2500
 1743.0000   -31.6000    13.4949    11.3512     9.2321     0.0229     0.1222   124.2033     2.4512  -999.2500
 1743.5000   -31.3045    13.4904    11.3480     9.2315     0.0288     0.1168   126.0354     2.4553  -999.2500
 1744.0000   -31.0090    13.6358    11.1963     9.2309     0.0169     0.1274   127.8446     2.4332  -999.2500
 1744.5000   -30.7134    13.7806    11.0445     9.2303     0.0019     0.1414   129.5020     2.4032  -999.2500
 1745.0000   -30.4181    13.9253    10.7439     9.2298     0.0078     0.1345   125.6719     2.4137  -999.2500
 1745.5000   -30.4210    13.7711    10.4433     9.2292     0.0168     0.1265   122.2507     2.4331  -999.2500
 1746.0000   -30.4240    13.3189    10.1427     9.2286     0.0137     0.1283   120.5194     2.4211  -999.2500
 1746.5000   -30.4270    13.0159     9.9910     9.2280     0.0152     0.1282   121.9403     2.4208  -999.2500
 1747.0000   -30.4299    12.7129     9.8392     9.2274     0.0241     0.1249   122.2935     2.4374  -999.2500
 1747.5000   -30.4329    12.5592     9.6874     9.2268     0.0315     0.1166   116.2534     2.4553  -999.2500
 1748.0000   -31.0329    12.5548     9.8334     9.2262     0.0240     0.1078   117.0148     2.4777  -999.2500
 1748.5000   -31.3344    12.6996    10.1279     9.2256     0.0195     0.1106   118.2370     2.4811  -999.2500
 1749.0000   -31.9344    12.9936    10.4226     9.2250     0.0299     0.1176   113.4088     2.4552  -999.2500
 1749.5000   -32.2358    13.2877    10.5684     9.2244     0.0478     0.1092   109.0091     2.4821  -999.2500
 1750.0000   -32.5373    13.4329    10.7143     9.2238     0.0284     0.1057   104.7761     2.4865  -999.2500
 1750.5000   -32.5432    13.5776    10.8601     9.2232     0.0059     0.1085   101.8951     2.4774  -999.2500
 1751.0000   -32.8418    13.7221    11.0060     9.2226     0.0014     0.1126    98.4357     2.4652  -999.2500
 1751.5000   -32.8448    13.5683    11.0030     9.2221     0.0107     0.1163   102.7383     2.4519  -999.2500
 1752.0000   -32.5492    13.5639    11.0000     9.2215     0.0255     0.1202   111.0390     2.4474  -999.2500
 1752.5000   -32.5522    13.4102    10.9970     9.2209     0.0242     0.1231   116.7159     2.4407  -999.2500
 1753.0000   -32.5373    13.2565    10.8452     9.2203     0.0050     0.1367   128.4049     2.4145  -999.2500
 1753.5000   -32.2596    13.1027    10.6935     9.2197     0.0012     0.1307   134.9253     2.3981  -999.2500
 1754.0000   -31.9641    13.0983    10.6905     9.2191     0.0176     0.1172   134.4837     2.4564  -999.2500
 1754.5000   -31.6685    12.9446    10.6875     9.2185     0.0161     0.1313   133.1224     2.4338  -999.2500
 1755.0000   -31.6418    12.9401    10.6846     9.2179     0.0203     0.1275   131.0746     2.4234  -999.2500
 1755.5000   -31.3760    13.0849    10.5327     9.2173     0.0320     0.1145   128.5613     2.4538  -999.2500
 1756.0000   -31.3432    13.2297    10.5118     9.2167     0.0557     0.0994   125.3909     2.4761  -999.2500
 1756.5000   -31.0834    13.5238    10.3780     9.2161     0.0510     0.0964   122.6685     2.5100  -999.2500
 1757.0000   -31.3851    13.5193    10.2054     9.2155     0.0321     0.1032   120.3207     2.5034  -999.2500
 1757.5000   -31.3881    13.3656    10.0520     9.2149     0.0229     0.1214   118.9685     2.4600  -999.2500
 1758.0000   -31.6896    13.0626     9.8989     9.2143     0.0256     0.1177   118.5119     2.4501  -999.2500
 1758.5000   -31.6925    12.9089     9.7455     9.2138     0.0277     0.1132   118.0553     2.4635  -999.2500
 1759.0000   -31.7493    12.7552     9.5922     9.2132     0.0238     0.1252   113.5688     2.4629  -999.2500
 1759.5000   -31.9970    12.4522     9.4672     9.2126     0.0153     0.1151   105.0525     2.4523  -999.2500
 1760.0000   -32.2985    12.2985     9.6134     9.2159     0.0027     0.1285   109.5212     2.4104  -999.2500
 1760.5000   -32.3015    12.1448     9.7592     9.2412     0.0068     0.1416   116.6765     2.3961  -999.2500
 1761.0000   -32.3045    11.9886     9.7887     9.2406     0.0193     0.1353   124.7273     2.4144  -999.2500
 1761.5000   -31.6418    11.8373     9.9021     9.2400     0.0286     0.1246   127.8528     2.4354  -999.2500
 1762.0000   -31.0448    11.8329    10.0480     9.2394     0.0367     0.1123   126.0529     2.4652  -999.2500
 1762.5000   -30.8205    12.1393    10.1938     9.2388     0.0442     0.1019   124.2530     2.4879  -999.2500
 1763.0000   -31.1999    12.7268    10.3397     9.2449     0.0483     0.1004   121.1098     2.5012  -999.2500
 1763.5000   -31.8836    12.8729    10.4855     9.2675     0.0476     0.1071   117.5188     2.4951  -999.2500
 1764.0000   -32.4059    13.1682    10.5239     9.2668     0.0453     0.1108   114.8234     2.4868  -999.2500
 1764.5000   -32.6239    13.3032    10.6284     9.2662     0.0297     0.1135   112.5757     2.4769  -999.2500
 1765.0000   -32.6269    13.1368    10.6250     9.2657     0.0168     0.1193   110.7758     2.4495  -999.2500
 1765.5000   -32.3309    12.9955    10.6220     9.2740     0.0108     0.1324   114.3490     2.4331  -999.2500
 1766.0000   -32.2388    12.8418    10.6190     9.2944     0.0175     0.1221   116.5790     2.4525  -999.2500
 1766.5000   -31.9403    12.6881    10.4673     9.2937     0.0174     0.1211   117.9134     2.4375  -999.2500
 1767.0000   -31.7428    12.5169    10.4643     9.2931     0.0073     0.1365   116.5373     2.4265  -999.2500
 1767.5000   -31.4472    12.3620    10.3125     9.2925     0.0100     0.1307   112.9554     2.4434  -999.2500
 1768.0000   -31.4507    12.2269    10.3096     9.2920     0.0151     0.1294   112.9850     2.4448  -999.2500
 1768.5000   -31.5642    12.2224    10.3065     9.2914     0.0106     0.1358   114.2958     2.4209  -999.2500
 1769.0000   -32.1671    12.3896    10.3036     9.2908     0.0045     0.1394   112.4955     2.4029  -999.2500
 1769.5000   -32.3552    12.6615    10.3006     9.2902     0.0029     0.1424   113.0867     2.4089  -999.2500
 1770.0000   -32.6567    12.8063    10.2976     9.2896     0.0089     0.1329   114.8361     2.4402  -999.2500
 1770.5000   -32.6597    12.8015    10.2946     9.2890     0.0179     0.1239   116.7733     2.4491  -999.2500
 1771.0000   -32.6627    12.6204    10.2917     9.2884     0.0283     0.1203   119.7016     2.4506  -999.2500
 1771.5000   -32.3672    12.3448    10.2887     9.2735     0.0417     0.1144   118.8510     2.4565  -999.2500
 1772.0000   -32.2388    12.1911    10.2202     9.2574     0.0495     0.1066   111.0995     2.4714  -999.2500
