~VERSION INFORMATION
 VERS.                2.0:   CWLS LOG ASCII STANDARD - VERSION 2.0
 WRAP.                 NO:   ONE LINE PER DEPTH STEP
~WELL INFORMATION
#MNEM.UNIT      DATA TYPE    INFORMATION
#----------   ------------   ------------------------------
 STRT.F            1.0000:   START DEPTH
 STOP.F          524.0000:   STOP DEPTH
 STEP.F            0.1000:   STEP LENGTH
 NULL.          -999.2500:   NO VALUE
 COMP.       F D SERV INC:   COMPANY
 WELL.    87-2 SX-3 #87-3:   WELL
 FLD .             TEAPOT:   FIELD
 LOC .       S3 T38N R78W:   LOCATION
 CNTY.            NATRONA:   COUNTY
 STAT.            WYOMING:   STATE
 CTRY. UNITED STATES OF AMERICA:   COUNTRY
 SRVC.     Atlas Wireline:   SERVICE COMPANY
 DATE.        20-OCT-1992:   LOGDATE
 API .       490252254700:   API NUMBER
~CURVE INFORMATION
#MNEM.UNIT       API CODE    CURVE DESCRIPTION
#----------   ------------   ------------------------------
 DEPT.F                  :   
 GRR .GAPI   07 310 01 00:   GAMMA RAY
 RILD.OHMM   07 120 46 00:   INDUCTION LOG DEEP RESISTIVITY
 RILM.OHMM   07 120 44 00:   INDUCTION LOG MEDIUM RESISTIVITY
~PARAMETER INFORMATION
#MNEM.UNIT          VALUE    DESCRIPTION
#----------   ------------   ------------------------------
 PD  .                 GL:   PERMANENT DATUM
 EPD .F              5124:   ELEVATION PERMANENT DATUM
 LMF .                 KB:   LOG MEASURED FROM
 DAPD.F                10:   FEET ABOVE PERMANENT DATUM
 DMF .                 KB:   DRILLING MEASURED FROM
 EKB .F              5134:   KELLING BUSHING
 EDF .F              5133:   DRILLING FLOOR
 EGL .F              5124:   GROUND LEVEL
 DATE.        20-OCT-1992:   RUN DATE
 RUN .                  1:   RUN NUMBER
 DD  .F               533:   DEPTH DRILLER
 DL  .F               532:   DEPTH LOGGER
 BLI .F               524:   BOTTOM LOG INTERVAL
 TLI .F                74:   TOP LOG INTERVAL
 CS  .IN            8.625:   CASING SIZE
 CBD .F                85:   CASING BOTTOM DRILLER
 CBL .F                74:   CASING BOTTOM LOGGER
 BS  .IN            7.875:   BIT SIZE
 BSD .F               533:   BIT SIZE AT DEPTH
 DFT .           AIR FOAM:   DRILLING FLUID TYPE
 TCS .HRS               3:   TIME CURCULATED STOPPED
 MRT .F                70:   MAXIMUM RECORDED TEMPERATURE
 LUN .            HL-6274:   LOGGING UNIT NUMBER
 LUL .             CASPER:   LOGGING UNIT LOCATION
 ENGI.             RAUTIO:   RECORDING ENGINEER
 WITN.        GARY STRONG:   WITNESSED BY
 CLNT.            A2DTECH:   CLIENT CODE
 ORIG.           5" PRINT:   ORIGIN OF DATA
 UWI .       490252254700:   UNIQUE WELL ID
 DICO. A2D Technologies, Inc.:   DIGITIZING COMPANY
~OTHER INFORMATION
~A    DEPT     GRR       RILD       RILM   
# ...
  274.0000   140.9078     7.1950     7.2336
  274.1000   140.6570     7.1951     7.2333
  274.2000   140.4061     7.1952     7.2329
  274.3000   140.5740     7.1953     7.2325
  274.4000   140.8997     7.1954     7.2321
  274.5000   140.9514     7.1955     7.2316
  274.6000   141.5012     7.1834     7.2313
  274.7000   141.4985     7.1456     7.2309
  274.8000   141.8213     7.1458     7.2491
  274.9000   142.1003     7.1459     7.2715
  275.0000   142.0973     7.1460     7.2296
  275.1000   142.0942     7.1305     7.2292
  275.2000   142.3335     7.0965     7.2288
  275.3000   142.3921     7.0966     7.2284
  275.4000   142.3891     7.0967     7.2147
  275.5000   142.3860     7.0968     7.1772
  275.6000   142.3830     7.0969     7.1768
  275.7000   142.3795     7.0970     7.1764
  275.8000   142.5864     7.0971     7.1496
  275.9000   142.6778     7.0972     7.1256
  276.0000   142.6748     7.0657     7.1252
  276.1000   142.7128     7.0480     7.1248
  276.2000   142.9725     7.0481     7.1244
  276.3000   143.2024     7.0482     7.1240
  276.4000   143.4472     7.0483     7.1236
  276.5000   143.8125     7.0484     7.1232
  276.6000   144.3052     7.0485     7.1228
  276.7000   144.8146     7.0320     7.1224
  276.8000   145.9933     6.9997     7.1220
  276.9000   146.9908     6.9998     7.1216
  277.0000   147.9392     6.9999     7.1212
  277.1000   148.5042     7.0000     7.1209
  277.2000   148.7177     7.0001     7.1204
  277.3000   148.7140     7.0002     7.1584
  277.4000   148.7112     7.0003     7.1696
  277.5000   148.7082     7.0004     7.1692
  277.6000   148.7052     7.0005     7.1688
  277.7000   148.7021     7.0006     7.1684
  277.8000   148.6991     7.0007     7.1679
  277.9000   148.6960     7.0060     7.1927
  278.0000   148.6930     7.0499     7.2176
  278.1000   148.6900     7.0500     7.2171
  278.2000   148.6087     7.0501     7.2167
  278.3000   148.3578     7.0502     7.2163
  278.4000   148.0725     7.0503     7.2159
  278.5000   147.8561     7.0504     7.2155
  278.6000   147.4476     7.0505     7.2151
  278.7000   146.9489     7.0506     7.2244
  278.8000   146.4956     7.0507     7.2649
  278.9000   146.2339     7.0508     7.2645
  279.0000   145.9939     7.0509     7.2641
  279.1000   145.7431     7.0510     7.2637
  279.2000   145.1177     7.0511     7.2633
  279.3000   144.1921     7.0512     7.2629
  279.4000   143.4204     7.0513     7.2624
  279.5000   141.9600     7.0514     7.2621
  279.6000   141.3447     7.0515     7.2617
  279.7000   140.4500     7.0515     7.2613
  279.8000   139.5477     7.0516     7.2523
  279.9000   138.9088     7.0517     7.2098
  280.0000   138.9055     7.0518     7.2094
  280.1000   138.9027     7.0519     7.2090
  280.2000   138.8997     7.0520     7.1869
  280.3000   138.8967     7.0521     7.1580
  280.4000   138.8936     7.0299     7.1544
  280.5000   138.8906     7.0033     7.1073
  280.6000   138.8875     6.9993     7.1069
  280.7000   138.8845     6.9548     7.1065
  280.8000   139.0201     6.9549     7.1061
  280.9000   139.2649     6.9550     7.1057
  281.0000   139.5096     6.9551     7.1053
  281.1000   139.7838     6.9552     7.1049
  281.2000   140.2173     6.9553     7.1045
  281.3000   140.5479     6.9176     7.0639
  281.4000   140.8984     6.9071     6.9833
  281.5000   141.4407     6.9072     6.9055
  281.6000   142.2005     6.8965     6.8588
  281.7000   142.9215     6.8594     6.8264
  281.8000   143.6619     6.8595     6.7641
  281.9000   144.5315     6.8278     6.7153
  282.0000   145.5929     6.7892     6.7093
  282.1000   146.8289     6.7647     6.6678
  282.2000   148.2609     6.7597     6.6325
  282.3000   149.0924     6.7179     6.5944
  282.4000   150.2332     6.7179     6.5741
  282.5000   151.4691     6.6668     6.5646
  282.6000   152.6649     6.6083     6.5268
  282.7000   153.7171     6.5628     6.4893
  282.8000   154.4098     6.4880     6.4520
  282.9000   154.7988     6.4517     6.4358
  283.0000   154.9240     6.3877     6.4229
  283.1000   154.8575     6.3347     6.3859
  283.2000   154.6067     6.2989     6.3453
  283.3000   154.3064     6.2633     6.2808
  283.4000   154.3040     6.2225     6.2092
  283.5000   154.3009     6.1927     6.1693
  283.6000   154.3846     6.1794     6.1689
  283.7000   154.6294     6.1795     6.1686
  283.8000   154.8994     6.1796     6.1682
  283.9000   155.1189     6.1796     6.1679
  284.0000   155.5299     6.1797     6.1675
  284.1000   155.9125     6.1798     6.1672
  284.2000   156.1572     6.1799     6.1668
  284.3000   156.4042     6.1800     6.1664
  284.4000   156.8924     6.1801     6.1661
  284.5000   157.3850     6.1802     6.1658
  284.6000   157.6109     6.1802     6.1655
  284.7000   157.6851     6.1803     6.1651
  284.8000   157.9091     6.1804     6.1648
  284.9000   157.9053     6.1805     6.1644
  285.0000   157.9027     6.1806     6.1641
  285.1000   158.0564     6.1807     6.1637
  285.2000   158.2006     6.1581     6.1634
  285.3000   158.1976     6.1379     6.1630
  285.4000   158.1944     6.1380     6.1626
  285.5000   158.1915     6.1380     6.1624
  285.6000   158.1885     6.1047     6.1620
  285.7000   158.1854     6.0955     6.1617
  285.8000   158.1824     6.0956     6.1613
  285.9000   158.1793     6.0861     6.1610
  286.0000   158.1758     6.0517     6.1606
  286.1000   158.1733     6.0114     6.1110
  286.2000   158.1702     5.9836     6.0744
  286.3000   158.1672     5.9498     6.0652
  286.4000   158.1293     5.9040     6.0304
  286.5000   157.8569     5.8373     5.9889
  286.6000   157.6275     5.7653     5.9613
  286.7000   157.2063     5.7358     5.9076
  286.8000   156.7077     5.6816     5.8286
  286.9000   155.9762     5.6175     5.7251
  287.0000   154.4924     5.5472     5.5829
  287.1000   153.7458     5.4527     5.4693
  287.2000   152.4182     5.4221     5.3253
  287.3000   151.2034     5.3683     5.2147
  287.4000   150.1276     5.3238     5.1552
  287.5000   149.0125     5.2937     5.0963
  287.6000   150.2245     5.2661     5.0671
  287.7000   151.0900     5.2662     5.0379
  287.8000   151.9173     5.2409     5.0247
  287.9000   152.6577     5.2297     5.0244
  288.0000   153.3982     5.2298     5.0269
  288.1000   154.1610     5.2299     5.0591
  288.2000   154.3984     5.2299     5.0588
  288.3000   154.8273     5.2300     5.0962
  288.4000   155.1919     5.2301     5.1295
  288.5000   155.4367     5.2302     5.1408
  288.6000   155.6814     5.2302     5.2012
  288.7000   155.9661     5.2310     5.2009
  288.8000   155.5486     5.2608     5.2451
  288.9000   154.7472     5.2671     5.3050
  289.0000   153.6577     5.2671     5.3565
  289.1000   152.3764     5.2773     5.3869
  289.2000   150.7840     5.3074     5.4222
  289.3000   149.6272     5.3414     5.4745
  289.4000   148.7344     5.3682     5.5174
  289.5000   148.1064     5.3789     5.5487
  289.6000   147.7325     5.3920     5.5855
  289.7000   147.7233     5.4228     5.6530
  289.8000   147.4724     5.4548     5.6832
  289.9000   147.2215     5.4548     5.7154
  290.0000   147.1125     5.4778     5.7640
  290.1000   147.0237     5.5091     5.8121
  290.2000   146.7729     5.5406     5.8131
  290.3000   146.4951     5.5705     5.8522
  290.4000   145.8285     5.5706     5.8791
  290.5000   145.0821     5.6231     5.8926
  290.6000   143.7907     5.6682     5.9045
  290.7000   141.9634     5.7006     5.9334
  290.8000   140.7051     5.7331     5.9330
  290.9000   140.2129     5.7688     5.9636
  291.0000   140.0912     5.7988     5.9740
  291.1000   140.4852     5.8319     5.9736
  291.2000   141.1494     5.8804     5.9813
  291.3000   141.6821     5.9476     6.0155
  291.4000   142.8141     6.0158     6.0843
  291.5000   143.6586     6.0501     6.1263
  291.6000   144.1799     6.0846     6.1808
  291.7000   144.5242     6.1382     6.2394
  291.8000   144.9734     6.1974     6.2747
  291.9000   145.2309     6.2356     6.3145
  292.0000   145.4630     6.3175     6.3461
  292.1000   145.8867     6.3483     6.3820
