~VERSION INFORMATION
 VERS.                2.0:   CWLS LOG ASCII STANDARD - VERSION 2.0
 WRAP.                 NO:   ONE LINE PER DEPTH STEP
~WELL INFORMATION
#MNEM.UNIT      DATA TYPE    INFORMATION
#----------   ------------   ------------------------------
 STRT.F          695.0000:   START DEPTH
 STOP.F         1588.0000:   STOP DEPTH
 STEP.F            0.5000:   STEP LENGTH
 NULL.          -999.2500:   NO VALUE
 COMP. FENIX & SCISSON INC:   COMPANY
 WELL. 13 SHX 10 STX #13-10:   WELL
 FLD .             TEAPOT:   FIELD
 LOC .      S10 T38N R78W:   LOCATION
 CNTY.            NATRONA:   COUNTY
 STAT.            WYOMING:   STATE
 CTRY. UNITED STATES OF AMERICA:   COUNTRY
 SRVC.            Unknown:   SERVICE COMPANY
 DATE.        22-JUL-1979:   LOGDATE
 API .       490251078700:   API NUMBER
~CURVE INFORMATION
#MNEM.UNIT       API CODE    CURVE DESCRIPTION
#----------   ------------   ------------------------------
 DEPT.F                  :   
 CORR.G/C3   45 356 01 00:   DENSITY CORRECTION
 RHOB.G/C3   45 350 01 00:   BULK DENSITY
 CALD.IN     45 280 60 00:   CALIPER
 GRD .GAPI   45 310 01 00:   GAMMA RAY FROM DENSITY LOG
 DPHI.DEC    45 890 12 00:   DENSITY POROSITY SANDSTONE
~PARAMETER INFORMATION
#MNEM.UNIT          VALUE    DESCRIPTION
#----------   ------------   ------------------------------
 PD  .                 GL:   PERMANENT DATUM
 EPD .F              5306:   ELEVATION PERMANENT DATUM
 LMF .                 DF:   LOG MEASURED FROM
 DAPD.F                 9:   FEET ABOVE PERMANENT DATUM
 DMF .                 KB:   DRILLING MEASURED FROM
 EKB .F              5316:   KELLING BUSHING
 EDF .F              5315:   DRILLING FLOOR
 EGL .F              5306:   GROUND LEVEL
 DATE.            7-22-79:   RUN DATE
 RUN .                  1:   RUN NUMBER
 DD  .F              1595:   DEPTH DRILLER
 DL  .F              1588:   DEPTH LOGGER
 BLI .F              1588:   BOTTOM LOG INTERVAL
 TLI .F               700:   TOP LOG INTERVAL
 CS  .IN            9.625:   CASING SIZE
 CBD .F               950:   CASING BOTTOM DRILLER
 CBL .F               950:   CASING BOTTOM LOGGER
 BS  .IN             8.75:   BIT SIZE
 BSD .F              1595:   BIT SIZE AT DEPTH
 DFT .                OIL:   DRILLING FLUID TYPE
 TCS .HRS               2:   TIME CURCULATED STOPPED
 LUN .               2959:   LOGGING UNIT NUMBER
 LUL .             CASPER:   LOGGING UNIT LOCATION
 ENGI.            ROLLINS:   RECORDING ENGINEER
 WITN.           DINSMORE:   WITNESSED BY
 CLNT.            A2DTECH:   CLIENT CODE
 ORIG.     1", 2.5" PRINT:   ORIGIN OF DATA
 UWI .       490251078700:   UNIQUE WELL ID
 DICO. A2D Technologies, Inc.:   DIGITIZING COMPANY
~OTHER INFORMATION
~A   DEPT     CORR       RHOB       CALD         GRD      DPHI   
# ...
 1305.0000     0.0147     2.4963     8.6602   108.0986     0.0335
 1305.5000     0.0128     2.4915     8.6627   109.2350     0.0364
 1306.0000     0.0110     2.4808     8.6653   111.1547     0.0426
 1306.5000     0.0092     2.4706     8.6679   110.1984     0.0514
 1307.0000     0.0072     2.4663     8.6704   112.9951     0.0493
 1307.5000     0.0071     2.4741     8.6730   115.9402     0.0427
 1308.0000     0.0071     2.4889     8.6755   116.1013     0.0383
 1308.5000     0.0071     2.4871     8.6781   114.8813     0.0410
 1309.0000     0.0071     2.4798     8.6807   112.6327     0.0439
 1309.5000     0.0069     2.4729     8.6832   110.6934     0.0468
 1310.0000     0.0033     2.4659     8.6858   112.4651     0.0497
 1310.5000    -0.0005     2.4661     8.6884   116.0679     0.0521
 1311.0000     0.0052     2.4731     8.6909   118.8746     0.0483
 1311.5000     0.0099     2.4821     8.6935   119.6468     0.0435
 1312.0000     0.0152     2.4910     8.6962   119.5885     0.0385
 1312.5000     0.0207     2.5001     8.6972   119.2996     0.0336
 1313.0000     0.0225     2.5022     8.6957   120.1141     0.0318
 1313.5000     0.0192     2.5007     8.6943   121.6742     0.0326
 1314.0000     0.0163     2.4944     8.6930   122.0040     0.0360
 1314.5000     0.0134     2.4883     8.6916   118.9898     0.0394
 1315.0000     0.0105     2.4819     8.6902   115.6211     0.0428
 1315.5000     0.0074     2.4779     8.6889   117.7754     0.0447
 1316.0000     0.0077     2.4762     8.6875   121.5734     0.0456
 1316.5000     0.0082     2.4821     8.6861   116.4005     0.0408
 1317.0000     0.0089     2.4879     8.6847   109.9394     0.0408
 1317.5000     0.0095     2.4832     8.6834   106.9229     0.0425
 1318.0000     0.0101     2.4760     8.6820   107.2477     0.0448
 1318.5000     0.0107     2.4757     8.6807   105.4997     0.0433
 1319.0000     0.0113     2.4778     8.6793   106.6508     0.0420
 1319.5000     0.0120     2.4801     8.6779   111.2008     0.0406
 1320.0000     0.0126     2.4825     8.6766   113.4415     0.0393
 1320.5000     0.0132     2.4848     8.6752   113.3165     0.0379
 1321.0000     0.0138     2.4871     8.6738   112.0369     0.0367
 1321.5000     0.0144     2.4842     8.6725   109.2606     0.0394
 1322.0000     0.0151     2.4798     8.6711   106.3801     0.0418
 1322.5000     0.0146     2.4798     8.6697   105.6364     0.0424
 1323.0000     0.0137     2.4798     8.6684   107.9668     0.0418
 1323.5000     0.0128     2.4794     8.6670   109.5144     0.0408
 1324.0000     0.0119     2.4824     8.6656   107.2895     0.0398
 1324.5000     0.0110     2.4878     8.6643   105.4578     0.0397
 1325.0000     0.0101     2.4873     8.6629   108.6343     0.0418
 1325.5000     0.0092     2.4761     8.6615   111.9258     0.0471
 1326.0000     0.0083     2.4682     8.6602   113.7093     0.0513
 1326.5000     0.0073     2.4718     8.6588   113.6499     0.0477
 1327.0000     0.0083     2.4796     8.6573   111.7867     0.0433
 1327.5000     0.0100     2.4876     8.6551   107.6684     0.0387
 1328.0000     0.0159     2.4954     8.6526   106.6245     0.0341
 1328.5000     0.0247     2.5036     8.6501   108.6318     0.0294
 1329.0000     0.0283     2.5051     8.6476   110.7610     0.0285
 1329.5000     0.0290     2.5027     8.6451   110.2402     0.0294
 1330.0000     0.0301     2.5005     8.6426   109.0070     0.0305
 1330.5000     0.0312     2.4991     8.6401   107.9642     0.0330
 1331.0000     0.0301     2.4930     8.6376   106.9747     0.0371
 1331.5000     0.0248     2.4841     8.6351   106.0942     0.0412
 1332.0000     0.0233     2.4811     8.6326   105.6321     0.0441
 1332.5000     0.0234     2.4807     8.6301   107.0313     0.0434
 1333.0000     0.0223     2.4799     8.6276   108.3495     0.0426
 1333.5000     0.0188     2.4804     8.6251   108.8301     0.0419
 1334.0000     0.0154     2.4819     8.6225   107.7985     0.0411
 1334.5000     0.0120     2.4833     8.6202   106.5379     0.0418
 1335.0000     0.0086     2.4808     8.6176   105.9474     0.0436
 1335.5000     0.0049     2.4766     8.6246   106.3350     0.0454
 1336.0000     0.0030     2.4764     8.6358   107.1988     0.0473
 1336.5000     0.0037     2.4775     8.6468   106.8417     0.0441
 1337.0000     0.0041     2.4827     8.6577   106.3305     0.0409
 1337.5000     0.0046     2.4877     8.6688   107.4640     0.0383
 1338.0000     0.0051     2.4878     8.6798   110.6009     0.0389
 1338.5000     0.0055     2.4879     8.6907   111.9028     0.0396
 1339.0000     0.0060     2.4876     8.7018   110.8835     0.0392
 1339.5000     0.0065     2.4907     8.7128   110.9438     0.0375
 1340.0000     0.0066     2.4963     8.7236   111.1062     0.0359
 1340.5000     0.0108     2.5013     8.7347   108.9568     0.0327
 1341.0000     0.0176     2.5063     8.7359   106.5316     0.0297
 1341.5000     0.0244     2.5121     8.7324   107.7393     0.0262
 1342.0000     0.0271     2.5106     8.7290   109.0420     0.0262
 1342.5000     0.0255     2.5018     8.7258   109.4745     0.0300
 1343.0000     0.0242     2.4944     8.7224   112.6302     0.0358
 1343.5000     0.0241     2.4908     8.7191   115.4795     0.0371
 1344.0000     0.0267     2.4932     8.7158   115.3203     0.0355
 1344.5000     0.0254     2.4893     8.7125   113.0777     0.0386
 1345.0000     0.0225     2.4818     8.7092   110.9344     0.0435
 1345.5000     0.0194     2.4772     8.7059   108.8292     0.0448
 1346.0000     0.0193     2.4778     8.7025   106.7573     0.0446
 1346.5000     0.0193     2.4777     8.6993   106.1216     0.0442
 1347.0000     0.0192     2.4786     8.6952   106.7456     0.0438
 1347.5000     0.0191     2.4795     8.6903   111.0339     0.0434
 1348.0000     0.0143     2.4771     8.6854   114.2835     0.0450
 1348.5000     0.0093     2.4703     8.6805   114.2600     0.0482
 1349.0000     0.0042     2.4659     8.6756   111.6203     0.0514
 1349.5000     0.0034     2.4677     8.6707   109.2164     0.0500
 1350.0000     0.0039     2.4716     8.6658   110.4948     0.0474
 1350.5000     0.0045     2.4759     8.6609   112.4429     0.0447
 1351.0000     0.0050     2.4801     8.6560   114.6211     0.0420
 1351.5000     0.0055     2.4843     8.6511   116.5581     0.0394
 1352.0000     0.0060     2.4885     8.6463   118.4182     0.0367
 1352.5000     0.0065     2.4926     8.6413   117.1730     0.0343
 1353.0000     0.0070     2.4896     8.6365   116.0173     0.0372
 1353.5000     0.0083     2.4843     8.6315   116.1456     0.0416
 1354.0000     0.0110     2.4900     8.6266   116.7169     0.0394
 1354.5000     0.0091     2.4944     8.6219   117.4032     0.0332
 1355.0000     0.0071     2.4994     8.6168   118.0603     0.0343
 1355.5000     0.0050     2.4924     8.6202   114.4859     0.0374
 1356.0000     0.0029     2.4830     8.6264   116.2582     0.0405
 1356.5000     0.0009     2.4906     8.6324   114.9906     0.0389
 1357.0000    -0.0008     2.5072     8.6383   109.6773     0.0283
 1357.5000     0.0015     2.5233     8.6442   104.3488     0.0177
 1358.0000     0.0037     2.5375     8.6502    99.5100     0.0083
 1358.5000     0.0063     2.5467     8.6561    99.8631     0.0083
 1359.0000     0.0059     2.5240     8.6621   101.9277     0.0194
 1359.5000     0.0030     2.5016     8.6680   106.7143     0.0313
 1360.0000     0.0004     2.4841     8.6739   111.6037     0.0408
 1360.5000    -0.0010     2.4772     8.6799   113.4436     0.0420
 1361.0000     0.0014     2.4826     8.6858   115.1339     0.0419
 1361.5000     0.0036     2.4872     8.6917   113.5029     0.0395
 1362.0000     0.0060     2.4916     8.6977   110.4603     0.0372
 1362.5000     0.0072     2.4959     8.7036   112.6423     0.0349
 1363.0000     0.0071     2.4930     8.7095   113.1695     0.0355
 1363.5000     0.0072     2.4886     8.7155   112.6277     0.0374
 1364.0000     0.0147     2.4948     8.7214   113.7429     0.0303
 1364.5000     0.0229     2.5097     8.7273   116.8866     0.0291
 1365.0000     0.0200     2.5038     8.7332   116.8337     0.0316
 1365.5000     0.0176     2.4960     8.7392   116.9263     0.0335
