~VERSION INFORMATION
 VERS.                2.0:   CWLS LOG ASCII STANDARD - VERSION 2.0
 WRAP.                 NO:   ONE LINE PER DEPTH STEP
~WELL INFORMATION
#MNEM.UNIT      DATA TYPE    INFORMATION
#----------   ------------   ------------------------------
 STRT.F           28.0000:   START DEPTH
 STOP.F          468.0000:   STOP DEPTH
 STEP.F            0.5000:   STEP LENGTH
 NULL.          -999.2500:   NO VALUE
 COMP. FENIX & SCISSON INC:   COMPANY
 WELL. NAVAL PETROLEUM RESERVE 3 SX3F #35-3:   WELL
 FLD .             TEAPOT:   FIELD
 LOC .       S3 T38N R78W:   LOCATION
 CNTY.            NATRONA:   COUNTY
 STAT.            WYOMING:   STATE
 CTRY. UNITED STATES OF AMERICA:   COUNTRY
 SRVC.              Welex:   SERVICE COMPANY
 DATE.        07-JUL-1980:   LOGDATE
 API .       490251081700:   API NUMBER
~CURVE INFORMATION
#MNEM.UNIT       API CODE    CURVE DESCRIPTION
#----------   ------------   ------------------------------
 DEPT.F                  :   
 CORR.G/C3   45 356 01 00:   DENSITY CORRECTION
 RHOB.G/C3   45 350 01 00:   BULK DENSITY
 CALD.IN     45 280 60 00:   CALIPER
 GRD .GAPI   45 310 01 00:   GAMMA RAY FROM DENSITY LOG
 DPHI.DEC    45 890 12 00:   DENSITY POROSITY SANDSTONE
~PARAMETER INFORMATION
#MNEM.UNIT          VALUE    DESCRIPTION
#----------   ------------   ------------------------------
 PD  .                 GL:   PERMANENT DATUM
 EPD .F              5162:   ELEVATION PERMANENT DATUM
 LMF .                 KB:   LOG MEASURED FROM
 DAPD.F                 5:   FEET ABOVE PERMANENT DATUM
 DMF .                 KB:   DRILLING MEASURED FROM
 EKB .F              5167:   KELLING BUSHING
 EGL .F              5162:   GROUND LEVEL
 DATE.             7-7-80:   RUN DATE
 RUN .                  1:   RUN NUMBER
 DD  .F               470:   DEPTH DRILLER
 DL  .F               470:   DEPTH LOGGER
 BLI .F               468:   BOTTOM LOG INTERVAL
 TLI .F                30:   TOP LOG INTERVAL
 BS  .IN             6.25:   BIT SIZE
 BSD .F               470:   BIT SIZE AT DEPTH
 DFT .        ARI DRILLED:   DRILLING FLUID TYPE
 TCS .HRS             1.5:   TIME CURCULATED STOPPED
 MRT .F                74:   MAXIMUM RECORDED TEMPERATURE
 ENGI.            TOTHILL:   RECORDING ENGINEER
 WITN.             AMENDS:   WITNESSED BY
 CLNT.            A2DTECH:   CLIENT CODE
 ORIG.           5" PRINT:   ORIGIN OF DATA
 UWI .       490251081700:   UNIQUE WELL ID
 DICO. A2D Technologies, Inc.:   DIGITIZING COMPANY
~OTHER INFORMATION
~A   DEPT      CORR        RHOB       CALD       GRD        DPHI 
# ...
  272.0000     0.0606     2.4303     6.1602   129.1182     0.1444
  272.5000     0.0486     2.4519     6.1823   122.9623     0.1279
  273.0000     0.0483     2.4749     6.2026   116.9677     0.1129
  273.5000     0.0616     2.4874     6.2021   117.8832     0.1105
  274.0000     0.0487     2.4814     6.2020   118.9369     0.1165
  274.5000     0.0350     2.4758     6.2020   118.4667     0.1208
  275.0000     0.0267     2.4700     6.2020   116.6238     0.1242
  275.5000     0.0283     2.4685     6.2020   116.7189     0.1239
  276.0000     0.0316     2.4707     6.2020   116.4674     0.1218
  276.5000     0.0413     2.4761     6.2020   115.3914     0.1176
  277.0000     0.0511     2.4815     6.2020   115.6358     0.1178
  277.5000     0.0608     2.4793     6.2020   114.9249     0.1165
  278.0000     0.0663     2.4838     6.2020   110.7022     0.1163
  278.5000     0.0631     2.4786     6.2005   105.8318     0.1194
  279.0000     0.0599     2.4720     6.1895    96.8154     0.1227
  279.5000     0.0601     2.4677     6.1786    80.5798     0.1238
  280.0000     0.0752     2.4722     6.1676    67.9038     0.1218
  280.5000     0.0767     2.4669     6.1627    63.8892     0.1276
  281.0000     0.0754     2.4594     6.1911    63.3764     0.1309
  281.5000     0.0781     2.4463     6.2208    66.3015     0.1377
  282.0000     0.0663     2.4240     6.1616    70.4829     0.1510
  282.5000     0.0684     2.4019     6.0923    74.7257     0.1644
  283.0000     0.0767     2.3815     6.0658    76.4355     0.1767
  283.5000     0.0668     2.3831     6.0738    77.5933     0.1757
  284.0000     0.0557     2.3843     6.0824    77.5817     0.1764
  284.5000     0.0446     2.3763     6.0911    77.6124     0.1794
  285.0000     0.0492     2.3761     6.0998    76.3189     0.1791
  285.5000     0.0558     2.3756     6.0984    72.8200     0.1816
  286.0000     0.0598     2.3723     6.0953    66.7022     0.1799
  286.5000     0.0424     2.3555     6.0921    63.8721     0.1965
  287.0000     0.0337     2.3400     6.0890    63.5435     0.2028
  287.5000     0.0236     2.3298     6.0858    63.6946     0.2098
  288.0000     0.0193     2.3255     6.0828    64.2490     0.2105
  288.5000     0.0427     2.3405     6.0813    64.1618     0.1993
  289.0000     0.0588     2.3389     6.0826    64.0400     0.2058
  289.5000     0.0396     2.3230     6.0838    64.0432     0.2115
  290.0000     0.0295     2.3161     6.0851    65.1791     0.2154
  290.5000     0.0362     2.3191     6.0864    67.2429     0.2122
  291.0000     0.0428     2.3278     6.0877    69.2766     0.2058
  291.5000     0.0458     2.3451     6.0890    70.6156     0.1966
  292.0000     0.0447     2.3627     6.0902    69.9768     0.1845
  292.5000     0.0436     2.3780     6.0915    70.6101     0.1791
  293.0000     0.0424     2.3734     6.0928    71.0429     0.1827
  293.5000     0.0426     2.3658     6.0940    70.5542     0.1866
  294.0000     0.0545     2.3586     6.0953    70.1101     0.1900
  294.5000     0.0656     2.3584     6.0966    70.0940     0.1884
  295.0000     0.0530     2.3539     6.0979    70.0990     0.1940
  295.5000     0.0397     2.3553     6.0991    70.4220     0.1900
  296.0000     0.0279     2.3594     6.1004    72.0987     0.1929
  296.5000     0.0469     2.3624     6.0989    74.7594     0.1874
  297.0000     0.0511     2.3598     6.0949    76.9839     0.1914
  297.5000     0.0431     2.3518     6.0910    79.1306     0.1945
  298.0000     0.0534     2.3533     6.0870    79.1834     0.1917
  298.5000     0.0442     2.3612     6.0831    78.4485     0.1881
  299.0000     0.0310     2.3604     6.0791    78.2873     0.1890
  299.5000     0.0239     2.3560     6.0752    78.5179     0.1936
  300.0000     0.0565     2.3515     6.0712    78.4535     0.1908
  300.5000     0.0585     2.3421     6.0672    78.2701     0.1995
  301.0000     0.0735     2.3391     6.0633    78.3037     0.2021
  301.5000     0.1086     2.3537     6.0610    79.3167     0.1940
  302.0000     0.1377     2.3603     6.0627    80.2618     0.1868
  302.5000     0.1142     2.3709     6.0643    80.6074     0.1786
  303.0000     0.0677     2.3904     6.0659    81.4142     0.1698
  303.5000     0.0593     2.4047     6.0675    82.4887     0.1616
  304.0000     0.0601     2.4156     6.0691    83.5774     0.1556
  304.5000     0.0635     2.4203     6.0707    83.8944     0.1532
  305.0000     0.0674     2.4239     6.0724    83.0639     0.1508
  305.5000     0.0714     2.4225     6.0739    83.0168     0.1514
  306.0000     0.0732     2.4211     6.0756    82.5064     0.1526
  306.5000     0.0660     2.4202     6.0772    81.1319     0.1519
  307.0000     0.0673     2.4287     6.0788    80.8550     0.1486
  307.5000     0.0717     2.4280     6.0804    81.4489     0.1492
  308.0000     0.0670     2.4222     6.0820    81.9873     0.1532
  308.5000     0.0550     2.4102     6.0836    81.5030     0.1614
  309.0000     0.0458     2.4018     6.0852    80.9761     0.1632
  309.5000     0.0600     2.4065     6.0868    80.8339     0.1617
  310.0000     0.0661     2.4074     6.0884    81.9481     0.1602
  310.5000     0.0565     2.4015     6.0900    83.0742     0.1661
  311.0000     0.0580     2.4029     6.0916    83.4333     0.1630
  311.5000     0.0701     2.4089     6.0932    83.8313     0.1601
  312.0000     0.0821     2.4049     6.0948    85.5354     0.1615
  312.5000     0.0941     2.4121     6.0964    87.1813     0.1585
  313.0000     0.0919     2.4052     6.0980    88.8944     0.1640
  313.5000     0.0734     2.3963     6.0996    89.5082     0.1683
  314.0000     0.0551     2.3869     6.1015    88.7682     0.1731
  314.5000     0.0403     2.3930     6.1052    87.3410     0.1696
  315.0000     0.0435     2.3983     6.1090    85.9159     0.1670
  315.5000     0.0461     2.3972     6.1128    86.1329     0.1643
  316.0000     0.0522     2.4081     6.1166    86.4754     0.1604
  316.5000     0.0538     2.4013     6.1205    86.2541     0.1633
  317.0000     0.0430     2.3935     6.1147    85.9692     0.1691
  317.5000     0.0318     2.3870     6.1035    85.8918     0.1726
  318.0000     0.0295     2.3871     6.0921    86.9750     0.1710
  318.5000     0.0307     2.3974     6.0813    87.8911     0.1659
  319.0000     0.0422     2.4107     6.0845    87.3658     0.1594
  319.5000     0.0428     2.4107     6.0885    86.0440     0.1566
  320.0000     0.0365     2.4163     6.0923    85.1151     0.1543
  320.5000     0.0501     2.4226     6.0962    86.7320     0.1517
  321.0000     0.0543     2.4226     6.1000    87.2645     0.1522
  321.5000     0.0507     2.4180     6.1038    89.0757     0.1542
  322.0000     0.0444     2.4092     6.1077    90.6659     0.1585
  322.5000     0.0476     2.4137     6.1115    89.7966     0.1565
  323.0000     0.0457     2.4127     6.1154    86.6064     0.1582
  323.5000     0.0411     2.4101     6.1192    86.6485     0.1603
  324.0000     0.0385     2.4073     6.1212    85.9802     0.1626
  324.5000     0.0504     2.4087     6.1212    85.2664     0.1590
  325.0000     0.0604     2.4105     6.1212    85.6481     0.1591
  325.5000     0.0533     2.4100     6.1212    86.0095     0.1585
  326.0000     0.0629     2.4183     6.1212    86.2643     0.1523
  326.5000     0.0727     2.4251     6.1212    86.1039     0.1500
  327.0000     0.0691     2.4254     6.1212    85.5053     0.1500
  327.5000     0.0649     2.4257     6.1213    84.9091     0.1476
  328.0000     0.0664     2.4329     6.1119    84.3063     0.1453
  328.5000     0.0688     2.4391     6.0949    84.0014     0.1435
  329.0000     0.0700     2.4379     6.0808    83.8695     0.1442
  329.5000     0.0595     2.4309     6.0986    83.7414     0.1481
  330.0000     0.0493     2.4247     6.1177    83.4936     0.1487
  330.5000     0.0385     2.4283     6.1159    82.6274     0.1460
  331.0000     0.0468     2.4449     6.1092    81.7672     0.1393
  331.5000     0.0562     2.4553     6.1023    80.9161     0.1326
  332.0000     0.0646     2.4627     6.0955    80.3884     0.1259
  332.5000     0.0660     2.4701     6.0887    81.1517     0.1222
