~VERSION INFORMATION
 VERS.                2.0:   CWLS LOG ASCII STANDARD - VERSION 2.0
 WRAP.                 NO:   ONE LINE PER DEPTH STEP
~WELL INFORMATION
#MNEM.UNIT      DATA TYPE    INFORMATION
#----------   ------------   ------------------------------
 STRT.F            0.0000:   START DEPTH
 STOP.F          562.0000:   STOP DEPTH
 STEP.F            0.1000:   STEP LENGTH
 NULL.          -999.2500:   NO VALUE
 COMP. BROWN JOHN E&C INC:   COMPANY
 WELL.    73-1 SX-3 #73-3:   WELL
 FLD .             TEAPOT:   FIELD
 LOC .       S3 T38N R78W:   LOCATION
 CNTY.            NATRONA:   COUNTY
 STAT.            WYOMING:   STATE
 CTRY. UNITED STATES OF AMERICA:   COUNTRY
 SRVC.      Western Atlas:   SERVICE COMPANY
 DATE.        23-APR-1992:   LOGDATE
 API .       490252251200:   API NUMBER
~CURVE INFORMATION
#MNEM.UNIT       API CODE    CURVE DESCRIPTION
#----------   ------------   ------------------------------
 DEPT.F                  :   
 GRR .GAPI   07 310 01 00:   GAMMA RAY
 RILD.OHMM   07 120 46 00:   INDUCTION LOG DEEP RESISTIVITY
 RILM.OHMM   07 120 44 00:   INDUCTION LOG MEDIUM RESISTIVITY
 CILD.MMHO   07 110 46 00:   CONDUCTIVITY INDUCTION LOG DEEP
~PARAMETER INFORMATION
#MNEM.UNIT          VALUE    DESCRIPTION
#----------   ------------   ------------------------------
 PD  .                 GL:   PERMANENT DATUM
 EPD .F              5164:   ELEVATION PERMANENT DATUM
 LMF .                 KB:   LOG MEASURED FROM
 DAPD.F                 5:   FEET ABOVE PERMANENT DATUM
 DMF .                 KB:   DRILLING MEASURED FROM
 EKB .F              5169:   KELLING BUSHING
 EDF .F              5168:   DRILLING FLOOR
 EGL .F              5164:   GROUND LEVEL
 DATE.        23-APR-1992:   RUN DATE
 RUN .                  1:   RUN NUMBER
 DD  .F               561:   DEPTH DRILLER
 DL  .F               564:   DEPTH LOGGER
 BLI .F               562:   BOTTOM LOG INTERVAL
 CS  .IN            8.625:   CASING SIZE
 CBD .F                48:   CASING BOTTOM DRILLER
 CBL .F                49:   CASING BOTTOM LOGGER
 BS  .IN            7.875:   BIT SIZE
 BSD .F               561:   BIT SIZE AT DEPTH
 DFT .                AIR:   DRILLING FLUID TYPE
 TCS .HRS               2:   TIME CURCULATED STOPPED
 LUN .           HL- 6272:   LOGGING UNIT NUMBER
 LUL .             CASPER:   LOGGING UNIT LOCATION
 ENGI.            LEBSOCK:   RECORDING ENGINEER
 WITN.        GARY STRONG:   WITNESSED BY
 CLNT.            A2DTECH:   CLIENT CODE
 ORIG.       2", 5" PRINT:   ORIGIN OF DATA
 UWI .       490252251200:   UNIQUE WELL ID
 DICO. A2D Technologies, Inc.:   DIGITIZING COMPANY
~OTHER INFORMATION
~A    DEPT      GRR      RILD       RILM       CILD   
# ...
  423.4000    94.7955    12.3785    12.1467    85.2184
  423.5000    94.3725    12.2606    12.1466    85.2221
  423.6000    94.1287    12.1865    12.1464    85.2259
  423.7000    93.8845    12.1713    12.1463    85.2296
  423.8000    93.8326    12.1018    12.1461    85.3953
  423.9000    93.9661    12.1018    12.1459    85.6445
  424.0000    94.1325    12.0513    12.1458    85.8936
  424.1000    94.1504    11.9836    12.1456    86.2878
  424.2000    94.4324    11.9163    12.1238    86.7822
  424.3000    94.6360    11.8511    12.0608    87.2767
  424.4000    94.8788    11.8511    12.0606    87.5151
  424.5000    95.2981    11.7989    12.0051    87.5189
  424.6000    96.0579    11.7687    11.9764    87.5226
  424.7000    97.1403    11.7687    11.9762    87.5264
  424.8000    98.0040    11.7643    11.9761    87.5301
  424.9000    98.9771    11.6868    11.9759    87.5339
  425.0000    99.9501    11.6327    11.9202    87.6318
  425.1000   100.8802    11.5674    11.8923    87.8809
  425.2000   101.6554    11.5024    11.8921    88.1300
  425.3000   102.1112    11.4447    11.8862    88.3020
  425.4000   102.2566    11.4447    11.8091    88.3057
  425.5000   102.1436    11.3891    11.8090    88.3095
  425.6000   101.8997    11.3251    11.7699    88.3736
  425.7000   101.6524    11.2615    11.7040    88.6226
  425.8000   101.1715    11.1983    11.6386    88.8717
  425.9000   100.8664    11.1297    11.5637    89.1640
  426.0000   100.4978    11.1297    11.5636    89.6585
  426.1000   100.0773    11.0879    11.5634    90.1529
  426.2000    99.8422    11.0257    11.5405    90.5949
  426.3000    99.8415    10.9638    11.4760    90.5986
  426.4000   100.0353    10.8992    11.4026    90.6024
  426.5000   100.2781    10.8992    11.3480    90.6155
  426.6000   100.5995    10.8557    11.3230    90.8646
  426.7000   101.0858    10.8234    11.3001    91.1138
  426.8000   101.6457    10.8094    11.2369    91.3706
  426.9000   102.2647    10.7481    11.1656    92.0875
  427.0000   102.9941    10.7481    11.1655    92.8274
  427.1000   103.7234    10.7028    11.2040    93.6412
  427.2000   104.4858    10.6427    11.2433    93.8654
  427.3000   105.5584    10.5992    11.2432    94.1146
  427.4000   106.2133    10.5972    11.2430    94.4058
  427.5000   106.7820    10.5378    11.2429    94.6128
  427.6000   107.3709    10.5255    11.2427    94.8619
  427.7000   108.0107    10.5255    11.2426    95.1111
  427.8000   108.2662    10.5255    11.2425    95.5472
  427.9000   108.7269    10.5211    11.2423    96.0416
  428.0000   109.2130    10.4523    11.2422    96.5361
  428.1000   109.5841    10.4523    11.2420    96.8606
  428.2000   109.8838    10.4174    11.2177    97.1097
  428.3000   110.3717    10.3589    11.1635    97.3589
  428.4000   110.6136    10.3074    11.1633    97.4548
  428.5000   110.8563    10.3074    11.1078    97.4586
  428.6000   111.2260    10.3074    11.0457    97.4623
  428.7000   111.6432    10.3074    11.0081    97.6023
  428.8000   111.8747    10.3074    11.0080    97.8514
  428.9000   111.8740    10.3074    11.0078    98.1006
  429.0000   112.0702    10.3074    10.9526    98.2304
  429.1000   112.0351    10.3074    10.9310    98.2342
  429.2000   111.7912    10.3074    10.9063    98.2380
  429.3000   111.5004    10.3074    10.8453    98.3441
  429.4000   110.6662    10.3074    10.7791    98.5932
  429.5000   109.6219    10.3074    10.7244    98.8423
  429.6000   108.2533    10.3632    10.7038    99.0914
  429.7000   106.6059    10.3796    10.7037    99.3406
  429.8000   104.7997    10.4077    10.7036    99.5897
  429.9000   103.7355    10.4523    10.7034    99.7703
  430.0000   103.5140    10.4523    10.6487    99.7741
  430.1000   103.2701    10.5113    10.6287    99.7778
  430.2000   103.0261    10.5255    10.6535    99.6785
  430.3000   102.8295    10.5255    10.7028    99.1916
  430.4000   102.8289    10.5255    10.7026    98.7047
  430.5000   102.8283    10.5279    10.7579    98.2523
  430.6000   103.0029    10.5992    10.8181    98.0107
  430.7000   103.2456    10.5992    10.8786    97.7691
  430.8000   103.6070    10.6328    10.9394    97.5275
  430.9000   104.3362    10.6928    11.0048    97.2860
  431.0000   105.0662    10.7531    11.0047    97.0445
  431.1000   105.6085    10.8234    11.0892    96.8020
  431.2000   105.8362    10.8234    11.1863    96.0694
  431.3000   105.9071    10.8603    11.2488    95.3368
  431.4000   106.1362    10.9216    11.3155    94.5560
  431.5000   106.1354    10.9909    11.4351    94.3304
  431.6000   106.1349    11.1297    11.5187    94.0889
  431.7000   106.1343    11.1853    11.6121    93.8145
  431.8000   106.0502    11.2896    11.7424    93.1815
  431.9000   105.8062    11.3912    11.8810    92.4489
  432.0000   105.5300    11.4661    11.9440    91.7163
  432.1000   104.8960    11.6056    12.1059    90.7889
  432.2000   104.0117    11.7273    12.2478    89.8116
  432.3000   103.1331    11.9530    12.3306    88.8342
  432.4000   102.4402    12.1630    12.4749    87.8567
  432.5000   101.9126    12.3151    12.5417    86.8790
  432.6000   101.9121    12.5314    12.7638    85.9014
  432.7000   102.0769    12.7381    13.0523    84.9237
  432.8000   102.2121    13.0090    13.3469    83.9460
  432.9000   102.2614    13.2315    13.6584    82.9683
  433.0000   102.5120    13.4001    14.1869    81.5578
  433.1000   102.7469    13.6276    14.6342    79.8441
  433.2000   102.9896    13.8603    15.0086    78.1304
  433.3000   102.9929    14.0353    15.3473    76.1620
  433.4000   102.8108    14.2369    15.7027    73.9574
  433.5000   102.8063    14.5274    15.9615    71.7529
  433.6000   102.5622    14.9366    16.3651    69.7692
  433.7000   102.3182    15.3419    16.7832    68.0555
  433.8000   102.0743    15.7704    17.1621    66.3418
  433.9000   101.6828    16.2062    17.5562    64.4411
  434.0000   100.9679    16.6065    18.0463    62.2366
  434.1000   100.3969    17.0789    18.7141    60.0320
  434.2000    99.7915    17.6394    19.5154    57.9806
  434.3000    98.7732    18.0695    20.3208    56.2669
  434.4000    96.4380    18.5209    20.9005    54.5533
  434.5000    91.9144    18.9828    21.3695    53.0184
  434.6000    85.6349    19.5081    22.0378    52.0407
  434.7000    82.2164    20.0000    22.7250    51.0629
  434.8000    79.4120    20.4076    23.4343    50.0425
  434.9000    77.6128    20.8726    24.3665    48.8195
  435.0000    76.5160    21.2973    25.0580    47.5966
  435.1000    75.9933    21.7030    25.7697    46.3993
  435.2000    75.7670    22.3622    26.3489    45.4216
  435.3000    75.5231    22.8389    26.8323    44.4439
  435.4000    75.3891    23.3594    27.4342    43.4573
  435.5000    75.3886    23.8913    27.5879    42.2343
  435.6000    75.3879    24.4346    27.8607    41.0113
  435.7000    75.6250    25.0034    28.0928    39.7479
  435.8000    75.8678    25.4196    28.2498    39.0398
  435.9000    76.2325    25.8529    28.4101    38.3074
  436.0000    76.7830    26.2930    28.7296    37.5004
  436.1000    77.5060    26.7012    28.9277    37.2834
  436.2000    77.9925    27.0033    29.0050    37.0418
  436.3000    78.4785    27.3093    29.0046    36.7589
  436.4000    79.0986    27.7404    29.0042    36.3554
  436.5000    79.7519    28.2127    29.0038    35.8686
  436.6000    80.2566    28.6441    29.0034    35.3819
  436.7000    81.1041    28.9492    29.0030    35.2673
  436.8000    81.5117    28.9492    29.0026    35.2711
  436.9000    81.9978    28.9492    29.0021    35.2748
  437.0000    82.4839    28.9492    29.0017    35.2786
  437.1000    82.9397    28.9492    29.0013    35.2824
  437.2000    83.2096    28.9492    28.9143    35.2862
  437.3000    83.4251    28.9492    28.7527    35.5946
  437.4000    83.6679    28.9492    28.5918    36.0891
  437.5000    83.9107    28.9492    28.4321    36.5836
  437.6000    84.1534    28.9492    28.3986    36.9426
  437.7000    84.4114    28.9263    28.3121    37.1917
  437.8000    84.6390    28.7479    28.1538    37.4409
  437.9000    84.8818    28.7479    27.9964    37.5715
