~VERSION INFORMATION
 VERS.                2.0:   CWLS LOG ASCII STANDARD - VERSION 2.0
 WRAP.                 NO:   ONE LINE PER DEPTH STEP
~WELL INFORMATION
#MNEM.UNIT      DATA TYPE    INFORMATION
#----------   ------------   ------------------------------
 STRT.F           11.5000:   START DEPTH
 STOP.F          583.0000:   STOP DEPTH
 STEP.F            0.5000:   STEP LENGTH
 NULL.          -999.2500:   NO VALUE
 COMP.    FENIX & SCISSON:   COMPANY
 WELL.      41 SX 3 #41-3:   WELL
 FLD .             TEAPOT:   FIELD
 LOC .       S3 T38N R78W:   LOCATION
 CNTY.            NATRONA:   COUNTY
 STAT.            WYOMING:   STATE
 CTRY. UNITED STATES OF AMERICA:   COUNTRY
 SRVC.            Unknown:   SERVICE COMPANY
 DATE.        01-DEC-1978:   LOGDATE
 API .       490251074000:   API NUMBER
~CURVE INFORMATION
#MNEM.UNIT       API CODE    CURVE DESCRIPTION
#----------   ------------   ------------------------------
 DEPT.F                  :   
 SPR .MV     05 010 01 00:   SPONTANEOUS POTENTIAL FROM RES.
 SN  .OHMM   05 040 16 00:   SHORT NORMAL 16"
 IL  .OHMM   05 120 00 00:   INDUCTION LOG
 GRD .GAPI   45 310 01 00:   GAMMA RAY FROM DENSITY LOG
 CALD.IN     45 280 60 00:   CALIPER
 DEN .G/C3   45 350 01 00:   COMPENSATED BULK DENSTIY
 CORR.G/C3   45 356 01 00:   DENSITY CORRECTION
 DPHI.DEC    45 890 12 00:   DENSITY POROSITY SANDSTONE
~PARAMETER INFORMATION
#MNEM.UNIT          VALUE    DESCRIPTION
#----------   ------------   ------------------------------
 PD  .                 GL:   PERMANENT DATUM
 EPD .F              5150:   ELEVATION PERMANENT DATUM
 LMF .                 KB:   LOG MEASURED FROM
 DAPD.F                 4:   FEET ABOVE PERMANENT DATUM
 DMF .                 KB:   DRILLING MEASURED FROM
 EKB .F              5154:   KELLING BUSHING
 EGL .F              5150:   GROUND LEVEL
 DATE.            12-1-78:   RUN DATE
 RUN .                  1:   RUN NUMBER
 DD  .F               600:   DEPTH DRILLER
 DL  .F               582:   DEPTH LOGGER
 BLI .F               576:   BOTTOM LOG INTERVAL
 TLI .F                42:   TOP LOG INTERVAL
 CS  .IN            8.625:   CASING SIZE
 CBD .F                40:   CASING BOTTOM DRILLER
 CBL .F                41:   CASING BOTTOM LOGGER
 BS  .IN            7.875:   BIT SIZE
 BSD .F               600:   BIT SIZE AT DEPTH
 DFT .                KCL:   DRILLING FLUID TYPE
 DFD .                8.8:   DRILLING FLUID DENSITY
 DFV .                 35:   DRILLING FLUID VISCOSITY
 DFPH.               11.2:   DRILLING FLUID PH
 DFL .               11.6:   DRILLING FLUID LOSS
 MSS .          FLOW LINE:   MUD SAMPLE SOURCE
 RMS .OHMM            .36:   RESISTIVITY MUD SAMPLE
 MST .F                52:   MUD SAMPLE TEMPERATURE
 RMF .OHMM            .36:   RESISTIVITY MUD FILTRATE SAMPLE
 MFST.F                55:   MUD FILTRATE SAMPLE TEMPERATURE
 RMC .OHMM            .42:   RESISTIVITY MUD CAKE
 MCST.F                60:   MUD CAKE SAMPLE TEMPERATURE
 MFSS.           MEASURED:   MUD FILTRATE SAMPLE SOURCE
 MCSS.           MEASURED:   MUD CAKE SAMPLE SOURCE
 RMB .OHMM            .32:   RESISTIVITY MUD AT BHT
 BHT .F                58:   BOTTOM HOLE TEMPERATURE
 MRT .F                58:   MAXIMUM RECORDED TEMPERATURE
 LUN .               2958:   LOGGING UNIT NUMBER
 LUL .                CPR:   LOGGING UNIT LOCATION
 ENGI.            ROLLINS:   RECORDING ENGINEER
 WITN.              AMEND:   WITNESSED BY
 CLNT.            A2DTECH:   CLIENT CODE
 ORIG.       2", 5" PRINT:   ORIGIN OF DATA
 UWI .       490251074000:   UNIQUE WELL ID
 DICO. A2D Technologies, Inc.:   DIGITIZING COMPANY
~OTHER INFORMATION
~A   DEPT      SPR         SN         IL         GRD      CALD        DEN       CORR       DPHI   
# ...
  416.5000   -26.3335    16.7104    21.0020    77.3007     7.9278     2.3339     0.0138     0.2127
  417.0000   -26.3014    16.7804    21.1775    77.2091     7.8894     2.3367     0.0142     0.2120
  417.5000   -26.2450    16.7804    21.3545    77.0999     7.8354     2.3376     0.0145     0.2084
  418.0000   -26.1879    16.7804    21.5329    76.9706     7.7821     2.3387     0.0148     0.2066
  418.5000   -26.1308    16.9525    21.7129    77.8859     7.7670     2.3429     0.0155     0.2057
  419.0000   -26.0740    17.3042    22.0837    79.1076     7.9357     2.3471     0.0166     0.2012
  419.5000   -26.0166    17.5736    22.4863    78.7362     8.0261     2.3517     0.0201     0.1943
  420.0000   -25.9535    17.6189    22.8964    73.8753     8.0607     2.3696     0.0247     0.1800
  420.5000   -26.1291    17.6599    23.3138    68.8486     8.0549     2.3977     0.0294     0.1587
  421.0000   -26.3764    17.7017    23.8374    65.7440     8.0379     2.4259     0.0335     0.1381
  421.5000   -26.6261    17.7372    23.6994    63.9694     8.0222     2.4542     0.0597     0.1269
  422.0000   -26.8758    17.7368    23.5217    64.1395     8.0501     2.4742     0.0891     0.1253
  422.5000   -27.1252    17.7367    23.3452    68.2255     8.1609     2.4764     0.1049     0.1434
  423.0000   -27.3742    17.7368    23.1701    72.0335     8.1153     2.4717     0.0918     0.1629
  423.5000   -27.6245    17.7367    22.9963    73.6731     8.0730     2.4398     0.0580     0.1824
  424.0000   -27.7324    17.7367    22.8238    75.5151     8.0657     2.3993     0.0225     0.2019
  424.5000   -27.7329    17.7367    22.2762    78.1656     8.0637     2.3581     0.0130     0.2189
  425.0000   -27.7333    17.6278    21.4679    80.7055     8.0618     2.3335     0.0129     0.2166
  425.5000   -27.7386    17.1576    20.6753    82.0097     8.0598     2.3302     0.0129     0.2119
  426.0000   -27.4730    16.6486    19.9938    81.0758     8.0577     2.3376     0.0129     0.2067
  426.5000   -27.0829    16.1547    19.2768    80.2669     8.0557     2.3470     0.0148     0.2024
  427.0000   -26.9873    15.8994    19.3240    79.4212     8.0537     2.3530     0.0169     0.2038
  427.5000   -27.0607    15.7313    19.4002    76.7275     8.0517     2.3524     0.0164     0.2016
  428.0000   -27.1319    15.5650    19.4533    75.7736     8.0497     2.3519     0.0159     0.1979
  428.5000   -27.0228    15.4416    19.1570    74.6865     8.0497     2.3577     0.0154     0.1990
  429.0000   -26.9009    15.4416    18.9277    74.6763     8.0546     2.3577     0.0150     0.2002
  429.5000   -26.7693    15.4416    18.7458    75.3988     8.0594     2.3563     0.0165     0.1980
  430.0000   -27.0046    15.4237    18.7460    76.8403     8.0642     2.3597     0.0180     0.1958
  430.5000   -27.3929    15.4059    18.7472    78.2715     8.0690     2.3633     0.0196     0.1959
  431.0000   -27.5325    15.3880    18.7475    79.4841     8.0738     2.3616     0.0212     0.2018
  431.5000   -27.5345    15.3702    18.7476    78.5932     8.0786     2.3511     0.0228     0.2077
  432.0000   -27.5350    15.3525    18.7471    77.6585     8.0834     2.3407     0.0243     0.2125
  432.5000   -27.5348    15.3348    18.7496    77.3455     8.0896     2.3335     0.0259     0.2120
  433.0000   -27.5349    15.3170    18.7559    78.0173     8.1012     2.3358     0.0275     0.2092
  433.5000   -27.5350    15.2986    18.5107    78.9680     8.1126     2.3380     0.0290     0.2049
  434.0000   -27.5327    15.3406    18.2352    79.7863     8.1253     2.3445     0.0307     0.2005
  434.5000   -27.6557    15.3921    18.2352    78.1022     8.0713     2.3575     0.0282     0.1986
  435.0000   -27.8369    15.4429    18.2363    76.3654     8.0063     2.3595     0.0240     0.1983
  435.5000   -28.0198    15.4942    18.2365    74.9437     7.9512     2.3600     0.0198     0.1971
  436.0000   -28.2776    15.5455    18.1162    74.6960     7.9596     2.3615     0.0169     0.1960
  436.5000   -28.6659    15.5969    17.7801    76.0446     7.9668     2.3634     0.0143     0.1927
  437.0000   -28.9472    15.6483    17.3812    77.4238     7.9737     2.3669     0.0131     0.1890
  437.5000   -28.9981    15.6997    17.0933    77.6256     7.9807     2.3736     0.0136     0.1782
  438.0000   -29.0520    15.7447    17.0933    77.4559     7.9878     2.3991     0.0140     0.1641
  438.5000   -29.1037    15.8127    17.0933    76.8094     7.9930     2.4429     0.0145     0.1036
  439.0000   -29.3173    15.8814    17.6654    74.2348     7.9995     2.4870     0.0149     0.0872
  439.5000   -29.6085    15.9499    18.4060    70.1520     8.0059     2.5309     0.0149     0.0707
  440.0000   -30.2092    16.0229    19.4138    67.6161     8.0123     2.5643     0.0149     0.0624
  440.5000   -30.8123    16.5992    20.6813    64.9518     8.0187     2.5775     0.0149     0.0615
  441.0000   -31.0469    17.3634    22.0292    64.4276     8.0251     2.5802     0.0149     0.0746
  441.5000   -31.3030    18.2172    23.1888    66.3044     8.0315     2.5753     0.0149     0.0853
  442.0000   -31.5651    19.1129    24.0569    70.4708     8.0379     2.5541     0.0149     0.1083
  442.5000   -31.8420    19.6339    23.8080    74.9389     8.0443     2.5183     0.0154     0.1313
  443.0000   -32.0994    19.4660    23.3924    78.6445     8.0508     2.4827     0.0162     0.1477
  443.5000   -32.0449    19.3312    22.3591    79.7604     8.0572     2.4480     0.0170     0.1630
  444.0000   -31.9815    18.6738    21.0958    80.9124     8.0635     2.4204     0.0178     0.1692
  444.5000   -31.9192    17.5823    18.6614    82.0315     8.0660     2.4022     0.0186     0.1714
  445.0000   -31.8574    16.5545    17.1225    83.1400     8.0615     2.4029     0.0194     0.1706
  445.5000   -31.7954    15.5869    15.9175    83.9150     8.0571     2.4039     0.0202     0.1699
  446.0000   -31.7335    14.6757    14.8814    84.3263     8.0527     2.4047     0.0209     0.1691
  446.5000   -31.6715    13.9880    14.8814    83.2126     8.0484     2.4029     0.0203     0.1719
  447.0000   -31.6099    13.5220    14.8814    80.9128     8.0477     2.4012     0.0197     0.1743
  447.5000   -31.5488    13.2618    14.8814    78.6271     8.0472     2.3994     0.0191     0.1732
  448.0000   -31.5230    13.0458    14.8139    77.5249     8.0467     2.4014     0.0190     0.1727
  448.5000   -31.5527    12.8962    14.7305    76.6228     8.0461     2.4047     0.0191     0.1727
  449.0000   -31.5818    12.7935    14.6475    75.7204     8.0456     2.4041     0.0192     0.1713
  449.5000   -31.6112    12.6921    14.5650    74.9376     8.0450     2.4031     0.0193     0.1687
  450.0000   -31.6410    12.5838    14.4747    74.7211     8.0445     2.4084     0.0195     0.1653
  450.5000   -31.6707    12.4097    14.3907    75.0477     8.0440     2.4165     0.0196     0.1613
  451.0000   -31.6951    12.2374    14.2977    75.3281     8.0434     2.4246     0.0197     0.1579
  451.5000   -32.0324    12.1326    14.2054    77.1223     8.0429     2.4265     0.0198     0.1575
  452.0000   -32.5224    12.1064    14.1136    79.0262     8.0424     2.4269     0.0200     0.1595
  452.5000   -32.7011    12.0803    14.0071    78.2210     8.0418     2.4223     0.0201     0.1639
  453.0000   -32.7058    12.0542    13.8920    77.4021     8.0413     2.4180     0.0202     0.1651
  453.5000   -32.7055    12.0052    13.7780    78.4183     8.0407     2.4136     0.0203     0.1651
  454.0000   -33.0425    11.8126    13.6648    81.3317     8.0402     2.4139     0.0204     0.1644
  454.5000   -33.3281    11.8564    13.5683    84.2074     8.0397     2.4152     0.0206     0.1612
  455.0000   -33.3783    11.9161    13.5683    86.5631     8.0391     2.4192     0.0207     0.1580
  455.5000   -33.4310    11.9746    13.5683    87.2199     8.0386     2.4259     0.0208     0.1548
  456.0000   -33.4837    12.0286    13.5683    86.9433     8.0380     2.4327     0.0206     0.1516
  456.5000   -33.5337    11.9180    13.5683    86.6549     8.0375     2.4377     0.0186     0.1525
