~VERSION INFORMATION
 VERS.                2.0:   CWLS LOG ASCII STANDARD - VERSION 2.0
 WRAP.                 NO:   ONE LINE PER DEPTH STEP
~WELL INFORMATION
#MNEM.UNIT      DATA TYPE    INFORMATION
#----------   ------------   ------------------------------
 STRT.F           43.0000:   START DEPTH
 STOP.F          620.0000:   STOP DEPTH
 STEP.F            0.5000:   STEP LENGTH
 NULL.          -999.2500:   NO VALUE
 COMP. FENIX & SCISSON INC:   COMPANY
 WELL.      16 SX 2 #16-2:   WELL
 FLD .             TEAPOT:   FIELD
 LOC .       S2 T38N R78W:   LOCATION
 CNTY.            NATRONA:   COUNTY
 STAT.            WYOMING:   STATE
 CTRY. UNITED STATES OF AMERICA:   COUNTRY
 SRVC.            Unknown:   SERVICE COMPANY
 DATE.        11-OCT-1978:   LOGDATE
 API .       490251071400:   API NUMBER
~CURVE INFORMATION
#MNEM.UNIT       API CODE    CURVE DESCRIPTION
#----------   ------------   ------------------------------
 DEPT.F                  :   
 SPR .MV     05 010 01 00:   SPONTANEOUS POTENTIAL FROM RES.
 SN  .OHMM   05 040 16 00:   SHORT NORMAL 16"
 ILD .OHMM   05 120 46 00:   INDUCTION LOG DEEP
 CALD.IN     45 280 60 00:   CALIPER
 GRD .GAPI   45 310 01 00:   GAMMA RAY FROM DENSITY LOG
 DPHI.DEC    45 890 12 00:   DENSITY POROSITY SANDSTONE
 RHOB.G/C3   45 350 01 00:   BULK DENSITY
 DRHO.G/C3   45 356 01 00:   DENSITY CORRECTION
~PARAMETER INFORMATION
#MNEM.UNIT          VALUE    DESCRIPTION
#----------   ------------   ------------------------------
 PD  .                 GL:   PERMANENT DATUM
 EPD .F              5135:   ELEVATION PERMANENT DATUM
 LMF .                 KB:   LOG MEASURED FROM
 DAPD.F                 4:   FEET ABOVE PERMANENT DATUM
 DMF .                 KB:   DRILLING MEASURED FROM
 EKB .F              5139:   KELLING BUSHING
 EGL .F              5135:   GROUND LEVEL
 DATE.           10-11-78:   RUN DATE
 RUN .                  1:   RUN NUMBER
 DD  .F               620:   DEPTH DRILLER
 DL  .F               620:   DEPTH LOGGER
 BLI .F               614:   BOTTOM LOG INTERVAL
 TLI .F                40:   TOP LOG INTERVAL
 CS  .IN            8.625:   CASING SIZE
 CBD .F                40:   CASING BOTTOM DRILLER
 CBL .F                40:   CASING BOTTOM LOGGER
 BS  .IN            7.875:   BIT SIZE
 BSD .F               620:   BIT SIZE AT DEPTH
 DFT .                KCL:   DRILLING FLUID TYPE
 RMS .OHMM            .16:   RESISTIVITY MUD SAMPLE
 MST .F                66:   MUD SAMPLE TEMPERATURE
 RMF .OHMM            .16:   RESISTIVITY MUD FILTRATE SAMPLE
 MFST.F                70:   MUD FILTRATE SAMPLE TEMPERATURE
 RMC .OHMM             .2:   RESISTIVITY MUD CAKE
 MCST.F                71:   MUD CAKE SAMPLE TEMPERATURE
 TCS .HRS               1:   TIME CURCULATED STOPPED
 MRT .F                70:   MAXIMUM RECORDED TEMPERATURE
 LUN .               2958:   LOGGING UNIT NUMBER
 LUL .               CASP:   LOGGING UNIT LOCATION
 ENGI.             MILLER:   RECORDING ENGINEER
 WITN.              AMEND:   WITNESSED BY
 CLNT.            A2DTECH:   CLIENT CODE
 ORIG.           5" PRINT:   ORIGIN OF DATA
 UWI .       490251071400:   UNIQUE WELL ID
 DICO. A2D Technologies, Inc.:   DIGITIZING COMPANY
~OTHER INFORMATION
~A   DEPT      SPR         SN        ILD       CALD         GRD      DPHI       RHOB       DRHO   
# ...
  367.0000   -45.7147     7.3214     8.2536     7.7422   129.4640     0.1078     2.5129     0.0040
  367.5000   -45.7174     7.3309     8.2807     7.7472   134.9026     0.1020     2.5229     0.0090
  368.0000   -45.7168     7.3424     8.3234     7.7521   135.4621     0.0961     2.5329     0.0125
  368.5000   -45.7171     7.3539     8.3664     7.7571   124.6743     0.0903     2.5428     0.0123
  369.0000   -45.7171     7.3653     8.4095     7.7621   114.3318     0.0866     2.5455     0.0121
  369.5000   -45.7171     7.3768     8.4528     7.7670   110.0532     0.0902     2.5407     0.0119
  370.0000   -45.7171     7.3884     8.4964     7.7720   115.9809     0.0937     2.5360     0.0117
  370.5000   -45.7171     7.3999     8.5402     7.7772   119.6717     0.0962     2.5312     0.0115
  371.0000   -45.7171     7.4114     8.5637     7.7669   115.5510     0.0958     2.5298     0.0113
  371.5000   -45.7171     7.4230     8.5373     7.7480   112.3111     0.0953     2.5296     0.0111
  372.0000   -45.7171     7.4346     8.5194     7.7289   109.0309     0.0949     2.5294     0.0109
  372.5000   -45.7171     7.4462     8.5015     7.7097   105.8910     0.0944     2.5292     0.0108
  373.0000   -45.7171     7.4578     8.4851     7.6907   105.9797     0.0939     2.5289     0.0106
  373.5000   -45.7171     7.4695     8.6138     7.6786   111.0232     0.0935     2.5317     0.0101
  374.0000   -45.7171     7.4812     8.7342     7.6774   116.2553     0.0939     2.5357     0.0093
  374.5000   -45.7171     7.4928     8.8563     7.6760   121.4183     0.0945     2.5397     0.0086
  375.0000   -45.7171     7.5045     8.9801     7.6746   125.2575     0.0950     2.5366     0.0078
  375.5000   -45.7171     7.5161     9.1057     7.6733   119.5659     0.0955     2.5281     0.0070
  376.0000   -45.7171     7.5265     9.2226     7.6719   114.5258     0.0975     2.5197     0.0084
  376.5000   -45.7171     7.4630     8.8093     7.6706   109.5192     0.1033     2.5112     0.0151
  377.0000   -45.7171     7.4053     8.2622     7.6692   104.4626     0.1089     2.5027     0.0266
  377.5000   -45.7171     7.2681     7.7095     7.6678   102.8732     0.1198     2.4920     0.0430
  378.0000   -45.7171     7.1014     7.1923     7.6665   103.7211     0.1347     2.4629     0.0593
  378.5000   -45.7173     6.9389     6.7099     7.6651   104.8519     0.1543     2.4337     0.0757
  379.0000   -45.7179     6.7799     6.2593     7.6638   114.0055     0.1720     2.4130     0.0920
  379.5000   -45.7261     6.6256     6.1449     7.6624   129.3999     0.1591     2.4473     0.0929
  380.0000   -45.3203     6.4936     6.0885     7.6611   145.4520     0.1407     2.4789     0.0785
  380.5000   -44.7840     6.4914     6.1449     7.6599   144.2387     0.1223     2.5106     0.0680
  381.0000   -44.1619     6.5560     6.2593     7.6465   131.2886     0.1039     2.5357     0.0743
  381.5000   -43.1098     6.7006     6.5401     7.6300   117.8532     0.0898     2.5437     0.0828
  382.0000   -42.0484     7.1353     7.7371     7.6134   108.6232     0.0856     2.5520     0.0914
  382.5000   -40.9658     7.5998     9.1527     7.5971   106.0209     0.0814     2.5603     0.0999
  383.0000   -40.4112     8.0935    10.8465     7.5785   103.5144     0.0772     2.5686     0.1085
  383.5000   -39.9804     8.6193    12.1379     7.5011   101.3113     0.0731     2.5769     0.1162
  384.0000   -39.5534     9.0345    12.2692     7.4173   101.2196     0.0689     2.5830     0.1172
  384.5000   -39.1241     9.2253    11.7485     7.4115   104.8675     0.0651     2.5816     0.1181
  385.0000   -38.6961     9.4162    11.3969     7.4318   111.2339     0.0640     2.5787     0.1159
  385.5000   -38.3373     9.6115    11.3932     7.3666   117.6068     0.0678     2.5758     0.1134
  386.0000   -38.3457     9.8112    11.3905     7.2746   122.9271     0.0756     2.5655     0.1109
  386.5000   -38.3461    10.0149    11.4946     7.2619   118.6956     0.0834     2.5524     0.1084
  387.0000   -38.3498    10.2233    11.5065     7.2663   113.0031     0.0912     2.5391     0.1068
  387.5000   -38.0695    10.4745    12.5669     7.2723   107.3629     0.0990     2.5263     0.1136
  388.0000   -37.6165    10.8928    13.5328     7.2782   102.3447     0.0968     2.5178     0.1282
  388.5000   -37.1191    11.3279    14.5730     7.2922    98.5131     0.0936     2.5217     0.1428
  389.0000   -35.6914    11.7803    15.6931     7.3129    94.7141     0.0902     2.5350     0.1476
  389.5000   -34.2360    12.2508    16.8993     7.3336    90.9123     0.0869     2.5533     0.1426
  390.0000   -32.8570    12.7302    18.1982     7.3542    87.0587     0.1054     2.5337     0.1412
  390.5000   -32.1802    13.1300    19.5970     7.3746    81.9939     0.1262     2.4912     0.1434
  391.0000   -31.9114    13.5343    21.1033     7.4380    76.4941     0.1470     2.4490     0.1456
  391.5000   -31.1750    13.9509    22.7253     7.5168    72.3177     0.1678     2.4147     0.1479
  392.0000   -30.2503    14.3804    24.0497     7.5568    70.0213     0.1712     2.4016     0.1501
  392.5000   -29.3240    14.8232    24.2725     7.5955    67.4243     0.1726     2.4114     0.1517
  393.0000   -29.0741    15.2015    24.2725     7.6345    65.1682     0.1551     2.4239     0.1409
  393.5000   -28.9455    15.3432    24.4973     7.6736    65.9001     0.1644     2.4257     0.1223
  394.0000   -28.8189    15.4858    25.2572     7.7122    69.4162     0.1799     2.3953     0.1041
  394.5000   -28.6909    15.6296    26.1304     7.7395    78.9175     0.1923     2.3681     0.1066
  395.0000   -28.5627    15.7749    26.1304     7.7390    88.5170     0.1763     2.3907     0.1117
  395.5000   -28.4342    15.9216    25.6314     7.7390    97.5467     0.1604     2.4129     0.1253
  396.0000   -28.3053    16.0697    25.2947     7.7391   100.0593     0.1497     2.4351     0.1397
  396.5000   -28.1910    16.2191    25.1843     7.7210    84.6919     0.1563     2.4436     0.1409
  397.0000   -28.2398    16.3700    25.4890     7.6858    78.2974     0.1627     2.4103     0.1078
  397.5000   -28.2913    16.5223    25.7766     7.6507    77.0919     0.1785     2.3865     0.0752
  398.0000   -28.3437    16.6758    26.0674     7.6198    76.5537     0.1943     2.3624     0.0427
  398.5000   -28.3699    16.7863    26.3617     7.6316    76.5507     0.2021     2.3484     0.0264
  399.0000   -28.0425    16.8258    26.6601     7.6428    76.5491     0.2053     2.3468     0.0286
  399.5000   -27.7206    16.8622    26.9510     7.6539    76.7333     0.1970     2.3599     0.0285
  400.0000   -27.4007    16.8988    27.3755     7.6370    78.3521     0.1886     2.3731     0.0215
  400.5000   -27.0680    16.9354    27.4461     7.5904    79.4643     0.1811     2.3828     0.0146
  401.0000   -27.0383    16.9721    27.6207     7.6058    79.1132     0.1811     2.3835     0.0085
  401.5000   -27.0991    17.0088    27.7930     7.6421    79.6846     0.1849     2.3697     0.0083
  402.0000   -27.1654    17.0455    28.1420     7.6793    82.2511     0.1978     2.3505     0.0141
  402.5000   -26.9767    17.0984    28.9408     7.7174    84.7230     0.2107     2.3312     0.0221
  403.0000   -26.5980    17.0295    29.7623     7.7296    78.1270     0.2243     2.3172     0.0244
  403.5000   -26.2168    16.9057    30.2838     7.7341    72.6982     0.2195     2.3210     0.0222
  404.0000   -25.7808    16.7834    30.0059     7.6881    73.4929     0.2171     2.3218     0.0197
  404.5000   -25.7937    16.6619    30.0059     7.6423    75.8470     0.2246     2.3124     0.0184
  405.0000   -25.7961    16.5415    28.8928     7.6883    78.1929     0.2266     2.3078     0.0184
  405.5000   -25.7914    16.4219    27.5759     7.7418    80.5401     0.2153     2.3499     0.0184
  406.0000   -25.9851    16.3031    27.2513     7.7815    82.9781     0.1912     2.3824     0.0184
  406.5000   -26.2055    16.1852    27.1178     7.7871    83.5445     0.1679     2.4150     0.0184
  407.0000   -26.4267    16.0682    26.9850     7.7934    83.4165     0.1512     2.4295     0.0184
