~VERSION INFORMATION
 VERS.                2.0:   CWLS LOG ASCII STANDARD - VERSION 2.0
 WRAP.                 NO:   ONE LINE PER DEPTH STEP
~WELL INFORMATION
#MNEM.UNIT      DATA TYPE    INFORMATION
#----------   ------------   ------------------------------
 STRT.F           30.0000:   START DEPTH
 STOP.F          510.0000:   STOP DEPTH
 STEP.F            0.5000:   STEP LENGTH
 NULL.          -999.2500:   NO VALUE
 COMP. FENIX & SCISSON INC:   COMPANY
 WELL.    66-SX 3FP #54-3:   WELL
 FLD .             TEAPOT:   FIELD
 LOC .       S3 T38N R78W:   LOCATION
 CNTY.            NATRONA:   COUNTY
 STAT.            WYOMING:   STATE
 CTRY. UNITED STATES OF AMERICA:   COUNTRY
 SRVC.              Welex:   SERVICE COMPANY
 DATE.        25-JUN-1980:   LOGDATE
 API .       490251081400:   API NUMBER
~CURVE INFORMATION
#MNEM.UNIT       API CODE    CURVE DESCRIPTION
#----------   ------------   ------------------------------
 DEPT.F                  :   
 SGRD.OHMM   07 220 05 00:   SHALLOW GUARD RESISTIVITY
 ILD .OHMM   07 120 46 00:   INDUCTION LOG DEEP RESISTIVITY
 ILM .OHMM   07 120 44 00:   INDUCTION LOG MEDIUM
 CALD.IN     45 280 60 00:   CALIPER
 GRD .GAPI   45 310 01 00:   GAMMA RAY FROM DENSITY LOG
 CORR.G/C3   45 356 01 00:   DENSITY CORRECTION
 NPHI.DEC    42 890 03 00:   NEUTRON POROSITY SANDSTONE
 DPHI.DEC    45 890 12 00:   DENSITY POROSITY SANDSTONE
 SPR .MV     07 010 01 00:   SPONTANEOUS POTENTIAL
 RHOB.G/C3   45 350 01 00:   BULK DENSITY
~PARAMETER INFORMATION
#MNEM.UNIT          VALUE    DESCRIPTION
#----------   ------------   ------------------------------
 PD  .                 GL:   PERMANENT DATUM
 EPD .F              5158:   ELEVATION PERMANENT DATUM
 LMF .                 KB:   LOG MEASURED FROM
 DAPD.F                 5:   FEET ABOVE PERMANENT DATUM
 DMF .                 KB:   DRILLING MEASURED FROM
 EKB .F              5163:   KELLING BUSHING
 EGL .F              5158:   GROUND LEVEL
 DATE.            6-25-80:   RUN DATE
 RUN .                  1:   RUN NUMBER
 DD  .F               516:   DEPTH DRILLER
 DL  .F               512:   DEPTH LOGGER
 BLI .F               510:   BOTTOM LOG INTERVAL
 TLI .F                30:   TOP LOG INTERVAL
 BS  .IN            9.875:   BIT SIZE
 BSD .F               516:   BIT SIZE AT DEPTH
 DFT .            KCL MUD:   DRILLING FLUID TYPE
 DFD .                9.2:   DRILLING FLUID DENSITY
 DFV .                 52:   DRILLING FLUID VISCOSITY
 DFPH.                 12:   DRILLING FLUID PH
 DFL .                  6:   DRILLING FLUID LOSS
 MSS .           FLOWLINE:   MUD SAMPLE SOURCE
 RMB .OHMM            .35:   RESISTIVITY MUD AT BHT
 BHT .F                75:   BOTTOM HOLE TEMPERATURE
 TCS .HRS               1:   TIME CURCULATED STOPPED
 MRT .F                75:   MAXIMUM RECORDED TEMPERATURE
 LUN .               1892:   LOGGING UNIT NUMBER
 LUL .             CASPER:   LOGGING UNIT LOCATION
 ENGI.            TOTHILL:   RECORDING ENGINEER
 WITN.              AMEND:   WITNESSED BY
 CLNT.            A2DTECH:   CLIENT CODE
 ORIG.           5" PRINT:   ORIGIN OF DATA
 UWI .       490251081400:   UNIQUE WELL ID
 DICO. A2D Technologies, Inc.:   DIGITIZING COMPANY
~OTHER INFORMATION
~A   DEPT       SGRD        ILD        ILM     CALD        GRD       CORR       NPHI       DPHI        SPR       RHOB   
# ...
  130.5000     9.8829     7.0776     7.1705    10.1634    92.0534     0.0827     0.2750     0.1153   -55.0950     2.4854
  131.0000     9.7207     7.0454     7.1635    10.1661    93.1373     0.0846     0.2711     0.1136   -54.7818     2.4919
  131.5000     9.5619     7.0134     7.1565    10.1830    94.2469     0.0921     0.2746     0.1115   -54.7179     2.4949
  132.0000     9.4994     6.9815     7.1494    10.1999    95.3542     0.1000     0.2790     0.1103   -54.7062     2.4965
  132.5000     9.4511     6.9497     7.1424    10.1948    96.1628     0.0977     0.2794     0.1133   -54.3110     2.5016
  133.0000     9.4026     6.9181     7.1354    10.1844    95.9651     0.0935     0.2722     0.1081   -53.8891     2.5054
  133.5000     9.3389     6.8867     7.1284    10.1737    94.5888     0.0892     0.2723     0.1030   -53.5886     2.5115
  134.0000     9.2398     6.8553     7.1192    10.1637    93.2100     0.0880     0.2747     0.0978   -53.9340     2.5190
  134.5000     9.1418     6.8242     7.1161    10.1631    91.8888     0.0986     0.2758     0.0962   -53.8776     2.5251
  135.0000     9.0695     6.7931     7.0486    10.1731    91.7285     0.1124     0.2732     0.0989   -53.7427     2.5213
  135.5000     9.0076     6.7624     6.9819    10.1830    92.1277     0.1075     0.2702     0.1042   -54.0226     2.5034
  136.0000     8.9461     6.7297     6.9131    10.1828    93.4094     0.0994     0.2667     0.1103   -54.5293     2.4874
  136.5000     8.8850     6.6216     6.8449    10.1785    94.4862     0.0914     0.2656     0.1152   -54.4663     2.4915
  137.0000     8.8248     6.5077     6.7775    10.1733    94.8610     0.0834     0.2650     0.1181   -54.5639     2.5016
  137.5000     8.6694     6.3957     6.7106    10.1680    95.3728     0.0756     0.2651     0.1230   -54.9551     2.4887
  138.0000     8.3878     6.2862     6.6535    10.1633    96.3317     0.0644     0.2654     0.1262   -54.7231     2.4756
  138.5000     8.3904     6.1951     6.5619    10.1635    97.4463     0.0541     0.2693     0.1295   -54.1614     2.4705
  139.0000     8.4275     6.2006     6.4865    10.1628    98.5575     0.0537     0.2731     0.1315   -54.6883     2.4665
  139.5000     8.4679     6.2052     6.4589    10.1618    99.5807     0.0530     0.2714     0.1302   -55.2555     2.4624
  140.0000     8.4472     6.2100     6.4304    10.1608    98.7017     0.0522     0.2802     0.1271   -55.7088     2.4617
  140.5000     8.4293     6.2147     6.4022    10.1598    97.2554     0.0614     0.2763     0.1212   -55.6948     2.4750
  141.0000     8.4115     6.2194     6.3681    10.1587    95.7982     0.0746     0.2702     0.1150   -56.0098     2.4882
  141.5000     8.3906     6.2241     6.3736    10.1577    94.3407     0.0878     0.2739     0.1130   -56.5011     2.4981
  142.0000     8.4294     6.2288     6.3825    10.1567    93.4189     0.0940     0.2715     0.1127   -56.5583     2.4909
  142.5000     8.4781     6.2335     6.3915    10.1557    95.7863     0.0727     0.2654     0.1126   -56.2838     2.4879
  143.0000     8.5274     6.2383     6.4005    10.1546    98.1452     0.0702     0.2638     0.1102   -56.0078     2.4969
  143.5000     8.5767     6.2429     6.4095    10.1536    97.9501     0.0708     0.2638     0.1050   -55.7313     2.5062
  144.0000     8.6250     6.2491     6.4178    10.1526    97.2573     0.0828     0.2675     0.0994   -55.4559     2.5174
  144.5000     8.4679     6.2538     6.4297    10.1516    98.8702     0.0968     0.2724     0.1047   -55.3034     2.5054
  145.0000     8.2899     6.1354     6.3042    10.1505   100.0433     0.0800     0.2750     0.1109   -55.3052     2.4844
  145.5000     8.0177     6.0252     6.1602    10.1495    98.2728     0.0673     0.2718     0.1175   -55.3004     2.5055
  146.0000     7.7544     5.8941     6.0194    10.1485    96.8457     0.0574     0.2781     0.1253   -55.5396     2.4940
  146.5000     7.5142     5.7557     5.8818    10.1474    99.2292     0.0474     0.2858     0.1353   -55.8825     2.4720
  147.0000     7.3958     5.5960     5.7559    10.1464   101.5511     0.0374     0.2858     0.1414   -56.2331     2.4514
  147.5000     7.2602     5.4407     5.6358    10.1454   103.6215     0.0285     0.2858     0.1396   -56.6457     2.4455
  148.0000     7.1092     5.2894     5.5253    10.1444   103.3354     0.0310     0.2858     0.1378   -57.3229     2.4470
  148.5000     7.2078     5.1546     5.4470    10.1433    99.9141     0.0399     0.2842     0.1378   -57.6677     2.4511
  149.0000     7.3566     5.1643     5.4899    10.1423    97.4658     0.0481     0.2799     0.1378   -57.4175     2.4552
  149.5000     7.5068     5.1739     5.5236    10.1413    94.9849     0.0465     0.2740     0.1385   -57.0741     2.4592
  150.0000     7.5835     5.1831     5.5574    10.1403    94.7258     0.0421     0.2682     0.1409   -56.7321     2.4596
  150.5000     7.5183     5.1923     5.5915    10.1392    96.8052     0.0377     0.2649     0.1446   -56.5801     2.4487
  151.0000     7.4751     5.2024     5.6259    10.1382   100.0096     0.0333     0.2638     0.1484   -56.9404     2.4383
  151.5000     7.4454     5.2349     5.6604    10.1372   100.1975     0.0297     0.2634     0.1493   -57.2913     2.4299
  152.0000     7.6740     5.2811     5.6951    10.1361    96.5903     0.0290     0.2657     0.1429   -57.3563     2.4321
  152.5000     7.8695     5.3278     5.7301    10.1351    98.9880     0.0417     0.2680     0.1370   -57.0615     2.4505
  153.0000     7.8664     5.3744     5.7652    10.1341   100.9408     0.0412     0.2719     0.1351   -57.1983     2.4545
  153.5000     7.8681     5.4208     5.8006    10.1331   102.8374     0.0320     0.2746     0.1302   -57.4514     2.4587
  154.0000     7.8676     5.4652     5.8362    10.1320   101.8089     0.0335     0.2698     0.1258   -57.3106     2.4681
  154.5000     7.9629     5.5102     5.8720    10.1310   100.4963     0.0497     0.2769     0.1216   -56.7846     2.4778
  155.0000     8.0665     5.5556     5.9081    10.1300   101.8733     0.0581     0.2806     0.1175   -56.2676     2.4830
  155.5000     8.1714     5.6013     5.9443    10.1290    98.9666     0.0658     0.2775     0.1135   -55.7471     2.4871
  156.0000     8.2781     5.6475     5.9808    10.1279    95.0032     0.0735     0.2730     0.1098   -55.5054     2.4991
  156.5000     8.3899     5.6940     6.0175    10.1268    93.7724     0.0785     0.2685     0.1117   -55.5008     2.5025
  157.0000     8.4240     5.7409     6.0598    10.1258    96.0408     0.0737     0.2643     0.1148   -55.5001     2.4947
  157.5000     8.4594     5.8090     6.1041    10.1336    96.2204     0.0677     0.2612     0.1193   -55.4955     2.4868
  158.0000     8.4679     5.8024     6.1487    10.1441    98.2755     0.0619     0.2609     0.1237   -55.7557     2.4787
  158.5000     8.4679     5.7906     6.1951    10.1444   101.0688     0.0561     0.2680     0.1254   -56.1020     2.4740
  159.0000     8.4680     5.7788     6.1685    10.1441   101.0324     0.0502     0.2738     0.1242   -56.4459     2.4720
  159.5000     8.4681     5.7671     6.1405    10.1437    99.7178     0.0484     0.2709     0.1229   -56.6836     2.4751
  160.0000     8.4671     5.7553     6.1129    10.1433    98.4286     0.0505     0.2721     0.1206   -56.6792     2.4795
  160.5000     8.4361     5.7436     6.0854    10.1428    98.0081     0.0546     0.2757     0.1186   -56.6797     2.4839
  161.0000     8.3909     5.7319     6.0581    10.1424    99.3982     0.0619     0.2793     0.1195   -56.6799     2.4859
  161.5000     8.4010     5.7203     6.0309    10.1420   101.1182     0.0715     0.2817     0.1210   -56.6787     2.4865
  162.0000     8.4197     5.7087     6.0038    10.1416    98.0361     0.0582     0.2810     0.1234   -56.8610     2.4740
  162.5000     8.4384     5.6971     5.9714    10.1412    98.1576     0.0591     0.2770     0.1259   -57.1879     2.4687
  163.0000     8.4571     5.6855     5.9753    10.1407   100.0203     0.0665     0.2730     0.1261   -57.4742     2.4722
  163.5000     8.4675     5.6739     5.9802    10.1403    97.6184     0.0650     0.2716     0.1259   -57.4673     2.4759
