~VERSION INFORMATION
 VERS.                2.0:   CWLS LOG ASCII STANDARD - VERSION 2.0
 WRAP.                 NO:   ONE LINE PER DEPTH STEP
~WELL INFORMATION
#MNEM.UNIT      DATA TYPE    INFORMATION
#----------   ------------   ------------------------------
 STRT.F            0.0000:   START DEPTH
 STOP.F         2758.0000:   STOP DEPTH
 STEP.F            0.5000:   STEP LENGTH
 NULL.          -999.2500:   NO VALUE
 COMP. FENIX & SCISSON INC:   COMPANY
 WELL.       402A #402-20:   WELL
 FLD .             TEAPOT:   FIELD
 LOC .      S20 T39N R78W:   LOCATION
 CNTY.            NATRONA:   COUNTY
 STAT.            WYOMING:   STATE
 CTRY. UNITED STATES OF AMERICA:   COUNTRY
 SRVC.      NL McCullough:   SERVICE COMPANY
 DATE.        15-JUL-1965:   LOGDATE
 API .       490251021100:   API NUMBER
~CURVE INFORMATION
#MNEM.UNIT       API CODE    CURVE DESCRIPTION
#----------   ------------   ------------------------------
 DEPT.F                  :   
 GR  .GAPI   30 310 01 00:   GAMMA RAY
 CALI.IN     70 280 01 00:   CALIPER
~PARAMETER INFORMATION
#MNEM.UNIT          VALUE    DESCRIPTION
#----------   ------------   ------------------------------
 PD  .                 GL:   PERMANENT DATUM
 LMF .                 GL:   LOG MEASURED FROM
 DMF .                 GL:   DRILLING MEASURED FROM
 DATE.            7-15-65:   RUN DATE
 RUN .                  1:   RUN NUMBER
 DL  .F              2759:   DEPTH LOGGER
 BLI .F              2758:   BOTTOM LOG INTERVAL
 TLI .F              2100:   TOP LOG INTERVAL
 CS  .IN                7:   CASING SIZE
 ENGI. FITZSIMMONS/COWLTHORPE:   RECORDING ENGINEER
 WITN.             HUDSON:   WITNESSED BY
 CLNT.            A2DTECH:   CLIENT CODE
 ORIG.           5" PRINT:   ORIGIN OF DATA
 UWI .       490251021100:   UNIQUE WELL ID
 DICO. A2D Technologies, Inc.:   DIGITIZING COMPANY
~OTHER INFORMATION
~A    DEPT      GR         CALI 
# ...
  850.5000  -999.2500     5.8352
  851.0000  -999.2500     5.8344
  851.5000  -999.2500     5.8336
  852.0000  -999.2500     5.8328
  852.5000  -999.2500     5.8339
  853.0000  -999.2500     5.8372
  853.5000  -999.2500     5.8404
  854.0000  -999.2500     5.8436
  854.5000  -999.2500     5.8468
  855.0000  -999.2500     5.8500
  855.5000  -999.2500     5.8532
  856.0000  -999.2500     5.8564
  856.5000  -999.2500     5.8596
  857.0000  -999.2500     5.8628
  857.5000  -999.2500     5.8660
  858.0000  -999.2500     5.8693
  858.5000  -999.2500     5.8723
  859.0000  -999.2500     5.8710
  859.5000  -999.2500     5.8695
  860.0000  -999.2500     5.8680
  860.5000  -999.2500     5.8665
  861.0000  -999.2500     5.8650
  861.5000  -999.2500     5.8636
  862.0000  -999.2500     5.8621
  862.5000  -999.2500     5.8606
  863.0000  -999.2500     5.8592
  863.5000  -999.2500     5.8577
  864.0000  -999.2500     5.8562
  864.5000  -999.2500     5.8548
  865.0000  -999.2500     5.8533
  865.5000  -999.2500     5.8524
  866.0000  -999.2500     5.8524
  866.5000  -999.2500     5.8524
  867.0000  -999.2500     5.8524
  867.5000  -999.2500     5.8524
  868.0000  -999.2500     5.8524
  868.5000  -999.2500     5.8524
  869.0000  -999.2500     5.8524
  869.5000  -999.2500     5.8524
  870.0000  -999.2500     5.8524
  870.5000  -999.2500     5.8524
  871.0000  -999.2500     5.8524
  871.5000  -999.2500     5.8524
  872.0000  -999.2500     5.8524
  872.5000  -999.2500     5.8524
  873.0000  -999.2500     5.8524
  873.5000  -999.2500     5.8524
  874.0000  -999.2500     5.8524
  874.5000  -999.2500     5.8524
  875.0000  -999.2500     5.8524
  875.5000  -999.2500     5.8524
  876.0000  -999.2500     5.8524
  876.5000  -999.2500     5.8523
  877.0000  -999.2500     5.8583
  877.5000  -999.2500     5.8663
  878.0000  -999.2500     5.8744
  878.5000  -999.2500     5.8824
  879.0000  -999.2500     5.8908
  879.5000  -999.2500     5.8860
  880.0000  -999.2500     5.8773
  880.5000  -999.2500     5.8685
  881.0000  -999.2500     5.8598
  881.5000  -999.2500     5.8524
  882.0000  -999.2500     5.8540
  882.5000  -999.2500     5.8555
  883.0000  -999.2500     5.8569
  883.5000  -999.2500     5.8583
  884.0000  -999.2500     5.8597
  884.5000  -999.2500     5.8612
  885.0000  -999.2500     5.8626
  885.5000  -999.2500     5.8640
  886.0000  -999.2500     5.8654
  886.5000  -999.2500     5.8669
  887.0000  -999.2500     5.8683
  887.5000  -999.2500     5.8698
  888.0000  -999.2500     5.8712
  888.5000  -999.2500     5.8725
  889.0000  -999.2500     5.8724
  889.5000  -999.2500     5.8724
  890.0000  -999.2500     5.8724
  890.5000  -999.2500     5.8724
  891.0000  -999.2500     5.8724
  891.5000  -999.2500     5.8724
  892.0000  -999.2500     5.8724
  892.5000  -999.2500     5.8724
  893.0000  -999.2500     5.8724
  893.5000  -999.2500     5.8724
  894.0000  -999.2500     5.8724
  894.5000  -999.2500     5.8724
  895.0000  -999.2500     5.8724
  895.5000  -999.2500     5.8724
  896.0000  -999.2500     5.8724
  896.5000  -999.2500     5.8733
  897.0000  -999.2500     5.8784
  897.5000  -999.2500     5.8833
  898.0000  -999.2500     5.8883
  898.5000  -999.2500     5.8933
  899.0000  -999.2500     5.8982
  899.5000  -999.2500     5.9032
  900.0000  -999.2500     5.9082
  900.5000  -999.2500     5.9121
  901.0000  -999.2500     5.9078
  901.5000  -999.2500     5.9036
  902.0000  -999.2500     5.8994
  902.5000  -999.2500     5.8953
  903.0000  -999.2500     5.8926
  903.5000  -999.2500     5.8933
  904.0000  -999.2500     5.8939
  904.5000  -999.2500     5.8946
  905.0000  -999.2500     5.8952
  905.5000  -999.2500     5.8959
  906.0000  -999.2500     5.8965
  906.5000  -999.2500     5.8971
  907.0000  -999.2500     5.8978
  907.5000  -999.2500     5.8984
  908.0000  -999.2500     5.8991
  908.5000  -999.2500     5.8997
  909.0000  -999.2500     5.9004
  909.5000  -999.2500     5.9010
  910.0000  -999.2500     5.9016
  910.5000  -999.2500     5.9023
  911.0000  -999.2500     5.9029
  911.5000  -999.2500     5.9036
  912.0000  -999.2500     5.9042
  912.5000  -999.2500     5.9049
  913.0000  -999.2500     5.9055
  913.5000  -999.2500     5.9061
  914.0000  -999.2500     5.9068
  914.5000  -999.2500     5.9074
  915.0000  -999.2500     5.9081
  915.5000  -999.2500     5.9087
  916.0000  -999.2500     5.9093
  916.5000  -999.2500     5.9100
  917.0000  -999.2500     5.9106
  917.5000  -999.2500     5.9113
  918.0000  -999.2500     5.9119
  918.5000  -999.2500     5.9128
  919.0000  -999.2500     5.9159
  919.5000  -999.2500     5.9191
  920.0000  -999.2500     5.9222
  920.5000  -999.2500     5.9254
  921.0000  -999.2500     5.9286
  921.5000  -999.2500     5.9318
  922.0000  -999.2500     5.9325
  922.5000  -999.2500     5.9325
  923.0000  -999.2500     5.9325
  923.5000  -999.2500     5.9325
  924.0000  -999.2500     5.9325
  924.5000  -999.2500     5.9325
  925.0000  -999.2500     5.9325
  925.5000  -999.2500     5.9325
  926.0000  -999.2500     5.9325
  926.5000  -999.2500     5.9321
  927.0000  -999.2500     5.9287
  927.5000  -999.2500     5.9252
  928.0000  -999.2500     5.9217
  928.5000  -999.2500     5.9183
  929.0000  -999.2500     5.9148
  929.5000  -999.2500     5.9113
  930.0000  -999.2500     5.9079
  930.5000  -999.2500     5.9044
  931.0000  -999.2500     5.9009
  931.5000  -999.2500     5.8975
  932.0000  -999.2500     5.8940
  932.5000  -999.2500     5.8947
  933.0000  -999.2500     5.8986
  933.5000  -999.2500     5.9026
  934.0000  -999.2500     5.9066
  934.5000  -999.2500     5.9106
  935.0000  -999.2500     5.9119
  935.5000  -999.2500     5.9108
  936.0000  -999.2500     5.9097
  936.5000  -999.2500     5.9086
  937.0000  -999.2500     5.9076
  937.5000  -999.2500     5.9065
  938.0000  -999.2500     5.9054
  938.5000  -999.2500     5.9043
  939.0000  -999.2500     5.9032
  939.5000  -999.2500     5.9022
  940.0000  -999.2500     5.9011
  940.5000  -999.2500     5.9000
  941.0000  -999.2500     5.8989
  941.5000  -999.2500     5.8978
  942.0000  -999.2500     5.8967
  942.5000  -999.2500     5.8956
  943.0000  -999.2500     5.8946
  943.5000  -999.2500     5.8934
  944.0000  -999.2500     5.8929
  944.5000  -999.2500     5.9051
  945.0000  -999.2500     5.9174
  945.5000  -999.2500     5.9301
  946.0000  -999.2500     5.9212
  946.5000  -999.2500     5.9019
  947.0000  -999.2500     5.8823
  947.5000  -999.2500     5.8723
  948.0000  -999.2500     5.8799
  948.5000  -999.2500     5.8906
  949.0000  -999.2500     5.8876
  949.5000  -999.2500     5.8815
  950.0000  -999.2500     5.8753
  950.5000  -999.2500     5.8692
  951.0000  -999.2500     5.8630
  951.5000  -999.2500     5.8570
  952.0000  -999.2500     5.8551
  952.5000  -999.2500     5.8687
  953.0000  -999.2500     5.8817
  953.5000  -999.2500     5.8929
  954.0000  -999.2500     5.8988
  954.5000  -999.2500     5.9054
  955.0000  -999.2500     5.9121
  955.5000  -999.2500     5.9100
  956.0000  -999.2500     5.9071
  956.5000  -999.2500     5.9043
  957.0000  -999.2500     5.9015
  957.5000  -999.2500     5.8987
  958.0000  -999.2500     5.8959
  958.5000  -999.2500     5.8931
  959.0000  -999.2500     5.8902
  959.5000  -999.2500     5.8874
  960.0000  -999.2500     5.8846
  960.5000  -999.2500     5.8818
  961.0000  -999.2500     5.8790
  961.5000  -999.2500     5.8762
  962.0000  -999.2500     5.8733
  962.5000  -999.2500     5.8742
  963.0000  -999.2500     5.8769
  963.5000  -999.2500     5.8795
  964.0000  -999.2500     5.8822
  964.5000  -999.2500     5.8849
  965.0000  -999.2500     5.8876
  965.5000  -999.2500     5.8903
  966.0000  -999.2500     5.8899
  966.5000  -999.2500     5.8732
  967.0000  -999.2500     5.8568
  967.5000  -999.2500     5.8403
  968.0000  -999.2500     5.8325
  968.5000  -999.2500     5.8323
  969.0000  -999.2500     5.8323
  969.5000  -999.2500     5.8324
  970.0000  -999.2500     5.8324
  970.5000  -999.2500     5.8324
  971.0000  -999.2500     5.8324
  971.5000  -999.2500     5.8324
