~VERSION INFORMATION
 VERS.                2.0:   CWLS LOG ASCII STANDARD - VERSION 2.0
 WRAP.                 NO:   ONE LINE PER DEPTH STEP
~WELL INFORMATION
#MNEM.UNIT      DATA TYPE    INFORMATION
#----------   ------------   ------------------------------
 STRT.F           10.0000:   START DEPTH
 STOP.F          756.0000:   STOP DEPTH
 STEP.F            0.1000:   STEP LENGTH
 NULL.          -999.2500:   NO VALUE
 COMP. BROWN JOHN E&C INC:   COMPANY
 WELL. N P R 3 SHX- #31-1-X-14:   WELL
 FLD .             TEAPOT:   FIELD
 LOC .      S14 T38N R78W:   LOCATION
 CNTY.            NATRONA:   COUNTY
 STAT.            WYOMING:   STATE
 CTRY. UNITED STATES OF AMERICA:   COUNTRY
 SRVC.     Atlas Wireline:   SERVICE COMPANY
 DATE.        07-JAN-1992:   LOGDATE
 API .       490252249700:   API NUMBER
~CURVE INFORMATION
#MNEM.UNIT       API CODE    CURVE DESCRIPTION
#----------   ------------   ------------------------------
 DEPT.F                  :   
 GRR .GAPI   07 310 01 00:   GAMMA RAY
 RFOC.OHMM   07 220 04 00:   RESISTIVITY FOCUSED LOG RES.
 RILD.OHMM   07 120 46 00:   INDUCTION LOG DEEP RESISTIVITY
 RILM.OHMM   07 120 44 00:   INDUCTION LOG MEDIUM  RESISTIVITY
~PARAMETER INFORMATION
#MNEM.UNIT          VALUE    DESCRIPTION
#----------   ------------   ------------------------------
 PD  .                 GL:   PERMANENT DATUM
 EPD .F              5210:   ELEVATION PERMANENT DATUM
 LMF .                 KB:   LOG MEASURED FROM
 DAPD.F                10:   FEET ABOVE PERMANENT DATUM
 DMF .                 KB:   DRILLING MEASURED FROM
 EKB .F              5220:   KELLING BUSHING
 EDF .F              5219:   DRILLING FLOOR
 EGL .F              5210:   GROUND LEVEL
 DATE.        07-JAN-1992:   RUN DATE
 RUN .                  1:   RUN NUMBER
 DD  .F               762:   DEPTH DRILLER
 DL  .F               760:   DEPTH LOGGER
 BLI .F               758:   BOTTOM LOG INTERVAL
 CS  .IN            9.625:   CASING SIZE
 CBD .F                48:   CASING BOTTOM DRILLER
 CBL .F                50:   CASING BOTTOM LOGGER
 BS  .IN             8.75:   BIT SIZE
 BSD .F               762:   BIT SIZE AT DEPTH
 DFT .    FORMATION FLUID:   DRILLING FLUID TYPE
 MRT .F                90:   MAXIMUM RECORDED TEMPERATURE
 LUN .            HL-6274:   LOGGING UNIT NUMBER
 LUL .             CASPER:   LOGGING UNIT LOCATION
 ENGI.             RAUTIC:   RECORDING ENGINEER
 WITN.        GARY STRONG:   WITNESSED BY
 CLNT.            A2DTECH:   CLIENT CODE
 ORIG.           5" PRINT:   ORIGIN OF DATA
 UWI .       490252249700:   UNIQUE WELL ID
 DICO. A2D Technologies, Inc.:   DIGITIZING COMPANY
~OTHER INFORMATION
~A   DEPT       GRR      RFOC       RILD       RILM   
# ...
  331.2000   112.9523     8.8924     8.2437     8.2706
  331.3000   112.9541     8.8927     8.2033     8.2709
  331.4000   112.9559     8.8929     8.1866     8.2664
  331.5000   112.9578     8.8931     8.1653     8.2144
  331.6000   112.9595     8.8934     8.1299     8.2147
  331.7000   112.9613     8.8936     8.1299     8.1815
  331.8000   112.9631     8.8939     8.1299     8.1585
  331.9000   112.9650     8.8941     8.1703     8.1589
  332.0000   112.9668     8.8944     8.1866     8.1592
  332.1000   112.9687     8.8946     8.2084     8.1596
  332.2000   112.7332     8.8949     8.2437     8.1599
  332.3000   112.4834     8.8951     8.2437     8.1602
  332.4000   112.0975     8.8954     8.2437     8.1606
  332.5000   111.5106     8.8956     8.2437     8.1609
  332.6000   110.7577     8.8959     8.2437     8.1613
  332.7000   109.9584     8.8961     8.2437     8.1616
  332.8000   109.2518     8.8963     8.2563     8.1619
  332.9000   108.3134     8.9130     8.3012     8.1967
  333.0000   107.4441     8.9591     8.3012     8.2195
  333.1000   106.6913     8.9594     8.3012     8.2356
  333.2000   105.9722     8.9596     8.3334     8.2775
  333.3000   105.4376     8.9981     8.3591     8.2779
  333.4000   104.9695     9.0228     8.3591     8.2782
  333.5000   104.6526     9.0230     8.3591     8.2785
  333.6000   104.5366     9.0233     8.3591     8.3047
  333.7000   104.6216     9.0235     8.3591     8.3369
  333.8000   105.0056     9.0238     8.3917     8.3373
  333.9000   106.3548     9.0240     8.4175     8.3376
  334.0000   107.5246     9.0538     8.4175     8.3380
  334.1000   108.7841     9.0877     8.4175     8.3383
  334.2000   109.7788     9.0879     8.4175     8.3387
  334.3000   110.5354     9.0882     8.4175     8.3559
  334.4000   111.2604     9.0884     8.4175     8.3975
  334.5000   111.8038     9.0887     8.4175     8.3979
  334.6000   112.2704     9.0890     8.4175     8.3982
  334.7000   112.2296     9.1098     8.4175     8.3985
  334.8000   111.9799     9.1531     8.4175     8.3989
  334.9000   111.7301     9.1533     8.4175     8.3992
  335.0000   111.4200     9.1536     8.3844     8.3996
  335.1000   110.6062     9.1538     8.3591     8.3999
  335.2000   109.9141     9.1541     8.3591     8.4003
  335.3000   109.1614     9.1543     8.3591     8.4006
  335.4000   108.5386     9.1546     8.3591     8.4010
  335.5000   108.1168     9.1548     8.3591     8.4193
  335.6000   107.8959     9.1551     8.3591     8.4602
  335.7000   108.2002     9.1554     8.3591     8.4606
  335.8000   109.1218     9.1556     8.3591     8.4609
  335.9000   110.1299     9.1559     8.3591     8.4613
  336.0000   110.8802     9.1308     8.3591     8.4617
  336.1000   111.2284     9.0273     8.3591     8.4620
  336.2000   111.2024     8.9671     8.3259     8.4624
  336.3000   110.9301     8.8792     8.3012     8.4627
  336.4000   111.3893     8.8434     8.3012     8.4151
  336.5000   112.0726     8.8674     8.3012     8.4048
  336.6000   112.9568     8.9058     8.3012     8.4052
  336.7000   113.8105     8.9096     8.3012     8.4055
  336.8000   114.3420     8.9686     8.3012     8.3967
  336.9000   115.1706     8.9688     8.2775     8.3481
  337.0000   115.1722     9.0046     8.2437     8.3484
  337.1000   114.9970     9.0576     8.2437     8.3487
  337.2000   114.4943     9.0955     8.2437     8.3491
  337.3000   113.8174     9.1007     8.2437     8.3494
  337.4000   113.3413     9.1597     8.2105     8.3402
  337.5000   113.0666     9.1599     8.1866     8.2923
  337.6000   112.6155     9.1602     8.1724     8.2928
  337.7000   112.1142     9.1605     8.1299     8.2930
  337.8000   111.7382     9.1607     8.1299     8.2934
  337.9000   111.4884     9.1548     8.0875     8.2743
  338.0000   111.2627     9.0976     8.0736     8.2367
  338.1000   111.5670     9.0492     8.0501     8.2370
  338.2000   111.7938     9.0349     8.0177     8.2374
  338.3000   112.2218     9.0073     8.0128     8.1991
  338.4000   112.6026     8.9726     7.9621     8.1810
  338.5000   112.8560     8.9656     7.9621     8.1813
  338.6000   113.0864     8.9108     7.9296     8.1714
  338.7000   113.0884     8.9110     7.9070     8.1254
  338.8000   113.0900     8.8724     7.8928     8.1258
  338.9000   113.0918     8.8496     7.8522     8.1261
  339.0000   113.0937     8.8314     7.8522     8.0972
  339.1000   113.0955     8.7885     7.8522     8.0705
  339.2000   113.0973     8.7888     7.8199     8.0603
  339.3000   113.0993     8.7891     7.7978     8.0153
  339.4000   113.1009     8.7498     7.7978     8.0157
  339.5000   113.2749     8.7285     7.7978     8.0160
  339.6000   113.7715     8.7287     7.7978     8.0163
  339.7000   114.4571     8.7290     7.7978     7.9965
  339.8000   114.9824     8.7292     7.7978     7.9615
  339.9000   115.8292     8.7295     7.8214     7.9618
  340.0000   116.0524     8.7297     7.8522     7.9622
  340.1000   116.1347     8.7300     7.8522     7.9625
  340.2000   116.1366     8.7510     7.8522     7.9333
  340.3000   116.0685     8.7915     7.8522     7.9080
  340.4000   115.8379     8.7918     7.8522     7.9083
  340.5000   115.8401     8.7921     7.8285     7.9087
  340.6000   115.6213     8.7923     7.7978     7.9091
  340.7000   115.3716     8.7925     7.7978     7.9093
  340.8000   115.1219     8.8149     7.7978     7.9097
  340.9000   114.8035     8.8545     7.7978     7.9100
  341.0000   114.3021     8.8568     7.7978     7.9103
  341.1000   113.7362     8.9170     7.7978     7.9107
  341.2000   113.5187     8.9172     7.7978     7.9110
  341.3000   113.1004     8.9175     7.7978     7.9113
  341.4000   112.5990     8.9177     7.7978     7.9116
  341.5000   112.0977     8.9180     7.7978     7.9120
  341.6000   111.6133     8.9182     7.7978     7.9123
  341.7000   111.3302     8.9185     7.7978     7.9126
  341.8000   111.3317     8.9187     7.7978     7.9130
  341.9000   111.3335     8.9190     7.7978     7.9133
  342.0000   111.3354     8.9192     7.7978     7.9136
  342.1000   111.4034     8.9195     7.7978     7.9357
  342.2000   111.6882     8.9197     7.7978     7.9694
  342.3000   112.5495     8.9200     7.7978     7.9698
  342.4000   112.9846     8.9202     7.7978     7.9702
  342.5000   113.3233     8.9204     7.7978     7.9704
  342.6000   113.5766     8.9207     7.7978     7.9708
  342.7000   113.8300     8.9209     7.7978     7.9711
  342.8000   114.0688     8.9212     7.7978     7.9714
  342.9000   113.7688     8.9215     7.7978     7.9718
  343.0000   113.7704     8.9217     7.7823     7.9721
  343.1000   113.7722     8.8845     7.7438     7.9724
  343.2000   113.6596     8.8602     7.7438     7.9410
  343.3000   113.4098     8.8604     7.7438     7.9179
  343.4000   113.1733     8.8607     7.7438     7.9182
  343.5000   113.1755     8.8610     7.7438     7.9142
  343.6000   113.1770     8.8612     7.7438     7.8641
  343.7000   113.0151     8.8231     7.7438     7.8236
  343.8000   112.9918     8.8001     7.7438     7.8103
  343.9000   113.3078     8.8004     7.7013     7.7880
  344.0000   113.8367     8.7924     7.6902     7.7569
  344.1000   114.9991     8.7397     7.6902     7.7572
  344.2000   115.8531     8.7399     7.6902     7.7576
  344.3000   116.6984     8.7402     7.6833     7.7579
  344.4000   117.4549     8.7113     7.6369     7.7582
  344.5000   118.1500     8.6799     7.6369     7.7356
  344.6000   118.6332     8.6802     7.6369     7.7051
  344.7000   118.6353     8.6804     7.6369     7.7054
  344.8000   118.2131     8.6807     7.6211     7.7058
  344.9000   117.8731     8.6809     7.5840     7.7061
  345.0000   117.4018     8.6812     7.5840     7.7064
  345.1000   116.7091     8.6814     7.5840     7.7067
  345.2000   116.1983     8.6816     7.5840     7.7071
  345.3000   115.3230     8.6819     7.5840     7.7074
  345.4000   114.9032     8.6822     7.5840     7.7077
  345.5000   114.4018     8.6824     7.5840     7.7080
  345.6000   114.0100     8.6826     7.5840     7.6759
  345.7000   113.7013     8.6828     7.5840     7.6553
