~VERSION INFORMATION
 VERS.                2.0:   CWLS LOG ASCII STANDARD - VERSION 2.0
 WRAP.                 NO:   ONE LINE PER DEPTH STEP
~WELL INFORMATION
#MNEM.UNIT      DATA TYPE    INFORMATION
#----------   ------------   ------------------------------
 STRT.F           30.0000:   START DEPTH
 STOP.F          733.0000:   STOP DEPTH
 STEP.F            0.5000:   STEP LENGTH
 NULL.          -999.2500:   NO VALUE
 COMP. FENIX & SCISSON INC:   COMPANY
 WELL.    NPR-3 #51 S -34:   WELL
 FLD .             TEAPOT:   FIELD
 LOC .      S34 T39N R78W:   LOCATION
 CNTY.            NATRONA:   COUNTY
 STAT.            WYOMING:   STATE
 CTRY. UNITED STATES OF AMERICA:   COUNTRY
 SRVC.      Dresser Atlas:   SERVICE COMPANY
 DATE.        20-MAR-1977:   LOGDATE
 API .       490251031600:   API NUMBER
~CURVE INFORMATION
#MNEM.UNIT       API CODE    CURVE DESCRIPTION
#----------   ------------   ------------------------------
 DEPT.F                  :   
 CALD.IN     45 280 60 00:   CALIPER FROM DENSITY LOG
 GRD .GAPI   45 310 01 00:   GAMMA RAY FROM DENSITY LOG
 CORR.G/C3   45 356 01 00:   DENSITY CORRECTION
 DPHI.DEC    45 890 12 00:   DENSITY POROSITY SANDSTONE
 RHOB.G/C3   45 350 01 00:   BULK DENSITY
 SPR .MV     07 010 01 00:   SPONTANEOUS POTENTIAL
 ILD .OHMM   07 120 46 00:   INDUCTION LOG DEEP
 ILM .OHMM   07 120 44 00:   INDUCTION LOG MEDIUM
 SFL .OHMM   07 220 01 00:   SHALLOW FOCUSED LOG RESISTIVITY
~PARAMETER INFORMATION
#MNEM.UNIT          VALUE    DESCRIPTION
#----------   ------------   ------------------------------
 PD  .                 GL:   PERMANENT DATUM
 EPD .F              5065:   ELEVATION PERMANENT DATUM
 LMF .                 KB:   LOG MEASURED FROM
 DAPD.F                 4:   FEET ABOVE PERMANENT DATUM
 DMF .                 KB:   DRILLING MEASURED FROM
 EKB .F              5069:   KELLING BUSHING
 EGL .F              5065:   GROUND LEVEL
 DATE.        20-MAR-1977:   RUN DATE
 RUN .                  1:   RUN NUMBER
 DD  .F               735:   DEPTH DRILLER
 DL  .F               731:   DEPTH LOGGER
 BLI .F               729:   BOTTOM LOG INTERVAL
 TLI .F                42:   TOP LOG INTERVAL
 CS  .IN            8.625:   CASING SIZE
 CBD .F                40:   CASING BOTTOM DRILLER
 CBL .F                42:   CASING BOTTOM LOGGER
 BS  .IN            7.875:   BIT SIZE
 BSD .F               735:   BIT SIZE AT DEPTH
 DFT .           CHEM GEL:   DRILLING FLUID TYPE
 DFD .                9.0:   DRILLING FLUID DENSITY
 DFV .                 38:   DRILLING FLUID VISCOSITY
 DFPH.                8.5:   DRILLING FLUID PH
 DFL .                 72:   DRILLING FLUID LOSS
 MSS .           FLOWLINE:   MUD SAMPLE SOURCE
 RMS .OHMM             .4:   RESISTIVITY MUD SAMPLE
 MST .F                51:   MUD SAMPLE TEMPERATURE
 RMF .OHMM            .72:   RESISTIVITY MUD FILTRATE SAMPLE
 MFST.F                48:   MUD FILTRATE SAMPLE TEMPERATURE
 RMC .OHMM           1.16:   RESISTIVITY MUD CAKE
 MCST.F                48:   MUD CAKE SAMPLE TEMPERATURE
 MFSS.               MEAS:   MUD FILTRATE SAMPLE SOURCE
 MCSS.               MEAS:   MUD CAKE SAMPLE SOURCE
 RMB .OHMM            .31:   RESISTIVITY MUD AT BHT
 BHT .F                66:   BOTTOM HOLE TEMPERATURE
 TCS .HRS            0300:   TIME CURCULATED STOPPED
 MRT .F                66:   MAXIMUM RECORDED TEMPERATURE
 LUN .               6145:   LOGGING UNIT NUMBER
 LUL .              GLTTE:   LOGGING UNIT LOCATION
 ENGI.              RANCK:   RECORDING ENGINEER
 WITN.              BURKE:   WITNESSED BY
 CLNT.            A2DTECH:   CLIENT CODE
 ORIG.           5" PRINT:   ORIGIN OF DATA
 UWI .       490251031600:   UNIQUE WELL ID
 DICO. A2D Technologies, Inc.:   DIGITIZING COMPANY
~OTHER INFORMATION
~A   DEPT     CALD        GRD       CORR       DPHI       RHOB        SPR        ILD        ILM        SFL   
# ...
  285.5000     8.2096   106.2422     0.0031     0.0989     2.4880   -50.5382     7.9230     9.5252    10.7962
  286.0000     8.2113   104.9155     0.0063     0.0963     2.4948   -50.5247     7.9274     9.6614    10.8014
  286.5000     8.2130   103.5889     0.0125     0.0951     2.4986   -50.5112     7.8760     9.7319    10.8067
  287.0000     8.2146   103.9040     0.0111     0.0951     2.5002   -50.3485     7.8815     9.7952    10.7373
  287.5000     8.2163   104.2192     0.0098     0.0977     2.4979   -50.3350     7.8859     9.8007    10.6684
  288.0000     8.2176   103.9373     0.0070     0.1010     2.4933   -50.3215     7.8359     9.8061    10.6736
  288.5000     8.2193   103.0584     0.0056     0.1046     2.4880   -50.3080     7.8403     9.8115    10.6788
  289.0000     8.2209   103.0975     0.0057     0.1079     2.4806   -50.2945     7.8447     9.8170    10.6103
  289.5000     8.2226   104.1687     0.0089     0.1103     2.4732   -50.2810     7.7938     9.8225    10.6154
  290.0000     8.2242   104.8955     0.0106     0.1120     2.4674   -50.2675     7.7444     9.8279    10.6206
  290.5000     8.2259   104.3149     0.0107     0.1123     2.4667   -50.1048     7.6953     9.7654    10.6258
  291.0000     8.2275   105.5255     0.0109     0.1120     2.4704   -50.0913     7.6465     9.7710    10.6310
  291.5000     8.2292   106.5870     0.0110     0.1105     2.4742   -50.0778     7.5467     9.7765    10.6362
  292.0000     8.2158   106.7528     0.0111     0.1089     2.4780   -50.2136     7.4978     9.7144    10.6414
  292.5000     8.2176   106.1725     0.0113     0.1104     2.4796   -50.3493     7.5108     9.7199    10.6466
  293.0000     8.2193   106.6369     0.0099     0.1113     2.4758   -50.3359     7.6109     9.5915    10.6518
  293.5000     8.2209   107.6983     0.0085     0.1116     2.4714   -50.4750     7.6680     9.5293    10.6570
  294.0000     8.2226   108.0134     0.0042     0.1103     2.4692   -50.4581     7.6722     9.5360    10.6622
  294.5000     8.2243   107.2838     0.0029     0.1088     2.4752   -50.4446     7.6765     9.5413    10.6674
  295.0000     8.2106   106.6993     0.0030     0.1043     2.4835   -50.4312     7.6278     9.4794    10.5989
  295.5000     8.2126   107.9141     0.0137     0.0980     2.4903   -50.5703     7.6320     9.3542    10.4582
  296.0000     8.1989   108.2292     0.0184     0.0937     2.4956   -50.8553     7.6363     9.2962    10.3899
  296.5000     8.2010   108.0966     0.0200     0.0910     2.4986   -51.5847     7.6406     9.3014    10.2532
  297.0000     8.2024   106.9192     0.0202     0.0901     2.5009   -51.7238     7.6448     9.1785    10.1862
  297.5000     8.2043   104.6971     0.0203     0.0902     2.5009   -51.8596     7.5963     9.1190    10.1924
  298.0000     8.2206   103.5197     0.0189     0.0903     2.5001   -51.8428     7.5480     9.0611    10.2682
  298.5000     8.2223   104.6970     0.0191     0.0909     2.4994   -51.8293     7.5524     9.0675    10.3446
  299.0000     8.2239   107.5254     0.0193     0.0915     2.4979   -51.8158     7.5566     8.9477    10.4940
  299.5000     8.2256   111.2173     0.0209     0.0942     2.4966   -51.8023     7.6133     8.8897    10.6456
  300.0000     8.2272   113.1343     0.0211     0.0956     2.4961   -51.9414     7.6176     8.8036    10.7235
  300.5000     8.2390   113.7324     0.0205     0.0956     2.4968   -51.7716     7.6747     8.4214    10.4381
  301.0000     8.2508   114.3304     0.0201     0.0956     2.4975   -51.9030     7.6249     8.3107    10.3723
  301.5000     8.2635   113.4971     0.0215     0.0955     2.4982   -51.8851     7.5765     8.2002    10.1670
  302.0000     8.2502   111.4284     0.0232     0.0955     2.4984   -52.0164     7.5285     8.1487    10.1020
  302.5000     8.2373   110.5537     0.0233     0.0955     2.5000   -51.9985     7.4301     8.0429     9.9718
  303.0000     8.2399   110.1268     0.0234     0.0961     2.5001   -52.1343     7.3320     7.9911     9.9787
  303.5000     8.2265   109.5506     0.0206     0.0988     2.4979   -52.2657     7.2353     7.9409     9.9856
  304.0000     8.2291   110.9148     0.0192     0.1038     2.4882   -52.3970     7.1388     7.9470     9.9926
  304.5000     8.2312   112.3795     0.0178     0.1077     2.4815   -52.3746     6.9969     7.9520     9.9995
  305.0000     8.2333   111.9515     0.0179     0.1086     2.4756   -52.5104     6.8097     7.9569    10.0064
  305.5000     8.2354   111.5708     0.0196     0.1089     2.4712   -52.7910     6.6274     7.9057     9.9392
  306.0000     8.2375   112.6417     0.0212     0.1088     2.4713   -52.7687     6.4501     7.8572     9.6019
  306.5000     8.2396   112.3640     0.0229     0.1082     2.4766   -52.9045     6.2342     7.7540     9.1638
  307.0000     8.2417   113.1311     0.0230     0.1073     2.4849   -52.8821     6.0665     7.5993     8.9140
  307.5000     8.2437   114.7937     0.0231     0.1039     2.4940   -52.8642     5.9050     7.4477     8.6162
  308.0000     8.2458   116.1579     0.0233     0.1018     2.4993   -52.8463     5.9082     7.2991     8.4506
  308.5000     8.2629   117.2235     0.0219     0.1000     2.5024   -52.8284     5.9115     7.2030     8.3981
  309.0000     8.2650   117.2443     0.0220     0.0991     2.5002   -52.9642     5.9148     7.2577     8.4041
  309.5000     8.2670   116.0711     0.0207     0.0993     2.4980   -52.9418     5.9591     7.3635     8.4758
  310.0000     8.2691   115.4898     0.0175     0.1005     2.4943   -52.9239     6.0455     7.5750     8.6601
  310.5000     8.2563   114.1725     0.0149     0.1026     2.4906   -52.9060     6.1331     7.7926     8.8571
  311.0000     8.2584   112.2531     0.0135     0.1035     2.4854   -52.7388     6.3088     7.9612     9.2401
  311.5000     8.2604   112.1195     0.0121     0.1031     2.4802   -52.7209     6.4447     8.1334     9.6294
  312.0000     8.2476   106.1754     0.0171     0.0987     2.4831   -52.7030     6.6292     8.1950     9.8388
  312.5000     8.2497   103.6537     0.0217     0.0934     2.4937   -52.8388     6.6789     8.2571     9.9030
  313.0000     8.2518   105.1723     0.0261     0.0903     2.5034   -52.8164     6.8228     8.2052     9.8412
  313.5000     8.2389   105.9394     0.0278     0.0898     2.5077   -52.9478     6.8266     8.1536     9.8483
  314.0000     8.2410   106.5572     0.0247     0.0943     2.5047   -53.2284     6.8303     8.1023     9.7868
  314.5000     8.2431   106.4288     0.0203     0.0996     2.4958   -53.3642     6.8341     8.0514     9.5922
  315.0000     8.2452   106.4497     0.0159     0.1053     2.4899   -53.6448     6.8379     8.0565     9.4668
  315.5000     8.2472   106.7690     0.0115     0.1074     2.4840   -53.7761     6.8417     7.9506     9.3430
  316.0000     8.2493   107.8346     0.0073     0.1095     2.4773   -53.9075     6.6586     7.8461     9.2850
  316.5000     8.2514   109.6465     0.0028     0.1110     2.4729   -53.8851     6.5253     7.7968     9.2930
  317.0000     8.2535   111.6077    -0.0014     0.1109     2.4714   -53.8672     6.5290     7.8017     9.2994
  317.5000     8.2556   111.0315    -0.0028     0.1103     2.4715   -54.0030     6.6236     7.8065     9.3059
  318.0000     8.2579   109.7091    -0.0027     0.1097     2.4708   -53.9806     6.6733     7.8129     9.3123
  318.5000     8.2448   110.4762    -0.0025     0.1090     2.4701   -53.9627     6.7234     7.8706     9.4487
  319.0000     8.2469   111.9896    -0.0008     0.1075     2.4710   -54.0985     6.7738     7.8755     9.7208
  319.5000     8.2490   113.3537     0.0039     0.1030     2.4778   -54.0761     6.8246     7.8804     9.8632
  320.0000     8.2511   114.4193     0.0115     0.0907     2.4966   -53.9090     6.8284     7.8853     9.9386
  320.5000     8.2384   113.8431     0.0192     0.0813     2.5087   -53.7418     6.8796     7.8902     9.9455
  321.0000     8.2417   112.2222     0.0208     0.0780     2.5200   -53.5746     6.8834     7.8952     9.9524
  321.5000     8.2574   110.8997     0.0209     0.0801     2.5239   -53.4075     6.8872     7.9001     9.9592
