~VERSION INFORMATION
 VERS.                2.0:   CWLS LOG ASCII STANDARD - VERSION 2.0
 WRAP.                 NO:   ONE LINE PER DEPTH STEP
~WELL INFORMATION
#MNEM.UNIT      DATA TYPE    INFORMATION
#----------   ------------   ------------------------------
 STRT.F           44.0000:   START DEPTH
 STOP.F          510.0000:   STOP DEPTH
 STEP.F            0.5000:   STEP LENGTH
 NULL.          -999.2500:   NO VALUE
 COMP. FENIX & SCISSON INC:   COMPANY
 WELL. NPR-3 76-SX-3 #76-3:   WELL
 FLD . TEAPOT DOME NPR #3:   FIELD
 LOC .       S3 T38N R78W:   LOCATION
 CNTY.            NATRONA:   COUNTY
 STAT.            WYOMING:   STATE
 CTRY. UNITED STATES OF AMERICA:   COUNTRY
 SRVC.            Unknown:   SERVICE COMPANY
 DATE.        13-OCT-1978:   LOGDATE
 API .       490251072300:   API NUMBER
~CURVE INFORMATION
#MNEM.UNIT       API CODE    CURVE DESCRIPTION
#----------   ------------   ------------------------------
 DEPT.F                  :   
 CALD.IN     45 280 60 00:   CALIPER
 RHOB.G/C3   45 350 01 00:   BULK DENSITY
 CORR.G/C3   45 356 01 00:   DENSITY CORRECTION
 SPR .MV     05 010 01 00:   SPONTANEOUS POTENTIAL FROM RES.
 SN  .OHMM   05 040 16 00:   SHORT NORMAL 16"
 ILD .OHMM   05 120 46 00:   INDUCTION LOG DEEP
 DPHI.DEC    45 890 12 00:   DENSITY POROSITY SANDSTONE
~PARAMETER INFORMATION
#MNEM.UNIT          VALUE    DESCRIPTION
#----------   ------------   ------------------------------
 PD  .                 GL:   PERMANENT DATUM
 EPD .F              5151:   ELEVATION PERMANENT DATUM
 LMF .                 KB:   LOG MEASURED FROM
 DAPD.F                 4:   FEET ABOVE PERMANENT DATUM
 DMF .                 KB:   DRILLING MEASURED FROM
 EKB .F              5155:   KELLING BUSHING
 EGL .F              5151:   GROUND LEVEL
 DATE.         10-13-1978:   RUN DATE
 RUN .                  1:   RUN NUMBER
 DD  .F               515:   DEPTH DRILLER
 DL  .F               517:   DEPTH LOGGER
 BLI .F               511:   BOTTOM LOG INTERVAL
 TLI .F                50:   TOP LOG INTERVAL
 CS  .IN            8.625:   CASING SIZE
 CBD .F                40:   CASING BOTTOM DRILLER
 BS  .IN            7.875:   BIT SIZE
 BSD .F               515:   BIT SIZE AT DEPTH
 DFT .                KCL:   DRILLING FLUID TYPE
 MSS .            MUD PIT:   MUD SAMPLE SOURCE
 RMS .OHMM             .2:   RESISTIVITY MUD SAMPLE
 MST .F                54:   MUD SAMPLE TEMPERATURE
 RMF .OHMM            .19:   RESISTIVITY MUD FILTRATE SAMPLE
 MFST.F                63:   MUD FILTRATE SAMPLE TEMPERATURE
 RMC .OHMM            .26:   RESISTIVITY MUD CAKE
 MCST.F                64:   MUD CAKE SAMPLE TEMPERATURE
 MFSS.               MEAS:   MUD FILTRATE SAMPLE SOURCE
 MCSS.               MEAS:   MUD CAKE SAMPLE SOURCE
 TCS .HRS               2:   TIME CURCULATED STOPPED
 LUN .               3006:   LOGGING UNIT NUMBER
 LUL .               CASP:   LOGGING UNIT LOCATION
 ENGI.             MILLER:   RECORDING ENGINEER
 WITN.           DINSMORE:   WITNESSED BY
 CLNT.            A2DTECH:   CLIENT CODE
 ORIG.           5" PRINT:   ORIGIN OF DATA
 UWI .       490251072300:   UNIQUE WELL ID
 DICO. A2D Technologies, Inc.:   DIGITIZING COMPANY
~OTHER INFORMATION
~A   DEPT     CALD       RHOB        CORR       SPR         SN        ILD         DPHI 
# ...
   89.5000     7.7937     2.5099     0.0677   -16.6501     7.9230     7.6677     0.0979
   90.0000     7.8223     2.5153     0.0706   -16.5808     7.9278     7.7096     0.0963
   90.5000     7.8507     2.5199     0.0701   -16.5124     7.9327     7.7142     0.0946
   91.0000     7.8681     2.5215     0.0689   -16.4442     7.9375     7.7192     0.0930
   91.5000     7.8409     2.5222     0.0677   -16.3760     7.9423     7.7242     0.0935
   92.0000     7.8148     2.5214     0.0665   -16.3077     7.9471     7.7291     0.0939
   92.5000     7.7888     2.5207     0.0654   -16.2390     7.9519     7.7340     0.0941
   93.0000     7.7621     2.5199     0.0642   -16.1734     7.9567     7.7389     0.0940
   93.5000     7.7778     2.5188     0.0630   -16.1920     7.9615     7.7438     0.0938
   94.0000     7.8142     2.5171     0.0619   -16.2147     7.9664     7.7487     0.0980
   94.5000     7.8513     2.5151     0.0614   -16.2370     7.9712     7.7536     0.1045
   95.0000     7.8885     2.5041     0.0635   -16.2593     7.9760     7.7586     0.1110
   95.5000     7.9250     2.4931     0.0677   -16.2815     7.9808     7.7635     0.1174
   96.0000     7.9395     2.4822     0.0805   -16.3037     7.9857     7.7685     0.1218
   96.5000     7.8784     2.4757     0.1255   -16.3259     7.9905     7.7734     0.1004
   97.0000     7.8200     2.5027     0.2129   -16.3481     7.9955     7.7785     0.0744
   97.5000     7.8207     2.5333     0.2970   -16.3697     7.9992     7.7818     0.0310
   98.0000     7.8316     2.5777     0.3818   -16.3926     7.9300     7.5665     0.0090
   98.5000     7.7459     2.6361     0.4555   -16.4149     7.8761     7.4230     0.0210
   99.0000     7.6232     2.6892     0.4362   -16.4372     7.8226     7.2949     0.0487
   99.5000     7.5248     2.6463     0.3203   -16.4594     7.7694     7.3006     0.0741
  100.0000     7.4915     2.5893     0.2108   -16.4817     7.7166     7.3062     0.0996
  100.5000     7.4566     2.5336     0.0984   -16.5040     7.6642     7.3117     0.1274
  101.0000     7.4023     2.4741     0.0627   -16.5264     7.6389     7.3171     0.1291
  101.5000     7.3440     2.4622     0.0619   -16.5487     7.6389     7.3225     0.1310
  102.0000     7.2854     2.4589     0.0637   -16.5573     7.6389     7.3279     0.1326
  102.5000     7.2277     2.4575     0.0654   -16.4793     7.6389     7.3333     0.1291
  103.0000     7.1907     2.4601     0.0671   -16.4018     7.6389     7.3387     0.1256
  103.5000     7.2185     2.4635     0.0687   -16.3245     7.6389     7.3442     0.1245
  104.0000     7.2416     2.4665     0.0704   -16.2472     7.6389     7.3495     0.1263
  104.5000     7.2646     2.4657     0.0720   -16.1700     7.6389     7.3550     0.1290
  105.0000     7.2875     2.4650     0.0736   -16.0927     7.6384     7.3604     0.1290
  105.5000     7.3099     2.4652     0.0740   -16.0158     7.6378     7.4112     0.1226
  106.0000     7.3787     2.4673     0.0675   -15.9719     7.7625     7.5325     0.1153
  106.5000     7.4600     2.4697     0.0611   -15.9723     7.8663     7.6557     0.1078
  107.0000     7.5416     2.4815     0.0577   -15.9722     7.9375     7.7809     0.1003
  107.5000     7.6232     2.4939     0.0597   -15.9722     7.9650     7.9082     0.0927
  108.0000     7.7041     2.5088     0.0616   -15.9722     7.9924     8.0375     0.0852
  108.5000     7.7501     2.5242     0.0635   -15.9722     8.0200     8.1691     0.0834
  109.0000     7.7267     2.5335     0.0655   -15.9722     8.0476     8.3029     0.0864
  109.5000     7.7047     2.5312     0.0693   -15.9722     8.0726     8.4384     0.0894
  110.0000     7.6816     2.5292     0.0812   -15.9722     8.0589     8.4718     0.0902
  110.5000     7.7150     2.5280     0.0929   -15.9722     8.0459     8.4926     0.0912
  111.0000     7.7793     2.5278     0.1014   -15.9722     8.0330     8.5134     0.0901
  111.5000     7.8443     2.5285     0.1094   -15.9722     8.0201     8.5316     0.0862
  112.0000     7.9102     2.5290     0.1248   -15.9722     8.0074     8.4734     0.0721
  112.5000     7.9208     2.5464     0.1402   -15.9722     7.9996     8.4221     0.0657
  113.0000     7.9041     2.5616     0.1554   -15.9722     8.0207     8.3712     0.0682
  113.5000     7.8868     2.5608     0.1696   -15.9722     8.0369     8.3205     0.0615
  114.0000     7.8695     2.5719     0.2091   -15.9722     8.0532     8.2784     0.0510
  114.5000     7.8526     2.5890     0.2785   -15.9722     8.0695     8.2235    -0.0168
  115.0000     7.8372     2.6179     0.4478   -15.9723     8.0858     8.1691    -0.0374
  115.5000     7.7598     2.7202     0.5431   -15.9721     8.1022     8.1150    -0.0366
  116.0000     7.6765     2.7556     0.4072   -15.9731     8.1186     8.0612     0.0078
  116.5000     7.5928     2.6866     0.2861   -15.9254     8.1350     8.0078     0.0529
  117.0000     7.5095     2.6113     0.1644   -15.8594     8.1515     7.9548     0.0958
  117.5000     7.4279     2.5347     0.0797   -15.7924     8.1680     7.9256     0.1201
  118.0000     7.3830     2.4822     0.0713   -15.7256     8.1846     8.0495     0.1219
  118.5000     7.3361     2.4770     0.0711   -15.6593     8.2009     8.1363     0.1184
  119.0000     7.2873     2.4814     0.0715   -15.5984     8.2183     8.2242     0.1146
  119.5000     7.2718     2.4885     0.0720   -15.1940     8.2839     8.3129     0.1138
  120.0000     7.2629     2.4885     0.0724   -14.6919     8.3759     8.4026     0.1122
  120.5000     7.2543     2.4896     0.0728   -14.1902     8.4680     8.4933     0.1106
  121.0000     7.2453     2.4910     0.0715   -13.7975     8.5612     8.5850     0.1103
  121.5000     7.2380     2.4925     0.0689   -13.9089     8.6554     8.7328     0.1140
  122.0000     7.2905     2.4890     0.0662   -14.0108     8.7507     8.9048     0.1174
  122.5000     7.3474     2.4845     0.0636   -14.1110     8.8470     9.0802     0.1164
  123.0000     7.4042     2.4866     0.0613   -14.1866     8.9444     9.2590     0.1103
  123.5000     7.4610     2.4952     0.0592   -14.1772     9.0430     9.4414     0.1054
  124.0000     7.5180     2.5024     0.0571   -14.1694     9.1420     9.6274     0.1056
  124.5000     7.5731     2.5054     0.0577   -14.1618     9.1942     9.9162     0.1057
  125.0000     7.5634     2.5049     0.0587   -14.1542     9.2118    10.2871     0.1039
  125.5000     7.5485     2.5047     0.0597   -14.1466     9.2294    10.6719     0.1008
  126.0000     7.5373     2.5105     0.0607   -14.1390     9.2471    11.0710     0.0948
  126.5000     7.6017     2.5166     0.0647   -14.1314     9.2648    11.3420     0.0882
  127.0000     7.6688     2.5228     0.0737   -14.1238     9.2825    11.5882     0.0815
  127.5000     7.7356     2.5334     0.0826   -14.1162     9.3003    11.8108     0.0794
  128.0000     7.8022     2.5412     0.0915   -14.1086     9.3181    11.9958     0.0892
  128.5000     7.8696     2.5286     0.1000   -14.1010     9.3359    11.9782     0.1009
  129.0000     7.8924     2.5159     0.1110   -14.0933     9.3538    11.9517     0.1098
  129.5000     7.8927     2.5025     0.1698   -14.0857     9.3717    11.9253     0.1023
  130.0000     7.8923     2.5174     0.2647   -14.0781     9.3896    11.8989     0.0746
  130.5000     7.8729     2.5577     0.3573   -14.0705     9.4075    11.7012     0.0143
  131.0000     7.8297     2.6582     0.4498   -14.0629     9.4255    11.3439    -0.0526
  131.5000     7.7876     2.7337     0.5355   -14.0553     9.4404    10.9976    -0.0448
  132.0000     7.7140     2.7546     0.5348   -14.0477     9.3962    10.6618    -0.0198
  132.5000     7.6288     2.7182     0.4330   -14.0401     9.3567    10.3363     0.0071
  133.0000     7.5426     2.6742     0.3586   -14.0325     9.3172    10.1258     0.0340
  133.5000     7.4565     2.6311     0.2838   -14.0249     9.2779     9.9538     0.0614
  134.0000     7.3703     2.5871     0.2093   -14.0173     9.2387     9.7847     0.0934
  134.5000     7.2845     2.5432     0.1350   -14.0096     9.1997     9.6168     0.1243
