~VERSION INFORMATION
 VERS.                2.0:   CWLS LOG ASCII STANDARD - VERSION 2.0
 WRAP.                 NO:   ONE LINE PER DEPTH STEP
~WELL INFORMATION
#MNEM.UNIT      DATA TYPE    INFORMATION
#----------   ------------   ------------------------------
 STRT.F           30.0000:   START DEPTH
 STOP.F          562.0000:   STOP DEPTH
 STEP.F            0.5000:   STEP LENGTH
 NULL.          -999.2500:   NO VALUE
 COMP. LAWRENCE/ALLISON INC:   COMPANY
 WELL. NPR 3 #53-16-SX-10:   WELL
 FLD .             TEAPOT:   FIELD
 LOC .      S10 T38N R78W:   LOCATION
 CNTY.            NATRONA:   COUNTY
 STAT.            WYOMING:   STATE
 CTRY. UNITED STATES OF AMERICA:   COUNTRY
 SRVC.      Dresser Atlas:   SERVICE COMPANY
 DATE.        27-AUG-1984:   LOGDATE
 API .       490251098200:   API NUMBER
~CURVE INFORMATION
#MNEM.UNIT       API CODE    CURVE DESCRIPTION
#----------   ------------   ------------------------------
 DEPT.F                  :   
 RILD.OHMM   07 120 46 00:   INDUCTION LOG DEEP RESISTIVITY
 RILM.OHMM   07 120 44 00:   INDUCTION LOG MEDIUM RESISTIVITY
 RFOC.OHMM   07 220 04 00:   RESISTIVITY FOCUSED LOG
 SPR .MV     07 010 01 00:   SPONTANEOUS POTENTIAL
 AC  .US/F   60 520 00 00:   ACOUSTIC SONIC
 DEN .G/C3   45 350 01 00:   COMPENSATED BULK DENSTIY
 CORR.G/C3   45 356 01 00:   DENSITY CORRECTION
 CNC .DEC    42 890 01 00:   NEUTRON POROSITY LIMESTONE
 CALD.IN     45 280 60 00:   CALIPER
 GRD .GAPI   45 310 01 00:   GAMMA RAY FROM DENSITY LOG
 PORD.DEC    45 890 10 00:   POROSITY DENSITY LIMESTONE
~PARAMETER INFORMATION
#MNEM.UNIT          VALUE    DESCRIPTION
#----------   ------------   ------------------------------
 PD  .                 GL:   PERMANENT DATUM
 EPD .F              5199:   ELEVATION PERMANENT DATUM
 LMF .                 GL:   LOG MEASURED FROM
 DMF .                 GL:   DRILLING MEASURED FROM
 EGL .F              5199:   GROUND LEVEL
 DATE.            8-27-84:   RUN DATE
 RUN .                  1:   RUN NUMBER
 DD  .F               550:   DEPTH DRILLER
 DL  .F               549:   DEPTH LOGGER
 BLI .F               547:   BOTTOM LOG INTERVAL
 TLI .F                30:   TOP LOG INTERVAL
 CS  .IN            9.625:   CASING SIZE
 CBD .F                40:   CASING BOTTOM DRILLER
 CBL .F                44:   CASING BOTTOM LOGGER
 BS  .IN            7.875:   BIT SIZE
 BSD .F               550:   BIT SIZE AT DEPTH
 DFT .          KCL/WATER:   DRILLING FLUID TYPE
 MSS .           MUD TANK:   MUD SAMPLE SOURCE
 RMS .OHMM            .28:   RESISTIVITY MUD SAMPLE
 MST .F                78:   MUD SAMPLE TEMPERATURE
 TCS .HRS               4:   TIME CURCULATED STOPPED
 LUN .               4082:   LOGGING UNIT NUMBER
 LUL .          ROOSEVELT:   LOGGING UNIT LOCATION
 ENGI.            FRANCIS:   RECORDING ENGINEER
 WITN.              FIVAS:   WITNESSED BY
 CLNT.            A2DTECH:   CLIENT CODE
 ORIG.       2", 5" PRINT:   ORIGIN OF DATA
 UWI .       490251098200:   UNIQUE WELL ID
 DICO. A2D Technologies, Inc.:   DIGITIZING COMPANY
~OTHER INFORMATION
~A   DEPT     RILD       RILM       RFOC        SPR         AC        DEN       CORR          CNC     CALD         GRD      PORD   
# ...
  335.0000    14.7446    15.0478    15.7199    -3.4016    92.9218     2.4536     0.0361     0.1870     8.5248    83.8755     0.1354
  335.5000    14.5518    14.8165    15.6357    -3.3012    92.7317     2.4560     0.0438     0.1934     8.5232    83.5036     0.1340
  336.0000    14.2925    14.5886    15.5012    -3.2006    92.3988     2.4630     0.0452     0.2020     8.5215    83.5338     0.1309
  336.5000    14.0378    14.3643    15.2914    -3.1002    92.0659     2.4624     0.0519     0.2009     8.5199    86.3306     0.1289
  337.0000    13.7877    14.1434    15.0838    -2.9998    91.7330     2.4612     0.0592     0.1975     8.5183    89.4108     0.1301
  337.5000    13.5421    13.9259    14.8792    -2.8989    91.7678     2.4601     0.0671     0.1979     8.5167    91.5008     0.1312
  338.0000    13.3008    13.7117    14.6774    -2.7988    91.9182     2.4597     0.0756     0.1948     8.5150    90.4636     0.1317
  338.5000    13.0638    13.5009    14.4784    -2.7342    92.0430     2.4670     0.0795     0.1908     8.5134    89.4049     0.1261
  339.0000    12.8310    13.2933    14.2820    -2.8082    91.9259     2.4741     0.0797     0.1893     8.5118    88.3373     0.1195
  339.5000    12.6017    13.0760    14.0883    -2.8786    91.8085     2.4771     0.0723     0.1918     8.5101    87.9466     0.1189
  340.0000    12.6780    13.1385    13.8213    -2.9491    91.6908     2.4694     0.0349     0.1935     8.5085    89.0018     0.1260
  340.5000    12.7599    13.2055    13.8684    -3.0195    91.5720     2.4617     0.0129     0.1914     8.5069    92.1497     0.1313
  341.0000    12.8367    13.2728    13.9474    -3.0880    91.4495     2.4624     0.0159     0.1908     8.5053    95.0195     0.1317
  341.5000    13.5170    13.5767    14.0269    -3.0444    91.7765     2.4684     0.0214     0.1912     8.5036    94.7261     0.1256
  342.0000    14.4901    14.4568    14.3328    -2.8818    92.3570     2.4737     0.0269     0.1973     8.5020    93.9978     0.1256
  342.5000    15.8174    15.3939    15.0878    -2.7333    97.7335     2.4556     0.0323     0.2083     8.5004    94.2927     0.1415
  343.0000    17.2662    16.3918    15.8825    -2.4539   102.7121     2.4108     0.0398     0.2193     8.4988    92.9181     0.1764
  343.5000    18.8477    17.6074    16.8887    -2.1275   108.8611     2.3585     0.0476     0.2211     8.4972    85.6686     0.2035
  344.0000    20.5741    19.0930    18.4169    -1.7994   114.2298     2.3085     0.0524     0.2130     8.4955    75.3539     0.2268
  344.5000    22.4586    20.7038    20.0675    -1.4712   118.8076     2.2809     0.0641     0.2068     8.4939    69.1140     0.2368
  345.0000    24.5157    22.4506    21.1911    -1.1452   118.8076     2.2968     0.0813     0.2043     8.4923    69.5636     0.2264
  345.5000    26.7833    24.3447    21.9156    -0.9270   112.9960     2.3304     0.0811     0.2093     8.4907    77.3339     0.2005
  346.0000    28.4391    26.3987    23.4094    -1.0413   107.0583     2.3703     0.0734     0.2175     8.4890    81.2183     0.1785
  346.5000    27.8250    28.6747    25.3520    -1.1468   101.2958     2.4041     0.0675     0.2176     8.4874    81.9528     0.1651
  347.0000    27.3008    29.4806    27.4558    -1.2526    96.4454     2.4072     0.0698     0.2127     8.4858    78.5536     0.1616
  347.5000    26.7903    29.4806    29.7342    -1.3577    96.0621     2.4071     0.0719     0.2051     8.4852    74.8812     0.1621
  348.0000    26.2915    28.7708    30.0303    -1.4637    97.0007     2.4045     0.0739     0.2031     8.4857    74.1494     0.1631
  348.5000    25.8022    27.7634    29.9590    -1.4424    98.3649     2.3991     0.0693     0.2145     8.4863    75.1255     0.1680
  349.0000    25.3220    26.7911    29.5023    -1.3163    99.7290     2.3896     0.0521     0.2268     8.4868    76.1105     0.1729
  349.5000    24.9643    25.9038    29.0527    -1.1885   100.7715     2.3799     0.0431     0.2272     8.4874    77.0942     0.1778
  350.0000    24.9643    25.8797    28.6075    -1.0607   100.2711     2.3713     0.0460     0.2208     8.4880    78.0689     0.1829
  350.5000    25.0696    25.8567    28.1519    -0.9325    99.7877     2.3717     0.0556     0.2156     8.4885    79.0583     0.1831
  351.0000    25.1866    25.8336    28.1130    -0.8052    99.8446     2.3727     0.0673     0.2116     8.4891    78.2791     0.1821
  351.5000    25.3042    25.8106    28.0783    -0.7256   100.2981     2.3698     0.0688     0.2103     8.4896    76.1824     0.1837
  352.0000    25.4224    25.7876    28.0422    -0.8474   101.1536     2.3641     0.0541     0.2115     8.4902    75.1634     0.1877
  352.5000    25.5411    25.7646    28.0057    -0.9643   102.1718     2.3527     0.0387     0.2186     8.4907    74.6971     0.1935
  353.0000    25.6658    25.7416    27.9693    -1.0811   103.1098     2.3411     0.0331     0.2256     8.4913    74.2355     0.1993
  353.5000    25.7971    25.7187    27.9330    -1.1978   103.1764     2.3316     0.0432     0.2252     8.4918    73.7404     0.2052
  354.0000    25.9354    25.6963    27.8967    -1.3145   102.2488     2.3346     0.0603     0.2232     8.4924    73.7079     0.2068
  354.5000    26.0745    25.6718    27.1732    -1.4312   101.2620     2.3482     0.0714     0.2222     8.4930    80.2002     0.2002
  355.0000    26.2143    25.4809    26.3453    -1.5479   100.2753     2.3617     0.0648     0.2207     8.4935    84.7156     0.1937
  355.5000    26.3871    25.2157    25.5426    -1.6646    99.2886     2.3630     0.0575     0.2163     8.4941    82.1803     0.1893
  356.0000    26.0221    24.9532    24.7644    -1.7814    99.2536     2.3617     0.0532     0.2133     8.4946    79.5657     0.1890
  356.5000    25.5602    24.6935    24.0065    -1.8984    99.3508     2.3548     0.0534     0.2159     8.4952    80.6733     0.1911
  357.0000    25.0193    24.5073    23.6182    -2.0154    99.4479     2.3481     0.0474     0.2155     8.4957    83.3395     0.1936
  357.5000    25.1950    24.5529    23.7975    -2.1200    99.4013     2.3412     0.0362     0.2137     8.4963    85.1695     0.1976
  358.0000    25.0440    24.5886    23.9235    -2.1172    98.9097     2.3400     0.0277     0.2081     8.4968    83.4868     0.2018
  358.5000    24.9437    24.6246    24.0483    -2.1170    98.1593     2.3440     0.0214     0.2027     8.4974    81.3618     0.2027
  359.0000    24.8439    24.6610    24.1737    -2.1168    97.4198     2.3481     0.0228     0.2031     8.4979    80.5105     0.1997
  359.5000    24.7444    24.6982    24.3004    -2.1166    96.6880     2.3528     0.0309     0.2088     8.4985    81.6232     0.1964
  360.0000    24.6454    24.7347    24.4307    -2.1118    95.9619     2.3589     0.0583     0.2133     8.4991    82.6765     0.1934
  360.5000    24.5467    24.2763    24.5063    -2.3421    95.9111     2.3649     0.0584     0.2180     8.4996    83.3988     0.1892
  361.0000    24.1821    23.7961    23.6146    -2.6416    95.8617     2.3709     0.0567     0.2175     8.5002    81.7416     0.1836
  361.5000    23.6441    23.3269    22.9792    -2.9425    96.4309     2.3769     0.0551     0.2137     8.5007    79.6596     0.1803
  362.0000    22.9669    22.8669    22.3589    -3.2435    96.9749     2.3821     0.0484     0.2099     8.5013    77.5118     0.1782
  362.5000    22.9712    22.4160    21.7366    -3.5408    97.5188     2.3810     0.0409     0.2134     8.5018    76.7259     0.1786
  363.0000    23.0032    22.1392    21.8045    -3.7125    97.9860     2.3801     0.0345     0.2200     8.5024    78.5704     0.1793
  363.5000    23.0274    22.2311    21.8851    -3.5917    98.0654     2.3814     0.0330     0.2252     8.5029    80.5413     0.1786
  364.0000    23.0512    22.2977    21.9639    -3.4755    97.9682     2.3830     0.0439     0.2203     8.5035    80.8130     0.1779
  364.5000    23.0749    22.3653    22.0423    -3.3584    97.8702     2.3805     0.0593     0.2158     8.5041    78.7593     0.1817
  365.0000    23.0985    22.4328    22.1392    -3.1119    97.7655     2.3712     0.0749     0.2219     8.5046    76.3209     0.1863
