~VERSION INFORMATION
 VERS.                2.0:   CWLS LOG ASCII STANDARD - VERSION 2.0
 WRAP.                 NO:   ONE LINE PER DEPTH STEP
~WELL INFORMATION
#MNEM.UNIT      DATA TYPE    INFORMATION
#----------   ------------   ------------------------------
 STRT.F           41.0000:   START DEPTH
 STOP.F          433.0000:   STOP DEPTH
 STEP.F            0.5000:   STEP LENGTH
 NULL.          -999.2500:   NO VALUE
 COMP. LAWRENCE ALLISON & ASSOC.:   COMPANY
 WELL.   STX 10 #61-42-10:   WELL
 FLD .             TEAPOT:   FIELD
 LOC .      S10 T38N R78W:   LOCATION
 CNTY.            NATRONA:   COUNTY
 STAT.            WYOMING:   STATE
 CTRY. UNITED STATES OF AMERICA:   COUNTRY
 SRVC.              Welex:   SERVICE COMPANY
 DATE.        10-SEP-1987:   LOGDATE
 API .       490251116900:   API NUMBER
~CURVE INFORMATION
#MNEM.UNIT       API CODE    CURVE DESCRIPTION
#----------   ------------   ------------------------------
 DEPT.F                  :   
 GRR .GAPI   07 310 01 00:   GAMMA RAY
 GURD.OHMM   07 220 05 00:   SHALLOW SHORT GUARD RESISTIVITY
 ILD .OHMM   07 120 46 00:   INDUCTION LOG DEEP
 ILM .OHMM   07 120 44 00:   INDUCTION LOG MEDIUM
~PARAMETER INFORMATION
#MNEM.UNIT          VALUE    DESCRIPTION
#----------   ------------   ------------------------------
 PD  .                 GL:   PERMANENT DATUM
 EPD .F              5158:   ELEVATION PERMANENT DATUM
 LMF .                 KB:   LOG MEASURED FROM
 DAPD.F                 8:   FEET ABOVE PERMANENT DATUM
 DMF .                 KB:   DRILLING MEASURED FROM
 EKB .F              5166:   KELLING BUSHING
 EDF .F              5165:   DRILLING FLOOR
 EGL .F              5158:   GROUND LEVEL
 DATE.        10-SEP-1987:   RUN DATE
 RUN .                  1:   RUN NUMBER
 DD  .F               435:   DEPTH DRILLER
 DL  .F               435:   DEPTH LOGGER
 BLI .F               433:   BOTTOM LOG INTERVAL
 TLI .F                41:   TOP LOG INTERVAL
 CS  .IN            9.625:   CASING SIZE
 CBD .F                50:   CASING BOTTOM DRILLER
 CBL .F                50:   CASING BOTTOM LOGGER
 BS  .IN             8.75:   BIT SIZE
 BSD .F               435:   BIT SIZE AT DEPTH
 DFT .            KCL-GEL:   DRILLING FLUID TYPE
 RMS .OHMM            0.5:   RESISTIVITY MUD SAMPLE
 MST .F                80:   MUD SAMPLE TEMPERATURE
 RMF .OHMM           0.43:   RESISTIVITY MUD FILTRATE SAMPLE
 MFST.F                80:   MUD FILTRATE SAMPLE TEMPERATURE
 RMC .OHMM           0.68:   RESISTIVITY MUD CAKE
 MCST.F                80:   MUD CAKE SAMPLE TEMPERATURE
 MFSS.               MEAS:   MUD FILTRATE SAMPLE SOURCE
 MCSS.               MEAS:   MUD CAKE SAMPLE SOURCE
 RMB .OHMM            0.5:   RESISTIVITY MUD AT BHT
 BHT .F                80:   BOTTOM HOLE TEMPERATURE
 TCS .HRS             2.5:   TIME CURCULATED STOPPED
 TLAB.HRS            0314:   TIME LOGGER AT BOTTOM
 MRT .F                80:   MAXIMUM RECORDED TEMPERATURE
 LUN .              51165:   LOGGING UNIT NUMBER
 LUL .              GILTE:   LOGGING UNIT LOCATION
 ENGI.         JD ADDISON:   RECORDING ENGINEER
 WITN.             STRONG:   WITNESSED BY
 CLNT.            A2DTECH:   CLIENT CODE
 ORIG.           5" PRINT:   ORIGIN OF DATA
 UWI .       490251116900:   UNIQUE WELL ID
 DICO. A2D Technologies, Inc.:   DIGITIZING COMPANY
~OTHER INFORMATION
~A   DEPT       GRR      GURD        ILD        ILM   
# ...
  187.0000   126.1585     9.0049     7.4255     7.1106
  187.5000   115.6396     9.1347     7.4796     7.2626
  188.0000   115.3433     9.1390     7.5863     7.3668
  188.5000   116.5536     9.0803     7.5889     7.4724
  189.0000   114.4543     9.0162     7.4872     7.4670
  189.5000   113.8466     8.8300     7.3862     7.3257
  190.0000   115.9900     8.6045     7.2377     7.1782
  190.5000   113.6942     8.3158     7.1896     7.0825
  191.0000   109.0658     8.0927     7.0938     7.0358
  191.5000   111.1770     7.8755     7.0474     6.9427
  192.0000   112.0836     7.7173     6.9504     6.8501
  192.5000   112.9933     7.6149     6.8536     6.7122
  193.0000   119.3149     7.5129     6.5384     6.4421
  193.5000   124.7344     7.4140     6.2316     6.0979
  194.0000   125.0410     7.3155     5.7373     5.7323
  194.5000   127.7537     7.1664     5.2459     5.3056
  195.0000   132.2709     6.8143     4.7965     4.9106
  195.5000   131.0738     5.9533     4.5399     4.5373
  196.0000   126.2276     5.1150     4.4479     4.3247
  196.5000   121.9669     4.6129     4.5117     4.2962
  197.0000   113.9501     4.8108     4.7044     4.4805
  197.5000   107.3380     5.4139     5.0429     4.8701
  198.0000   108.5483     6.6661     5.5590     5.2209
  198.5000   110.0580     7.7124     5.9690     5.5583
  199.0000   110.3632     8.1552     6.4906     5.8769
  199.5000   108.2653     8.3303     6.9414     6.2136
  200.0000   105.8652     8.3342     7.1518     6.5244
  200.5000   106.4726     8.3365     7.3217     6.9572
  201.0000   107.6815     8.3389     7.4962     7.3424
  201.5000   111.8979     8.6348     7.6031     7.4984
  202.0000   114.3098     8.9425     7.7111     7.6049
  202.5000   116.4058     9.0684     7.7667     7.6597
  203.0000   113.4020     9.0714     7.7688     7.6665
  203.5000   110.9989     9.0738     7.8249     7.7171
  204.0000   112.2049     9.1393     7.7731     7.6660
  204.5000   115.2154     9.0781     7.7752     7.6157
  205.0000   115.5191     9.0812     7.7232     7.5648
  205.5000   115.8228     9.0204     7.6720     7.5152
  206.0000   114.6228     9.0235     7.6217     7.5173
  206.5000   108.3100     9.0259     7.5713     7.5193
  207.0000   105.6062     9.0283     7.5734     7.4690
  207.5000   107.1129     8.9685     7.5754     7.4196
  208.0000   111.9279     8.9710     7.6301     7.4221
  208.5000   117.6451     8.9735     7.6856     7.4241
  209.0000   121.5699     8.9145     7.6873     7.4776
  209.5000   123.1108     8.9169     7.6898     7.4797
  210.0000   125.4736     8.9193     7.6919     7.4817
  210.5000   119.4623     8.8602     7.6404     7.4838
  211.0000   115.2547     8.8626     7.5376     7.3835
  211.5000   114.9562     8.8650     7.3344     7.1840
  212.0000   112.2531     8.8674     7.1363     6.9418
  212.5000   107.7441     8.9314     6.9435     6.7077
  213.0000   114.0635     8.8111     6.7094     6.4368
  213.5000   118.2770     8.4490     6.5734     6.2198
  214.0000   122.4905     7.4690     6.5299     6.0938
  214.5000   125.5010     6.5040     6.4853     6.0530
  215.0000   127.6092     6.9238     6.3509     6.0551
  215.5000   124.9054     7.5776     6.1763     6.0567
  216.0000   119.7956     7.9558     5.9754     5.8931
  216.5000   117.0918     8.1249     5.7341     5.6551
  217.0000   108.3730     8.1835     5.4270     5.2754
  217.5000   100.2557     7.9623     5.1010     4.9117
  218.0000   103.6030     7.1297     4.8950     4.5366
  218.5000   105.7043     5.5207     4.7628     4.3234
  219.0000   107.4585     5.0099     4.7641     4.2945
  219.5000   116.8096     5.1076     4.7984     4.4471
  220.0000   121.3239     6.9430     4.9343     4.7013
  220.5000   122.5291     7.6514     5.1804     5.0045
  221.0000   121.0290     7.9229     5.5528     5.4015
  221.5000   121.9342     7.9801     6.0362     5.7898
  222.0000   121.6357     7.9822     6.5209     6.1632
  222.5000   123.1425     8.0398     6.8457     6.5155
  223.0000   119.2356     8.0979     7.0327     6.7934
  223.5000   116.5326     8.1563     7.0346     6.9376
  224.0000   117.4378     8.2152     6.9880     6.7013
  224.5000   114.1325     8.2745     6.4779     6.2926
  225.0000   111.4287     8.3342     5.9637     5.9089
  225.5000   112.9354     8.1929     5.5285     5.4905
  226.0000   116.5634     6.7759     5.2324     4.9509
  226.5000   115.9489     5.8206     5.0910     4.5892
  227.0000   117.7745     5.3213     5.0570     4.5588
  227.5000   119.5990     5.4344     5.0587     4.7536
  228.0000   117.8546     6.4625     5.1661     4.9907
  228.5000   112.9539     7.1713     5.3493     5.2760
  229.0000   110.8517     7.3746     5.6208     5.6163
  229.5000   111.7569     7.6363     5.9480     6.0617
  230.0000   113.2636     8.0174     6.4085     6.4083
  230.5000   113.2666     8.6008     6.8219     6.7746
  231.0000   115.6756     8.9081     7.2619     7.0641
  231.5000   119.2875     9.2156     7.5716     7.3179
  232.0000   122.8995     9.4115     7.7860     7.5212
  232.5000   122.0002     9.6115     7.8966     7.6813
  233.0000   119.5964     9.7481     7.9535     7.7904
  233.5000   123.5099     9.8184     8.0109     7.8466
  234.0000   112.9866     9.7527     8.0687     7.9581
  234.5000   104.5685     9.7560     8.1833     8.0154
  235.0000   105.4737     9.7586     8.2423     8.0733
  235.5000   104.2667     9.8291     8.3017     8.1315
  236.0000   105.3473     9.9000     8.3040     8.1337
  236.5000   115.9960     9.9715     8.3063     8.1359
  237.0000   119.6209    10.0441     8.3663     8.0820
  237.5000   117.8194    10.0468     8.3108     8.0285
  238.0000   115.4171    10.0495     8.2563     8.0307
  238.5000   116.0215    10.0522     8.2586     8.0329
  239.0000   114.8215     9.7805     8.2608     8.0351
  239.5000   116.9297     9.5160     8.3204     8.0936
  240.0000   117.8342     9.0685     8.3804     8.2085
  240.5000   114.8304     8.9972     8.4994     8.2677
  241.0000   114.2311     9.3281     8.6201     8.3851
  241.5000   122.9559     9.7937     8.7425     8.5042
  242.0000   120.2521    10.1536     8.8056     8.6848
  242.5000   119.0528    10.5870     8.8080     8.5088
  243.0000   116.0482    10.8745     8.5665     8.2219
  243.5000   106.7279    11.0290     7.8704     7.8356
  244.0000    98.9113    11.1850     7.1820     7.2637
  244.5000   106.4982     9.5425     6.4601     6.2403
  245.0000   110.0752     7.3380     6.0302     5.6661
  245.5000   110.1423     5.6428     5.7867     5.3971
  246.0000   112.4577     6.6181     5.7883     5.2904
  246.5000   104.3404     7.8702     6.4672     5.7529
  247.0000    97.4261     9.2305     7.4283     6.6047
  247.5000    95.0223    10.8391     8.1292     7.2278
  248.0000    96.8305    11.6048     8.6536     8.1316
  248.5000   100.4425    11.7696     9.2117     8.8989
  249.0000   102.2500    11.6916     9.6712     9.2144
  249.5000   104.6589    11.6955    10.1535     9.4754
  250.0000   108.8717    11.7799    10.5136     9.7038
  250.5000   106.4694    11.8649    10.6629     9.8735
  251.0000   108.5776    11.7042    10.6556     9.8852
  251.5000   112.1896    11.6267    10.7434     9.8879
  252.0000   112.8059    11.7114    11.0477     9.9592
  252.5000   107.3983    11.9603    11.5189    10.4559
  253.0000   108.0056    12.3019    12.0101    11.3636
  253.5000   101.0957    12.9562    12.5222    12.3500
  254.0000    89.0715    15.8979    13.1468    13.0560
  254.5000    77.0472    19.3021    14.1897    13.4257
  255.0000    69.2336    21.2713    15.9640    13.8189
  255.5000    63.5252    22.6444    18.0848    14.2314
  256.0000    63.2301    23.7747    19.6547    14.9061
  256.5000    60.5294    23.9462    20.7783    18.6027
  257.0000    58.4101    23.7859    21.5150    19.5306
  257.5000    58.7870    23.7940    21.9797    19.5358
  258.0000    59.3440    24.2997    22.1305    19.5411
  258.5000    59.9528    24.6450    21.8339    19.8185
  259.0000    63.8685    24.1452    21.6879    20.3798
  259.5000    67.1826    23.4638    21.6953    20.6730
