~VERSION INFORMATION
 VERS.                2.0:   CWLS LOG ASCII STANDARD - VERSION 2.0
 WRAP.                 NO:   ONE LINE PER DEPTH STEP
~WELL INFORMATION
#MNEM.UNIT      DATA TYPE    INFORMATION
#----------   ------------   ------------------------------
 STRT.F           12.5000:   START DEPTH
 STOP.F          604.0000:   STOP DEPTH
 STEP.F            0.5000:   STEP LENGTH
 NULL.          -999.2500:   NO VALUE
 COMP. FENIX & SCISSON INC:   COMPANY
 WELL.   SX-3 NPR 3 #61-3:   WELL
 FLD .             TEAPOT:   FIELD
 LOC .       S3 T38N R78W:   LOCATION
 CNTY.            NATRONA:   COUNTY
 STAT.            WYOMING:   STATE
 CTRY. UNITED STATES OF AMERICA:   COUNTRY
 SRVC.           BIRDWELL:   SERVICE COMPANY
 DATE.        03-DEC-1978:   LOGDATE
 API .       490251074100:   API NUMBER
~CURVE INFORMATION
#MNEM.UNIT       API CODE    CURVE DESCRIPTION
#----------   ------------   ------------------------------
 DEPT.F                  :   
 SPR .MV     05 010 01 00:   SPONTANEOUS POTENTIAL FROM RES.
 SN  .OHMM   05 040 16 00:   SHORT NORMAL 16"
 IL  .OHMM   05 120 00 00:   INDUCTION LOG
 CALD.IN     45 280 60 00:   CALIPER
 GRD .GAPI   45 310 01 00:   GAMMA RAY FROM DENSITY LOG
 DEN .G/C3   45 350 01 00:   COMPENSATED BULK DENSTIY
 CORR.G/C3   45 356 01 00:   DENSITY CORRECTION
 DPHI.DEC    45 890 12 00:   DENSITY POROSITY SANDSTONE
~PARAMETER INFORMATION
#MNEM.UNIT          VALUE    DESCRIPTION
#----------   ------------   ------------------------------
 PD  .                 GL:   PERMANENT DATUM
 EPD .F              5099:   ELEVATION PERMANENT DATUM
 LMF .                 KB:   LOG MEASURED FROM
 DAPD.F                 4:   FEET ABOVE PERMANENT DATUM
 DMF .                 KB:   DRILLING MEASURED FROM
 EKB .F              5103:   KELLING BUSHING
 EGL .F              5099:   GROUND LEVEL
 DATE.            12-3-78:   RUN DATE
 RUN .                  1:   RUN NUMBER
 DD  .F               615:   DEPTH DRILLER
 DL  .F               604:   DEPTH LOGGER
 BLI .F               598:   BOTTOM LOG INTERVAL
 TLI .F                40:   TOP LOG INTERVAL
 CS  .IN            8.625:   CASING SIZE
 CBL .F                35:   CASING BOTTOM LOGGER
 BS  .IN            7.875:   BIT SIZE
 BSD .F               615:   BIT SIZE AT DEPTH
 DFT .                KCL:   DRILLING FLUID TYPE
 DFD .                8.8:   DRILLING FLUID DENSITY
 DFV .                 42:   DRILLING FLUID VISCOSITY
 DFPH.               12.2:   DRILLING FLUID PH
 DFL .                 10:   DRILLING FLUID LOSS
 MSS .           FLOWLINE:   MUD SAMPLE SOURCE
 RMS .OHMM            .24:   RESISTIVITY MUD SAMPLE
 MST .F                58:   MUD SAMPLE TEMPERATURE
 RMF .OHMM             .3:   RESISTIVITY MUD FILTRATE SAMPLE
 MFST.F                54:   MUD FILTRATE SAMPLE TEMPERATURE
 RMC .OHMM            .34:   RESISTIVITY MUD CAKE
 MCST.F                56:   MUD CAKE SAMPLE TEMPERATURE
 MFSS.           MEASURED:   MUD FILTRATE SAMPLE SOURCE
 MCSS.           MEASURED:   MUD CAKE SAMPLE SOURCE
 RMB .OHMM            .27:   RESISTIVITY MUD AT BHT
 BHT .F                56:   BOTTOM HOLE TEMPERATURE
 TCS .HRS               3:   TIME CURCULATED STOPPED
 MRT .F                52:   MAXIMUM RECORDED TEMPERATURE
 LUN .               2958:   LOGGING UNIT NUMBER
 LUL .                CPR:   LOGGING UNIT LOCATION
 ENGI.            ROLLINS:   RECORDING ENGINEER
 WITN.              AMEND:   WITNESSED BY
 CLNT.            A2DTECH:   CLIENT CODE
 ORIG.       2", 5" PRINT:   ORIGIN OF DATA
 UWI .       490251074100:   UNIQUE WELL ID
 DICO. A2D Technologies, Inc.:   DIGITIZING COMPANY
~OTHER INFORMATION
~A   DEPT      SPR         SN         IL       CALD         GRD       DEN       CORR       DPHI   
# ...
   53.0000   -44.5364    10.6712     7.1069     7.8815   110.0058     2.4439     0.0403     0.1532
   53.5000   -45.1925    10.6712     7.1069     7.9102   111.3007     2.4403     0.0192     0.1613
   54.0000   -45.8485    10.6730     7.1069     7.9708   112.5917     2.4286     0.0027     0.1667
   54.5000   -46.5045    10.4643     7.1069     8.0319   113.3633     2.4169     0.0015     0.1675
   55.0000   -47.1610    10.2109     7.1069     8.0929   113.2688     2.4143     0.0015     0.1675
   55.5000   -47.8181     9.9628     7.1069     8.1018   108.1856     2.4133     0.0015     0.1675
   56.0000   -48.4673     9.7209     7.1069     8.1026   103.3961     2.4124     0.0015     0.1686
   56.5000   -48.9012     9.4850     7.1067     8.1034   106.8125     2.4115     0.0014     0.1691
   57.0000   -48.8948     9.2547     7.1070     8.1043   109.0449     2.4124     0.0044     0.1668
   57.5000   -48.8961     9.0301     7.1422     8.1053   108.9640     2.4146     0.0081     0.1637
   58.0000   -48.8956     8.9084     7.1778     8.1062   108.0350     2.4202     0.0114     0.1607
   58.5000   -48.8956     8.8401     7.2134     8.1071   107.6657     2.4266     0.0110     0.1604
   59.0000   -48.8956     8.7723     7.2492     8.1080   108.5633     2.4279     0.0105     0.1605
   59.5000   -48.8956     8.7050     7.2852     8.1089   108.8224     2.4277     0.0100     0.1606
   60.0000   -48.8956     8.6382     7.3067     8.1098   107.9369     2.4275     0.0095     0.1606
   60.5000   -48.8956     8.5719     7.2623     8.1107   107.0049     2.4273     0.0091     0.1607
   61.0000   -48.8956     8.5062     7.2306     8.1117   107.2741     2.4271     0.0086     0.1596
   61.5000   -48.8956     8.4409     7.1993     8.1126   107.9309     2.4278     0.0081     0.1584
   62.0000   -48.8956     8.3762     7.1730     8.1135   108.3689     2.4287     0.0075     0.1586
   62.5000   -48.8956     8.3119     7.1882     8.1144   108.3618     2.4270     0.0080     0.1617
   63.0000   -48.8956     8.2482     7.2014     8.1153   108.3667     2.4234     0.0110     0.1647
   63.5000   -48.8956     8.1849     7.2147     8.1162   107.9678     2.4198     0.0208     0.1678
   64.0000   -48.8957     8.1221     7.2280     8.1171   107.4186     2.4161     0.0362     0.1687
   64.5000   -48.8961     8.0598     7.2413     8.1181   110.0858     2.4132     0.0498     0.1664
   65.0000   -48.9025     7.9980     7.2547     8.1190   112.7787     2.4167     0.0453     0.1606
   65.5000   -48.6230     7.9366     7.2680     8.1203   112.5668     2.4268     0.0336     0.1548
   66.0000   -48.2767     7.8671     7.2814     8.1186   110.3822     2.4368     0.0221     0.1496
   66.5000   -47.9291     7.9507     7.2947     8.0666   108.1979     2.4442     0.0114     0.1499
   67.0000   -47.5820     7.9888     7.3210     8.0191   106.0071     2.4441     0.0082     0.1519
   67.5000   -47.2330     8.0836     7.4439     8.0425   103.8628     2.4420     0.0053     0.1570
   68.0000   -46.8966     8.2880     7.5690     8.0723   104.5334     2.4358     0.0039     0.1620
   68.5000   -46.8860     8.4975     7.6961     8.1002   106.6233     2.4243     0.0052     0.1659
   69.0000   -47.0428     8.7123     7.8252     8.1010   107.5715     2.4175     0.0065     0.1576
   69.5000   -47.4857     8.9533     7.8671     8.1010   108.7098     2.4273     0.0077     0.1523
   70.0000   -48.2704     9.0140     7.8671     8.1010   110.9181     2.4394     0.0090     0.1515
   70.5000   -48.9140     9.0813     7.9401     8.0908   111.0791     2.4435     0.0102     0.1502
   71.0000   -48.9049     9.1492     8.0851     8.0265   108.2320     2.4455     0.0115     0.1484
   71.5000   -48.6127     9.2175     8.2362     7.9622   106.2028     2.4475     0.0127     0.1466
   72.0000   -48.2652     9.2864     8.3902     7.9344   104.1743     2.4495     0.0140     0.1463
   72.5000   -47.9213     9.3558     8.5472     7.9239   104.7569     2.4480     0.0152     0.1548
   73.0000   -47.6718     9.4257     8.7078     7.9136   104.9632     2.4410     0.0165     0.1532
   73.5000   -47.6277     9.4961     8.8721     7.9035   104.9739     2.4392     0.0176     0.1515
   74.0000   -47.5797     9.5514     8.8725     7.8862   104.9645     2.4410     0.0195     0.1520
   74.5000   -47.5327     9.4860     8.7642     7.8674   105.6466     2.4411     0.0233     0.1535
   75.0000   -47.4854     9.4328     8.5966     7.8486   106.5674     2.4390     0.0300     0.1540
   75.5000   -47.4381     9.3798     8.4337     7.8297   105.8371     2.4390     0.0402     0.1530
   76.0000   -47.3908     9.3272     8.2738     7.8330   104.1541     2.4419     0.0501     0.1501
   76.5000   -47.3431     9.2748     8.2134     7.8534   102.4470     2.4471     0.0600     0.1479
   77.0000   -47.2926     9.2227     8.1807     7.8741   101.9579     2.4504     0.0692     0.1477
   77.5000   -47.3986     9.1709     8.1482     7.8948   102.2359     2.4509     0.0689     0.1484
   78.0000   -47.5283     9.1195     8.1157     7.9155   104.8662     2.4477     0.0682     0.1488
   78.5000   -47.6504     9.0683     8.0834     7.9367   108.5416     2.4450     0.0675     0.1488
   79.0000   -48.2495     9.0174     8.0512     7.9433   105.8432     2.4451     0.0719     0.1488
   79.5000   -48.9827     8.9667     8.0137     7.9461   101.1188     2.4470     0.0779     0.1470
   80.0000   -49.7166     8.9164     8.0222     7.9489    96.3198     2.4528     0.0830     0.1426
   80.5000   -50.0936     8.8710     8.0358     7.9517    94.8136     2.4584     0.0773     0.1414
   81.0000   -50.0762     8.8710     8.0492     7.9546    97.9004     2.4580     0.0723     0.1436
   81.5000   -50.0601     8.8906     8.0626     7.9574   100.0117     2.4567     0.0674     0.1437
   82.0000   -50.0430     8.9173     8.0761     7.9602   102.1250     2.4555     0.0634     0.1439
   82.5000   -50.0265     8.9440     8.0896     7.9630   104.2241     2.4553     0.0667     0.1431
   83.0000   -50.0099     8.9708     8.1031     7.9659   105.2910     2.4584     0.0746     0.1401
   83.5000   -49.9934     8.9977     8.1166     7.9687   105.1024     2.4620     0.0816     0.1376
   84.0000   -49.9769     9.0246     8.1302     7.9715   104.9211     2.4659     0.0793     0.1376
   84.5000   -49.9604     9.0516     8.1438     7.9743   104.7610     2.4624     0.0725     0.1419
   85.0000   -49.9439     9.0787     8.1574     7.9772   104.7936     2.4559     0.0658     0.1455
   85.5000   -49.9274     9.1059     8.1710     7.9800   105.5304     2.4511     0.0658     0.1455
   86.0000   -49.9109     9.1202     8.1847     7.9828   105.9647     2.4549     0.0695     0.1425
   86.5000   -49.8944     9.1086     8.1983     7.9856   107.0796     2.4592     0.0733     0.1397
   87.0000   -49.8779     9.1006     8.2121     7.9885   108.8606     2.4635     0.0732     0.1368
   87.5000   -49.8614     9.0927     8.2255     7.9913   110.1819     2.4677     0.0614     0.1340
   88.0000   -49.8448     9.0848     8.2390     7.9941   109.8198     2.4711     0.0488     0.1340
   88.5000   -49.8283     9.0769     8.1715     7.9969   109.1066     2.4710     0.0363     0.1340
   89.0000   -49.8118     9.0690     8.0921     7.9998   107.0432     2.4688     0.0268     0.1384
   89.5000   -49.7953     9.0611     8.0135     8.0026   105.0505     2.4617     0.0252     0.1434
   90.0000   -49.7788     9.0533     7.9356     8.0054   105.0006     2.4536     0.0235     0.1484
   90.5000   -49.7623     9.0454     7.8585     8.0082   105.0637     2.4454     0.0218     0.1528
   91.0000   -49.7458     9.0382     7.7821     8.0111   105.1193     2.4426     0.0215     0.1531
   91.5000   -49.7288     9.0099     7.7065     8.0139   105.1951     2.4409     0.0215     0.1535
   92.0000   -49.7122     8.9792     7.6316     8.0167   104.2515     2.4391     0.0215     0.1523
   92.5000   -49.7231     8.9486     7.5574     8.0195   102.3122     2.4392     0.0205     0.1494
   93.0000   -49.8954     8.9180     7.5005     8.0224   100.0443     2.4481     0.0193     0.1405
