~VERSION INFORMATION
 VERS.                2.0:   CWLS LOG ASCII STANDARD - VERSION 2.0
 WRAP.                 NO:   ONE LINE PER DEPTH STEP
~WELL INFORMATION
#MNEM.UNIT      DATA TYPE    INFORMATION
#----------   ------------   ------------------------------
 STRT.F           31.0000:   START DEPTH
 STOP.F          600.0000:   STOP DEPTH
 STEP.F            0.5000:   STEP LENGTH
 NULL.          -999.2500:   NO VALUE
 COMP. FENIX & SCISSON INC:   COMPANY
 WELL.      NPR 3 #84 S-3:   WELL
 FLD .             TEAPOT:   FIELD
 LOC .       S3 T38N R78W:   LOCATION
 CNTY.            NATRONA:   COUNTY
 STAT.            WYOMING:   STATE
 CTRY. UNITED STATES OF AMERICA:   COUNTRY
 SRVC.              Welex:   SERVICE COMPANY
 DATE.        29-MAR-1977:   LOGDATE
 API .       490251032000:   API NUMBER
~CURVE INFORMATION
#MNEM.UNIT       API CODE    CURVE DESCRIPTION
#----------   ------------   ------------------------------
 DEPT.F                  :   
 CALD.IN     45 280 60 00:   CALIPER FROM DENSITY LOG
 GRD .GAPI   45 310 01 00:   GAMMA RAY FROM DENSITY LOG
 CORR.G/C3   45 356 01 00:   DENSITY CORRECTION
 DPHI.DEC    45 890 12 00:   DENSITY POROSITY SANDSTONE
 RHOB.G/C3   45 350 01 00:   BULK DENSITY
 SPR .MV     07 010 01 00:   SPONTANEOUS POTENTIAL
 ILD .OHMM   07 120 46 00:   INDUCTION LOG DEEP
 ILM .OHMM   07 120 44 00:   INDUCTION LOG MEDIUM
 SGRD.OHMM   07 221 05 00:   SHALLOW SHORT GUARD RESISTIVITY
~PARAMETER INFORMATION
#MNEM.UNIT          VALUE    DESCRIPTION
#----------   ------------   ------------------------------
 PD  .                 GL:   PERMANENT DATUM
 EPD .F              5146:   ELEVATION PERMANENT DATUM
 LMF .                 GL:   LOG MEASURED FROM
 DMF .                 GL:   DRILLING MEASURED FROM
 EGL .F              5146:   GROUND LEVEL
 DATE.        29-MAR-1977:   RUN DATE
 RUN .                  1:   RUN NUMBER
 DD  .F               610:   DEPTH DRILLER
 DL  .F               602:   DEPTH LOGGER
 BLI .F               600:   BOTTOM LOG INTERVAL
 TLI .F                30:   TOP LOG INTERVAL
 CS  .IN            8.625:   CASING SIZE
 BSD .F               610:   BIT SIZE AT DEPTH
 DFT .                KCL:   DRILLING FLUID TYPE
 DFD .                8.8:   DRILLING FLUID DENSITY
 BHT .F                63:   BOTTOM HOLE TEMPERATURE
 TCS .HRS            0500:   TIME CURCULATED STOPPED
 MRT .F                63:   MAXIMUM RECORDED TEMPERATURE
 ENGI.            C. DOAK:   RECORDING ENGINEER
 WITN.            R. LYON:   WITNESSED BY
 CLNT.            A2DTECH:   CLIENT CODE
 ORIG.           5" PRINT:   ORIGIN OF DATA
 UWI .       490251032000:   UNIQUE WELL ID
 DICO. A2D Technologies, Inc.:   DIGITIZING COMPANY
~OTHER INFORMATION
~A   DEPT     CALD        GRD       CORR       DPHI       RHOB        SPR        ILD        ILM       SGRD   
# ...
  578.5000     7.7924  -999.2500    -0.0365     0.0797     2.5091   -34.1155     8.0014     9.9267    11.8499
  579.0000     7.7791  -999.2500    -0.0319     0.0797     2.5128   -34.9859     7.8954     9.7954    11.7750
  579.5000     7.7808  -999.2500    -0.0318     0.0809     2.5090   -34.6719     7.7922     9.4031    11.4646
  580.0000     7.7824  -999.2500    -0.0271     0.0779     2.5167   -34.0607     7.6904     9.7393    11.1601
  580.5000     7.7841  -999.2500    -0.0195     0.0760     2.5190   -33.3010     7.5388    10.0178    11.0896
  581.0000     7.8006  -999.2500    -0.0118     0.0772     2.5150   -32.6647     7.4403    10.0916    11.4122
  581.5000     7.8023  -999.2500    -0.0087     0.0859     2.4973   -33.4435     7.3418     9.8784    10.9563
  582.0000     7.8188  -999.2500    -0.0086     0.0894     2.4914   -32.6399     7.1971     9.6155    10.3740
  582.5000     7.8354  -999.2500    -0.0100     0.0933     2.4869   -32.0177     7.0540     9.5629    10.5269
  583.0000     7.8370  -999.2500    -0.0132     0.0963     2.4819   -31.7348     6.9125     9.5019    10.9063
  583.5000     7.8536  -999.2500    -0.0188     0.0986     2.4820   -30.3672     6.7763     9.4413    11.1418
  584.0000     7.9127  -999.2500    -0.0185     0.0998     2.4873   -29.1704     6.5958     9.3164    10.8480
  584.5000  -999.2500  -999.2500    -0.0126     0.0962     2.4856   -28.4139     6.4200     8.9422     9.6502
  585.0000  -999.2500  -999.2500    -0.0077     0.0905     2.4920   -28.9931     6.2913     7.7905     7.4748
  585.5000  -999.2500  -999.2500    -0.0016     0.0845     2.5047   -28.6791     6.2522     7.0749     7.2113
  586.0000  -999.2500  -999.2500     0.0044     0.0800     2.5100   -27.6222     6.3011     7.1772    10.5841
  586.5000  -999.2500  -999.2500     0.0075     0.0788     2.5108   -26.4166     6.5277     8.1361    11.6707
  587.0000  -999.2500  -999.2500     0.0092     0.0808     2.5063   -24.1710     6.7623     8.7018    12.0079
  587.5000  -999.2500  -999.2500     0.0107     0.0829     2.5034   -23.8020     7.0541    11.3956    12.7019
  588.0000  -999.2500  -999.2500     0.0109     0.0763     2.5140   -25.1774     7.5088    11.5829    13.0689
  588.5000  -999.2500  -999.2500     0.0110     0.0751     2.5215   -24.4176     8.2395    11.8078    13.2616
  589.0000  -999.2500  -999.2500     0.0126     0.0807     2.5148   -21.5776     8.9702    12.0326    13.2719
  589.5000  -999.2500  -999.2500     0.0142     0.0637     2.5052   -16.6573     9.7010    12.2364    13.3746
  590.0000  -999.2500  -999.2500     0.0234     0.0541     2.5449    -9.3597    10.4317    12.3753    13.3851
  590.5000  -999.2500  -999.2500     0.0265     0.0555     2.5532    -1.3212    11.1624    12.5141    13.3006
  591.0000  -999.2500  -999.2500     0.0161     0.0609     2.5428    -1.3070    22.2419    12.6529    13.3136
  591.5000  -999.2500  -999.2500     0.0675     0.0576     2.5481    -1.2922    59.2705    12.8762    13.5098
  592.0000  -999.2500  -999.2500     0.0857     0.0558     2.5497    -1.2774  -999.2500    13.6068    13.7090
  592.5000  -999.2500  -999.2500     0.0918     0.0650     2.5370    -1.2626  -999.2500    14.3373    13.5310
  593.0000  -999.2500  -999.2500     0.0949     0.0623     2.5393    -1.2478  -999.2500    34.8597    13.3527
  593.5000  -999.2500  -999.2500     0.0981     0.0521     2.5701    -1.2330  -999.2500    69.7526    13.0007
  594.0000  -999.2500  -999.2500     0.1012     0.0590     2.5634    -1.2183  -999.2500   104.0875    12.9185
  594.5000  -999.2500  -999.2500     0.1043     0.0766     2.5283    -1.2035  -999.2500  -999.2500    12.8394
  595.0000  -999.2500  -999.2500     0.1060     0.0892     2.5036    -1.1887  -999.2500  -999.2500    13.0312
  595.5000  -999.2500  -999.2500     0.1091     0.0924     2.4835    -1.1739  -999.2500  -999.2500    13.4078
  596.0000  -999.2500  -999.2500     0.1140     0.0941     2.4703    -1.1591  -999.2500  -999.2500    13.1424
  596.5000  -999.2500  -999.2500  -999.2500  -999.2500  -999.2500    -1.1443  -999.2500  -999.2500    12.8822
  597.0000  -999.2500  -999.2500  -999.2500  -999.2500  -999.2500    -1.1296  -999.2500  -999.2500    12.5401
  597.5000  -999.2500  -999.2500  -999.2500  -999.2500  -999.2500    -1.1148  -999.2500  -999.2500    12.2919
  598.0000  -999.2500  -999.2500  -999.2500  -999.2500  -999.2500    -1.1000  -999.2500  -999.2500    12.3358
  598.5000  -999.2500  -999.2500  -999.2500  -999.2500  -999.2500    -1.0852  -999.2500  -999.2500    12.3881
  599.0000  -999.2500  -999.2500  -999.2500  -999.2500  -999.2500    -1.0704  -999.2500  -999.2500    12.4405
  599.5000  -999.2500  -999.2500  -999.2500  -999.2500  -999.2500    -1.0556  -999.2500  -999.2500    12.4929
  600.0000  -999.2500  -999.2500  -999.2500  -999.2500  -999.2500    -1.0409  -999.2500  -999.2500    12.5453
