~VERSION INFORMATION
 VERS.                2.0:   CWLS LOG ASCII STANDARD - VERSION 2.0
 WRAP.                 NO:   ONE LINE PER DEPTH STEP
~WELL INFORMATION
#MNEM.UNIT      DATA TYPE    INFORMATION
#----------   ------------   ------------------------------
 STRT.F          484.0000:   START DEPTH
 STOP.F         2291.5000:   STOP DEPTH
 STEP.F            0.5000:   STEP LENGTH
 NULL.          -999.2500:   NO VALUE
 COMP. FENIX & SCISSON INC:   COMPANY
 WELL.     45 SHX 3 #45-3:   WELL
 FLD .             TEAPOT:   FIELD
 LOC .       S3 T38N R78W:   LOCATION
 CNTY.            NATRONA:   COUNTY
 STAT.            WYOMING:   STATE
 CTRY. UNITED STATES OF AMERICA:   COUNTRY
 SRVC.              Welex:   SERVICE COMPANY
 DATE.        20-APR-1980:   LOGDATE
 API .       490251080400:   API NUMBER
~CURVE INFORMATION
#MNEM.UNIT       API CODE    CURVE DESCRIPTION
#----------   ------------   ------------------------------
 DEPT.F                  :   
 CALD.IN     45 280 60 00:   CALIPER
 GRD .GAPI   45 310 01 00:   GAMMA RAY FROM DENSITY LOG
 CORR.G/C3   45 356 01 00:   DENSITY CORRECTION
 RHOB.G/C3   45 350 01 00:   BULK DENSITY
 DPHI.DEC    45 890 12 00:   DENSITY POROSITY SANDSTONE
~PARAMETER INFORMATION
#MNEM.UNIT          VALUE    DESCRIPTION
#----------   ------------   ------------------------------
 PD  .                 GL:   PERMANENT DATUM
 EPD .F              5186:   ELEVATION PERMANENT DATUM
 LMF .                 KB:   LOG MEASURED FROM
 DAPD.F                10:   FEET ABOVE PERMANENT DATUM
 DMF .                 KB:   DRILLING MEASURED FROM
 EKB .F              5196:   KELLING BUSHING
 EGL .F              5186:   GROUND LEVEL
 DATE.            4-20-80:   RUN DATE
 RUN .                  1:   RUN NUMBER
 DD  .F              2341:   DEPTH DRILLER
 DL  .F              2293:   DEPTH LOGGER
 BLI .F              2291:   BOTTOM LOG INTERVAL
 TLI .F               500:   TOP LOG INTERVAL
 CS  .IN            9.625:   CASING SIZE
 BS  .IN             8.75:   BIT SIZE
 BSD .F              2341:   BIT SIZE AT DEPTH
 DFT .                OIL:   DRILLING FLUID TYPE
 TCS .HRS               2:   TIME CURCULATED STOPPED
 MRT .F               218:   MAXIMUM RECORDED TEMPERATURE
 ENGI.            TOTHILL:   RECORDING ENGINEER
 WITN.           DINSMORE:   WITNESSED BY
 CLNT.            A2DTECH:   CLIENT CODE
 ORIG.           5" PRINT:   ORIGIN OF DATA
 UWI .       490251080400:   UNIQUE WELL ID
 DICO. A2D Technologies, Inc.:   DIGITIZING COMPANY
~OTHER INFORMATION
~A   DEPT     CALD         GRD      CORR       RHOB       DPHI   
# ...
 2009.0000     8.6461    93.6934     0.0341     2.4637     0.1062
 2009.5000     8.6310    92.6919     0.0312     2.4643     0.1051
 2010.0000     8.6116    91.8803     0.0251     2.4578     0.1079
 2010.5000     8.6696    91.5822     0.0141     2.4512     0.1126
 2011.0000     8.6924    91.4975     0.0021     2.4436     0.1179
 2011.5000     8.6345    91.3242    -0.0036     2.4358     0.1227
 2012.0000     8.6305    91.5953    -0.0088     2.4282     0.1248
 2012.5000     8.6818    91.9755    -0.0071     2.4283     0.1254
 2013.0000     8.7306    92.3577    -0.0050     2.4307     0.1245
 2013.5000     8.7270    92.7361    -0.0032     2.4329     0.1241
 2014.0000     8.7204    93.1352    -0.0068     2.4319     0.1248
 2014.5000     8.7133    94.0413    -0.0077     2.4311     0.1252
 2015.0000     8.6809    94.9503    -0.0045     2.4349     0.1222
 2015.5000     8.6125    95.8569    -0.0015     2.4388     0.1194
 2016.0000     8.5501    96.7629     0.0050     2.4427     0.1165
 2016.5000     8.6018    97.7027     0.0104     2.4463     0.1139
 2017.0000     8.6755    96.6829    -0.0012     2.4346     0.1200
 2017.5000     8.7056    94.9082    -0.0028     2.4360     0.1228
 2018.0000     8.6974    93.1405     0.0002     2.4390     0.1197
 2018.5000     8.6606    91.7629     0.0010     2.4409     0.1188
 2019.0000     8.6325    90.7437    -0.0036     2.4332     0.1224
 2019.5000     8.6031    89.5353    -0.0111     2.4251     0.1261
 2020.0000     8.5967    89.4788    -0.0169     2.4221     0.1276
 2020.5000     8.6305    89.4854    -0.0121     2.4368     0.1197
 2021.0000     8.6400    89.4846     0.0022     2.4510     0.1139
 2021.5000     8.5759    89.2908     0.0117     2.4601     0.1083
 2022.0000     8.5124    88.8226     0.0168     2.4666     0.1047
 2022.5000     8.4921    87.4488     0.0206     2.4715     0.1010
 2023.0000     8.4946    86.0357     0.0209     2.4721     0.1010
 2023.5000     8.4976    84.6284     0.0159     2.4669     0.1042
 2024.0000     8.5005    83.2240     0.0132     2.4664     0.1036
 2024.5000     8.5035    81.8999     0.0143     2.4719     0.1002
 2025.0000     8.5062    81.2472     0.0145     2.4716     0.1031
 2025.5000     8.5093    81.0350     0.0027     2.4613     0.1089
 2026.0000     8.4584    80.6622    -0.0104     2.4496     0.1146
 2026.5000     8.4038    80.2467    -0.0043     2.4521     0.1120
 2027.0000     8.4552    79.8683     0.0034     2.4588     0.1087
 2027.5000     8.5044    81.1127     0.0023     2.4556     0.1117
 2028.0000     8.5539    82.4832    -0.0012     2.4517     0.1132
 2028.5000     8.6034    83.8506    -0.0048     2.4494     0.1144
 2029.0000     8.6530    85.2144    -0.0085     2.4484     0.1154
 2029.5000     8.7036    86.5680    -0.0063     2.4463     0.1157
 2030.0000     8.7282    87.2689    -0.0029     2.4540     0.1104
 2030.5000     8.7476    86.9799     0.0005     2.4604     0.1071
 2031.0000     8.7225    86.7062    -0.0005     2.4564     0.1098
 2031.5000     8.6984    86.4276    -0.0078     2.4506     0.1163
 2032.0000     8.6746    86.0870    -0.0161     2.4449     0.1164
 2032.5000     8.6597    85.6010    -0.0090     2.4448     0.1138
 2033.0000     8.6429    85.8500    -0.0052     2.4449     0.1160
 2033.5000     8.6259    84.9997    -0.0100     2.4393     0.1189
 2034.0000     8.6087    83.7480    -0.0110     2.4365     0.1220
 2034.5000     8.5917    83.5062    -0.0101     2.4408     0.1193
 2035.0000     8.6063    83.6759    -0.0021     2.4539     0.1125
 2035.5000     8.6235    83.1713     0.0059     2.4644     0.1057
 2036.0000     8.6406    82.1191     0.0116     2.4680     0.0989
 2036.5000     8.6577    81.0611     0.0130     2.4771     0.0980
 2037.0000     8.6728    80.0010     0.0043     2.4739     0.0998
 2037.5000     8.6485    78.9524     0.0020     2.4709     0.1016
 2038.0000     8.5323    78.4684    -0.0009     2.4706     0.1034
 2038.5000     8.5023    79.3264     0.0079     2.4780     0.0979
 2039.0000     8.5321    80.1597     0.0113     2.4853     0.0924
 2039.5000     8.5976    80.9934     0.0189     2.4925     0.0869
 2040.0000     8.6652    81.8267     0.0239     2.4954     0.0851
 2040.5000     8.5665    82.6595     0.0235     2.4900     0.0925
 2041.0000     8.5685    83.5035     0.0230     2.4858     0.0901
 2041.5000     8.6044    83.7823     0.0190     2.4791     0.0974
 2042.0000     8.6077    83.9226     0.0039     2.4703     0.1019
 2042.5000     8.5245    84.0424    -0.0047     2.4614     0.1204
 2043.0000     8.4438    83.4553    -0.0164     2.4525     0.1241
 2043.5000     8.3883    82.7984    -0.0222     2.4435     0.1270
 2044.0000     8.3943    82.1417    -0.0246     2.4346     0.1284
 2044.5000     8.3995    81.4867    -0.0254     2.4257     0.1329
 2045.0000     8.4046    80.8418    -0.0353     2.4165     0.1377
 2045.5000     8.4108    80.6873    -0.0313     2.4179     0.1319
 2046.0000     8.4593    81.3835    -0.0208     2.4218     0.1264
 2046.5000     8.5169    82.0663    -0.0200     2.4210     0.1282
 2047.0000     8.5757    82.7518    -0.0211     2.4200     0.1292
 2047.5000     8.6276    83.4376    -0.0222     2.4195     0.1276
 2048.0000     8.5727    84.1348    -0.0219     2.4214     0.1349
 2048.5000     8.5276    84.3142    -0.0162     2.4232     0.1312
 2049.0000     8.5938    83.4366    -0.0108     2.4254     0.1256
 2049.5000     8.6676    82.5558    -0.0030     2.4358     0.1200
 2050.0000     8.7405    81.6730     0.0040     2.4461     0.1139
 2050.5000     8.7933    80.7817     0.0037     2.4479     0.1139
 2051.0000     8.7923    81.1060    -0.0004     2.4419     0.1216
 2051.5000     8.7924    81.5292    -0.0042     2.4441     0.1224
 2052.0000     8.7885    81.9473    -0.0010     2.4535     0.1134
 2052.5000     8.7608    82.3663     0.0126     2.4632     0.1066
 2053.0000     8.7312    82.5226     0.0147     2.4623     0.1051
 2053.5000     8.6595    82.3995    -0.0004     2.4544     0.1143
 2054.0000     8.5821    82.2894    -0.0026     2.4485     0.1147
 2054.5000     8.6526    81.3609     0.0084     2.4647     0.1038
 2055.0000     8.7496    80.2571     0.0173     2.4761     0.0965
 2055.5000     8.7316    79.1490     0.0157     2.4743     0.0994
 2056.0000     8.7117    78.0411     0.0088     2.4696     0.1029
 2056.5000     8.7251    76.9313     0.0020     2.4639     0.1062
 2057.0000     8.7553    75.9232    -0.0036     2.4582     0.1096
 2057.5000     8.7852    75.6816    -0.0042     2.4550     0.1094
 2058.0000     8.8136    75.9080    -0.0003     2.4618     0.1071
 2058.5000     8.8079    76.4054     0.0049     2.4738     0.0979
 2059.0000     8.7297    77.0886     0.0215     2.4933     0.0889
 2059.5000     8.7316    77.8609     0.0365     2.5070     0.0817
 2060.0000     8.7318    78.7314     0.0466     2.5161     0.0757
 2060.5000     8.7319    79.5968     0.0569     2.5250     0.0704
 2061.0000     8.7320    80.4630     0.0629     2.5315     0.0643
 2061.5000     8.7319    81.3261     0.0617     2.5294     0.0659
 2062.0000     8.7215    82.2029     0.0586     2.5273     0.0671
 2062.5000     8.6592    82.1483     0.0551     2.5255     0.0655
 2063.0000     8.5976    81.5041     0.0443     2.5100     0.0769
 2063.5000     8.5520    80.8493     0.0303     2.5025     0.0841
 2064.0000     8.6260    80.1937     0.0288     2.5078     0.0807
 2064.5000     8.7001    79.5388     0.0271     2.5098     0.0794
 2065.0000     8.6651    78.8838     0.0259     2.5088     0.0773
 2065.5000     8.5702    78.2227     0.0040     2.4872     0.0951
 2066.0000     8.6237    78.0754    -0.0202     2.4656     0.1107
 2066.5000     8.6858    78.3106    -0.0245     2.4571     0.1110
 2067.0000     8.6309    78.5410    -0.0215     2.4587     0.1086
 2067.5000     8.6347    78.7662    -0.0101     2.4644     0.1053
 2068.0000     8.6810    78.8410    -0.0074     2.4699     0.1021
 2068.5000     8.6694    78.5650    -0.0027     2.4753     0.0986
 2069.0000     8.6291    78.2942     0.0124     2.4886     0.0909
 2069.5000     8.6312    78.0287     0.0162     2.4961     0.0858
