~VERSION INFORMATION
 VERS.                2.0:   CWLS LOG ASCII STANDARD - VERSION 2.0
 WRAP.                 NO:   ONE LINE PER DEPTH STEP
~WELL INFORMATION
#MNEM.UNIT      DATA TYPE    INFORMATION
#----------   ------------   ------------------------------
 STRT.F           19.0000:   START DEPTH
 STOP.F          600.0000:   STOP DEPTH
 STEP.F            0.5000:   STEP LENGTH
 NULL.          -999.2500:   NO VALUE
 COMP. FENIX & SCISSON INC:   COMPANY
 WELL.       NPR-3 #18-34:   WELL
 FLD .             TEAPOT:   FIELD
 LOC .      S34 T39N R78W:   LOCATION
 CNTY.            NATRONA:   COUNTY
 STAT.            WYOMING:   STATE
 CTRY. UNITED STATES OF AMERICA:   COUNTRY
 SRVC.           BIRDWELL:   SERVICE COMPANY
 DATE.        10-AUG-1978:   LOGDATE
 API .       490251068100:   API NUMBER
~CURVE INFORMATION
#MNEM.UNIT       API CODE    CURVE DESCRIPTION
#----------   ------------   ------------------------------
 DEPT.F                  :   
 SPR .MV     05 010 01 00:   SPONTANEOUS POTENTIAL FROM RES.
 SN  .OHMM   05 040 16 00:   SHORT NORMAL 16"
 ILD .OHMM   05 120 46 00:   INDUCTION LOG DEEP
 GRD .GAPI   45 310 01 00:   GAMMA RAY FROM DENSITY LOG
 CALD.IN     45 280 60 00:   CALIPER
 CORR.G/C3   45 356 01 00:   DENSITY CORRECTION
 DPHI.DEC    45 890 12 00:   DENSITY POROSITY SANDSTONE
 DEN .G/C3   45 350 01 00:   COMPENSATED BULK DENSTIY
~PARAMETER INFORMATION
#MNEM.UNIT          VALUE    DESCRIPTION
#----------   ------------   ------------------------------
 PD  .                 GL:   PERMANENT DATUM
 EPD .F              5159:   ELEVATION PERMANENT DATUM
 LMF .                 KB:   LOG MEASURED FROM
 DAPD.F                 4:   FEET ABOVE PERMANENT DATUM
 DMF .                 KB:   DRILLING MEASURED FROM
 EKB .F              5163:   KELLING BUSHING
 EGL .F              5159:   GROUND LEVEL
 DATE.            8-10-78:   RUN DATE
 RUN .                  1:   RUN NUMBER
 DD  .F               605:   DEPTH DRILLER
 DL  .F               606:   DEPTH LOGGER
 BLI .F               600:   BOTTOM LOG INTERVAL
 TLI .F                35:   TOP LOG INTERVAL
 CS  .IN            8.625:   CASING SIZE
 CBD .F                40:   CASING BOTTOM DRILLER
 BS  .IN            7.875:   BIT SIZE
 BSD .F               605:   BIT SIZE AT DEPTH
 DFT .                KCL:   DRILLING FLUID TYPE
 DFD .                8.7:   DRILLING FLUID DENSITY
 DFV .                 33:   DRILLING FLUID VISCOSITY
 DFPH.                  9:   DRILLING FLUID PH
 MSS .          FLOW LINE:   MUD SAMPLE SOURCE
 RMS .OHMM            .14:   RESISTIVITY MUD SAMPLE
 MST .F                88:   MUD SAMPLE TEMPERATURE
 MFSS.               MEAS:   MUD FILTRATE SAMPLE SOURCE
 MCSS.               MEAS:   MUD CAKE SAMPLE SOURCE
 TCS .HRS               1:   TIME CURCULATED STOPPED
 LUN .               3006:   LOGGING UNIT NUMBER
 LUL .               CASP:   LOGGING UNIT LOCATION
 ENGI.             MILLER:   RECORDING ENGINEER
 WITN.           MCGINLEY:   WITNESSED BY
 CLNT.            A2DTECH:   CLIENT CODE
 ORIG.           5" PRINT:   ORIGIN OF DATA
 UWI .       490251068100:   UNIQUE WELL ID
 DICO. A2D Technologies, Inc.:   DIGITIZING COMPANY
~OTHER INFORMATION
~A   DEPT      SPR         SN        ILD         GRD      CALD       CORR       DPHI        DEN   
   19.0000  -999.2500  -999.2500  -999.2500    82.7756  -999.2500  -999.2500  -999.2500  -999.2500
   19.5000  -999.2500  -999.2500  -999.2500    79.5817  -999.2500  -999.2500  -999.2500  -999.2500
   20.0000  -999.2500  -999.2500  -999.2500    79.2089  -999.2500  -999.2500  -999.2500  -999.2500
   20.5000  -999.2500  -999.2500  -999.2500    78.1829  -999.2500  -999.2500  -999.2500  -999.2500
   21.0000  -999.2500  -999.2500  -999.2500    78.0400  -999.2500  -999.2500  -999.2500  -999.2500
   21.5000  -999.2500  -999.2500  -999.2500    78.0947  -999.2500  -999.2500  -999.2500  -999.2500
   22.0000  -999.2500  -999.2500  -999.2500    76.0745  -999.2500  -999.2500  -999.2500  -999.2500
   22.5000  -999.2500  -999.2500  -999.2500    74.2464     8.5158  -999.2500  -999.2500  -999.2500
   23.0000  -999.2500  -999.2500  -999.2500    74.2319     8.5059  -999.2500  -999.2500  -999.2500
   23.5000  -999.2500  -999.2500  -999.2500    73.6364     8.4959  -999.2500  -999.2500  -999.2500
   24.0000  -999.2500  -999.2500  -999.2500    74.5148     8.4880  -999.2500  -999.2500  -999.2500
   24.5000  -999.2500  -999.2500  -999.2500    75.0810     8.4759  -999.2500  -999.2500  -999.2500
   25.0000  -999.2500  -999.2500  -999.2500    75.4343     8.4544  -999.2500  -999.2500  -999.2500
   25.5000  -999.2500  -999.2500  -999.2500    75.8328     8.4332  -999.2500  -999.2500  -999.2500
   26.0000  -999.2500  -999.2500  -999.2500    76.5329     8.4253  -999.2500  -999.2500  -999.2500
   26.5000  -999.2500  -999.2500  -999.2500    76.9814     8.4400  -999.2500  -999.2500  -999.2500
   27.0000  -999.2500  -999.2500  -999.2500    75.9375     8.4829  -999.2500  -999.2500  -999.2500
   27.5000  -999.2500  -999.2500  -999.2500    75.1537     8.7117  -999.2500  -999.2500  -999.2500
   28.0000  -999.2500  -999.2500  -999.2500    75.3969     8.7460  -999.2500  -999.2500  -999.2500
   28.5000  -999.2500  -999.2500  -999.2500    76.7435     8.7998  -999.2500  -999.2500  -999.2500
   29.0000  -999.2500  -999.2500  -999.2500    77.4435     8.8373  -999.2500  -999.2500  -999.2500
   29.5000  -999.2500  -999.2500  -999.2500    74.0988     8.7558  -999.2500  -999.2500  -999.2500
   30.0000  -999.2500  -999.2500  -999.2500    73.8107     8.7377  -999.2500  -999.2500  -999.2500
   30.5000  -999.2500  -999.2500  -999.2500    70.3473     8.6798    -0.1810  -999.2500  -999.2500
   31.0000  -999.2500  -999.2500  -999.2500    67.0787     8.6101     0.0060     0.1950     2.3616
   31.5000  -999.2500  -999.2500  -999.2500    90.2324     8.5158     0.2192     0.1655     2.5105
   32.0000  -999.2500  -999.2500  -999.2500    65.7643     8.3817     0.2172     0.0954     2.5115
   32.5000  -999.2500  -999.2500  -999.2500    69.2240     8.2470     0.1959     0.1185     2.4820
   33.0000  -999.2500  -999.2500  -999.2500    77.2350     8.1110     0.1689     0.1058     2.4964
   33.5000  -999.2500  -999.2500  -999.2500    85.4196     7.9898     0.1402     0.0942     2.5234
   34.0000  -999.2500  -999.2500  -999.2500    90.6799     7.8705     0.0981     0.1338     2.4763
   34.5000  -999.2500  -999.2500  -999.2500    88.9405     7.7490     0.0594     0.1418     2.4545
   35.0000  -999.2500  -999.2500  -999.2500    85.8582     7.7041     0.0479     0.1440     2.4392
   35.5000  -999.2500  -999.2500  -999.2500    84.5508     7.7180     0.0386     0.1440     2.4364
   36.0000  -999.2500    21.6768  -999.2500    86.1331     7.7611     0.0370     0.1441     2.4354
   36.5000   -34.5000     7.6030  -999.2500    90.2554     7.8037     0.0279     0.1551     2.4195
   37.0000   -42.3000     7.1085     5.7394    95.5612     7.8476     0.0243     0.1665     2.4000
   37.5000   -42.3000     6.8933     5.6930   103.2206     7.8928     0.0229     0.1779     2.3921
   38.0000   -42.2304     6.7056     5.6470   110.7825     7.9434     0.0212     0.1886     2.3708
   38.5000   -45.6604     6.6128     5.6518   115.9978     8.0040     0.0326     0.1910     2.3629
   39.0000   -48.8240     6.5219     5.5652   115.0822     8.0645     0.0487     0.1703     2.3982
   39.5000   -49.9367     6.4321     5.5202   108.5589     8.1253     0.0415     0.1631     2.4051
   40.0000   -51.8542     6.3435     5.4756   102.0077     8.1863     0.0348     0.1593     2.4117
   40.5000   -53.0167     6.2561     5.4314    95.4758     8.2240     0.0333     0.1620     2.4113
   41.0000   -44.8282     6.1699     5.3875    89.7676     8.2353     0.0315     0.1623     2.4108
   41.5000   -42.2247     6.0849     5.3440    90.0557     8.2478     0.0296     0.1623     2.4104
   42.0000   -47.0409     6.0011     5.3008    93.0374     8.2605     0.0247     0.1630     2.4099
   42.5000   -50.4870     5.9369     5.2520    97.0300     8.2459     0.0190     0.1631     2.4103
   43.0000   -43.8430     5.8623     5.1831   101.0489     8.2174     0.0183     0.1631     2.4107
   43.5000   -50.7073     5.7905     5.1151   101.1744     8.1880     0.0178     0.1580     2.4151
   44.0000   -38.6637     5.7223     5.0772    95.6146     8.1907     0.0172     0.1545     2.4207
   44.5000   -39.4198     5.7411     5.0919    91.7074     8.1875     0.0146     0.1548     2.4208
   45.0000   -39.4298     5.7593     5.1022    91.1579     8.0740     0.0096     0.1550     2.4208
   45.5000   -39.5043     5.7774     5.1124    90.5378     7.9612     0.0070     0.1558     2.4208
   46.0000   -39.5615     5.7957     5.1227    90.1215     7.8677     0.0069     0.1581     2.4209
   46.5000   -39.6187     5.8140     5.1242    91.6376     7.8244     0.0091     0.1544     2.4205
   47.0000   -39.6758     5.8323     5.1241    93.3355     7.8010     0.0120     0.1468     2.4358
   47.5000   -39.7330     5.8507     5.1241    91.5701     7.7935     0.0138     0.1484     2.4365
   48.0000   -39.7902     5.8694     5.1241    88.1735     7.7863     0.0178     0.1393     2.4414
   48.5000   -39.8474     5.8917     5.1473    86.5485     7.7823     0.0296     0.1317     2.4585
   49.0000   -39.9007     5.9245     5.2088    89.7038     7.8131     0.0337     0.1321     2.4593
   49.5000   -39.9284     5.9574     5.3400    95.6970     7.8548     0.0349     0.1285     2.4598
   50.0000   -39.9547     5.9905     5.4745    97.9722     7.8933     0.0360     0.1290     2.4604
   50.5000   -39.9810     6.0237     5.5230    96.6013     8.0724     0.0385     0.1307     2.4604
   51.0000   -40.0073     6.0471     5.5380    94.5534     8.2558     0.0442     0.1353     2.4597
   51.5000   -40.0337     6.0472     5.5530    93.0520     8.3483     0.0457     0.1385     2.4527
   52.0000   -40.0600     6.0472     5.5665    93.1110     8.3869     0.0498     0.1402     2.4455
   52.5000   -40.0858     6.0476     5.4504    95.0061     8.4295     0.0604     0.1418     2.4453
   53.0000   -40.0759     6.0471     5.3469    96.8521     8.4810     0.0710     0.1435     2.4449
   53.5000   -40.0250     5.9725     5.2983    98.0291     8.5203     0.0817     0.1376     2.4458
   54.0000   -39.9745     5.8825     5.2727    99.6798     8.4992     0.0997     0.1354     2.4602
   54.5000   -39.9239     5.7646     5.2472   101.4816     8.4796     0.1164     0.1347     2.4745
   55.0000   -39.8732     5.7294     5.2193   101.7717     8.4800     0.1116     0.1341     2.4661
   55.5000   -39.8226     5.6943     5.2434    97.6880     8.4796     0.0936     0.1394     2.4439
   56.0000   -39.7719     5.6647     5.2780    93.7371     8.4463     0.0759     0.1444     2.4425
   56.5000   -39.7213     5.6474     5.3128    94.3946     8.3589     0.0628     0.1524     2.4342
   57.0000   -39.6706     5.6301     5.3478    97.9479     8.2974     0.0515     0.1552     2.4206
   57.5000   -39.6200     5.6128     5.3654   101.4879     8.2909     0.0401     0.1573     2.4173
   58.0000   -39.5693     5.5956     5.3162   104.9185     8.2833     0.0348     0.1612     2.4142
   58.5000   -39.5186     5.5785     5.3162   106.6631     8.2760     0.0348     0.1614     2.4149
   59.0000   -39.4783     5.5614     5.3162   106.5843     8.2687     0.0349     0.1609     2.4160
