~VERSION INFORMATION
 VERS.                2.0:   CWLS LOG ASCII STANDARD - VERSION 2.0
 WRAP.                 NO:   ONE LINE PER DEPTH STEP
~WELL INFORMATION
#MNEM.UNIT      DATA TYPE    INFORMATION
#----------   ------------   ------------------------------
 STRT.F         1050.0000:   START DEPTH
 STOP.F         2592.5000:   STOP DEPTH
 STEP.F            0.5000:   STEP LENGTH
 NULL.          -999.2500:   NO VALUE
 COMP. LAWRENCE/ALLISON INC:   COMPANY
 WELL. NAVAL PETROLEUM RESERVE 3 X15 #34-15:   WELL
 FLD .            WILDCAT:   FIELD
 LOC .      S15 T38N R78W:   LOCATION
 CNTY.            NATRONA:   COUNTY
 STAT.            WYOMING:   STATE
 CTRY. UNITED STATES OF AMERICA:   COUNTRY
 SRVC.            Unknown:   SERVICE COMPANY
 DATE.        07-AUG-1988:   LOGDATE
 API .       490251125500:   API NUMBER
~CURVE INFORMATION
#MNEM.UNIT       API CODE    CURVE DESCRIPTION
#----------   ------------   ------------------------------
 DEPT.F                  :   
 ROP .MIN/FT 91 810 01 00:   RATE OF DRILLING PENETRATION
 TGAS.UNITS  91 830 01 00:   TOTAL GAS FROM HOTWIRE
~PARAMETER INFORMATION
#MNEM.UNIT          VALUE    DESCRIPTION
#----------   ------------   ------------------------------
 EKB .F              5286:   KELLING BUSHING
 EGL .F              5276:   GROUND LEVEL
 DATE.           9-7-1988:   RUN DATE
 RUN .                  1:   RUN NUMBER
 DD  .F              2592:   DEPTH DRILLER
 CBD .F              1044:   CASING BOTTOM DRILLER
 ENGI.               HUSK:   RECORDING ENGINEER
 CLNT.            A2DTECH:   CLIENT CODE
 ORIG.           5" PRINT:   ORIGIN OF DATA
 UWI .       490251125500:   UNIQUE WELL ID
 DICO. A2D Technologies, Inc.:   DIGITIZING COMPANY
~OTHER INFORMATION
~A  DEPT         ROP     TGAS   
# ...
 1779.0000     0.7435     6.2675
 1779.5000     0.6551     6.2674
 1780.0000     0.5637     6.2674
 1780.5000     0.5591     6.2674
 1781.0000     0.5593     6.2674
 1781.5000     0.5453     6.2674
 1782.0000     0.4873     6.2689
 1782.5000     0.4329     6.1855
 1783.0000     0.4216     6.0620
 1783.5000     0.4213     5.9379
 1784.0000     0.4214     5.8137
 1784.5000     0.3972     5.6895
 1785.0000     0.3692     5.5654
 1785.5000     0.3406     5.4415
 1786.0000     0.3110     5.3170
 1786.5000     0.3217     5.2809
 1787.0000     0.3526     5.3240
 1787.5000     0.3845     5.3670
 1788.0000     0.4164     5.4102
 1788.5000     0.4102     5.4534
 1789.0000     0.3968     5.4966
 1789.5000     0.3830     5.5397
 1790.0000     0.3695     5.5829
 1790.5000     0.3585     5.6261
 1791.0000     0.3609     5.6692
 1791.5000     0.3629     5.7124
 1792.0000     0.3649     5.7555
 1792.5000     0.3669     5.7987
 1793.0000     0.3688     5.8419
 1793.5000     0.3715     5.8850
 1794.0000     0.3988     5.9282
 1794.5000     0.4278     5.9714
 1795.0000     0.4567     6.0145
 1795.5000     0.4855     6.0577
 1796.0000     0.5150     6.1009
 1796.5000     0.5000     6.1441
 1797.0000     0.4602     6.1872
 1797.5000     0.4189     6.2304
 1798.0000     0.4089     6.2695
 1798.5000     0.4125     6.1931
 1799.0000     0.4177     6.0930
 1799.5000     0.4205     5.9923
 1800.0000     0.4615     5.8917
 1800.5000     0.5179     5.7912
 1801.0000     0.5751     5.6906
 1801.5000     0.6338     5.5901
 1802.0000     0.6069     5.4896
 1802.5000     0.5677     5.3889
 1803.0000     0.5284     5.2851
 1803.5000     0.4893     5.3122
 1804.0000     0.4500     5.3730
 1804.5000     0.4341     5.4351
 1805.0000     0.4340     5.4970
 1805.5000     0.4339     5.5588
 1806.0000     0.4340     5.6205
 1806.5000     0.4339     5.6822
 1807.0000     0.4339     5.7447
 1807.5000     0.4341     5.7658
 1808.0000     0.4422     5.7661
 1808.5000     0.4783     5.7661
 1809.0000     0.5138     5.7660
 1809.5000     0.5498     5.7660
 1810.0000     0.5479     5.7660
 1810.5000     0.5032     5.7660
 1811.0000     0.4594     5.7660
 1811.5000     0.4158     5.7660
 1812.0000     0.3720     5.7660
 1812.5000     0.3281     5.7660
 1813.0000     0.2844     5.7660
 1813.5000     0.2815     5.7660
 1814.0000     0.3205     5.7660
 1814.5000     0.3687     5.7660
 1815.0000     0.4171     5.7660
 1815.5000     0.4662     5.7660
 1816.0000     0.4680     5.7660
 1816.5000     0.4423     5.7660
 1817.0000     0.4164     5.7660
 1817.5000     0.3905     5.7660
 1818.0000     0.3709     5.7660
 1818.5000     0.3729     5.7660
 1819.0000     0.3743     5.7660
 1819.5000     0.3757     5.7660
 1820.0000     0.3772     5.7660
 1820.5000     0.3786     5.7660
 1821.0000     0.3801     5.7660
 1821.5000     0.3815     5.7660
 1822.0000     0.3828     5.7660
 1822.5000     0.3752     5.7660
 1823.0000     0.3585     5.7660
 1823.5000     0.3418     5.7660
 1824.0000     0.3334     5.7660
 1824.5000     0.3334     5.7660
 1825.0000     0.3333     5.7660
 1825.5000     0.3333     5.7660
 1826.0000     0.3334     5.7660
 1826.5000     0.3298     5.7660
 1827.0000     0.3247     5.7660
 1827.5000     0.3225     5.7660
 1828.0000     0.3635     5.7660
 1828.5000     0.4033     5.7660
 1829.0000     0.4427     5.7660
 1829.5000     0.4817     5.7659
 1830.0000     0.5061     5.7656
 1830.5000     0.4902     5.7679
 1831.0000     0.4752     5.8134
 1831.5000     0.4592     5.8573
 1832.0000     0.4859     5.9008
 1832.5000     0.5241     5.9443
 1833.0000     0.5626     5.9878
 1833.5000     0.6008     6.0313
 1834.0000     0.6348     6.0748
 1834.5000     0.6184     6.1183
 1835.0000     0.5849     6.1617
 1835.5000     0.5515     6.2052
 1836.0000     0.5348     6.2487
 1836.5000     0.5387     6.2922
 1837.0000     0.5468     6.3357
 1837.5000     0.5479     6.3792
 1838.0000     0.5164     6.4227
 1838.5000     0.4729     6.4662
 1839.0000     0.4347     6.5097
 1839.5000     0.4839     6.5531
 1840.0000     0.5399     6.5966
 1840.5000     0.5958     6.6401
 1841.0000     0.6517     6.6839
 1841.5000     0.7077     6.7283
 1842.0000     0.7606     6.7639
 1842.5000     0.7715     6.6417
 1843.0000     0.7739     6.5170
 1843.5000     0.7737     6.3934
 1844.0000     0.7784     6.2699
 1844.5000     0.8066     6.1465
 1845.0000     0.8346     6.0228
 1845.5000     0.8619     5.8980
 1846.0000     0.8777     5.7714
 1846.5000     0.8256     5.7997
 1847.0000     0.7589     5.8386
 1847.5000     0.6916     5.8769
 1848.0000     0.6243     5.9149
 1848.5000     0.5570     5.9529
 1849.0000     0.4897     5.9909
 1849.5000     0.4215     6.0289
 1850.0000     0.3983     6.0669
 1850.5000     0.4675     6.1048
 1851.0000     0.5398     6.1428
 1851.5000     0.6118     6.1808
 1852.0000     0.6725     6.2188
 1852.5000     0.6477     6.2568
 1853.0000     0.5574     6.2948
 1853.5000     0.4710     6.3328
 1854.0000     0.4058     6.3708
 1854.5000     0.4213     6.4088
 1855.0000     0.4646     6.4468
 1855.5000     0.5151     6.4847
 1856.0000     0.5658     6.5227
 1856.5000     0.5761     6.5607
 1857.0000     0.5312     6.5987
 1857.5000     0.4869     6.6367
 1858.0000     0.4462     6.6747
 1858.5000     0.5201     6.7126
 1859.0000     0.5976     6.7506
 1859.5000     0.6749     6.7630
 1860.0000     0.7527     6.7525
 1860.5000     0.8335     6.7420
 1861.0000     0.8821     6.7314
 1861.5000     0.9313     6.7207
 1862.0000     0.9747     6.7101
 1862.5000     0.9739     6.6995
 1863.0000     0.9694     6.6888
 1863.5000     0.9651     6.6782
 1864.0000     0.9523     6.6676
 1864.5000     0.8807     6.6569
 1865.0000     0.8086     6.6463
 1865.5000     0.7368     6.6357
 1866.0000     0.6646     6.6250
 1866.5000     0.6124     6.6144
 1867.0000     0.5656     6.6038
 1867.5000     0.5189     6.5931
 1868.0000     0.4744     6.5825
 1868.5000     0.4588     6.5719
 1869.0000     0.4594     6.5612
 1869.5000     0.4591     6.5506
 1870.0000     0.4512     6.5400
 1870.5000     0.4085     6.5293
 1871.0000     0.3662     6.5187
 1871.5000     0.3337     6.5081
 1872.0000     0.3724     6.4974
 1872.5000     0.4058     6.4868
 1873.0000     0.4389     6.4762
 1873.5000     0.4718     6.4655
 1874.0000     0.4968     6.4549
 1874.5000     0.4714     6.4443
 1875.0000     0.4464     6.4337
 1875.5000     0.4217     6.4230
 1876.0000     0.3971     6.4124
 1876.5000     0.3837     6.4018
 1877.0000     0.3837     6.3911
 1877.5000     0.3836     6.3805
 1878.0000     0.3836     6.3699
 1878.5000     0.3836     6.3592
 1879.0000     0.3838     6.3486
 1879.5000     0.3905     6.3380
 1880.0000     0.4173     6.3273
 1880.5000     0.4435     6.3167
 1881.0000     0.4705     6.3060
 1881.5000     0.4602     6.2954
 1882.0000     0.4469     6.2847
 1882.5000     0.4336     6.2744
 1883.0000     0.4206     6.2844
 1883.5000     0.4090     6.3333
 1884.0000     0.4214     6.3815
 1884.5000     0.4466     6.4298
 1885.0000     0.4717     6.4781
 1885.5000     0.4969     6.5264
 1886.0000     0.5091     6.5746
 1886.5000     0.4762     6.6229
 1887.0000     0.4393     6.6713
 1887.5000     0.4023     6.7202
 1888.0000     0.3838     6.7663
 1888.5000     0.3851     6.7179
 1889.0000     0.3879     6.6646
 1889.5000     0.3907     6.6117
 1890.0000     0.3934     6.5589
 1890.5000     0.3975     6.5061
 1891.0000     0.4274     6.4534
 1891.5000     0.4562     6.4006
 1892.0000     0.4848     6.3480
 1892.5000     0.5143     6.2955
 1893.0000     0.5217     6.2676
 1893.5000     0.5228     6.2675
 1894.0000     0.5398     6.2674
 1894.5000     0.5562     6.2674
 1895.0000     0.5725     6.2674
 1895.5000     0.5889     6.2674
 1896.0000     0.6060     6.2674
 1896.5000     0.6083     6.2674
 1897.0000     0.5690     6.2674
 1897.5000     0.5308     6.2674
 1898.0000     0.4929     6.2674
 1898.5000     0.4594     6.2675
 1899.0000     0.4627     6.2673
 1899.5000     0.4670     6.2672
 1900.0000     0.4716     6.2356
