~VERSION INFORMATION
 VERS.                2.0:   CWLS LOG ASCII STANDARD - VERSION 2.0
 WRAP.                 NO:   ONE LINE PER DEPTH STEP
~WELL INFORMATION
#MNEM.UNIT      DATA TYPE    INFORMATION
#----------   ------------   ------------------------------
 STRT.F            2.0000:   START DEPTH
 STOP.F          602.0000:   STOP DEPTH
 STEP.F            0.1000:   STEP LENGTH
 NULL.          -999.2500:   NO VALUE
 COMP.       F D SERV INC:   COMPANY
 WELL.    63-1 SX-3 #63-3:   WELL
 FLD .             TEAPOT:   FIELD
 LOC .       S3 T38N R78W:   LOCATION
 CNTY.            NATRONA:   COUNTY
 STAT.            WYOMING:   STATE
 CTRY. UNITED STATES OF AMERICA:   COUNTRY
 SRVC.     Atlas Wireline:   SERVICE COMPANY
 DATE.        20-APR-1992:   LOGDATE
 API .       490252251300:   API NUMBER
~CURVE INFORMATION
#MNEM.UNIT       API CODE    CURVE DESCRIPTION
#----------   ------------   ------------------------------
 DEPT.F                  :   
 GRR .GAPI   07 310 01 00:   GAMMA RAY
 RILD.OHMM   07 120 46 00:   INDUCTION LOG DEEP RESISTIVITY
 RILM.OHMM   07 120 44 00:   INDUCTION LOG MEDIUM RESISTIVITY
~PARAMETER INFORMATION
#MNEM.UNIT          VALUE    DESCRIPTION
#----------   ------------   ------------------------------
 PD  .                 GL:   PERMANENT DATUM
 EPD .F              5176:   ELEVATION PERMANENT DATUM
 LMF .                 KB:   LOG MEASURED FROM
 DAPD.F                 5:   FEET ABOVE PERMANENT DATUM
 DMF .                 KB:   DRILLING MEASURED FROM
 EKB .F              5181:   KELLING BUSHING
 EDF .F              5180:   DRILLING FLOOR
 EGL .F              5176:   GROUND LEVEL
 DATE.        20-APR-1992:   RUN DATE
 RUN .                  1:   RUN NUMBER
 DD  .F               608:   DEPTH DRILLER
 DL  .F               608:   DEPTH LOGGER
 BLI .F               602:   BOTTOM LOG INTERVAL
 CS  .IN            8.625:   CASING SIZE
 CBD .F                48:   CASING BOTTOM DRILLER
 CBL .F                50:   CASING BOTTOM LOGGER
 BS  .IN            7.875:   BIT SIZE
 BSD .F               608:   BIT SIZE AT DEPTH
 DFT .                AIR:   DRILLING FLUID TYPE
 TCS .HRS               2:   TIME CURCULATED STOPPED
 MRT .F                85:   MAXIMUM RECORDED TEMPERATURE
 LUN .           HL- 6274:   LOGGING UNIT NUMBER
 LUL .             CASPER:   LOGGING UNIT LOCATION
 ENGI.             RAUTIO:   RECORDING ENGINEER
 WITN.        GARY STRONG:   WITNESSED BY
 CLNT.            A2DTECH:   CLIENT CODE
 ORIG.           5" PRINT:   ORIGIN OF DATA
 UWI .       490252251300:   UNIQUE WELL ID
 DICO. A2D Technologies, Inc.:   DIGITIZING COMPANY
~OTHER INFORMATION
~A    DEPT      GRR      RILD       RILM   
# ...
  438.8000   102.6466    12.3874    12.4353
  438.9000   102.3177    12.4400    12.4353
  439.0000   101.8267    12.5109    12.4853
  439.1000   101.2742    12.5607    12.5225
  439.2000   100.6308    12.5604    12.5225
  439.3000    99.7376    12.5600    12.5263
  439.4000    98.8571    12.6210    12.6988
  439.5000    98.1213    12.6474    12.6988
  439.6000    97.3438    12.6764    12.6988
  439.7000    97.3432    12.7354    12.6988
  439.8000    97.3426    12.7350    12.7078
  439.9000    97.3420    12.8046    12.7878
  440.0000    97.4019    12.8776    12.7878
  440.1000    97.6532    12.9132    12.8371
  440.2000    98.3877    12.9128    12.8775
  440.3000    99.3142    12.9172    12.8775
  440.4000   100.0249    13.0026    12.8775
  440.5000   100.5144    13.0649    12.8775
  440.6000   100.9632    13.0931    12.8775
  440.7000   100.9624    13.0927    12.9177
  440.8000   100.9619    13.1051    12.9915
  440.9000   100.9613    13.1838    13.0587
  441.0000   100.7714    13.1834    13.0587
  441.1000   100.2427    13.1831    13.0587
  441.2000    99.4489    13.1827    13.0587
  441.3000    98.7707    13.2031    13.0587
  441.4000    98.0349    13.2744    13.0587
  441.5000    97.2990    13.2740    13.0587
  441.6000    96.5628    13.2737    13.0587
  441.7000    95.8205    13.2275    13.0587
  441.8000    95.0914    13.1805    13.0587
  441.9000    94.5412    13.1801    13.0587
  442.0000    94.0501    13.1797    13.0636
  442.1000    93.4151    13.2500    13.1503
  442.2000    92.4495    13.2177    13.1503
  442.3000    91.5872    13.1786    13.1503
  442.4000    91.3836    13.1783    13.1796
  442.5000    91.1379    13.1748    13.2425
  442.6000    90.8922    13.0857    13.2425
  442.7000    90.6785    13.0854    13.2425
  442.8000    90.6779    13.0851    13.1889
  442.9000    90.6773    13.0847    13.1139
  443.0000    90.8399    13.0625    13.0587
  443.1000    91.0844    12.9023    13.0587
  443.2000    91.3288    12.9020    13.0587
  443.3000    91.5813    12.9016    13.0587
  443.4000    92.0550    12.8663    13.0587
  443.5000    92.3645    12.7927    13.0587
  443.6000    92.7324    12.7215    13.0587
  443.7000    93.2222    12.7211    13.0587
  443.8000    93.7210    12.6045    12.9913
  443.9000    94.5987    12.5439    12.9174
  444.0000    94.9931    12.5180    12.8440
  444.1000    95.4827    12.4463    12.7710
  444.2000    95.9722    12.3687    12.6988
  444.3000    96.4619    12.3684    12.6988
  444.4000    97.0126    12.3195    12.6424
  444.5000    97.4409    12.2491    12.5705
  444.6000    97.7732    12.1957    12.5225
  444.7000    98.0177    12.1942    12.5150
  444.8000    98.2621    12.1244    12.4353
  444.9000    98.5202    12.0550    12.3732
  445.0000    98.7514    11.9860    12.3487
  445.1000    98.9958    11.9174    12.3186
  445.2000    99.2402    11.8576    12.2486
  445.3000    99.4847    11.8572    12.1773
  445.4000    99.7330    11.7961    12.1097
  445.5000   100.2225    11.7286    12.0409
  445.6000   100.5205    11.6917    12.0083
  445.7000   100.8997    11.6760    11.9878
  445.8000   101.3892    11.6091    11.9196
  445.9000   101.8583    11.5428    11.8417
  446.0000   102.1389    11.5281    11.7277
  446.1000   102.5559    11.4911    11.6773
  446.2000   103.0456    11.4472    11.6245
  446.3000   103.4404    11.4395    11.5039
  446.4000   103.6472    11.3668    11.4350
  446.5000   103.6465    11.3665    11.3735
  446.6000   103.6459    11.3231    11.3554
  446.7000   103.4763    11.2868    11.3554
  446.8000   103.2306    11.2724    11.3205
  446.9000   102.9849    11.2075    11.1978
  447.0000   102.7372    11.1438    11.1978
  447.1000   102.4935    11.1288    11.1978
  447.2000   102.2477    11.0938    11.1599
  447.3000   101.8729    11.0507    11.0965
  447.4000   101.4542    11.0505    11.0424
  447.5000   101.1932    11.0501    11.0424
  447.6000   100.6186    10.9947    11.0424
  447.7000   100.4150    10.9726    11.0424
  447.8000   100.0231    10.9723    11.0424
  447.9000    99.5320    10.9719    11.0424
  448.0000    99.0733    10.9716    11.0424
  448.1000    98.8030    10.9714    11.0424
  448.2000    98.5822    10.9711    11.0923
  448.3000    98.1730    10.9707    11.1198
  448.4000    97.8949    10.9704    11.0983
  448.5000    97.8943    10.9701    11.0424
  448.6000    97.8936    10.9698    11.1198
  448.7000    97.8931    10.9695    11.1198
  448.8000    98.0729    10.9692    11.1198
  448.9000    98.3174    10.9689    11.1198
  449.0000    98.5619    10.9686    11.1333
  449.1000    98.8065    10.9683    11.1978
  449.2000    99.0984    11.0291    11.1978
  449.3000    99.2953    11.0446    11.1978
  449.4000    99.6803    11.0442    11.1978
  449.5000   100.1701    11.0439    11.2177
  449.6000   100.6331    11.0486    11.2818
  449.7000   100.9081    11.1207    11.3554
  449.8000   100.9075    11.1204    11.3554
  449.9000   101.0646    11.1201    11.3554
  450.0000   101.1077    11.1459    11.3633
  450.1000   100.9057    11.1976    11.3827
  450.2000   100.9051    11.1972    11.4021
  450.3000   100.6727    11.1969    11.4215
  450.4000   100.2521    11.2439    11.4344
  450.5000    99.8791    11.3079    11.4415
  450.6000    99.5726    11.3724    11.5143
  450.7000    99.0815    11.4372    11.5142
  450.8000    98.5909    11.5126    11.6021
  450.9000    97.9079    11.5680    11.7055
  451.0000    97.3070    11.6339    11.7724
  451.1000    96.8943    11.7269    11.8398
  451.2000    96.6695    11.8612    11.9756
  451.3000    96.6688    12.0039    12.0595
  451.4000    96.8773    12.2676    12.1285
  451.5000    97.1219    12.4467    12.2210
  451.6000    97.4616    12.5893    12.3613
  451.7000    97.9897    12.7748    12.5195
  451.8000    98.7806    13.0646    12.6470
  451.9000    99.3256    13.3282    12.8905
  452.0000    99.9161    13.5198    13.1213
  452.1000   100.5066    13.7532    13.3056
  452.2000   100.9859    13.9905    13.6137
  452.3000   101.2085    14.2317    13.9278
  452.4000   101.2085    14.4921    14.3781
  452.5000   100.9945    14.7273    14.8321
  452.6000   100.7482    15.0434    15.2615
  452.7000    99.9911    15.3467    15.7319
  452.8000    98.2821    15.6113    16.5545
  452.9000    95.4683    15.8803    17.1536
  453.0000    93.5755    16.2038    17.7179
  453.1000    90.5212    16.5899    18.1846
  453.2000    87.6037    17.0113    18.6042
  453.3000    86.0047    17.4417    19.0364
  453.4000    84.4057    17.9611    19.5856
  453.5000    82.8067    18.6318    20.0649
  453.6000    81.2077    19.2356    20.4637
  453.7000    79.6087    19.9067    20.8565
  453.8000    77.8878    20.6001    21.3637
  453.9000    76.0329    21.2842    22.1981
  454.0000    75.5434    21.9070    22.5365
  454.1000    74.9606    22.9735    23.0135
  454.2000    74.5647    23.5133    23.6051
  454.3000    74.0752    24.2770    24.2578
  454.4000    73.6748    25.1216    24.8225
  454.5000    73.4319    25.9731    25.5373
  454.6000    73.1683    26.7878    26.2783
  454.7000    73.1717    27.4997    26.9545
  454.8000    73.1753    28.4102    27.6817
  454.9000    73.1789    29.3993    28.6437
  455.0000    73.1221    30.3342    29.7656
  455.1000    72.8793    31.0366    30.8366
  455.2000    72.6363    31.9375    32.0969
  455.3000    72.5901    32.7124    33.2368
  455.4000    72.4521    33.5796    34.1559
  455.5000    72.2957    34.3399    34.9533
  455.6000    72.3306    34.7329    35.5510
  455.7000    72.6049    35.1693    36.0073
  455.8000    72.6081    35.2080    36.3073
  455.9000    72.9471    35.4850    36.5149
  456.0000    73.4439    35.8929    36.7031
  456.1000    74.0556    36.3363    36.7025
  456.2000    75.0506    36.3358    36.7021
  456.3000    76.5328    36.3353    36.5651
  456.4000    77.2408    36.2348    36.3561
  456.5000    77.8763    35.9211    36.1911
  456.6000    78.6195    35.3004    36.1906
  456.7000    79.3345    34.3562    35.9870
  456.8000    79.8846    33.1049    35.7813
  456.9000    80.3278    31.9415    35.5769
