~VERSION INFORMATION
 VERS.                2.0:   CWLS LOG ASCII STANDARD - VERSION 2.0
 WRAP.                 NO:   ONE LINE PER DEPTH STEP
~WELL INFORMATION
#MNEM.UNIT      DATA TYPE    INFORMATION
#----------   ------------   ------------------------------
 STRT.F           30.0000:   START DEPTH
 STOP.F          626.0000:   STOP DEPTH
 STEP.F            0.5000:   STEP LENGTH
 NULL.          -999.2500:   NO VALUE
 COMP.       F D SERV INC:   COMPANY
 WELL.    63-2 SX-3 #63-3:   WELL
 FLD .             TEAPOT:   FIELD
 LOC .       S3 T38N R78W:   LOCATION
 CNTY.            NATRONA:   COUNTY
 STAT.            WYOMING:   STATE
 CTRY. UNITED STATES OF AMERICA:   COUNTRY
 SRVC.     Atlas Wireline:   SERVICE COMPANY
 DATE.        29-APR-1992:   LOGDATE
 API .       490252251900:   API NUMBER
~CURVE INFORMATION
#MNEM.UNIT       API CODE    CURVE DESCRIPTION
#----------   ------------   ------------------------------
 DEPT.F                  :   
 CALD.IN     45 280 60 00:   CALIPER FROM DENSITY
 CORR.G/C3   45 356 01 00:   DENSITY CORRECTION
 DEN .G/C3   45 350 01 00:   COMPENSATED BULK DENSTIY
 GRD .GAPI   45 310 01 00:   GAMMA RAY FROM DENSITY LOG
 PORD.DEC    45 890 12 00:   POROSITY DENSITY SANDSTONE
 RILD.OHMM   07 120 46 00:   INDUCTION LOG DEEP RESISTIVITY
 RILM.OHMM   07 120 44 00:   INDUCTION LOG MEDIUM RESISTIVITY
~PARAMETER INFORMATION
#MNEM.UNIT          VALUE    DESCRIPTION
#----------   ------------   ------------------------------
 PD  .                 GL:   PERMANENT DATUM
 EPD .F              5160:   ELEVATION PERMANENT DATUM
 LMF .                 KB:   LOG MEASURED FROM
 DAPD.F                 5:   FEET ABOVE PERMANENT DATUM
 DMF .                 KB:   DRILLING MEASURED FROM
 EKB .F              5165:   KELLING BUSHING
 EGL .F              5160:   GROUND LEVEL
 DATE.        29-APR-1992:   RUN DATE
 RUN .                  1:   RUN NUMBER
 DD  .F               630:   DEPTH DRILLER
 DL  .F               629:   DEPTH LOGGER
 BLI .F               626:   BOTTOM LOG INTERVAL
 CS  .IN            8.625:   CASING SIZE
 CBD .F                45:   CASING BOTTOM DRILLER
 CBL .F                45:   CASING BOTTOM LOGGER
 BS  .IN            7.875:   BIT SIZE
 BSD .F               630:   BIT SIZE AT DEPTH
 DFT .                AIR:   DRILLING FLUID TYPE
 LUN .            HL-6212:   LOGGING UNIT NUMBER
 LUL .             CASPER:   LOGGING UNIT LOCATION
 ENGI.             ZIEGEN:   RECORDING ENGINEER
 WITN.             STRONG:   WITNESSED BY
 CLNT.            A2DTECH:   CLIENT CODE
 ORIG.           5" PRINT:   ORIGIN OF DATA
 UWI .       490252251900:   UNIQUE WELL ID
 DICO. A2D Technologies, Inc.:   DIGITIZING COMPANY
~OTHER INFORMATION
~A   DEPT     CALD       CORR        DEN        GRD       PORD       RILD       RILM   
# ...
   75.5000     8.2316     0.0012     2.4819   184.5803     0.1021     7.1837     6.9082
   76.0000     8.2310    -0.0003     2.4865   184.2663     0.0988     7.2330     7.0522
   76.5000     8.2456     0.0014     2.4842   185.7620     0.1006     7.2822     7.1483
   77.0000     8.2298     0.0073     2.4820   186.6595     0.1018     7.4344     7.2969
   77.5000     8.2292     0.0055     2.4804   186.6446     0.1009     7.6426     7.3969
   78.0000     8.2286     0.0013     2.4783   183.0074     0.1030     7.8023     7.4984
   78.5000     8.2129     0.0059     2.4760   179.3702     0.1045     7.8559     7.6011
   79.0000     8.2123     0.0180     2.4791   178.1498     0.1011     7.9643     7.7053
   79.5000     8.2117     0.0104     2.4957   178.7422     0.0800     8.0187     7.7569
   80.0000     8.2112    -0.0076     2.5650   182.0536     0.0550     8.0734     7.9180
   80.5000     8.2106    -0.0257     2.5816   187.1777     0.0420     8.1285     7.9728
   81.0000     8.2251    -0.0332     2.5794   188.9789     0.0402     8.2984     8.1366
   81.5000     8.2269    -0.0135     2.5530   188.6645     0.0565     8.3588     8.1967
   82.0000     8.2539     0.0000     2.5244   188.6526     0.0755     8.4707     8.3034
   82.5000     8.2684     0.0016     2.5049   189.9094     0.0851     8.5285     8.3010
   83.0000     8.2678     0.0016     2.4966   193.0676     0.0896     8.6466     8.3566
   83.5000     8.2823     0.0001     2.4959   196.4691     0.0920     8.7662     8.3538
   84.0000     8.2817    -0.0013     2.4951   194.0403     0.0914     8.8258     8.4102
   84.5000     8.3113    -0.0013     2.4967   188.8925     0.0914     9.0102     8.5255
   85.0000     8.3257     0.0002     2.5035   187.6721     0.0893     9.1349     8.5826
   85.5000     8.3252     0.0078     2.5148   191.2856     0.0859     9.1976     8.8214
   86.0000     8.3246     0.0093     2.5201   196.1076     0.0790     9.2604     8.8804
   86.5000     8.2938     0.0063     2.5209   194.5852     0.0775     9.5194     9.0649
   87.0000     8.2781     0.0004     2.5216   190.3437     0.0775     9.7184     9.2532
   87.5000     8.2775     0.0004     2.5217   187.9149     0.0772     9.9906     9.4455
   88.0000     8.2769     0.0034     2.5232   186.3925     0.0772    10.1289     9.5756
   88.5000     8.2762     0.0095     2.5232   185.1721     0.0768    10.3409     9.8420
   89.0000     8.2756     0.0065     2.5217   184.8580     0.0768    10.4840    10.1165
   89.5000     8.2903     0.0020     2.5210   184.8841     0.0765    10.5556    10.3267
   90.0000     8.3047     0.0111     2.5203   185.1366     0.0765    10.6277    10.4682
   90.5000     8.3191     0.0171     2.5210   185.7260     0.0765    10.7744    10.6865
   91.0000     8.3034     0.0172     2.5219   186.6204     0.0771    10.9235    10.9077
   91.5000     8.3028     0.0125     2.5234   187.2158     0.0768    11.0746    10.9815
   92.0000     8.3022     0.0052     2.5241   192.0348     0.0753    11.2279    11.2096
   92.5000     8.3016    -0.0023     2.5264   195.0470     0.0750    11.2264    11.2058
   93.0000     8.3010    -0.0053     2.5234   191.1047     0.0762    11.3030    11.2027
   93.5000     8.3005    -0.0068     2.5159   183.5399     0.0819    11.3014    11.1996
   94.0000     8.2999     0.0023     2.5024   177.1837     0.0891    11.2998    11.1965
   94.5000     8.2993    -0.0037     2.4986   178.9845     0.0936    11.2982    11.0390
   95.0000     8.2834    -0.0082     2.4971   184.7128     0.0942    11.2183    10.9596
   95.5000     8.2829    -0.0112     2.4934   186.5136     0.0945    11.2167    10.6538
   96.0000     8.2823     0.0009     2.4912   183.1059     0.0957    11.0606    10.3615
   96.5000     8.2666     0.0009     2.4897   179.7504     0.0972    10.8312    10.3514
   97.0000     8.2509    -0.0021     2.4882   178.0158     0.0978    10.6065    10.2840
   97.5000     8.2503    -0.0066     2.4905   180.1188     0.0957    10.5317    10.2811
   98.0000     8.2497    -0.0080     2.4944   182.2217     0.0920    10.3851    10.2777
   98.5000     8.2341     0.0012     2.4975   184.0225     0.0892    10.3118    10.2037
   99.0000     8.2033     0.0116     2.5056   185.8233     0.0860    10.3104     9.9906
   99.5000     8.2027     0.0147     2.5139   187.0199     0.0836    10.3090     9.9878
  100.0000     8.2021     0.0079     2.5154   187.3132     0.0824    10.3075    10.0714
  100.5000     8.1715     0.0041     2.5101   185.1894     0.0851    10.3048    10.2661
  101.0000     8.1725     0.0147     2.5057   182.1623     0.0866    10.2305    10.2654
  101.5000     8.1878     0.0207     2.5094   177.6246     0.0854    10.0867    10.0530
  102.0000     8.2031     0.0207     2.5215   181.5462     0.0763     9.9448     9.9827
  102.5000     8.2300     0.0147     2.5336   187.5825     0.0718     9.9421     9.7762
  103.0000     8.2596     0.0026     2.5313   191.2034     0.0715    10.0085     9.7755
  103.5000     8.2894    -0.0034     2.5261   189.6854     0.0740    10.0058     9.7748
  104.0000     8.3191    -0.0019     2.5223   187.2625     0.0782    10.0030     9.7742
  104.5000     8.3186    -0.0034     2.5185   186.3502     0.0806    10.0002     9.7735
  105.0000     8.3182    -0.0019     2.5163   184.5315     0.0812     9.9974     9.8409
  105.5000     8.3329     0.0011     2.5163   182.4108     0.0815    10.1343     9.9779
  106.0000     8.3173     0.0026     2.5253   181.4904     0.0754    10.2028    10.0467
  106.5000     8.3168     0.0011     2.5366   184.2276     0.0661    10.2710    10.0460
  107.0000     8.3013     0.0026     2.5427   186.6709     0.0640    10.2674    10.0453
  107.5000     8.3009     0.0011     2.5336   188.8115     0.0742    10.2646     9.9751
  108.0000     8.3004    -0.0004     2.5198   189.0275     0.0818    10.1907     9.8368
  108.5000     8.3152     0.0011     2.5092   188.7194     0.0875    10.1879     9.7680
  109.0000     8.3297     0.0011     2.5058   192.9415     0.0875     9.9752     9.4997
  109.5000     8.3309     0.0011     2.5058   195.9567     0.0875     9.8349     9.3680
  110.0000     8.2986    -0.0019     2.5051   195.0444     0.0875     9.6296     9.2381
  110.5000     8.2831    -0.0049     2.5035   192.9237     0.0878     9.4285     9.1735
  111.0000     8.2676    -0.0049     2.5021   191.1050     0.0884     9.1678     8.9837
  111.5000     8.2671    -0.0034     2.5005   192.9117     0.0884     8.8527     8.9209
  112.0000     8.2667     0.0011     2.4998   196.2290     0.0887     8.6079     8.7363
  112.5000     8.2813     0.0072     2.5058   199.3202     0.0877     8.4282     8.4376
  113.0000     8.2960     0.0087     2.5074   199.8420     0.0863     8.1951     8.0366
  113.5000     8.2954     0.0072     2.5043   203.1593     0.0869     8.0240     7.8158
  114.0000     8.2949     0.0026     2.5013   203.7590     0.0905     7.9663     7.6011
  114.5000     8.2945    -0.0004     2.4983   202.5431     0.0923     7.9641     7.6006
  115.0000     8.3091    -0.0004     2.4953   201.0266     0.0935     7.9618     7.7601
  115.5000     8.3087     0.0026     2.5008   199.6885     0.0893     7.9596     7.8138
  116.0000     8.3082     0.0057     2.5107   196.1092     0.0839     8.0687     8.0333
  116.5000     8.3078     0.0057     2.5157   192.2478     0.0803     8.1797     8.3165
  117.0000     8.2923     0.0011     2.5165   192.2417     0.0794     8.4071     8.6098
  117.5000     8.2918     0.0011     2.5165   190.7239     0.0797     8.6420     8.9135
  118.0000     8.2914     0.0072     2.5150   188.3010     0.0812     9.0690     9.2278
  118.5000     8.2909     0.0132     2.5120   186.1802     0.0839     9.3218     9.4872
  119.0000     8.2754     0.0087     2.5074   188.8933     0.0854     9.3847     9.4865
  119.5000     8.2749     0.0011     2.5007   193.1169     0.0899     9.4475     9.4858
  120.0000     8.2594     0.0102     2.4856   192.2046     0.1000     9.5769     9.5514
  120.5000     8.2439     0.0026     2.4668   184.6458     0.1097     9.5735     9.6174
