~VERSION INFORMATION
 VERS.                2.0:   CWLS LOG ASCII STANDARD - VERSION 2.0
 WRAP.                 NO:   ONE LINE PER DEPTH STEP
~WELL INFORMATION
#MNEM.UNIT      DATA TYPE    INFORMATION
#----------   ------------   ------------------------------
 STRT.F            0.0000:   START DEPTH
 STOP.F          600.0000:   STOP DEPTH
 STEP.F            0.5000:   STEP LENGTH
 NULL.          -999.2500:   NO VALUE
 COMP.   FLUOR DANIEL INC:   COMPANY
 WELL.   16-1 X 11 #16-11:   WELL
 FLD .             TEAPOT:   FIELD
 LOC .      S11 T38N R78W:   LOCATION
 CNTY.            NATRONA:   COUNTY
 STAT.            WYOMING:   STATE
 CTRY. UNITED STATES OF AMERICA:   COUNTRY
 SRVC.      Western Atlas:   SERVICE COMPANY
 DATE.        08-MAY-1995:   LOGDATE
 API .       490252271100:   API NUMBER
~CURVE INFORMATION
#MNEM.UNIT       API CODE    CURVE DESCRIPTION
#----------   ------------   ------------------------------
 DEPT.F                  :   
 GRR .GAPI   07 310 01 00:   GAMMA RAY
 RILD.OHMM   07 120 46 00:   INDUCTION LOG DEEP RESISTIVITY
 RILM.OHMM   07 120 44 00:   INDUCTION LOG MEDIUM RESISTIVITY
~PARAMETER INFORMATION
#MNEM.UNIT          VALUE    DESCRIPTION
#----------   ------------   ------------------------------
 PD  .                 GL:   PERMANENT DATUM
 EPD .F              5203:   ELEVATION PERMANENT DATUM
 LMF .                 KB:   LOG MEASURED FROM
 DAPD.F                10:   FEET ABOVE PERMANENT DATUM
 DMF .                 KB:   DRILLING MEASURED FROM
 EKB .F              5213:   KELLING BUSHING
 EDF .F              5212:   DRILLING FLOOR
 EGL .F              5203:   GROUND LEVEL
 DATE.        08-MAY-1995:   RUN DATE
 RUN .                  1:   RUN NUMBER
 DD  .F               605:   DEPTH DRILLER
 DL  .F               608:   DEPTH LOGGER
 BLI .F               600:   BOTTOM LOG INTERVAL
 TLI .F                46:   TOP LOG INTERVAL
 CS  .IN            9.625:   CASING SIZE
 CBD .F                46:   CASING BOTTOM DRILLER
 CBL .F                46:   CASING BOTTOM LOGGER
 BS  .IN             8.75:   BIT SIZE
 BSD .F               605:   BIT SIZE AT DEPTH
 DFT .                AIR:   DRILLING FLUID TYPE
 MRT .F                89:   MAXIMUM RECORDED TEMPERATURE
 LUN .            HL 6530:   LOGGING UNIT NUMBER
 LUL .             CASPER:   LOGGING UNIT LOCATION
 ENGI.      PAT RASMUSSEN:   RECORDING ENGINEER
 WITN.        GARY STRONG:   WITNESSED BY
 CLNT.            A2DTECH:   CLIENT CODE
 ORIG.           5" PRINT:   ORIGIN OF DATA
 UWI .       490252271100:   UNIQUE WELL ID
 DICO. A2D Technologies, Inc.:   DIGITIZING COMPANY
~OTHER INFORMATION
~A    DEPT      GRR      RILD       RILM   
# ...
  546.0000   116.9260    10.3565    10.2964
  546.5000   117.8457    10.5800    10.5145
  547.0000   119.3687    10.8877    10.6629
  547.5000   119.9831    11.2660    10.8887
  548.0000   117.8899    11.5061    11.1193
  548.5000   116.0946    11.7514    11.2763
  549.0000   115.2007    11.8365    11.4478
  549.5000   115.2191    11.8397    11.6781
  550.0000   115.5354    11.8429    11.8425
  550.5000   114.6063    11.9286    12.0899
  551.0000   114.0272    12.1829    12.2572
  551.5000   114.0272    12.3239    12.4273
  552.0000   115.2338    12.4426    12.5989
  552.5000   117.0437    12.4452    12.7732
  553.0000   119.4570    12.4478    12.7715
  553.5000   120.9653    12.5376    12.8588
  554.0000   118.2504    12.6275    12.8570
  554.5000   114.0272    12.8958    12.9522
  555.0000   113.1222    13.0787    13.1239
  555.5000   114.6305    13.2643    13.2131
  556.0000   114.9441    13.1745    13.2113
  556.5000   112.7965    12.9962    13.1181
  557.0000   110.3710    12.9083    13.1166
  557.5000   109.8039    12.7336    13.1145
  558.0000   111.9155    12.6481    13.0221
  558.5000   113.4238    12.5632    12.8408
  559.0000   112.2172    12.4789    12.7503
  559.5000   110.4072    12.3957    12.6603
  560.0000   109.2006    12.3125    12.6586
  560.5000   107.9940    12.3150    12.6569
  561.0000   107.9940    12.3175    12.6551
  561.5000   110.4072    12.4922    12.6530
  562.0000   114.0272    12.3219    12.4769
  562.5000   116.1388    12.2392    12.3889
  563.0000   117.6471    11.9900    12.3016
  563.5000   115.7889    11.9094    12.1303
  564.0000   117.9487    11.8295    11.8787
  564.5000   121.2670    11.5882    11.7134
  565.0000   122.4736    11.2732    11.5503
  565.5000   123.6802    11.0320    11.3108
  566.0000   124.8869    10.7435    11.1533
  566.5000   125.1885    10.5970    11.0683
  567.0000   125.4902    10.5259    10.9079
  567.5000   126.3952    10.5285    10.7682
  568.0000   126.4314    10.5307    10.6183
  568.5000   124.8869    10.5328    10.4705
  569.0000   122.4616    10.3892    10.3247
  569.5000   120.6637    10.1073    10.2519
  570.0000   120.0603     9.9010    10.1092
  570.5000   124.2836     9.6990     9.9685
  571.0000   125.7919     9.5673     9.8982
  571.5000   122.4736     9.5764     9.8969
  572.0000   122.1719     9.6383     9.8271
  572.5000   126.0935     9.7751     9.8257
  573.0000   127.3001     9.7771     9.8243
  573.5000   128.2051     9.7114     9.8227
  574.0000   129.1101     9.5795     9.7535
  574.5000   130.3167     9.5147     9.6847
  575.0000   130.9201     9.4508     9.6834
  575.5000   129.0617     9.3874     9.5486
  576.0000   127.2037     9.3247     9.4157
  576.5000   125.1885     9.1981     9.2846
  577.0000   126.6968     9.0104     9.0920
  577.5000   130.9201     8.6969     8.9035
  578.0000   131.5234     8.4597     8.7795
  578.5000   126.3952     8.4114     8.6573
  579.0000   124.2836     8.4135     8.5863
  579.5000   123.9819     8.3568     8.4763
  580.0000   125.4902     8.4170     8.4166
  580.5000   126.6968     8.3600     8.3572
  581.0000   127.9035     8.3043     8.3561
  581.5000   130.3528     8.0227     8.2971
  582.0000   133.1041     7.6971     8.1817
  582.5000  -999.2500     7.6453     8.0120
  583.0000  -999.2500     7.6469     7.9004
  583.5000  -999.2500     7.6499     7.8994
  584.0000  -999.2500     7.7091     7.9533
  584.5000  -999.2500     7.9222     8.0634
  585.0000  -999.2500     8.0346     8.1844
  585.5000  -999.2500     8.0363     8.3456
  586.0000  -999.2500     8.1502     8.5203
  586.5000  -999.2500     8.4398     8.7587
  587.0000  -999.2500     8.7396     9.0667
  587.5000  -999.2500     9.1766     9.2566
  588.0000  -999.2500     9.6354     9.5155
  588.5000  -999.2500     9.9777     9.7821
  589.0000  -999.2500    10.1897     9.9865
  589.5000  -999.2500    10.1918    10.2663
  590.0000  -999.2500    10.2649    10.4809
  590.5000  -999.2500    10.1959    10.4794
  591.0000  -999.2500    10.1985    10.4780
  591.5000  -999.2500    10.1295    10.4038
  592.0000  -999.2500    10.0615    10.3304
  592.5000  -999.2500     9.9254    10.2579
  593.0000  -999.2500     9.7905    10.3279
  593.5000  -999.2500     9.6570    10.2548
  594.0000  -999.2500     9.4605    10.2534
  594.5000  -999.2500     9.3965    10.2520
  595.0000  -999.2500     9.3338    10.1797
  595.5000  -999.2500     9.2712    10.1783
  596.0000  -999.2500     9.2089    10.1769
  596.5000  -999.2500     8.8453    10.1755
  597.0000  -999.2500     8.3596    10.1037
  597.5000  -999.2500  -999.2500    10.0322
  598.0000  -999.2500  -999.2500     9.8925
  598.5000  -999.2500  -999.2500     9.4877
  599.0000  -999.2500  -999.2500     9.0995
  599.5000  -999.2500  -999.2500     8.7272
  600.0000  -999.2500  -999.2500     8.4090
