~VERSION INFORMATION
 VERS.                2.0:   CWLS LOG ASCII STANDARD - VERSION 2.0
 WRAP.                 NO:   ONE LINE PER DEPTH STEP
~WELL INFORMATION
#MNEM.UNIT      DATA TYPE    INFORMATION
#----------   ------------   ------------------------------
 STRT.F           14.5000:   START DEPTH
 STOP.F          750.0000:   STOP DEPTH
 STEP.F            0.5000:   STEP LENGTH
 NULL.          -999.2500:   NO VALUE
 COMP. FENIX & SCISSON INC:   COMPANY
 WELL.       NPR 3 #24-14:   WELL
 FLD .             TEAPOT:   FIELD
 LOC .      S14 T38N R78W:   LOCATION
 CNTY.            NATRONA:   COUNTY
 STAT.            WYOMING:   STATE
 CTRY. UNITED STATES OF AMERICA:   COUNTRY
 SRVC.           BIRDWELL:   SERVICE COMPANY
 DATE.        27-DEC-1978:   LOGDATE
 API .       490251075900:   API NUMBER
~CURVE INFORMATION
#MNEM.UNIT       API CODE    CURVE DESCRIPTION
#----------   ------------   ------------------------------
 DEPT.F                  :   
 SPR .MV     05 010 01 00:   SPONTANEOUS POTENTIAL FROM RES.
 SN  .OHMM   05 040 16 00:   SHORT NORMAL 16"
 IL  .OHMM   05 120 00 00:   INDUCTION LOG
 GRD .GAPI   45 310 01 00:   GAMMA RAY FROM DENSITY LOG
 CALD.IN     45 280 60 00:   CALIPER
 RHOB.G/C3   45 350 01 00:   BULK DENSITY
 DPHI.DEC    45 890 12 00:   DENSITY POROSITY SANDSTONE
 CORR.G/C3   45 356 01 00:   DENSITY CORRECTION
~PARAMETER INFORMATION
#MNEM.UNIT          VALUE    DESCRIPTION
#----------   ------------   ------------------------------
 PD  .                 GL:   PERMANENT DATUM
 EPD .F              5209:   ELEVATION PERMANENT DATUM
 LMF .                 KB:   LOG MEASURED FROM
 DAPD.F                 4:   FEET ABOVE PERMANENT DATUM
 DMF .                 KB:   DRILLING MEASURED FROM
 EKB .F              5212:   KELLING BUSHING
 EGL .F              5209:   GROUND LEVEL
 DATE.           12-27-78:   RUN DATE
 RUN .                  1:   RUN NUMBER
 DD  .F               750:   DEPTH DRILLER
 DL  .F               742:   DEPTH LOGGER
 BLI .F               735:   BOTTOM LOG INTERVAL
 TLI .F                35:   TOP LOG INTERVAL
 CS  .IN            8.625:   CASING SIZE
 CBD .F                40:   CASING BOTTOM DRILLER
 CBL .F                32:   CASING BOTTOM LOGGER
 BS  .IN            7.875:   BIT SIZE
 BSD .F               750:   BIT SIZE AT DEPTH
 DFT .                KCL:   DRILLING FLUID TYPE
 DFD .                8.6:   DRILLING FLUID DENSITY
 DFV .                 35:   DRILLING FLUID VISCOSITY
 DFPH.                9.4:   DRILLING FLUID PH
 DFL .               12.4:   DRILLING FLUID LOSS
 MSS .           FLOWLINE:   MUD SAMPLE SOURCE
 RMS .OHMM            .38:   RESISTIVITY MUD SAMPLE
 MST .F                58:   MUD SAMPLE TEMPERATURE
 RMF .OHMM            .38:   RESISTIVITY MUD FILTRATE SAMPLE
 MFST.F                58:   MUD FILTRATE SAMPLE TEMPERATURE
 RMC .OHMM            .36:   RESISTIVITY MUD CAKE
 MCST.F                60:   MUD CAKE SAMPLE TEMPERATURE
 MFSS.           MEASURED:   MUD FILTRATE SAMPLE SOURCE
 MCSS.           MEASURED:   MUD CAKE SAMPLE SOURCE
 RMB .OHMM            .37:   RESISTIVITY MUD AT BHT
 BHT .F                59:   BOTTOM HOLE TEMPERATURE
 TCS .HRS               2:   TIME CURCULATED STOPPED
 MRT .F                59:   MAXIMUM RECORDED TEMPERATURE
 LUN .               2958:   LOGGING UNIT NUMBER
 LUL .             CASPER:   LOGGING UNIT LOCATION
 ENGI.         B. ROLLINS:   RECORDING ENGINEER
 WITN.           DINSMORE:   WITNESSED BY
 CLNT.            A2DTECH:   CLIENT CODE
 ORIG.           5" PRINT:   ORIGIN OF DATA
 UWI .       490251075900:   UNIQUE WELL ID
 DICO. A2D Technologies, Inc.:   DIGITIZING COMPANY
~OTHER INFORMATION
~A   DEPT      SPR         SN         IL         GRD      CALD       RHOB       DPHI       CORR   
# ...
  257.5000   -52.5350     8.4660     7.1650   104.5030     7.6900     2.4950     0.1180     0.0200
  258.0000   -52.3100     8.5020     7.1870   104.6070     7.3850     2.4910     0.1180     0.0210
  258.5000   -52.0850     8.5390     7.2050   105.4150     7.3850     2.4860     0.1160     0.0260
  259.0000   -51.8610     8.5750     7.2120   106.1740     7.3550     2.4890     0.1120     0.0370
  259.5000   -51.7020     8.6120     7.2200   105.8240     7.3380     2.4970     0.1220     0.0430
  260.0000   -51.7250     8.6480     7.2270   103.6140     7.3640     2.4920     0.1350     0.0420
  260.5000   -51.7440     8.6850     7.2340   100.2890     7.3880     2.4690     0.1440     0.0420
  261.0000   -51.7620     8.7210     7.2420    97.8500     7.4380     2.4470     0.1440     0.0560
  261.5000   -51.7810     8.7680     7.2490    96.7930     7.4890     2.4370     0.1380     0.0600
  262.0000   -51.8000     8.8250     7.2570    97.0050     7.4900     2.4540     0.1330     0.0610
  262.5000   -51.8190     8.8820     7.2640    97.8770     7.4900     2.4620     0.1290     0.0610
  263.0000   -51.8380     8.9380     7.2870    99.8630     7.4910     2.4660     0.1250     0.0610
  263.5000   -51.8560     8.9950     7.3390   103.1820     7.5350     2.4680     0.1220     0.0670
  264.0000   -51.8750     9.0510     7.3910   105.7710     7.6790     2.4780     0.1180     0.0740
  264.5000   -51.8980     9.0840     7.4430   106.9540     7.8350     2.4910     0.1140     0.0810
  265.0000   -51.7170     9.1080     7.4950   107.7690     7.9070     2.4970     0.1100     0.0880
  265.5000   -51.4620     9.1330     7.5470   111.6190     7.9770     2.4940     0.1070     0.1000
  266.0000   -51.2050     9.1490     7.5990   113.2520     7.9900     2.5010     0.1030     0.1140
  266.5000   -50.9490     9.1490     7.7950   113.1250     7.9960     2.5080     0.0990     0.1330
  267.0000   -50.6920     9.1490     8.0430   113.9640     8.0010     2.5160     0.0950     0.1520
  267.5000   -50.4340     9.2910     8.0610   115.2720     8.0020     2.5370     0.0920     0.1600
  268.0000   -50.1700     9.5410     8.0800   115.7910     7.9800     2.5480     0.0890     0.1610
  268.5000   -50.1030     9.7910     8.0990   116.2420     7.9460     2.5340     0.0920     0.1630
  269.0000   -50.1010     9.8480     8.1180   115.3500     7.8890     2.5310     0.0940     0.1660
  269.5000   -50.1000     9.8480     8.1370   114.3800     7.8260     2.5270     0.0930     0.1850
  270.0000   -50.1100     9.8480     8.1550   115.5360     7.6270     2.5300     0.0900     0.2090
  270.5000   -50.1240     9.8480     8.1740   116.8700     7.5780     2.5360     0.0870     0.2330
  271.0000   -50.1390     9.8480     8.1930   117.7480     7.5840     2.5420     0.0840     0.2350
  271.5000   -50.1530     9.8480     8.2120   116.9060     7.5960     2.5480     0.0830     0.2320
  272.0000   -50.1670     9.8450     8.2300   112.8220     7.6500     2.5550     0.0840     0.2160
  272.5000   -50.1810     9.9390     8.2510   111.7640     7.7470     2.5600     0.0870     0.1900
  273.0000   -50.1960    10.0550     8.2680   108.9650     7.8340     2.5520     0.0870     0.1740
  273.5000   -50.2100    10.1720     8.5780   106.0860     7.8560     2.5410     0.0800     0.1910
  274.0000   -50.2240    10.2880     8.7060   104.6390     7.8670     2.5390     0.0720     0.1980
  274.5000   -50.2390    10.4730     8.8340   105.9180     7.8670     2.5620     0.0730     0.1940
  275.0000   -50.2530    10.7970     8.9630   110.1630     7.8700     2.5610     0.0770     0.1900
  275.5000   -50.2670    10.6980     9.0650   114.0700     7.9230     2.5540     0.0810     0.1880
  276.0000   -50.2810    10.7080     9.0650   113.4440     8.0620     2.5460     0.0870     0.1880
  276.5000   -50.2960    10.7330     9.0650   109.1660     8.1600     2.5380     0.0930     0.1890
  277.0000   -50.2850    10.7580     9.0650   105.9000     8.2430     2.5300     0.0780     0.1980
  277.5000   -50.2640    10.7820     9.0650   104.3520     8.2780     2.5260     0.0520     0.2210
  278.0000   -50.2440    10.7970     9.0650   102.8770     8.2440     2.5770     0.0330     0.2270
  278.5000   -50.2230    10.7970     9.0650   101.4700     8.1610     2.6420     0.0490     0.1850
  279.0000   -50.2020    10.7970     9.0760   100.0600     8.0530     2.6170     0.0770     0.1340
  279.5000   -50.1810    10.7970     9.0900    98.8370     7.9710     2.5670     0.0870     0.1020
  280.0000   -50.1600    10.7970     9.1030    98.8240     7.8970     2.5450     0.0950     0.0750
  280.5000   -50.1400    10.7970     9.1170   102.3680     7.8210     2.5240     0.1020     0.0480
  281.0000   -50.1190    10.7970     9.1300   102.9020     7.7200     2.5080     0.1070     0.0240
  281.5000   -50.0980    10.7980     9.1470   103.1220     7.5210     2.5050     0.1080     0.0190
  282.0000   -50.0770    10.7510     9.0620   103.4470     7.4050     2.5040     0.1110     0.0200
  282.5000   -50.0560    10.6420     8.9820   105.1050     7.3340     2.4980     0.1150     0.0200
  283.0000   -50.0350    10.5330     8.9820   108.6600     7.3320     2.4910     0.1080     0.0200
  283.5000   -50.0150    10.4250     8.9820   111.8400     7.3470     2.4930     0.1060     0.0210
  284.0000   -49.9940    10.3810     8.9820   111.2990     7.4440     2.5060     0.1060     0.0210
  284.5000   -49.9730    10.3500     8.8970   108.0600     7.5130     2.5060     0.1020     0.0210
  285.0000   -49.9520    10.3190     8.7620   105.3870     7.5170     2.5070     0.0980     0.0210
  285.5000   -49.9320    10.2880     8.6280   106.6630     7.5230     2.5160     0.0940     0.0220
  286.0000   -49.9110    10.2570     8.5000   107.6140     7.5270     2.5270     0.0920     0.0170
  286.5000   -49.9230    10.2270     8.5000   106.0150     7.5930     2.5280     0.1170     0.0170
  287.0000   -49.9690    10.1960     8.5000   102.1340     7.7600     2.4970     0.1270     0.0190
  287.5000   -50.0140    10.1650     8.5000    98.4290     7.9510     2.4730     0.1290     0.0250
  288.0000   -50.0590    10.1340     8.5000    98.3510     8.0440     2.4680     0.1240     0.0350
  288.5000   -50.1100    10.1030     8.5000   100.1020     8.1410     2.4730     0.1210     0.0450
  289.0000   -50.2990    10.0720     8.4450   105.1510     8.2400     2.4790     0.1180     0.0540
  289.5000   -50.4970    10.0410     8.3260   106.5130     8.2520     2.4850     0.1170     0.0570
  290.0000   -51.0010    10.0140     8.2060   106.8200     8.2270     2.4860     0.1140     0.0610
  290.5000   -51.4930     9.9880     8.1170   107.2720     8.1660     2.4870     0.1070     0.0640
  291.0000   -51.5090     9.9620     8.1170   107.9030     8.1030     2.4940     0.1000     0.0660
  291.5000   -51.5150     9.9390     8.1170   108.5100     8.1070     2.5100     0.0940     0.0660
  292.0000   -51.5230     9.8900     8.1170   109.2820     8.1370     2.5180     0.0960     0.0610
  292.5000   -51.5310     9.8480     8.1170   112.3260     8.1670     2.5220     0.1010     0.0560
  293.0000   -51.5390     9.8480     8.1170   115.3840     7.9330     2.5220     0.1060     0.0510
  293.5000   -51.5460     9.8480     8.1170   114.7800     7.7070     2.5090     0.1110     0.0490
  294.0000   -51.5540     9.8400     8.1170   111.7370     7.6980     2.4990     0.1150     0.0490
  294.5000   -51.5610     9.8100     8.1170   110.8500     7.6900     2.4930     0.1200     0.0480
  295.0000   -51.5690     9.7800     8.1180   111.8200     7.7190     2.4880     0.1260     0.0480
  295.5000   -51.5770     9.7500     8.0970   114.1900     7.7600     2.4750     0.1230     0.0530
  296.0000   -51.5840     9.7200     8.0560   115.9600     7.8010     2.4740     0.1160     0.0580
  296.5000   -51.5920     9.6900     8.0150   116.0380     7.8120     2.4870     0.1090     0.0640
  297.0000   -51.5990     9.6600     7.9740   117.0170     7.8170     2.5000     0.1030     0.0720
  297.5000   -51.6070     9.6310     7.8980   117.5700     7.8220     2.5070     0.1020     0.0790
