~VERSION INFORMATION
 VERS.                2.0:   CWLS LOG ASCII STANDARD - VERSION 2.0
 WRAP.                 NO:   ONE LINE PER DEPTH STEP
~WELL INFORMATION
#MNEM.UNIT      DATA TYPE    INFORMATION
#----------   ------------   ------------------------------
 STRT.F           42.0000:   START DEPTH
 STOP.F         3140.0000:   STOP DEPTH
 STEP.F            0.5000:   STEP LENGTH
 NULL.          -999.2500:   NO VALUE
 COMP. LAWRENCE-ALLISON & AS:   COMPANY
 WELL.     88 X 33 #88-33:   WELL
 FLD .             NPR #3:   FIELD
 LOC .      S33 T39N R78W:   LOCATION
 CNTY.            NATRONA:   COUNTY
 STAT.            WYOMING:   STATE
 CTRY. UNITED STATES OF AMERICA:   COUNTRY
 SRVC.       Schlumberger:   SERVICE COMPANY
 DATE.        13-DEC-1987:   LOGDATE
 API .       490251120300:   API NUMBER
~CURVE INFORMATION
#MNEM.UNIT       API CODE    CURVE DESCRIPTION
#----------   ------------   ------------------------------
 DEPT.F                  :   
 GRR .GAPI   07 310 01 00:   GAMMA RAY FROM RES
 SPR .MV     07 010 01 00:   SPONTANEOUS POTENTIAL
 ILD .OHMM   07 120 46 00:   INDUCTION LOG DEEP RES
 ILM .OHMM   07 120 44 00:   INDUCTION LOG MEDIUM RES
 SFLU.OHMM   07 220 01 00:   SPHERICALLY FOCUSED LOG UNAVERAGED RES
 DPHI.DEC    45 890 12 00:   DENSITY POROSITY SANDSTONE
 NPHI.DEC    42 890 03 00:   NEUTRON POROSITY SANDSTONE
 CALD.IN     45 280 60 00:   CALIPER FROM DENSITY LOG
 DRHO.G/C3   45 356 01 00:   DENSITY CORRECTION
 RHOB.G/C3   45 350 01 00:   BULK DENSITY
~PARAMETER INFORMATION
#MNEM.UNIT          VALUE    DESCRIPTION
#----------   ------------   ------------------------------
 PD  .                 GL:   PERMANENT DATUM
 EPD .F              5746:   ELEVATION PERMANENT DATUM
 LMF .                 KB:   LOG MEASURED FROM
 DAPD.F                11:   FEET ABOVE PERMANENT DATUM
 DMF .                 KB:   DRILLING MEASURED FROM
 EKB .F              5157:   KELLING BUSHING
 EGL .F              5146:   GROUND LEVEL
 DATE.        13-DEC-1987:   RUN DATE
 RUN .                  1:   RUN NUMBER
 DD  .F              3155:   DEPTH DRILLER
 DL  .F              3140:   DEPTH LOGGER
 BLI .F              3132:   BOTTOM LOG INTERVAL
 TLI .F               614:   TOP LOG INTERVAL
 CS  .IN            9.625:   CASING SIZE
 CBD .F               608:   CASING BOTTOM DRILLER
 CBL .F               614:   CASING BOTTOM LOGGER
 BS  .IN            7.875:   BIT SIZE
 BSD .F              3155:   BIT SIZE AT DEPTH
 DFT .       KCL DIS. PAC:   DRILLING FLUID TYPE
 DFD .                  9:   DRILLING FLUID DENSITY
 DFV .                 41:   DRILLING FLUID VISCOSITY
 DFPH.                9.5:   DRILLING FLUID PH
 DFL .                8.4:   DRILLING FLUID LOSS
 MSS .           FLOWLINE:   MUD SAMPLE SOURCE
 RMS .OHMM          0.523:   RESISTIVITY MUD SAMPLE
 MST .F                63:   MUD SAMPLE TEMPERATURE
 RMF .OHMM          0.435:   RESISTIVITY MUD FILTRATE SAMPLE
 MFST.F                63:   MUD FILTRATE SAMPLE TEMPERATURE
 RMC .OHMM          0.489:   RESISTIVITY MUD CAKE
 MCST.F                63:   MUD CAKE SAMPLE TEMPERATURE
 MFSS.              PRESS:   MUD FILTRATE SAMPLE SOURCE
 MCSS.               CALC:   MUD CAKE SAMPLE SOURCE
 RMB .OHMM          0.288:   RESISTIVITY MUD AT BHT
 BHT .F               120:   BOTTOM HOLE TEMPERATURE
 TCS .HRS            0600:   TIME CURCULATED STOPPED
 TLAB.HRS            1430:   TIME LOGGER AT BOTTOM
 MRT .F               120:   MAXIMUM RECORDED TEMPERATURE
 LUN .               8198:   LOGGING UNIT NUMBER
 LUL .             CASPER:   LOGGING UNIT LOCATION
 ENGI.          W. BENSON:   RECORDING ENGINEER
 WITN.        GARY STRONG:   WITNESSED BY
 CLNT.            A2DTECH:   CLIENT CODE
 ORIG.           5" PRINT:   ORIGIN OF DATA
 UWI .       490251120300:   UNIQUE WELL ID
 DICO. A2D Technologies, Inc.:   DIGITIZING COMPANY
~OTHER INFORMATION
~A   DEPT      GRR        SPR        ILD        ILM       SFLU       DPHI       NPHI       CALD       DRHO       RHOB   
# ...
 2119.0000   125.6024   -38.5185     9.1956     9.7357    11.6532     0.1198     0.3374     8.5562    -0.0329     2.4488
 2119.5000   134.4126   -38.3701     9.2602     9.6678    11.1789     0.1186     0.3389     8.5429    -0.0336     2.4489
 2120.0000   143.2229   -38.2225     9.2608     9.4682    10.3589     0.1195     0.3365     8.5277    -0.0350     2.4459
 2120.5000   146.3855   -38.0749     9.2614     9.3373    10.2875     0.1225     0.3274     8.5126    -0.0350     2.4399
 2121.0000   145.2560   -37.9273     9.1979     9.3366    10.5764     0.1231     0.3172     8.5124    -0.0343     2.4429
 2121.5000   140.2861   -37.9311     9.0721     9.1439    10.8735     0.1198     0.3198     8.4973    -0.0327     2.4489
 2122.0000   134.4126   -37.9341     9.0099     8.9553    11.0251     0.1182     0.3256     8.4971    -0.0312     2.4493
 2122.5000   128.0874   -37.7857     9.0107     9.1428    11.2566     0.1206     0.3237     8.5120    -0.0297     2.4489
 2123.0000   121.9880   -37.9401     9.0740     9.2057    11.3348     0.1285     0.3149     8.5268    -0.0245     2.4232
 2123.5000   115.8886   -37.9431     9.0746     9.0155    11.2566     0.1399     0.3045     8.5417    -0.0097     2.4100
 2124.0000   112.9518   -38.0967     9.0753     8.7079    11.1789     0.1366     0.2997     8.5415     0.0148     2.4278
 2124.5000   114.5331   -38.0997     9.0130     8.4107    11.0251     0.1218     0.3000     8.5414     0.0444     2.4465
 2125.0000   119.7289   -37.9513     8.9516     8.2371    10.7239     0.1176     0.3063     8.5412     0.0259     2.4513
 2125.5000   126.5060   -37.9551     8.9522     8.2365    10.5034     0.1215     0.3087     8.5411    -0.0029     2.4423
 2126.0000   139.1566   -37.8069     8.8908     8.2934    10.4309     0.1275     0.3090     8.5409    -0.0185     2.4311
 2126.5000   142.0934   -37.8104     8.9534     8.4669    10.7984     0.1411     0.3093     8.5558    -0.0140     2.3951
 2127.0000   136.2199   -37.6628     8.9540     8.6442    11.3348     0.1627     0.3109     8.5556     0.0031     2.3471
 2127.5000   127.8614   -37.6658     9.0796     8.8252    11.9805     0.1859     0.3121     8.5555     0.0534     2.3329
 2128.0000   121.7620   -37.6688     9.1434     8.9477    12.5755     0.1796     0.3072     8.6003     0.1150     2.3668
 2128.5000   121.0843   -37.5212     9.2076     8.9471    12.8395     0.1603     0.3063     8.6001     0.1009     2.3960
 2129.0000   122.6657   -37.5242     9.3368     9.0088    12.6629     0.1452     0.3048     8.5700     0.0506     2.4073
 2129.5000   125.6024   -37.5272     9.4024     9.1338    12.1475     0.1383     0.3039     8.5549    -0.0005     2.4165
 2130.0000   127.8614   -37.3796     9.3379     9.1332    11.6532     0.1311     0.3087     8.5397    -0.0168     2.4395
 2130.5000   128.3132   -37.3826     9.2741     8.9446    11.3348     0.1217     0.3145     8.5396    -0.0227     2.4522
 2131.0000   132.1536   -37.3856     9.1472     8.7600    11.2514     0.1160     0.3099     8.5394    -0.0271     2.4522
 2131.5000   137.3494   -37.5392     8.9596     8.5791    10.7948     0.1157     0.3021     8.5393    -0.0316     2.4522
 2132.0000   141.4157   -37.8434     8.9602     8.4020    10.4261     0.1157     0.2982     8.5541    -0.0345     2.4537
 2132.5000   139.1566   -37.9970     8.9608     8.4599    10.2165     0.1128     0.3003     8.5540    -0.0345     2.4582
 2133.0000   132.8313   -38.3012     9.0865     8.6971    10.5181     0.1079     0.2967     8.5538    -0.0322     2.4658
 2133.5000   130.3464   -38.6054     9.0872     8.9411    11.1287     0.1040     0.2894     8.5687    -0.0300     2.4703
 2134.0000   128.5392   -38.6084     9.0878     9.0026    12.1816     0.1034     0.2867     8.5685    -0.0292     2.4748
 2134.5000   126.2801   -38.6114     9.0884     9.1275    13.1227     0.1045     0.2858     8.5683    -0.0292     2.4741
 2135.0000   122.4398   -38.6145     9.0890     9.1269    13.0186     0.1073     0.2855     8.5682    -0.0329     2.4711
 2135.5000   119.2771   -38.6175     9.0269     9.0006    12.6311     0.1103     0.2870     8.5680    -0.0454     2.4666
 2136.0000   122.8916   -38.6205     8.9651     8.8761    11.9805     0.1118     0.2958     8.5829    -0.0492     2.4614
 2136.5000   128.3132   -38.6235     8.9038     8.6929    11.4136     0.1114     0.3033     8.5978    -0.0455     2.4606
 2137.0000   132.8313   -38.6265     8.7212     8.5134    11.1789     0.1093     0.3072     8.6126    -0.0419     2.4636
 2137.5000   131.7018   -38.7801     8.4834     8.2801    10.9490     0.1075     0.3115     8.6124    -0.0381     2.4644
 2138.0000   128.3008   -38.7831     8.2520     8.2223    10.7239     0.1066     0.3211     8.6273    -0.0342     2.4659
 2138.5000   124.6740   -38.9373     8.0828     8.1650    10.1460     0.1066     0.3283     8.6271    -0.0320     2.4674
 2139.0000   121.7266   -38.7890     8.0275     8.1080    10.2165     0.1060     0.3229     8.6270    -0.0305     2.4697
 2139.5000   119.0392   -38.6414     7.9726     7.9959    10.2875     0.1057     0.3121     8.6268    -0.0290     2.4705
 2140.0000   118.3584   -38.1933     7.8634     7.8853    10.1460     0.1063     0.3072     8.6267    -0.0282     2.4712
 2140.5000   118.6176   -37.7445     7.8097     7.7762    10.0064     0.1102     0.3072     8.6265    -0.0289     2.4615
 2141.0000   119.2983   -37.4456     7.7563     7.7756     9.8688     0.1111     0.3099     8.6114    -0.0311     2.4615
 2141.5000   120.4309   -37.2979     7.8108     7.7778     9.7330     0.1090     0.3121     8.6112    -0.0326     2.4668
 2142.0000   120.3518   -37.4523     7.8656     7.8867     9.5992     0.1060     0.3115     8.6259    -0.0326     2.4705
 2142.5000   117.3494   -37.9071     7.9209     7.9926     9.9374     0.1042     0.3093     8.6248    -0.0326     2.4735
 2143.0000   115.6299   -38.0607     7.9821     8.1092    10.4309     0.1035     0.3096     8.6238    -0.0318     2.4743
 2143.5000   114.7232   -38.0637     8.0950     8.2161    11.0251     0.1035     0.3139     8.6227    -0.0303     2.4743
 2144.0000   113.5905   -38.2173     8.2589     8.2155    11.2566     0.1041     0.3166     8.6216    -0.0280     2.4736
 2144.5000   114.2076   -38.2203     8.3834     8.2149    11.1789     0.1062     0.3133     8.6206    -0.0258     2.4706
 2145.0000   118.1476   -38.2233     8.5021     8.1576    10.8735     0.1056     0.3084     8.6195    -0.0236     2.4676
 2145.5000   120.1807   -38.2263     8.6113     8.2242    10.5034     0.1038     0.3084     8.6184    -0.0235     2.4722
 2146.0000   118.5994   -38.2293     8.6719     8.4441    10.4309     0.1014     0.3136     8.6174    -0.0243     2.4767
 2146.5000   115.4367   -38.0809     8.6725     8.5612    10.6499     0.1002     0.3157     8.6163    -0.0265     2.4782
 2147.0000   115.2108   -38.0847     8.6731     8.6803    10.9490     0.1011     0.3145     8.6153    -0.0287     2.4749
 2147.5000   117.9217   -38.2383     8.6138     8.6196    11.3348     0.1036     0.3105     8.6142    -0.0294     2.4703
 2148.0000   123.1175   -38.0899     8.4959     8.4416    11.4929     0.1059     0.3070     8.6131    -0.0293     2.4685
 2148.5000   128.0874   -38.2443     8.4376     8.2674    11.3348     0.1047     0.3063     8.6121    -0.0286     2.4730
 2149.0000   133.0572   -38.0959     8.3799     8.1530    10.9490     0.1044     0.3130     8.6110    -0.0278     2.4737
 2149.5000   134.8645   -37.9483     8.3806     8.0963    10.6499     0.1053     0.3172     8.6099    -0.0271     2.4708
 2150.0000   134.2164   -37.4519     8.4394     8.1520    10.4309     0.1094     0.3130     8.6089    -0.0256     2.4626
 2150.5000   129.4403   -37.1650     8.3811     8.0753    10.4317     0.1176     0.3036     8.6085    -0.0233     2.4445
 2151.0000   125.3718   -36.9062     8.3811     8.0968    10.4324     0.1233     0.2943     8.6084    -0.0165     2.4386
 2151.5000   116.3334   -36.9118     8.4394     8.1537    10.4331     0.1149     0.2925     8.6082     0.0067     2.4618
 2152.0000   110.0058   -36.9163     8.4981     8.2681    10.5794     0.0932     0.2973     8.6081     0.0771     2.5068
