~VERSION INFORMATION
 VERS.                2.0:   CWLS LOG ASCII STANDARD - VERSION 2.0
 WRAP.                 NO:   ONE LINE PER DEPTH STEP
~WELL INFORMATION
#MNEM.UNIT      DATA TYPE    INFORMATION
#----------   ------------   ------------------------------
 STRT.F           40.0000:   START DEPTH
 STOP.F          950.5000:   STOP DEPTH
 STEP.F            0.5000:   STEP LENGTH
 NULL.          -999.2500:   NO VALUE
 COMP. FENIX & SCISSON INC:   COMPANY
 WELL.       NPR 3 #44-14:   WELL
 FLD .             TEAPOT:   FIELD
 LOC .      S14 T38N R78W:   LOCATION
 CNTY.            NATRONA:   COUNTY
 STAT.            WYOMING:   STATE
 CTRY. UNITED STATES OF AMERICA:   COUNTRY
 SRVC.            Unknown:   SERVICE COMPANY
 DATE.        05-JAN-1979:   LOGDATE
 API .       490251076100:   API NUMBER
~CURVE INFORMATION
#MNEM.UNIT       API CODE    CURVE DESCRIPTION
#----------   ------------   ------------------------------
 DEPT.F                  :   
 SPR .MV     05 010 01 00:   SPONTANEOUS POTENTIAL FROM RES.
 SN  .OHMM   05 040 16 00:   SHORT NORMAL 16"
 IL  .OHMM   05 120 00 00:   INDUCTION LOG
 CALD.IN     45 280 60 00:   CALIPER
 GRD .GAPI   45 310 01 00:   GAMMA RAY FROM DENSITY LOG
 RHOB.G/C3   45 350 01 00:   BULK DENSITY
 DPHI.DEC    45 890 12 00:   DENSITY POROSITY SANDSTONE
 CORR.G/C3   45 356 01 00:   DENSITY CORRECTION
~PARAMETER INFORMATION
#MNEM.UNIT          VALUE    DESCRIPTION
#----------   ------------   ------------------------------
 PD  .                 GL:   PERMANENT DATUM
 EPD .F              5266:   ELEVATION PERMANENT DATUM
 LMF .                 KB:   LOG MEASURED FROM
 DAPD.F                 4:   FEET ABOVE PERMANENT DATUM
 DMF .                 KB:   DRILLING MEASURED FROM
 EKB .F              5270:   KELLING BUSHING
 EGL .F              5266:   GROUND LEVEL
 DATE.             1-5-79:   RUN DATE
 RUN .                  1:   RUN NUMBER
 DD  .F               950:   DEPTH DRILLER
 DL  .F               943:   DEPTH LOGGER
 BLI .F               937:   BOTTOM LOG INTERVAL
 TLI .F                40:   TOP LOG INTERVAL
 CS  .IN            8.625:   CASING SIZE
 CBL .F                40:   CASING BOTTOM LOGGER
 BS  .IN            7.875:   BIT SIZE
 BSD .F               950:   BIT SIZE AT DEPTH
 DFT .                KCL:   DRILLING FLUID TYPE
 DFV .                 42:   DRILLING FLUID VISCOSITY
 DFL .               10.5:   DRILLING FLUID LOSS
 MSS .           FLOWLINE:   MUD SAMPLE SOURCE
 RMS .OHMM            .23:   RESISTIVITY MUD SAMPLE
 RMF .OHMM            .23:   RESISTIVITY MUD FILTRATE SAMPLE
 RMC .OHMM             .2:   RESISTIVITY MUD CAKE
 MFSS.           MEASURED:   MUD FILTRATE SAMPLE SOURCE
 MCSS.           MEASURED:   MUD CAKE SAMPLE SOURCE
 RMB .OHMM             .2:   RESISTIVITY MUD AT BHT
 BHT .F                70:   BOTTOM HOLE TEMPERATURE
 TCS .HRS               5:   TIME CURCULATED STOPPED
 MRT .F                70:   MAXIMUM RECORDED TEMPERATURE
 LUL .             CASPER:   LOGGING UNIT LOCATION
 ENGI.             MILLER:   RECORDING ENGINEER
 WITN.           DINSMORE:   WITNESSED BY
 CLNT.            A2DTECH:   CLIENT CODE
 ORIG.           5" PRINT:   ORIGIN OF DATA
 UWI .       490251076100:   UNIQUE WELL ID
 DICO. A2D Technologies, Inc.:   DIGITIZING COMPANY
~OTHER INFORMATION
~A   DEPT      SPR           SN         IL     CALD        GRD       RHOB       DPHI       CORR   
# ...
  364.0000   -24.8490    10.2030    14.8480     7.3250    89.6550     2.3630     0.2030     0.0470
  364.5000   -24.9830    10.1100    14.8760     7.3310    90.3540     2.3340     0.2160     0.0460
  365.0000   -25.1180    10.0270    14.6650     7.3380    87.3340     2.3230     0.2260     0.0420
  365.5000   -25.4100     9.9430    14.3590     7.3460    84.3750     2.3170     0.2260     0.0390
  366.0000   -25.8980     9.8600    14.0530     7.3810    82.6310     2.3210     0.2260     0.0350
  366.5000   -26.3950     9.7770    13.7460     7.4160    82.0620     2.3240     0.2240     0.0310
  367.0000   -26.6830     9.6930    13.4400     7.4510    82.2770     2.3190     0.2280     0.0280
  367.5000   -26.9110     9.6100    13.1840     7.4850    82.5010     2.3150     0.2310     0.0270
  368.0000   -27.1100     9.5270    13.1130     7.5200    81.3120     2.3150     0.2280     0.0270
  368.5000   -27.5420     9.4430    13.0420     7.5550    84.4250     2.3220     0.2240     0.0260
  369.0000   -28.1650     9.3600    12.9700     7.5900    86.3800     2.3240     0.2220     0.0260
  369.5000   -28.7900     9.2760    12.8990     7.6240    85.8560     2.3290     0.2190     0.0260
  370.0000   -29.4150     9.1930    12.8280     7.6590    85.6030     2.3380     0.2150     0.0260
  370.5000   -30.0410     9.1100    12.7560     7.6830    88.7640     2.3470     0.2120     0.0260
  371.0000   -30.6940     8.9740    12.6850     7.6820    92.2070     2.3490     0.2090     0.0260
  371.5000   -32.0200     8.7230    12.6060     7.6820    95.7440     2.3520     0.2030     0.0290
  372.0000   -33.3750     8.4730    11.4890     7.6830    96.8180     2.3680     0.1920     0.0330
  372.5000   -34.7280     8.2230    10.5850     7.6830    96.9120     2.3940     0.1810     0.0370
  373.0000   -36.0770     7.9720    10.0290     7.6830    98.9260     2.4110     0.1700     0.0340
  373.5000   -37.0330     7.7220     9.5100     7.6830   101.1620     2.4180     0.1650     0.0240
  374.0000   -37.1500     7.4720     8.9910     7.7140   107.3770     2.4250     0.1610     0.0140
  374.5000   -37.2770     7.2970     8.4720     7.7860   114.2950     2.4320     0.1580     0.0100
  375.0000   -37.4060     7.2270     7.9530     7.8570   111.8100     2.4330     0.1600     0.0080
  375.5000   -37.5370     7.1560     7.6660     7.9290   107.5610     2.4310     0.1570     0.0070
  376.0000   -37.6370     7.0860     7.5380     7.9990   103.3250     2.4340     0.1470     0.0200
  376.5000   -37.7300     7.0160     7.4100     8.0530   101.6010     2.4700     0.1350     0.0410
  377.0000   -37.8230     6.9450     7.2820     7.9930   105.0690     2.4770     0.1310     0.0580
  377.5000   -37.9160     6.8700     7.1540     7.9410   114.9490     2.4740     0.1310     0.0670
  378.0000   -38.0090     6.8220     7.0260     7.9660   121.1540     2.4730     0.1310     0.0710
  378.5000   -38.1010     6.7710     6.8980     7.9990   119.9520     2.4760     0.1290     0.0690
  379.0000   -38.1940     6.7200     6.8070     8.0000   119.1180     2.4740     0.1340     0.0540
  379.5000   -38.2860     6.6800     6.7450     7.9970   116.0110     2.4600     0.1440     0.0400
  380.0000   -38.3590     6.6680     6.7910     7.9950   114.7630     2.4460     0.1530     0.0260
  380.5000   -38.3200     6.6560     6.8350     7.9930   114.5290     2.4330     0.1610     0.0150
  381.0000   -38.2840     6.6450     6.8780     7.9900   114.6630     2.4300     0.1560     0.0180
  381.5000   -38.2480     6.6330     6.9220     7.9880   117.6380     2.4380     0.1500     0.0230
  382.0000   -38.2120     6.6210     6.9650     7.9850   120.1180     2.4520     0.1460     0.0270
  382.5000   -38.1730     6.6100     7.0090     7.9830   116.8790     2.4500     0.1480     0.0280
  383.0000   -38.2780     6.5980     7.0620     7.9820   114.9510     2.4430     0.1500     0.0200
  383.5000   -38.4300     6.5860     7.0250     7.9840   116.1020     2.4370     0.1580     0.0120
  384.0000   -38.5840     6.5750     6.9780     7.9850   119.6570     2.4320     0.1560     0.0090
  384.5000   -38.7360     6.5630     6.9300     7.9870   123.0970     2.4370     0.1540     0.0070
  385.0000   -38.7570     6.5510     6.8830     7.9880   118.4100     2.4390     0.1520     0.0060
  385.5000   -38.7570     6.5400     6.8360     7.9900   116.9050     2.4410     0.1520     0.0060
  386.0000   -38.7570     6.5280     6.7880     7.9920   116.0240     2.4400     0.1530     0.0060
  386.5000   -38.7570     6.5170     6.7450     7.9930   114.7100     2.4390     0.1530     0.0060
  387.0000   -38.7570     6.5010     6.7450     7.9950   116.9360     2.4420     0.1520     0.0070
  387.5000   -38.7560     6.5410     6.7830     7.9970   119.3250     2.4450     0.1500     0.0070
  388.0000   -38.7570     6.6010     6.8180     7.9980   116.6340     2.4400     0.1530     0.0080
  388.5000   -38.6360     6.6610     6.8540     8.0000   116.3980     2.4340     0.1560     0.0080
  389.0000   -38.4350     6.7220     6.8900     7.9890   116.5480     2.4290     0.1610     0.0100
  389.5000   -38.2330     6.7820     6.9260     7.9600   114.9160     2.4300     0.1570     0.0160
  390.0000   -38.0300     6.8320     6.9700     7.9310   113.2490     2.4370     0.1540     0.0210
  390.5000   -37.8250     6.8760     7.0320     7.9020   111.9900     2.4410     0.1530     0.0270
  391.0000   -37.6550     6.9190     7.0950     7.8730   113.9010     2.4390     0.1530     0.0280
  391.5000   -37.4950     6.9630     7.1570     7.8440   115.3450     2.4380     0.1540     0.0270
  392.0000   -37.4260     7.0060     7.2190     7.8580   111.8860     2.4380     0.1540     0.0220
  392.5000   -37.6230     7.0500     7.2820     7.8770   113.5060     2.4420     0.1540     0.0180
  393.0000   -37.8140     7.0930     7.3440     7.8810   115.6390     2.4400     0.1530     0.0130
  393.5000   -38.0040     7.1360     7.4060     7.8790   120.9220     2.4370     0.1500     0.0070
  394.0000   -38.1930     7.1800     7.4680     7.8780   124.2680     2.4460     0.1480     0.0100
  394.5000   -38.3830     7.2230     7.5310     7.8770   121.8470     2.4570     0.1460     0.0150
  395.0000   -38.5730     7.2670     7.5930     7.8760   116.5490     2.4550     0.1450     0.0140
  395.5000   -38.7630     7.3100     7.6550     7.8750   112.7040     2.4520     0.1420     0.0130
  396.0000   -38.9460     7.3940     7.7180     7.8730   112.1200     2.4570     0.1400     0.0170
  396.5000   -38.8620     7.3410     7.8140     7.8720   111.5390     2.4650     0.1380     0.0250
  397.0000   -38.6140     7.2980     7.7600     7.8710   111.7270     2.4650     0.1400     0.0220
  397.5000   -38.3670     7.2540     7.6680     7.8700   112.0730     2.4530     0.1470     0.0170
  398.0000   -38.5480     7.2110     7.5770     7.8690   112.8520     2.4380     0.1510     0.0110
  398.5000   -38.7620     7.1670     7.4850     7.8670   113.9520     2.4410     0.1520     0.0060
  399.0000   -38.4870     7.1240     7.3940     7.8660   114.7840     2.4470     0.1480     0.0060
  399.5000   -38.1260     7.0800     7.3020     7.8650   116.9030     2.4510     0.1460     0.0050
  400.0000   -37.7620     7.0370     7.2110     7.8640   124.1860     2.4520     0.1460     0.0050
  400.5000   -37.6030     6.9970     7.1270     7.8620   122.1160     2.4540     0.1470     0.0050
  401.0000   -37.6570     6.8620     7.1270     7.8560   120.1340     2.4470     0.1520     0.0040
  401.5000   -37.7090     6.8450     7.1270     7.8320   123.7950     2.4310     0.1600     0.0040
  402.0000   -37.7620     6.8280     7.1270     7.8100   121.5410     2.4210     0.1580     0.0040
  402.5000   -37.8160     6.8120     7.1270     7.7870   118.7510     2.4300     0.1530     0.0070
  403.0000   -37.8700     6.7950     7.1270     7.7500   115.9300     2.4430     0.1460     0.0100
  403.5000   -37.9220     6.7780     7.1270     7.7100   112.0970     2.4530     0.1450     0.0130
  404.0000   -37.9430     6.7620     7.1270     7.6700   114.2500     2.4530     0.1450     0.0160
