~VERSION INFORMATION
 VERS.                2.0:   CWLS LOG ASCII STANDARD - VERSION 2.0
 WRAP.                 NO:   ONE LINE PER DEPTH STEP
~WELL INFORMATION
#MNEM.UNIT      DATA TYPE    INFORMATION
#----------   ------------   ------------------------------
 STRT.F           29.0000:   START DEPTH
 STOP.F          539.0000:   STOP DEPTH
 STEP.F            0.1000:   STEP LENGTH
 NULL.          -999.2500:   NO VALUE
 COMP. LAWRENCE/ALLISON INC:   COMPANY
 WELL. NPR 3 81-11 STX #10-10:   WELL
 FLD .             TEAPOT:   FIELD
 LOC .      S10 T38N R78W:   LOCATION
 CNTY.            NATRONA:   COUNTY
 STAT.            WYOMING:   STATE
 CTRY. UNITED STATES OF AMERICA:   COUNTRY
 SRVC.           Gearhart:   SERVICE COMPANY
 DATE.        01-JUN-1987:   LOGDATE
 API .       490251113000:   API NUMBER
~CURVE INFORMATION
#MNEM.UNIT       API CODE    CURVE DESCRIPTION
#----------   ------------   ------------------------------
 DEPT.F                  :   
 GRR .GAPI   07 310 01 00:   GAMMA RAY FROM RES. LOG.
 ILD .OHMM   07 120 46 00:   INDUCTION LOG DEEP RESISTIVITY
 RILM.OHMM   07 120 44 00:   INDUCTION LOG MEDIUM RESISTIVITY
~PARAMETER INFORMATION
#MNEM.UNIT          VALUE    DESCRIPTION
#----------   ------------   ------------------------------
 PD  .                 GL:   PERMANENT DATUM
 EPD .F              5156:   ELEVATION PERMANENT DATUM
 LMF .                 KB:   LOG MEASURED FROM
 DAPD.F                 8:   FEET ABOVE PERMANENT DATUM
 DMF .                 KB:   DRILLING MEASURED FROM
 EKB .F              5164:   KELLING BUSHING
 EDF .F              5162:   DRILLING FLOOR
 EGL .F              5156:   GROUND LEVEL
 DATE.             6-1-87:   RUN DATE
 RUN .                  1:   RUN NUMBER
 DD  .F               550:   DEPTH DRILLER
 DL  .F               546:   DEPTH LOGGER
 BLI .F               540:   BOTTOM LOG INTERVAL
 TLI .F                30:   TOP LOG INTERVAL
 CS  .IN            8.625:   CASING SIZE
 CBD .F                50:   CASING BOTTOM DRILLER
 CBL .F                49:   CASING BOTTOM LOGGER
 BS  .IN            7.875:   BIT SIZE
 BSD .F               550:   BIT SIZE AT DEPTH
 DFT .                AIR:   DRILLING FLUID TYPE
 TLAB.HRS            0634:   TIME LOGGER AT BOTTOM
 MRT .F                80:   MAXIMUM RECORDED TEMPERATURE
 LUN .               7597:   LOGGING UNIT NUMBER
 LUL .           GILLETTE:   LOGGING UNIT LOCATION
 ENGI. WEATHERMON/JOHNSTON:   RECORDING ENGINEER
 WITN.             STRONG:   WITNESSED BY
 CLNT.            A2DTECH:   CLIENT CODE
 ORIG.       2", 5" PRINT:   ORIGIN OF DATA
 UWI .       490251113000:   UNIQUE WELL ID
 DICO. A2D Technologies, Inc.:   DIGITIZING COMPANY
~OTHER INFORMATION
~A   DEPT       GRR       ILD       RILM   
# ...
  229.2000   121.8422     7.6506     8.1884
  229.3000   122.4483     7.5472     8.2461
  229.4000   123.0543     7.4439     8.3038
  229.5000   123.6604     7.3405     8.3615
  229.6000   124.0062     7.2439     8.2854
  229.7000   124.3520     7.1472     8.2093
  229.8000   124.6978     7.0506     8.1333
  229.9000   125.0436     6.9540     8.0572
  230.0000   125.3895     6.8573     7.9811
  230.1000   124.9198     6.7670     7.8281
  230.2000   124.4502     6.6766     7.6750
  230.3000   123.9805     6.5862     7.5219
  230.4000   123.5109     6.4958     7.3689
  230.5000   123.0413     6.4054     7.2158
  230.6000   122.5949     6.2850     7.0813
  230.7000   122.1486     6.1646     6.9469
  230.8000   121.7023     6.0442     6.8124
  230.9000   121.2560     5.9237     6.6780
  231.0000   120.8097     5.8033     6.5435
  231.1000   120.9651     5.6873     6.4259
  231.2000   121.1206     5.5713     6.3084
  231.3000   121.2760     5.4554     6.1908
  231.4000   121.4314     5.3394     6.0732
  231.5000   121.5869     5.2234     5.9557
  231.6000   121.9840     5.1058     5.8415
  231.7000   122.3811     4.9882     5.7274
  231.8000   122.7782     4.8707     5.6132
  231.9000   123.1753     4.7531     5.4991
  232.0000   123.5725     4.6355     5.3849
  232.1000   123.9771     4.5280     5.2954
  232.2000   124.3818     4.4206     5.2059
  232.3000   124.7864     4.3131     5.1163
  232.4000   125.1911     4.2056     5.0268
  232.5000   125.5957     4.0982     4.9373
  232.6000   125.3598     4.0097     4.7984
  232.7000   125.1239     3.9213     4.6596
  232.8000   124.8880     3.8329     4.5207
  232.9000   124.6522     3.7444     4.3819
  233.0000   124.4163     3.6560     4.2430
  233.1000   124.0620     3.5818     4.1293
  233.2000   123.7077     3.5076     4.0156
  233.3000   123.3535     3.4334     3.9019
  233.4000   122.9992     3.3591     3.7882
  233.5000   122.6449     3.2849     3.6744
  233.6000   122.2113     3.2266     3.5867
  233.7000   121.7777     3.1682     3.4989
  233.8000   121.3441     3.1099     3.4111
  233.9000   120.9105     3.0516     3.3233
  234.0000   120.4769     2.9932     3.2356
  234.1000   119.9173     2.9718     3.1583
  234.2000   119.3578     2.9503     3.0810
  234.3000   118.7982     2.9289     3.0037
  234.4000   118.2386     2.9074     2.9264
  234.5000   117.6790     2.8860     2.8491
  234.6000   117.1284     2.8816     2.8052
  234.7000   116.5778     2.8773     2.7613
  234.8000   116.0271     2.8729     2.7174
  234.9000   115.4765     2.8685     2.6735
  235.0000   114.9259     2.8641     2.6296
  235.1000   114.1617     2.8730     2.6059
  235.2000   113.3975     2.8818     2.5823
  235.3000   112.6333     2.8906     2.5587
  235.4000   111.8692     2.8994     2.5350
  235.5000   111.1050     2.9083     2.5114
  235.6000   110.3414     2.9288     2.5067
  235.7000   109.5779     2.9494     2.5020
  235.8000   108.8143     2.9699     2.4973
  235.9000   108.0507     2.9905     2.4926
  236.0000   107.2872     3.0111     2.4879
  236.1000   107.2746     3.0322     2.5462
  236.2000   107.2621     3.0532     2.6046
  236.3000   107.2495     3.0743     2.6629
  236.4000   107.2370     3.0954     2.7212
  236.5000   107.2244     3.1165     2.7796
  236.6000   108.1195     3.1671     2.8359
  236.7000   109.0145     3.2178     2.8923
  236.8000   109.9096     3.2685     2.9487
  236.9000   110.8046     3.3191     3.0051
  237.0000   111.6997     3.3698     3.0615
  237.1000   112.5901     3.4729     3.1508
  237.2000   113.4806     3.5761     3.2401
  237.3000   114.3710     3.6792     3.3294
  237.4000   115.2614     3.7823     3.4187
  237.5000   116.1518     3.8855     3.5081
  237.6000   117.0247     4.0046     3.6104
  237.7000   117.8977     4.1237     3.7128
  237.8000   118.7706     4.2427     3.8151
  237.9000   119.6435     4.3618     3.9175
  238.0000   120.5164     4.4809     4.0198
  238.1000   121.1528     4.5810     4.1371
  238.2000   121.7892     4.6810     4.2544
  238.3000   122.4256     4.7811     4.3717
  238.4000   123.0620     4.8812     4.4889
  238.5000   123.6984     4.9812     4.6062
  238.6000   123.4353     5.0708     4.7117
  238.7000   123.1721     5.1603     4.8172
  238.8000   122.9090     5.2498     4.9227
  238.9000   122.6458     5.3393     5.0282
  239.0000   122.3827     5.4288     5.1337
  239.1000   122.0466     5.5194     5.2188
  239.2000   121.7104     5.6100     5.3038
  239.3000   121.3744     5.7006     5.3889
  239.4000   121.0382     5.7912     5.4739
  239.5000   120.7021     5.8818     5.5590
  239.6000   120.8727     5.9341     5.6361
  239.7000   121.0433     5.9864     5.7132
  239.8000   121.2138     6.0387     5.7903
  239.9000   121.3844     6.0910     5.8674
  240.0000   121.5549     6.1434     5.9444
  240.1000   122.1543     6.1980     5.9997
  240.2000   122.7537     6.2526     6.0549
  240.3000   123.3531     6.3073     6.1101
  240.4000   123.9525     6.3619     6.1653
  240.5000   124.5519     6.4166     6.2205
  240.6000   125.1499     6.4737     6.2783
  240.7000   125.7480     6.5307     6.3360
  240.8000   126.3461     6.5878     6.3938
  240.9000   126.9441     6.6449     6.4516
  241.0000   127.5422     6.7020     6.5094
  241.1000   128.1563     6.7332     6.5544
  241.2000   128.7705     6.7644     6.5995
  241.3000   129.3846     6.7956     6.6446
  241.4000   129.9988     6.8268     6.6896
  241.5000   130.6129     6.8580     6.7347
  241.6000   130.3617     6.8515     6.7199
  241.7000   130.1106     6.8450     6.7051
  241.8000   129.8594     6.8385     6.6903
  241.9000   129.6082     6.8320     6.6755
  242.0000   129.3570     6.8255     6.6607
  242.1000   128.3903     6.8049     6.6401
  242.2000   127.4236     6.7843     6.6195
  242.3000   126.4569     6.7637     6.5988
  242.4000   125.4902     6.7431     6.5782
  242.5000   124.5235     6.7225     6.5575
  242.6000   123.7188     6.7023     6.5375
  242.7000   122.9141     6.6820     6.5174
  242.8000   122.1093     6.6617     6.4973
  242.9000   121.3046     6.6414     6.4772
  243.0000   120.4999     6.6212     6.4572
  243.1000   120.3184     6.5971     6.4381
  243.2000   120.1369     6.5730     6.4190
  243.3000   119.9554     6.5490     6.3999
  243.4000   119.7739     6.5249     6.3809
  243.5000   119.5924     6.5009     6.3618
  243.6000   119.4087     6.4635     6.3175
  243.7000   119.2251     6.4261     6.2733
  243.8000   119.0414     6.3887     6.2291
  243.9000   118.8578     6.3513     6.1848
  244.0000   118.6741     6.3139     6.1406
  244.1000   119.5324     6.2744     6.0991
  244.2000   120.3906     6.2348     6.0577
  244.3000   121.2489     6.1952     6.0162
  244.4000   122.1072     6.1557     5.9748
  244.5000   122.9654     6.1161     5.9333
  244.6000   123.6558     6.0703     5.8933
  244.7000   124.3462     6.0244     5.8532
  244.8000   125.0366     5.9785     5.8132
  244.9000   125.7270     5.9327     5.7732
  245.0000   126.4174     5.8868     5.7331
  245.1000   127.0143     5.8427     5.6944
  245.2000   127.6113     5.7985     5.6557
  245.3000   128.2083     5.7544     5.6170
  245.4000   128.8053     5.7103     5.5783
  245.5000   129.4023     5.6661     5.5396
  245.6000   129.7065     5.6312     5.5023
  245.7000   130.0107     5.5963     5.4649
  245.8000   130.3148     5.5613     5.4275
  245.9000   130.6190     5.5264     5.3901
  246.0000   130.9232     5.4915     5.3527
  246.1000   130.7063     5.4627     5.3166
  246.2000   130.4893     5.4340     5.2804
  246.3000   130.2724     5.4052     5.2443
  246.4000   130.0555     5.3765     5.2082
  246.5000   129.8386     5.3477     5.1720
  246.6000   130.0847     5.3228     5.1438
  246.7000   130.3309     5.2980     5.1156
  246.8000   130.5771     5.2731     5.0873
  246.9000   130.8232     5.2482     5.0591
  247.0000   131.0694     5.2234     5.0308
  247.1000   131.3837     5.2379     5.0306
  247.2000   131.6980     5.2525     5.0303
  247.3000   132.0123     5.2671     5.0300
