~VERSION INFORMATION
 VERS.                2.0:   CWLS LOG ASCII STANDARD - VERSION 2.0
 WRAP.                 NO:   ONE LINE PER DEPTH STEP
~WELL INFORMATION
#MNEM.UNIT      DATA TYPE    INFORMATION
#----------   ------------   ------------------------------
 STRT.F          534.0000:   START DEPTH
 STOP.F         1820.0000:   STOP DEPTH
 STEP.F            0.5000:   STEP LENGTH
 NULL.          -999.2500:   NO VALUE
 COMP.   FLUOR DANIEL INC:   COMPANY
 WELL. NAVAL PETROLEUM RESERVE 3 X-29 #45-29:   WELL
 FLD .             TEAPOT:   FIELD
 LOC .      S29 T39N R78W:   LOCATION
 CNTY.            NATRONA:   COUNTY
 STAT.            WYOMING:   STATE
 CTRY. UNITED STATES OF AMERICA:   COUNTRY
 SRVC.            Unknown:   SERVICE COMPANY
 DATE.        30-SEP-1994:   LOGDATE
 API .       490252265100:   API NUMBER
~CURVE INFORMATION
#MNEM.UNIT       API CODE    CURVE DESCRIPTION
#----------   ------------   ------------------------------
 DEPT.F                  :   
 ROP .FT/HR  91 810 01 00:   RAT OF DRILLING PENETRATION
 TGAS.TC/CC  91 830 01 00:   TOTAL GAS UNIT
~PARAMETER INFORMATION
#MNEM.UNIT          VALUE    DESCRIPTION
#----------   ------------   ------------------------------
 EKB .F              5023:   KELLING BUSHING
 EGL .F              5013:   GROUND LEVEL
 DATE.        30-SEP-1994:   RUN DATE
 RUN .                  1:   RUN NUMBER
 BLI .F              1820:   BOTTOM LOG INTERVAL
 TLI .F               540:   TOP LOG INTERVAL
 WITN.     C.TOWER/R.HUSK:   WITNESSED BY
 CLNT.            A2DTECH:   CLIENT CODE
 ORIG.           5" PRINT:   ORIGIN OF DATA
 UWI .       490252265100:   UNIQUE WELL ID
 DICO. A2D Technologies, Inc.:   DIGITIZING COMPANY
~OTHER INFORMATION
~A   DEPT        ROP       TGAS 
# ...
 1263.0000     0.4604     2.6023
 1263.5000     0.4605     2.6236
 1264.0000     0.4607     2.6450
 1264.5000     0.4608     2.6663
 1265.0000     0.4609     2.6876
 1265.5000     0.4611     2.7089
 1266.0000     0.4612     2.7303
 1266.5000     0.4613     2.7516
 1267.0000     0.4615     2.7729
 1267.5000     0.4616     2.7942
 1268.0000     0.4618     2.8155
 1268.5000     0.4619     2.8369
 1269.0000     0.4621     2.8582
 1269.5000     0.4622     2.8626
 1270.0000     0.4623     2.6655
 1270.5000     0.4625     2.6590
 1271.0000     0.4626     2.2744
 1271.5000     0.4628     2.2679
 1272.0000     0.4629     2.2613
 1272.5000     0.4630     2.2547
 1273.0000     0.4632     2.2481
 1273.5000     0.4728     2.2404
 1274.0000     0.4729     2.2605
 1274.5000     0.4781     2.6056
 1275.0000     0.4826     2.5998
 1275.5000     0.4827     2.7817
 1276.0000     0.4829     2.7752
 1276.5000     0.4810     2.7690
 1277.0000     0.4737     2.7624
 1277.5000     0.4833     2.7558
 1278.0000     0.4834     2.7492
 1278.5000     0.4836     2.7412
 1279.0000     0.4931     2.9255
 1279.5000     0.4933     2.9174
 1280.0000     0.4934     3.1016
 1280.5000     0.5037     3.0681
 1281.0000     0.5235     3.0381
 1281.5000     0.5409     3.0080
 1282.0000     0.5411     2.9780
 1282.5000     0.5506     2.9480
 1283.0000     0.5602     2.9179
 1283.5000     0.5603     2.8879
 1284.0000     0.5605     2.8578
 1284.5000     0.5606     2.8278
 1285.0000     0.5702     2.7977
 1285.5000     0.5703     2.7677
 1286.0000     0.5610     2.7377
 1286.5000     0.5517     2.7076
 1287.0000     0.5425     2.6776
 1287.5000     0.5426     2.6475
 1288.0000     0.5428     2.6175
 1288.5000     0.5335     2.5875
 1289.0000     0.5336     2.5574
 1289.5000     0.5338     2.5274
 1290.0000     0.5339     2.4973
 1290.5000     0.5340     2.4673
 1291.0000     0.5342     2.4372
 1291.5000     0.5350     2.4072
 1292.0000     0.5359     2.3772
 1292.5000     0.5367     2.3471
 1293.0000     0.5376     2.3171
 1293.5000     0.5384     2.2870
 1294.0000     0.5393     2.2570
 1294.5000     0.5402     2.2269
 1295.0000     0.5410     2.1969
 1295.5000     0.5419     2.1669
 1296.0000     0.5427     2.1368
 1296.5000     0.5436     2.1068
 1297.0000     0.5445     2.0767
 1297.5000     0.5453     2.0467
 1298.0000     0.5462     2.0167
 1298.5000     0.5470     1.9866
 1299.0000     0.5479     1.9566
 1299.5000     0.5488     1.9265
 1300.0000     0.5496     1.8965
 1300.5000     0.5505     2.4529
 1301.0000     0.5513     1.8788
 1301.5000     0.5522     1.8732
 1302.0000     0.5531     1.6786
 1302.5000     0.5539     1.6987
 1303.0000     0.5548     1.7497
 1303.5000     0.5556     1.8008
 1304.0000     0.5565     1.8518
 1304.5000     0.5573     1.9029
 1305.0000     0.5582     1.9539
 1305.5000     0.5591     2.0050
 1306.0000     0.5599     2.0560
 1306.5000     0.5608     2.1071
 1307.0000     0.5616     2.1581
 1307.5000     0.5625     2.2092
 1308.0000     0.5634     2.2602
 1308.5000     0.5642     2.3113
 1309.0000     0.5651     2.3623
 1309.5000     0.5659     2.4134
 1310.0000     0.5668     2.4644
 1310.5000     0.5677     2.5155
 1311.0000     0.5681     2.5225
 1311.5000     0.5682     2.5156
 1312.0000     0.4648     2.5101
 1312.5000     0.4838     2.1264
 1313.0000     0.4933     1.7427
 1313.5000     0.4935     1.7372
 1314.0000     0.5030     1.7317
 1314.5000     0.5032     1.7261
 1315.0000     0.5127     1.9097
 1315.5000     0.5129     2.0932
 1316.0000     0.5130     2.0863
 1316.5000     0.5132     2.0808
 1317.0000     0.5133     2.2643
 1317.5000     0.5134     2.4492
 1318.0000     0.5136     2.4423
 1318.5000     0.5137     2.4368
 1319.0000     0.5044     2.4312
 1319.5000     0.5046     2.2366
 1320.0000     0.5047     2.2311
 1320.5000     0.4991     2.0174
 1321.0000     0.4950     1.4623
 1321.5000     0.4614     1.4568
 1322.0000     0.4426     1.4513
 1322.5000     0.4432     1.4457
 1323.0000     0.4439     1.4402
 1323.5000     0.4447     1.6237
 1324.0000     0.4455     1.6182
 1324.5000     0.4462     1.6128
 1325.0000     0.4470     1.6071
 1325.5000     0.4478     1.6015
 1326.0000     0.4485     1.5958
 1326.5000     0.4493     1.5892
 1327.0000     0.4501     1.5836
 1327.5000     0.4508     1.5788
 1328.0000     0.4516     1.5731
 1328.5000     0.4524     1.5670
 1329.0000     0.4531     1.3724
 1329.5000     0.4539     1.3669
 1330.0000     0.4547     1.5504
 1330.5000     0.4554     1.5447
 1331.0000     0.4562     1.5391
 1331.5000     0.4570     1.5324
 1332.0000     0.4577     1.5277
 1332.5000     0.4585     1.5221
 1333.0000     0.4593     1.5158
 1333.5000     0.4600     1.5103
 1334.0000     0.4608     1.5048
 1334.5000     0.4616     1.4992
 1335.0000     0.4623     1.4937
 1335.5000     0.4631     1.8663
 1336.0000     0.4639     1.8594
 1336.5000     0.4646     1.8539
 1337.0000     0.4654     1.8483
 1337.5000     0.4662     1.8428
 1338.0000     0.4669     1.6482
 1338.5000     0.4677     1.8331
 1339.0000     0.4685     2.0167
 1339.5000     0.4692     2.1989
 1340.0000     0.4700     2.1933
 1340.5000     0.4708     2.3768
 1341.0000     0.4708     2.1808
 1341.5000     0.4708     2.1753
 1342.0000     0.4708     2.3602
 1342.5000     0.4708     2.5438
 1343.0000     0.4708     2.5368
 1343.5000     0.4708     2.5313
 1344.0000     0.4708     2.5258
 1344.5000     0.4708     2.5202
 1345.0000     0.4708     2.5147
 1345.5000     0.4708     2.5090
 1346.0000     0.4708     2.1241
 1346.5000     0.4708     1.9295
 1347.0000     0.4708     1.7349
 1347.5000     0.4763     1.7294
 1348.0000     0.4802     1.7238
 1348.5000     0.4802     1.9087
 1349.0000     0.4896     2.0909
 1349.5000     0.4896     1.8963
 1350.0000     0.4991     1.8908
 1350.5000     0.4991     2.0931
 1351.0000     0.4991     2.4469
 1351.5000     0.4935     2.6305
 1352.0000     0.4991     2.8126
 1352.5000     0.4991     2.8071
 1353.0000     0.4991     2.8015
 1353.5000     0.4991     2.7960
 1354.0000     0.4991     2.7905
 1354.5000     0.4991     2.7849
 1355.0000     0.4991     2.5903
 1355.5000     0.4991     2.3956
 1356.0000     0.4991     2.1997
 1356.5000     0.4991     2.0051
 1357.0000     0.4991     1.9996
 1357.5000     0.4991     1.9941
 1358.0000     0.4896     1.9885
 1358.5000     0.4896     1.9830
 1359.0000     0.4896     1.7884
 1359.5000     0.4896     1.7828
 1360.0000     0.4896     1.7773
 1360.5000     0.4896     1.7716
 1361.0000     0.4896     1.7649
 1361.5000     0.4991     1.5703
 1362.0000     0.4991     1.5647
 1362.5000     0.4991     1.5592
 1363.0000     0.4991     1.5536
 1363.5000     0.4991     1.5485
 1364.0000     0.4991     1.5426
 1364.5000     0.4991     1.7263
 1365.0000     0.4991     1.7206
 1365.5000     0.4896     1.9041
 1366.0000     0.4896     1.8972
 1366.5000     0.4896     1.8917
 1367.0000     0.4896     1.8861
 1367.5000     0.4869     1.8806
 1368.0000     0.4802     1.6860
 1368.5000     0.4802     1.4914
 1369.0000     0.4802     1.4859
 1369.5000     0.4802     1.4803
 1370.0000     0.4802     1.4748
 1370.5000     0.4802     1.0910
 1371.0000     0.4708     0.8951
 1371.5000     0.4708     0.7005
 1372.0000     0.4708     0.6950
 1372.5000     0.4708     0.6894
 1373.0000     0.4708     0.8730
 1373.5000     0.4614     0.8674
 1374.0000     0.4614     1.0524
 1374.5000     0.4614     1.0454
 1375.0000     0.4614     1.0399
 1375.5000     0.4638     1.2235
 1376.0000     0.4708     1.2165
 1376.5000     0.4708     1.4001
 1377.0000     0.4708     1.3945
 1377.5000     0.4708     1.1999
 1378.0000     0.4708     1.1944
 1378.5000     0.4708     1.3793
 1379.0000     0.4708     1.1833
 1379.5000     0.4708     1.1778
 1380.0000     0.4802     1.1723
 1380.5000     0.4896     1.1666
 1381.0000     0.4991     1.1598
 1381.5000     0.4991     1.1543
 1382.0000     0.4997     1.1487
 1382.5000     0.5085     1.1432
 1383.0000     0.4991     1.2139
 1383.5000     0.4991     1.3216
 1384.0000     0.4991     1.3157
