~VERSION INFORMATION
 VERS.                2.0:   CWLS LOG ASCII STANDARD - VERSION 2.0
 WRAP.                 NO:   ONE LINE PER DEPTH STEP
~WELL INFORMATION
#MNEM.UNIT      DATA TYPE    INFORMATION
#----------   ------------   ------------------------------
 STRT.F          436.0000:   START DEPTH
 STOP.F         2160.0000:   STOP DEPTH
 STEP.F            0.5000:   STEP LENGTH
 NULL.          -999.2500:   NO VALUE
 COMP.   FLUOR DANIEL INC:   COMPANY
 WELL. NAVAL PETROLEUM RESERVE 3 X-29 #31-29:   WELL
 FLD .            WILDCAT:   FIELD
 LOC .      S29 T39N R78W:   LOCATION
 CNTY.            NATRONA:   COUNTY
 STAT.            WYOMING:   STATE
 CTRY. UNITED STATES OF AMERICA:   COUNTRY
 SRVC.            Unknown:   SERVICE COMPANY
 DATE.        25-JUN-1995:   LOGDATE
 API .       490252272300:   API NUMBER
~CURVE INFORMATION
#MNEM.UNIT       API CODE    CURVE DESCRIPTION
#----------   ------------   ------------------------------
 DEPT.F                  :   
 ROP .FT/HR  91 810 01 00:   RAT OF DRILLING PENETRATION
 TGAS.TC/CC  91 830 01 00:   TOTAL GAS UNIT
~PARAMETER INFORMATION
#MNEM.UNIT          VALUE    DESCRIPTION
#----------   ------------   ------------------------------
 EPD .F              5058:   ELEVATION PERMANENT DATUM
 EKB .F              5068:   KELLING BUSHING
 EGL .F              5058:   GROUND LEVEL
 DATE.        25-JUN-1995:   RUN DATE
 RUN .                  1:   RUN NUMBER
 ENGI.     C.TOWER/R.HUSK:   RECORDING ENGINEER
 CLNT.            A2DTECH:   CLIENT CODE
 ORIG.           5" PRINT:   ORIGIN OF DATA
 UWI .       490252272300:   UNIQUE WELL ID
 DICO. A2D Technologies, Inc.:   DIGITIZING COMPANY
~OTHER INFORMATION
~A   DEPT        ROP     TGAS   
# ...
  800.5000     0.7989     1.6853
  801.0000     0.7887     1.5914
  801.5000     0.7883     1.4974
  802.0000     0.7880     1.4034
  802.5000     0.7984     1.1742
  803.0000     0.8060     1.1846
  803.5000     0.8056     1.1929
  804.0000     0.8052     1.0104
  804.5000     0.8048     1.2095
  805.0000     0.8045     1.2177
  805.5000     0.8041     1.4147
  806.0000     0.8037     1.4230
  806.5000     0.8034     1.2425
  807.0000     0.8030     1.0622
  807.5000     0.8026     1.0708
  808.0000     0.8022     1.0809
  808.5000     0.7830     1.0892
  809.0000     0.7827     1.0975
  809.5000     0.7823     1.1057
  810.0000     0.7443     1.1140
  810.5000     0.6876     1.3110
  811.0000     0.6590     1.3193
  811.5000     0.6586     1.1387
  812.0000     0.6583     1.1472
  812.5000     0.6673     1.1557
  813.0000     0.6763     1.1642
  813.5000     0.6759     0.9834
  814.0000     0.6755     0.9938
  814.5000     0.6751     0.8113
  815.0000     0.6748     0.6309
  815.5000     0.6744     0.4505
  816.0000     0.6835     0.4609
  816.5000     0.6831     0.4692
  817.0000     0.6827     0.4775
  817.5000     0.6823     0.4858
  818.0000     0.6712     0.4943
  818.5000     0.6627     0.5044
  819.0000     0.6623     0.7014
  819.5000     0.6620     0.7097
  820.0000     0.6616     0.7179
  820.5000     0.6612     0.9149
  821.0000     0.6609     0.9232
  821.5000     0.6605     0.9315
  822.0000     0.6602     0.9398
  822.5000     0.6598     0.7594
  823.0000     0.6594     0.7679
  823.5000     0.6590     0.7764
  824.0000     0.6586     0.7863
  824.5000     0.6677     0.7946
  825.0000     0.6672     0.8029
  825.5000     0.6669     0.8112
  826.0000     0.6665     0.8195
  826.5000     0.6661     0.8278
  827.0000     0.6658     0.8361
  827.5000     0.6654     0.8444
  828.0000     0.6643     1.0415
  828.5000     0.6647     1.0500
  829.0000     0.6642     1.0600
  829.5000     0.6733     0.6909
  830.0000     0.6729     0.3219
  830.5000     0.6631     0.3374
  831.0000     0.6628     0.4054
  831.5000     0.6530     0.4733
  832.0000     0.6526     0.5437
  832.5000     0.6617     1.1180
  833.0000     0.6613     1.1264
  833.5000     0.6609     1.1349
  834.0000     0.6511     1.3337
  834.5000     0.6507     1.3419
  835.0000     0.6503     1.1595
  835.5000     0.6500     0.9791
  836.0000     0.6496     0.7987
  836.5000     0.6586     0.6183
  837.0000     0.6677     0.4396
  837.5000     0.6673     0.4483
  838.0000     0.6669     0.4566
  838.5000     0.6665     0.6538
  839.0000     0.6661     0.6639
  839.5000     0.6563     0.6722
  840.0000     0.6560     0.4897
  840.5000     0.6651     0.4991
  841.0000     0.6835     0.5075
  841.5000     0.7207     0.5167
  842.0000     0.7579     0.5250
  842.5000     0.7575     0.5330
  843.0000     0.7571     0.5416
  843.5000     0.7568     0.5500
  844.0000     0.7564     0.5585
  844.5000     0.7559     0.7572
  845.0000     0.7462     0.7655
  845.5000     0.7364     0.9624
  846.0000     0.7360     0.9707
  846.5000     0.7357     0.9790
  847.0000     0.7447     0.9873
  847.5000     0.7538     0.9956
  848.0000     0.7534     0.8151
  848.5000     0.7530     0.8236
  849.0000     0.7526     0.6434
  849.5000     0.7523     0.6519
  850.0000     0.7517     0.6618
  850.5000     0.7490     0.6689
  851.0000     0.7464     0.6790
  851.5000     0.7437     0.6858
  852.0000     0.7411     0.6943
  852.5000     0.7384     0.7032
  853.0000     0.7357     0.8317
  853.5000     0.7331     0.9085
  854.0000     0.7237     1.0214
  854.5000     0.7237     1.1142
  855.0000     0.7237     1.1226
  855.5000     0.7331     1.1324
  856.0000     0.7331     1.3294
  856.5000     0.7237     1.1469
  857.0000     0.7237     0.7799
  857.5000     0.7237     0.5995
  858.0000     0.7237     0.4189
  858.5000     0.7143     0.4274
  859.0000     0.6955     0.4358
  859.5000     0.6767     0.4443
  860.0000     0.6767     0.4543
  860.5000     0.6767     0.6513
  861.0000     0.6861     0.8483
  861.5000     0.6955     1.0969
  862.0000     0.7143     1.2422
  862.5000     0.7331     1.2505
  863.0000     0.6955     1.4475
  863.5000     0.6391     1.4558
  864.0000     0.6297     1.4642
  864.5000     0.6297     1.4726
  865.0000     0.6391     1.4827
  865.5000     0.6485     1.3003
  866.0000     0.6579     1.1199
  866.5000     0.6485     0.7529
  867.0000     0.6485     0.7612
  867.5000     0.6485     0.7695
  868.0000     0.6485     0.9664
  868.5000     0.6391     0.9747
  869.0000     0.6391     0.9830
  869.5000     0.6391     0.9915
  870.0000     0.6391     1.0017
  870.5000     0.6391     0.8213
  871.0000     0.6391     0.8296
  871.5000     0.6391     0.8378
  872.0000     0.6391     1.0348
  872.5000     0.6391     1.0431
  873.0000     0.6391     1.1629
  873.5000     0.6391     1.2481
  874.0000     0.6391     1.2567
  874.5000     0.6391     1.2651
  875.0000     0.6297     1.2422
  875.5000     0.6203     1.0929
  876.0000     0.6109     1.1032
  876.5000     0.6015     1.1115
  877.0000     0.6015     1.1198
  877.5000     0.6015     1.1281
  878.0000     0.6109     1.1358
  878.5000     0.6203     1.1974
  879.0000     0.6297     1.3416
  879.5000     0.6391     1.5387
  880.0000     0.6579     1.5472
  880.5000     0.6579     1.5573
  881.0000     0.6579     1.5655
  881.5000     0.6579     1.7625
  882.0000     0.6579     1.7708
  882.5000     0.6579     1.7791
  883.0000     0.6579     1.5987
  883.5000     0.6485     1.6070
  884.0000     0.6485     1.6153
  884.5000     0.6391     1.6236
  885.0000     0.6391     1.4432
  885.5000     0.6391     1.2649
  886.0000     0.6391     1.2732
  886.5000     0.6391     1.2815
  887.0000     0.6485     1.2897
  887.5000     0.6485     1.2980
  888.0000     0.6485     1.1176
  888.5000     0.6485     0.9352
  889.0000     0.6485     0.9455
  889.5000     0.6485     0.9538
  890.0000     0.6485     1.3396
  890.5000     0.6485     1.3789
  891.0000     0.6485     1.5447
  891.5000     0.6485     1.3644
  892.0000     0.6485     1.3747
  892.5000     0.6485     1.3830
  893.0000     0.6485     1.3913
  893.5000     0.6485     1.3996
  894.0000     0.6485     1.4079
  894.5000     0.6391     1.4162
  895.0000     0.6391     1.2358
  895.5000     0.6391     1.2443
  896.0000     0.6391     1.2544
  896.5000     0.6391     1.0720
  897.0000     0.6391     1.0823
  897.5000     0.6297     1.0906
  898.0000     0.6300     1.0989
  898.5000     0.6340     1.1072
  899.0000     0.6380     1.1155
  899.5000     0.6419     1.1238
  900.0000     0.6459     1.1321
  900.5000     0.6499     1.1404
  901.0000     0.6539     1.0616
  901.5000     0.6579     0.9847
  902.0000     0.6579     0.9078
  902.5000     0.6579     0.8308
  903.0000     0.6579     0.7772
  903.5000     0.6767     0.7818
  904.0000     0.5263     0.7855
  904.5000     0.5169     0.7892
  905.0000     0.5169     0.7929
  905.5000     0.5169     0.9853
  906.0000     0.5075     0.9890
  906.5000     0.5075     0.9926
  907.0000     0.5169     0.9963
  907.5000     0.5169     1.0000
  908.0000     0.5075     1.0038
  908.5000     0.5075     0.8187
  909.0000     0.5075     0.8234
  909.5000     0.5075     0.8270
  910.0000     0.5075     0.8307
  910.5000     0.5075     0.8344
  911.0000     0.5075     0.8381
  911.5000     0.5169     0.8418
  912.0000     0.5263     0.8455
  912.5000     0.5357     0.8492
  913.0000     0.5357     0.8529
  913.5000     0.5451     0.8566
  914.0000     0.5451     0.8604
  914.5000     0.5451     0.8642
  915.0000     0.5451     0.8686
  915.5000     0.5357     0.8723
  916.0000     0.5263     0.8760
  916.5000     0.5263     0.5023
  917.0000     0.5263     0.5060
  917.5000     0.5263     0.5094
  918.0000     0.5357     0.7021
  918.5000     0.5357     0.8945
  919.0000     0.5263     1.0868
  919.5000     0.5357     1.1893
  920.0000     0.5263     1.2830
  920.5000     0.5263     1.2875
  921.0000     0.5263     1.2906
  921.5000     0.5263     1.2943
