~VERSION INFORMATION
 VERS.                2.0:   CWLS LOG ASCII STANDARD - VERSION 2.0
 WRAP.                 NO:   ONE LINE PER DEPTH STEP
~WELL INFORMATION
#MNEM.UNIT      DATA TYPE    INFORMATION
#----------   ------------   ------------------------------
 STRT.F            0.0000:   START DEPTH
 STOP.F          663.0000:   STOP DEPTH
 STEP.F            0.1000:   STEP LENGTH
 NULL.          -999.2500:   NO VALUE
 COMP.   FLUOR DANIEL INC:   COMPANY
 WELL.     62-6 X 3 #62-3:   WELL
 FLD .             TEAPOT:   FIELD
 LOC .       S3 T38N R78W:   LOCATION
 CNTY.            NATRONA:   COUNTY
 STAT.            WYOMING:   STATE
 CTRY. UNITED STATES OF AMERICA:   COUNTRY
 SRVC.      Western Atlas:   SERVICE COMPANY
 DATE.        11-APR-1995:   LOGDATE
 API .       490252270400:   API NUMBER
~CURVE INFORMATION
#MNEM.UNIT       API CODE    CURVE DESCRIPTION
#----------   ------------   ------------------------------
 DEPT.F                  :   
 GRR .GAPI   07 310 01 00:   GAMMA RAY
 RILD.OHMM   07 120 46 00:   INDUCTION LOG DEEP RESISTIVITY
 RILM.OHMM   07 120 44 00:   INDUCTION LOG MEDIUM RESISTIVITY
~PARAMETER INFORMATION
#MNEM.UNIT          VALUE    DESCRIPTION
#----------   ------------   ------------------------------
 PD  .                 GL:   PERMANENT DATUM
 EPD .F              5157:   ELEVATION PERMANENT DATUM
 LMF .                 KB:   LOG MEASURED FROM
 DAPD.F                10:   FEET ABOVE PERMANENT DATUM
 DMF .                 KB:   DRILLING MEASURED FROM
 EKB .F              5167:   KELLING BUSHING
 EDF .F              5166:   DRILLING FLOOR
 EGL .F              5157:   GROUND LEVEL
 DATE.        11-APR-1995:   RUN DATE
 RUN .                  1:   RUN NUMBER
 DD  .F               671:   DEPTH DRILLER
 DL  .F               671:   DEPTH LOGGER
 BLI .F               663:   BOTTOM LOG INTERVAL
 TLI .F                95:   TOP LOG INTERVAL
 CS  .IN            9.625:   CASING SIZE
 CBD .F                95:   CASING BOTTOM DRILLER
 CBL .F                95:   CASING BOTTOM LOGGER
 BS  .IN             8.75:   BIT SIZE
 BSD .F               671:   BIT SIZE AT DEPTH
 DFT .                AIR:   DRILLING FLUID TYPE
 MRT .F                90:   MAXIMUM RECORDED TEMPERATURE
 LUN .            HL 6530:   LOGGING UNIT NUMBER
 LUL .             CASPER:   LOGGING UNIT LOCATION
 ENGI.      PAT RASMUSSEN:   RECORDING ENGINEER
 WITN.        GARY STRONG:   WITNESSED BY
 CLNT.            A2DTECH:   CLIENT CODE
 ORIG.           5" PRINT:   ORIGIN OF DATA
 UWI .       490252270400:   UNIQUE WELL ID
 DICO. A2D Technologies, Inc.:   DIGITIZING COMPANY
~OTHER INFORMATION
~A    DEPT      GRR      RILD       RILM   
# ...
  455.0000    78.7126    14.7161    14.8275
  455.1000    79.0776    14.6219    14.7851
  455.2000    79.4426    14.6228    14.7427
  455.3000    79.8076    14.6238    14.7003
  455.4000    80.1726    14.5783    14.6579
  455.5000    80.5376    14.4935    14.6155
  455.6000    80.8366    14.4244    14.6018
  455.7000    81.3207    14.4256    14.5607
  455.8000    81.9567    14.3267    14.5018
  455.9000    82.2152    14.3275    14.4914
  456.0000    82.4980    14.2781    14.4025
  456.1000    82.9639    14.2010    14.4033
  456.2000    83.2921    14.1238    14.4041
  456.3000    83.6911    14.0466    14.3540
  456.4000    84.1106    13.9694    14.2699
  456.5000    84.3690    13.8923    14.1863
  456.6000    84.6238    13.8151    14.1086
  456.7000    84.6266    13.7379    14.1095
  456.8000    84.6287    13.7219    14.0361
  456.9000    84.6311    13.7229    14.0128
  457.0000    84.5108    13.7238    14.0136
  457.1000    84.2572    13.7051    13.9848
  457.2000    84.0036    13.6308    13.9175
  457.3000    83.7359    13.6319    13.9184
  457.4000    83.4965    13.6328    13.9193
  457.5000    83.2428    13.6337    13.8522
  457.6000    82.8387    13.6347    13.8239
  457.7000    82.3292    13.6356    13.8246
  457.8000    81.7606    13.6366    13.8254
  457.9000    80.9815    13.6375    13.8262
  458.0000    79.8314    13.5444    13.8270
  458.1000    78.9382    13.4807    13.8277
  458.2000    77.9165    13.4524    13.8285
  458.3000    77.0274    13.4177    13.8293
  458.4000    76.4356    13.3613    13.7969
  458.5000    76.2228    13.3622    13.7346
  458.6000    76.5273    13.3632    13.7353
  458.7000    77.1335    13.2924    13.7362
  458.8000    77.3414    13.2727    13.7369
  458.9000    77.9204    13.2303    13.6812
  459.0000    78.4616    13.1827    13.6428
  459.1000    78.7200    13.1837    13.6161
  459.2000    78.9784    13.1846    13.5363
  459.3000    79.2593    13.0945    13.4559
  459.4000    79.4952    13.0953    13.3631
  459.5000    79.5656    13.0455    13.3637
  459.6000    79.5680    13.0066    13.3146
  459.7000    79.5704    12.9844    13.2013
  459.8000    79.5728    12.9183    13.0675
  459.9000    79.5807    12.9194    12.9985
  460.0000    79.8797    12.7779    12.9993
  460.1000    79.8818    12.7432    13.0000
  460.2000    79.8842    12.7003    12.9435
  460.3000    79.8866    12.6568    12.9110
  460.4000    79.9678    12.6409    12.8820
  460.5000    80.2263    12.5711    12.8065
  460.6000    80.4973    12.5721    12.7340
  460.7000    80.7431    12.5089    12.7349
  460.8000    81.0015    12.4868    12.6709
  460.9000    81.2599    12.4877    12.6476
  461.0000    81.7316    12.4644    12.6483
  461.1000    82.4411    12.4030    12.6490
  461.2000    82.9555    12.4040    12.6497
  461.3000    83.5309    12.4048    12.6504
  461.4000    83.5330    12.4057    12.6511
  461.5000    83.5354    12.3619    12.6518
  461.6000    83.5379    12.3216    12.6525
  461.7000    83.4516    12.3225    12.6204
  461.8000    83.1979    12.3234    12.5659
  461.9000    82.9418    12.3243    12.5666
  462.0000    82.3413    12.3251    12.5673
  462.1000    82.3433    12.3259    12.5680
  462.2000    82.1836    12.3268    12.5687
  462.3000    82.0465    12.3276    12.5694
  462.4000    82.0489    12.3285    12.5148
  462.5000    82.0513    12.3293    12.3963
  462.6000    82.0539    12.3303    12.3971
  462.7000    82.0561    12.3310    12.3117
  462.8000    82.0585    12.3319    12.3122
  462.9000    82.0609    12.2993    12.3129
  463.0000    82.1619    12.2484    12.2782
  463.1000    82.3674    12.2492    12.2286
  463.2000    82.3698    12.2501    12.2293
  463.3000    82.3726    12.2509    12.2300
  463.4000    82.3747    12.1982    12.2307
  463.5000    82.3771    12.1679    12.2313
  463.6000    82.5058    12.1412    12.2320
  463.7000    82.6836    12.0855    12.2327
  463.8000    82.6860    12.0863    12.2512
  463.9000    82.6885    12.0873    12.3198
  464.0000    82.6908    12.0880    12.3206
  464.1000    82.8929    12.0414    12.3212
  464.2000    82.9973    12.0061    12.3219
  464.3000    82.9997    12.0070    12.3226
  464.4000    83.0021    12.0078    12.3232
  464.5000    83.0045    12.0087    12.3239
  464.6000    83.0072    12.0095    12.3246
  464.7000    83.0094    12.0103    12.3254
  464.8000    82.8299    12.0111    12.3260
  464.9000    82.7125    12.0120    12.3267
  465.0000    82.6245    12.0128    12.3274
  465.1000    82.4153    12.0136    12.3067
  465.2000    82.4181    12.0146    12.2429
  465.3000    82.4210    12.0153    12.2437
  465.4000    82.2134    12.0161    12.2443
  465.5000    81.7959    12.0170    12.2450
  465.6000    81.4045    12.0178    12.2457
  465.7000    81.1509    12.0186    12.2464
  465.8000    80.8436    12.0195    12.2471
  465.9000    80.0219    12.0205    12.2478
  466.0000    80.0241    12.0211    12.2485
  466.1000    79.8349    12.0220    12.2491
  466.2000    79.4353    12.0228    12.2498
  466.3000    79.1264    12.0236    12.2505
  466.4000    79.1288    12.0245    12.2264
  466.5000    79.1312    12.0254    12.1548
  466.6000    79.1340    12.0261    12.0826
  466.7000    78.9166    11.9758    11.9993
  466.8000    78.8368    11.9447    11.9999
  466.9000    78.8392    11.9455    12.0006
  467.0000    78.8416    11.9463    11.9689
  467.1000    78.8073    11.9472    11.9184
  467.2000    78.5449    11.9481    11.9120
  467.3000    78.5472    11.8907    11.8368
  467.4000    78.3481    11.8218    11.7728
  467.5000    78.2504    11.7859    11.7039
  467.6000    78.2528    11.7665    11.6746
  467.7000    78.3198    11.7059    11.6752
  467.8000    78.5593    11.7069    11.6611
  467.9000    78.5619    11.7077    11.5952
  468.0000    78.7933    11.6567    11.5960
  468.1000    78.8682    11.6283    11.4793
  468.2000    79.0086    11.5753    11.4364
  468.3000    79.2670    11.4552    11.4030
  468.4000    79.5254    11.3912    11.3581
  468.5000    79.7828    11.3922    11.3487
  468.6000    79.7856    11.3355    11.2803
  468.7000    79.7876    11.2251    11.2809
  468.8000    79.9558    11.1271    11.1760
  468.9000    80.0941    11.0626    11.1257
  469.0000    80.0965    10.9894    11.0974
  469.1000    80.0989    10.8567    11.0495
  469.2000    80.1015    10.7962    11.0501
  469.3000    80.1038    10.7337    11.0508
  469.4000    80.2996    10.5965    11.0514
  469.5000    80.4103    10.4635    11.0043
  469.6000    80.4127    10.4028    10.9757
  469.7000    80.4716    10.3425    10.9763
  469.8000    80.7300    10.2758    10.9641
  469.9000    81.0236    10.2230    10.9011
  470.0000    81.2468    10.2061    10.9019
  470.1000    81.3297    10.1752    10.9024
  470.2000    81.4621    10.1370    10.9030
  470.3000    81.8048    10.1276    10.8721
  470.4000    82.2805    10.0683    10.8283
  470.5000    82.5461    10.0692    10.8289
  470.6000    82.7974    10.0697    10.8296
  470.7000    83.0558    10.0331    10.8301
  470.8000    83.3142    10.0015    10.7809
  470.9000    83.5726    10.0022    10.7560
  471.0000    83.7647    10.0029    10.7566
  471.1000    83.7671    10.0037    10.7572
  471.2000    83.7698    10.0043    10.7578
  471.3000    83.5409    10.0050    10.7585
  471.4000    83.2873    10.0057    10.7590
  471.5000    83.0337     9.9842    10.7142
  471.6000    82.7801     9.9378    10.6853
  471.7000    82.4781     9.9386    10.6859
  471.8000    81.9684     9.9394    10.6865
  471.9000    81.3736     9.9400    10.6871
  472.0000    81.3756     9.9407    10.6134
  472.1000    81.2105     9.9414    10.5620
  472.2000    81.0787     9.9420    10.5002
  472.3000    81.0811     9.9427    10.4679
  472.4000    81.0836     9.9435    10.4685
  472.5000    81.0861     9.9441    10.4618
  472.6000    81.0884     9.9448    10.3968
  472.7000    81.0908     9.9455    10.3974
  472.8000    81.2428     9.9225    10.3511
  472.9000    81.3973     9.8781    10.2904
  473.0000    81.3997     9.8788    10.2302
  473.1000    81.4148     9.8796    10.1841
