~VERSION INFORMATION
 VERS.                2.0:   CWLS LOG ASCII STANDARD - VERSION 2.0
 WRAP.                 NO:   ONE LINE PER DEPTH STEP
~WELL INFORMATION
#MNEM.UNIT      DATA TYPE    INFORMATION
#----------   ------------   ------------------------------
 STRT.F           93.0000:   START DEPTH
 STOP.F         1921.0000:   STOP DEPTH
 STEP.F            0.5000:   STEP LENGTH
 NULL.          -999.2500:   NO VALUE
 COMP. LAWRENCE-ALLISON &AS:   COMPANY
 WELL.  NPR 3 #15-1SHX2/T:   WELL
 FLD .             NPR #3:   :   FIELD
 LOC .       S2 T38N R78W:   LOCATION
 CNTY.            NATRONA:   COUNTY
 STAT.            WYOMING:   STATE
 CTRY. UNITED STATES OF AMERICA:   COUNTRY
 SRVC.       Schlumberger:   SERVICE COMPANY
 DATE.        10-JUN-1982:   LOGDATE
 API .       490251077600:   API NUMBER
~CURVE INFORMATION
#MNEM.UNIT       API CODE    CURVE DESCRIPTION
#----------   ------------   ------------------------------
 DEPT.F                  :   
 GR  .GAPI   70 310 01 00:   GAMMA RAY
 CALI.IN     70 280 01 00:   CALIPER
~PARAMETER INFORMATION
#MNEM.UNIT          VALUE    DESCRIPTION
#----------   ------------   ------------------------------
 PD  .                 GL:   PERMANENT DATUM
 EPD .F              5116:   ELEVATION PERMANENT DATUM
 LMF .                 KB:   LOG MEASURED FROM
 DAPD.F                10:   FEET ABOVE PERMANENT DATUM
 DMF .                 KB:   DRILLING MEASURED FROM
 EKB .F              5126:   KELLING BUSHING
 EGL .F              5116:   GROUND LEVEL
 DATE.        10-JUN-1982:   RUN DATE
 RUN .                  1:   RUN NUMBER
 DD  .F              2100:   DEPTH DRILLER
 DL  .F              1924:   DEPTH LOGGER
 BLI .F              1921:   BOTTOM LOG INTERVAL
 TLI .F               100:   TOP LOG INTERVAL
 CS  .IN            10.75:   CASING SIZE
 BS  .IN             8.75:   BIT SIZE
 BSD .F              2100:   BIT SIZE AT DEPTH
 DFT .                AIR:   DRILLING FLUID TYPE
 ENGI.        C. MARRINER:   RECORDING ENGINEER
 WITN.             SCOTTY:   WITNESSED BY
 CLNT.            A2DTECH:   CLIENT CODE
 ORIG.           5" PRINT:   ORIGIN OF DATA
 UWI .       490251077600:   UNIQUE WELL ID
 DICO. A2D Technologies, Inc.:   DIGITIZING COMPANY
~OTHER INFORMATION
~A   DEPT       GR       CALI   
# ...
  822.0000   139.6516    11.2801
  822.5000   140.5493    11.2813
  823.0000   141.0057    11.2825
  823.5000   140.9826    11.2842
  824.0000   140.7840    11.2996
  824.5000   140.6078    11.3007
  825.0000   141.7299    11.3019
  825.5000   144.1716    11.3033
  826.0000   147.2751    11.3045
  826.5000   153.9068    11.3057
  827.0000   157.4514    11.2918
  827.5000   153.6619    11.2785
  828.0000   144.4686    11.2502
  828.5000   137.4250    11.2514
  829.0000   140.7491    11.2526
  829.5000   147.1615    11.2387
  830.0000   153.1352    11.2402
  830.5000   152.0475    11.2263
  831.0000   149.8501    11.2278
  831.5000   148.2836    11.2437
  832.0000   145.1353    11.2596
  832.5000   141.4191    11.4080
  833.0000   140.4301    12.1308
  833.5000   141.5522    15.9743
  834.0000   142.8910    16.2012
  834.5000   144.6710    17.7750
  835.0000   147.3333    19.5573
  835.5000   151.7603    21.0943
  836.0000   152.4374    21.5340
  836.5000   146.9380    21.4468
  837.0000   140.5562    21.5219
  837.5000   138.5823    21.5672
  838.0000   143.4544    21.4211
  838.5000   147.8814    20.8626
  839.0000   150.7940    19.8476
  839.5000   154.4674    19.6279
  840.0000   160.4264    19.5845
  840.5000   167.0427    20.1898
  841.0000   172.2250    21.2514
  841.5000   165.6227    21.5766
  842.0000   159.2409    21.6661
  842.5000   154.1826    21.6820
  843.0000   153.7529    21.5653
  843.5000   154.6544    20.9332
  844.0000   155.5520    19.5058
  844.5000   152.0378    19.2144
  845.0000   145.4355    19.4492
  845.5000   142.5793    19.2295
  846.0000   147.8925    18.4648
  846.5000   158.2767    18.2892
  847.0000   160.0567    18.5800
  847.5000   155.6602    19.0780
  848.0000   150.3813    20.2191
  848.5000   151.2790    20.0910
  849.0000   153.9413    18.9876
  849.5000   155.7213    16.2347
  850.0000   153.6798    15.5308
  850.5000   148.0426    14.4696
  851.0000   144.9722    13.2778
  851.5000   149.8151    13.3674
  852.0000   159.3642    13.2360
  852.5000   161.8146    13.1895
  853.0000   159.1914    13.5918
  853.5000   154.8035    14.1231
  854.0000   152.6215    14.1979
  854.5000   152.2037    14.1991
  855.0000   150.1838    14.2003
  855.5000   147.8423    14.8749
  856.0000   145.2131    16.2257
  856.5000   147.8900    17.0541
  857.0000   152.9874    18.4440
  857.5000   153.6949    19.2452
  858.0000   150.7058    19.7478
  858.5000   146.4454    19.4396
  859.0000   147.1311    18.4394
  859.5000   148.9197    17.3509
  860.0000   151.3700    16.4980
  860.5000   153.5998    15.7999
  861.0000   155.1678    15.0424
  861.5000   152.9858    14.6157
  862.0000   151.0264    14.5148
  862.5000   142.2248    14.7494
  863.0000   139.3810    15.1511
  863.5000   143.8746    15.5205
  864.0000   148.0794    15.7869
  864.5000   150.4361    15.8468
  865.0000   154.2619    15.1857
  865.5000   157.1535    14.5979
  866.0000   159.8244    14.9969
  866.5000   157.6424    15.2044
  867.0000   156.3428    16.0304
  867.5000   157.2490    17.0452
  868.0000   157.7081    19.2879
  868.5000   152.8850    20.7325
  869.0000   151.1442    21.2934
  869.5000   146.9155    21.5451
  870.0000   145.0195    21.6937
  870.5000   145.9257    21.6950
  871.0000   148.5967    21.5001
  871.5000   152.1480    21.3441
  872.0000   152.3865    21.4783
  872.5000   146.9016    21.5827
  873.0000   141.4108    21.6429
  873.5000   140.5368    21.6884
  874.0000   142.4508    21.6750
  874.5000   143.4718    21.5437
  875.0000   141.9515    20.9559
  875.5000   137.5636    18.6597
  876.0000   134.4993    16.0540
  876.5000   138.2732    15.9380
  877.0000   145.0574    15.5711
  877.5000   151.3376    14.9096
  878.0000   155.1115    14.1598
  878.5000   154.0325    13.4837
  879.0000   151.6299    13.2346
  879.5000   148.5675    13.0297
  880.0000   149.0326    12.8386
  880.5000   149.7182    12.5957
  881.0000   147.3157    12.3854
  881.5000   144.4719    12.5490
  882.0000   143.6075    12.7271
  882.5000   146.5050    12.7869
  883.0000   146.9700    12.6560
  883.5000   141.9204    12.4364
  884.0000   134.2277    12.0842
  884.5000   130.0544    11.5371
  885.0000   131.1872    11.3799
  885.5000   132.3140    11.4405
  886.0000   132.9937    11.4859
  886.5000   127.5089    11.4873
  887.0000   126.6504    11.4444
  887.5000   125.5713    11.3868
  888.0000   123.1688    11.3292
  888.5000   123.6338    11.3007
  889.0000   129.1724    11.3318
  889.5000   133.8302    11.3331
  890.0000   134.9706    11.3344
  890.5000   135.4213    11.2915
  891.0000   134.1269    11.2484
  891.5000   131.0625    11.1750
  892.0000   127.5570    11.1187
  892.5000   127.3543    11.1052
  893.0000   131.1342    11.1069
  893.5000   134.9081    11.1229
  894.0000   137.3584    11.1389
  894.5000   134.7353    11.1402
  895.0000   130.1268    11.1265
  895.5000   126.8419    11.1575
  896.0000   125.1010    11.2030
  896.5000   125.7867    11.2338
  897.0000   131.7800    11.2351
  897.5000   135.1933    11.2364
  898.0000   137.5951    11.2230
  898.5000   138.0332    11.1948
  899.0000   134.6996    11.1670
  899.5000   132.0622    11.1385
  900.0000   132.5221    11.1404
  900.5000   135.6482    11.1475
  901.0000   136.0969    11.1547
  901.5000   133.3939    11.1618
  902.0000   130.1628    11.1690
  902.5000   128.8485    11.1589
  903.0000   133.0739    11.1304
  903.5000   136.4099    11.1020
  904.0000   135.1000    11.0585
  904.5000   133.1263    11.0004
  905.0000   134.4712    10.9426
  905.5000   138.0285    10.9138
  906.0000   141.1433    10.9000
  906.5000   144.0369    10.8863
  907.0000   143.1694    10.8872
  907.5000   140.3108    10.8881
  908.0000   136.6550    10.8890
  908.5000   132.6405    10.8898
  909.0000   128.6261    10.9055
  909.5000   125.3380    10.8916
  910.0000   126.2404    10.8925
  910.5000   128.2490    10.8934
  911.0000   129.8152    10.8943
  911.5000   130.7176    10.8951
  912.0000   133.6112    10.8962
  912.5000   136.7260    10.8971
  913.0000   133.6462    10.8979
  913.5000   130.1058    10.8988
  914.0000   126.7492    10.9144
  914.5000   124.4066    10.9153
  915.0000   124.6460    10.9162
  915.5000   124.6671    10.9318
  916.0000   125.3483    10.9474
  916.5000   126.6933    10.9630
  917.0000   131.1355    10.9639
  917.5000   136.4627    10.9795
  918.0000   141.1262    11.0098
  918.5000   139.5950    11.0254
  919.0000   136.7364    11.0263
  919.5000   133.8778    11.0419
  920.0000   132.7847    11.0575
  920.5000   133.6915    11.1025
  921.0000   134.1471    11.1918
  921.5000   131.0716    11.2810
  922.0000   127.5493    11.3408
  922.5000   124.0269    11.3711
  923.0000   122.2745    11.3867
  923.5000   122.5277    11.3573
  924.0000   125.9086    11.3255
  924.5000   128.8208    11.1941
  925.0000   131.7111    11.1080
  925.5000   128.7822    11.1410
  926.0000   123.4899    11.4069
  926.5000   121.7331    11.5696
  927.0000   125.9585    11.3351
  927.5000   133.0556    11.1739
  928.0000   139.0466    11.1304
  928.5000   139.2809    11.1610
  929.0000   137.0904    11.1471
  929.5000   134.6742    11.0596
  930.0000   132.0368    10.9868
  930.5000   130.2844    11.0466
  931.0000   134.0630    11.2979
  931.5000   139.3902    11.4166
  932.0000   142.0625    11.4764
  932.5000   138.5402    11.4772
  933.0000   135.2391    11.4781
  933.5000   132.5982    11.5084
  934.0000   135.1564    11.5830
  934.5000   139.8201    11.8047
  935.0000   143.1637    12.1738
  935.5000   140.1981    12.3514
  936.0000   137.1183    12.4259
  936.5000   136.0252    12.4268
  937.0000   137.5957    12.2931
  937.5000   136.2857    12.1181
  938.0000   132.7634    12.0006
  938.5000   129.2411    12.1543
  939.0000   128.3692    12.8143
  939.5000   129.9397    13.3601
  940.0000   130.1785    13.5377
  940.5000   128.4260    13.5826
  941.0000   128.2179    13.4806
  941.5000   131.1158    13.4665
  942.0000   134.6731    13.5707
  942.5000   134.2482    13.3801
  943.0000   130.7258    13.1748
