~VERSION INFORMATION
 VERS.                2.0:   CWLS LOG ASCII STANDARD - VERSION 2.0
 WRAP.                 NO:   ONE LINE PER DEPTH STEP
~WELL INFORMATION
#MNEM.UNIT      DATA TYPE    INFORMATION
#----------   ------------   ------------------------------
 STRT.F           12.0000:   START DEPTH
 STOP.F          549.0000:   STOP DEPTH
 STEP.F            0.5000:   STEP LENGTH
 NULL.          -999.2500:   NO VALUE
 COMP. LAWRENCE/ALLISON INC:   COMPANY
 WELL.  58-64-1 SX 3 #3-3:   WELL
 FLD .             TEAPOT:   FIELD
 LOC .       S3 T38N R78W:   LOCATION
 CNTY.            NATRONA:   COUNTY
 STAT.            WYOMING:   STATE
 CTRY. UNITED STATES OF AMERICA:   COUNTRY
 SRVC.      Dresser Atlas:   SERVICE COMPANY
 DATE.        05-DEC-1984:   LOGDATE
 API .       490251117800:   API NUMBER
~CURVE INFORMATION
#MNEM.UNIT       API CODE    CURVE DESCRIPTION
#----------   ------------   ------------------------------
 DEPT.F                  :   
 RFOC.OHMM   07 220 04 00:   RESISTIVITY FOCUSED LOG
 RILD.OHMM   07 120 46 00:   INDUCTION LOG DEEP RESISTIVITY
 RILM.OHMM   07 120 44 00:   INDUCTION LOG MEDIUM RESISTIVITY
 SPR .MV     07 010 01 00:   SPONTANEOUS POTENTIAL
 CALD.IN     45 280 60 00:   CALIPER FROM DENSITY LOG
 CNC .DEC    42 890 03 00:   NEUTRON POROSITY SANDSTONE
 CORR.G/C3   45 356 01 00:   DENSITY CORRECTION
 DEN .G/C3   45 350 01 00:   COMPENSATED BULK DENSTIY
 GRD .GAPI   45 310 01 00:   GAMMA RAY FROM DENSITY LOG
 PORD.DEC    45 890 12 00:   POROSITY DENSITY SANDSTONE
 DT  .US/F   60 520 00 00:   INTERVAL TRANSIT TIME
~PARAMETER INFORMATION
#MNEM.UNIT          VALUE    DESCRIPTION
#----------   ------------   ------------------------------
 PD  .                 GL:   PERMANENT DATUM
 EPD .F              5188:   ELEVATION PERMANENT DATUM
 LMF .                 KB:   LOG MEASURED FROM
 DMF .                 KB:   DRILLING MEASURED FROM
 EGL .F              5188:   GROUND LEVEL
 DATE.         5-DEC-1984:   RUN DATE
 RUN .                  1:   RUN NUMBER
 DD  .F               556:   DEPTH DRILLER
 DL  .F               551:   DEPTH LOGGER
 BLI .F               549:   BOTTOM LOG INTERVAL
 CS  .IN            8.625:   CASING SIZE
 CBD .F                20:   CASING BOTTOM DRILLER
 CBL .F                20:   CASING BOTTOM LOGGER
 BS  .IN            7.875:   BIT SIZE
 BSD .F               556:   BIT SIZE AT DEPTH
 DFT .          KCL WATER:   DRILLING FLUID TYPE
 MSS .           FLOWLINE:   MUD SAMPLE SOURCE
 RMS .OHMM            .36:   RESISTIVITY MUD SAMPLE
 MST .F                70:   MUD SAMPLE TEMPERATURE
 RMF .OHMM            .26:   RESISTIVITY MUD FILTRATE SAMPLE
 MFST.F                70:   MUD FILTRATE SAMPLE TEMPERATURE
 RMC .OHMM            .46:   RESISTIVITY MUD CAKE
 MCST.F                70:   MUD CAKE SAMPLE TEMPERATURE
 MFSS.               CALC:   MUD FILTRATE SAMPLE SOURCE
 MCSS.               CALC:   MUD CAKE SAMPLE SOURCE
 RMB .OHMM            .29:   RESISTIVITY MUD AT BHT
 BHT .F                85:   BOTTOM HOLE TEMPERATURE
 TCS .HRS               3:   TIME CURCULATED STOPPED
 MRT .F               100:   MAXIMUM RECORDED TEMPERATURE
 LUN .               6274:   LOGGING UNIT NUMBER
 LUL .               GLTE:   LOGGING UNIT LOCATION
 ENGI.             RAUTIO:   RECORDING ENGINEER
 WITN.       GROOMS/LUERS:   WITNESSED BY
 CLNT.            A2DTECH:   CLIENT CODE
 ORIG.         2.5" PRINT:   ORIGIN OF DATA
 UWI .       490251117800:   UNIQUE WELL ID
 DICO. A2D Technologies, Inc.:   DIGITIZING COMPANY
~OTHER INFORMATION
~A   DEPT     RFOC       RILD       RILM        SPR       CALD        CNC       CORR        DEN         GRD      PORD         DT   
# ...
  256.0000    10.1231     6.2224     5.2333   -67.4650     8.0640     0.3045     0.0057     2.4832   121.2399     0.1418   100.6335
  256.5000     8.2886     6.1335     5.0876   -67.9392     8.0636     0.3329     0.0009     2.4741   129.1397     0.1654   107.4208
  257.0000     4.8413     6.2164     5.0153   -67.4772     8.0631     0.3353     0.0117     2.4316   133.9999     0.1889   111.7949
  257.5000     4.1027     6.4297     5.0835   -66.4462     8.0627     0.3063     0.0359     2.3451   135.2128     0.1946   114.5098
  258.0000     4.6803     6.7516     5.1526   -65.8502     8.0622     0.2737     0.0459     2.3466   132.0242     0.1491   111.4510
  258.5000     7.5122     7.1428     6.6199   -65.8621     8.0618     0.2593     0.0177     2.4346   122.7934     0.1057   109.6833
  259.0000    10.0806     7.6825     7.2055   -65.5684     8.0613     0.2536     0.0237     2.5075   116.0141     0.0885   110.6796
  259.5000    10.6927     8.5391     7.9745   -65.2780     8.0609     0.2570     0.0297     2.5332   111.2067     0.0863   113.2007
  260.0000    10.9031     9.1499     9.1693   -64.9860     8.0604     0.2637     0.0176     2.5317   108.2067     0.0875   116.3600
  260.5000    10.8986    10.2223    10.2421   -64.6940     8.0600     0.2697     0.0115     2.5317   107.2314     0.0861   116.9704
  261.0000    10.7437    10.5064    10.5964   -64.4019     8.0486     0.2722     0.0327     2.5363   108.6180     0.0827   117.2791
  261.5000    10.5909    10.3557    10.4452   -64.1099     8.0592     0.2710     0.0478     2.5411   109.6570     0.0794   117.8894
  262.0000    10.4403    10.2077    10.2965   -63.8176     8.0586     0.2692     0.0601     2.5503   109.8804     0.0760   118.4998
  262.5000    10.1496    10.2028    10.1500   -63.2219     8.0582     0.2674     0.0694     2.5560   110.8663     0.0731   119.6380
  263.0000    10.2880    10.3408    10.1458   -61.9939     8.0577     0.2650     0.0719     2.5559   110.8632     0.0713   121.9970
  263.5000    10.5735    10.7765    10.4036   -60.7174     8.0572     0.2626     0.0547     2.5513   111.4681     0.0768   124.2192
  264.0000    11.0197    11.2304    11.2328   -58.9301     8.0567     0.2545     0.0275     2.5380   110.1925     0.0865   126.3167
  264.5000    11.6456    12.0549    12.3123   -57.7508     8.0563     0.2413     0.0173     2.5183   106.2705     0.0999   127.1795
  265.0000    13.0113    13.3213    13.5963   -57.0821     8.0558     0.2280     0.0155     2.5049    98.6925     0.1102   125.1182
  265.5000    14.7735    14.8907    15.6934   -56.2310     8.0554     0.2150     0.0101     2.4940    90.1788     0.1163   121.9742
  266.0000    17.4717    16.7054    19.1916   -55.3192     8.0550     0.2056     0.0212     2.4824    73.7625     0.1194   119.0407
  266.5000    19.8091    18.7642    21.4423   -54.4073     8.0545     0.2049     0.0484     2.4733    67.0726     0.1206   114.5098
  267.0000    22.3944    21.7789    22.6601   -53.9067     8.0541     0.2111     0.0624     2.4757    64.6380     0.1244   115.8673
  267.5000    27.4149    26.4447    23.6163   -53.9210     8.0536     0.2276     0.0718     2.4663    62.2034     0.1379   123.5126
  268.0000    28.6857    28.5470    24.6128   -53.9331     8.0532     0.2493     0.0743     2.4345    59.7688     0.1578   132.9120
  268.5000    29.0757    28.8010    25.6513   -53.7994     8.0527     0.2627     0.0534     2.4056    57.3343     0.1713   144.4659
  269.0000    29.0620    27.9945    25.2866   -53.1915     8.0523     0.2658     0.0352     2.3768    62.1945     0.1826   153.8343
  269.5000    29.0499    27.4195    23.9080   -52.5836     8.0518     0.2641     0.0170     2.3495    72.5967     0.1930   160.7658
  270.0000    29.0378    26.4559    22.2923   -51.8565     8.0514     0.2678     0.0048     2.3404    76.7782     0.2001   159.6280
  270.5000    29.0257    25.1455    20.4985   -51.2605     8.0207     0.2738     0.0048     2.3313    74.7508     0.2061   153.8673
  271.0000    29.0136    23.2655    20.2070   -50.3606     8.0202     0.2787     0.0169     2.3191    70.3200     0.2136   149.3514
  271.5000    29.1972    22.8647    20.1988   -49.4606     8.0198     0.2835     0.0320     2.3039    67.0426     0.2236   146.6325
  272.0000    29.6096    23.6190    20.4734   -48.8647     8.0193     0.2860     0.0290     2.2948    70.3467     0.2288   143.6645
  272.5000    30.0279    24.2739    20.7899   -48.5726     8.0189     0.2812     0.0108     2.2954    76.0637     0.2241   139.6983
  273.0000    30.6203    24.6022    21.3796   -48.2806     8.0184     0.2746    -0.0014     2.3113    78.3728     0.2127   138.0392
  273.5000    29.7678    24.5905    22.8140   -47.9886     8.0180     0.2679    -0.0045     2.3251    79.7969     0.2101   129.5928
  274.0000    29.3445    24.2391    25.9051   -48.0005     8.0175     0.2618     0.0018     2.3160    77.2159     0.2174   117.8281
  274.5000    30.5827    23.5627    30.4116   -48.0124     8.0170     0.2569     0.0114     2.3219    73.4863     0.2132   114.8115
  275.0000    39.8200    21.3660    32.0236   -48.0243     8.0468     0.2525     0.0237     2.3292    70.0608     0.2071   113.6048
  275.5000    40.3631    20.1883    33.3932   -48.0365     8.0463     0.2539     0.0300     2.3333    67.5734     0.2023   114.0573
  276.0000    39.7874    20.7598    34.1431   -48.0486     8.0459     0.2627     0.0348     2.3260    64.7295     0.2169   116.4706
  276.5000    36.5859    21.0651    34.1283   -48.0608     8.0454     0.2673     0.0330     2.3042    60.9326     0.2290   117.3756
  277.0000    29.6826    22.5982    33.4950   -48.1216     8.0450     0.2681     0.0276     2.2902    63.3612     0.2327   115.7164
  277.5000    26.9171    25.0169    31.4640   -48.3891     8.0748     0.2634     0.0352     2.2973    68.2215     0.2279   108.7096
  278.0000    27.6652    31.0792    28.0764   -48.4012     8.0752     0.2527     0.0476     2.3191    71.8659     0.2077   101.4392
  278.5000    35.5327    36.2346    24.0294   -48.7173     8.0756     0.2367     0.0516     2.3709    71.9828     0.1839    95.2051
  279.0000    34.9637    36.6197    22.7500   -49.0334     8.0760     0.2268     0.0315     2.4218    69.4283     0.1602    94.7511
  279.5000    32.9386    36.4522    22.8552   -49.0456     8.0765     0.2284     0.0177     2.4392    68.2096     0.1383   100.7354
  280.0000    30.3883    34.4423    24.5821   -49.0578     8.0769     0.2502     0.0103     2.4282    70.0303     0.1702   106.6666
  280.5000    29.5966    33.1202    26.6423   -49.0699     8.0774     0.2611     0.0072     2.3526    72.4589     0.2072   109.2891
  281.0000    29.1755    31.2580    26.1416   -49.0821     8.0778     0.2671     0.0102     2.3117    74.3039     0.2203   110.9573
  281.5000    29.1633    28.8707    24.0018   -49.0942     8.0782     0.2623     0.0193     2.3056    76.7852     0.2232   110.2337
  282.0000    29.1511    28.0295    24.5188   -49.1064     8.0787     0.2563     0.0314     2.3250    79.2016     0.2128   108.2574
  282.5000    29.1390    27.6288    25.3522   -49.4249     8.0791     0.2599     0.0344     2.3417    80.5319     0.1991   106.9633
  283.0000    29.1268    28.2311    26.4219   -49.4368     8.0796     0.2648     0.0283     2.3523    81.6798     0.1922   106.6667
  283.5000    29.1147    28.7758    26.7829   -49.7527     8.0800     0.2666     0.0192     2.3572    82.7754     0.1928   106.0251
  284.0000    29.1025    29.1650    27.1453   -50.0685     8.0804     0.2629     0.0070     2.3417    81.2157     0.1984   104.5651
  284.5000    29.0904    29.1511    27.1341   -50.3844     8.0809     0.2579     0.0040     2.3356    78.9251     0.2040   101.5385
  285.0000    29.2887    29.1372    27.1230   -50.3963     8.0813     0.2506     0.0163     2.3401    77.4569     0.1980    99.5777
  285.5000    29.4733    29.1233    27.1120   -50.4082     8.0817     0.2463     0.0156     2.3508    75.2188     0.1907    98.5219
  286.0000    29.4585    29.1094    27.1009   -50.4202     8.0822     0.2420     0.0032     2.3614    74.5248     0.1871    98.4736
