~VERSION INFORMATION
 VERS.                2.0:   CWLS LOG ASCII STANDARD - VERSION 2.0
 WRAP.                 NO:   ONE LINE PER DEPTH STEP
~WELL INFORMATION
#MNEM.UNIT      DATA TYPE    INFORMATION
#----------   ------------   ------------------------------
 STRT.F            0.0000:   START DEPTH
 STOP.F          625.0000:   STOP DEPTH
 STEP.F            0.5000:   STEP LENGTH
 NULL.          -999.2500:   NO VALUE
 COMP.       F D SERV INC:   COMPANY
 WELL.    75-3 SX-3 #72-3:   WELL
 FLD .             TEAPOT:   FIELD
 LOC .       S3 T38N R78W:   LOCATION
 CNTY.            NATRONA:   COUNTY
 STAT.            WYOMING:   STATE
 CTRY. UNITED STATES OF AMERICA:   COUNTRY
 SRVC.     Atlas Wireline:   SERVICE COMPANY
 DATE.        05-MAY-1992:   LOGDATE
 API .       490252251800:   API NUMBER
~CURVE INFORMATION
#MNEM.UNIT       API CODE    CURVE DESCRIPTION
#----------   ------------   ------------------------------
 DEPT.F                  :   
 CALD.IN     45 280 60 00:   CALIPER FROM DENSITY
 CORR.G/C3   45 356 01 00:   DENSITY CORRECTION
 DEN .G/C3   45 350 01 00:   COMPENSATED BULK DENSTIY
 GRD .GAPI   45 310 01 00:   GAMMA RAY FROM DENSITY LOG
 RILD.OHMM   07 120 46 00:   INDUCTION LOG DEEP RESISTIVITY
 RILM.OHMM   07 120 44 00:   INDUCTION LOG MEDIUM RESISTIVITY
 PORD.DEC    45 890 12 00:   POROSITY DENSITY SANDSTONE
~PARAMETER INFORMATION
#MNEM.UNIT          VALUE    DESCRIPTION
#----------   ------------   ------------------------------
 PD  .                 GL:   PERMANENT DATUM
 EPD .F              5148:   ELEVATION PERMANENT DATUM
 LMF .                 KB:   LOG MEASURED FROM
 DAPD.F                 5:   FEET ABOVE PERMANENT DATUM
 DMF .                 KB:   DRILLING MEASURED FROM
 EKB .F              5153:   KELLING BUSHING
 EDF .F              5152:   DRILLING FLOOR
 EGL .F              5148:   GROUND LEVEL
 DATE.        05-MAY-1992:   RUN DATE
 RUN .                  1:   RUN NUMBER
 DD  .F               630:   DEPTH DRILLER
 DL  .F               633:   DEPTH LOGGER
 BLI .F               625:   BOTTOM LOG INTERVAL
 CS  .IN            8.625:   CASING SIZE
 CBD .F                44:   CASING BOTTOM DRILLER
 CBL .F                49:   CASING BOTTOM LOGGER
 BS  .IN            7.875:   BIT SIZE
 BSD .F               630:   BIT SIZE AT DEPTH
 DFT .        AIR DRILLED:   DRILLING FLUID TYPE
 MRT .F                88:   MAXIMUM RECORDED TEMPERATURE
 LUN .           HL- 6274:   LOGGING UNIT NUMBER
 LUL .             CASPER:   LOGGING UNIT LOCATION
 ENGI.       P. RASHUSSEN:   RECORDING ENGINEER
 WITN.          G. STRONG:   WITNESSED BY
 CLNT.            A2DTECH:   CLIENT CODE
 ORIG.           5" PRINT:   ORIGIN OF DATA
 UWI .       490252251800:   UNIQUE WELL ID
 DICO. A2D Technologies, Inc.:   DIGITIZING COMPANY
~OTHER INFORMATION
~A    DEPT    CALD       CORR        DEN         GRD      RILD       RILM       PORD   
# ...
  546.0000     8.1441     0.0015     2.5025   130.1835    12.5874    12.4511     0.0894
  546.5000     8.1285    -0.0044     2.4949   131.9753    12.4972    12.4502     0.0918
  547.0000     8.0999    -0.0073     2.4949   133.1688    12.4945    12.4494     0.0942
  547.5000     8.0997    -0.0042     2.4964   135.2618    12.4919    12.3619     0.0966
  548.0000     8.0995    -0.0072     2.5009   137.6547    12.4023    12.3611     0.0944
  548.5000     8.0994    -0.0040     2.5054   139.1481    12.3992    12.2743     0.0900
  549.0000     8.0992    -0.0039     2.5053   139.4423    12.2246    12.1881     0.0885
  549.5000     8.0991    -0.0008     2.5053   138.8365    12.1370    12.0184     0.0879
  550.0000     8.0947     0.0023     2.5068   139.7301    12.0506    12.0064     0.0882
  550.5000     8.0840     0.0039     2.5099   140.9454    12.1290    11.9379     0.0880
  551.0000     8.0990     0.0053     2.5190   141.2176    12.1240    11.8694     0.0863
  551.5000     8.0990     0.0053     2.5249   141.8114    12.0346    11.8009     0.0819
  552.0000     8.0990     0.0053     2.5234   141.8041    12.0296    11.6768     0.0786
  552.5000     8.0990    -0.0068     2.5189   141.1985    12.0246    11.6744     0.0807
  553.0000     8.0990    -0.0038     2.5113   140.8927    12.0196    11.5909     0.0837
  553.5000     8.0990     0.0053     2.5083   140.8868    12.0147    11.5885     0.0864
  554.0000     8.0990     0.0023     2.5053   141.7805    11.9261    11.6672     0.0882
  554.5000     8.0840    -0.0008     2.5053   142.6742    11.8381    11.6648     0.0885
  555.0000     8.0840    -0.0008     2.5068   142.3684    11.8332    11.6678     0.0876
  555.5000     8.0990    -0.0038     2.5143   139.0642    11.7460    11.7417     0.0873
  556.0000     8.0840    -0.0038     2.5189   139.3581    11.7411    11.7387     0.0864
  556.5000     8.0840    -0.0098     2.5204   140.8516    11.7362    11.7362     0.0855
  557.0000     8.0840    -0.0098     2.5204   141.1455    11.7313    11.7338     0.0840
  557.5000     8.0840    -0.0098     2.5143   141.1094    11.7263    11.7314     0.0819
  558.0000     8.0840    -0.0098     2.5083   139.8299    11.7215    11.7290     0.0837
  558.5000     8.0840    -0.0038     2.5068   138.4277    11.7156    11.7266     0.0862
  559.0000     8.0840    -0.0038     2.5053   138.4218    11.6292    11.7242     0.0880
  559.5000     8.0838    -0.0008     2.5036   139.6153    11.4631    11.6403     0.0877
  560.0000     8.0690    -0.0008     2.5023   140.5104    11.3785    11.5570     0.0874
  560.5000     8.0540    -0.0008     2.5023   139.0038    11.3738    11.3945     0.0868
  561.0000     8.0540    -0.0008     2.5054   137.7985    11.2900    11.3129     0.0865
  561.5000     8.0540     0.0053     2.5206   136.8931    11.2853    11.2319     0.0856
  562.0000     8.0540     0.0083     2.5251   138.0866    11.2806    11.1442     0.0853
  562.5000     8.0540     0.0113     2.5309   139.8798    11.1974    11.0716     0.0804
  563.0000     8.0540     0.0143     2.5370   141.9729    11.2725    10.9919     0.0740
  563.5000     8.0540     0.0142     2.5385   144.9655    11.2666    10.9897     0.0720
  564.0000     8.0540     0.0083     2.5339   147.3741    11.3411    10.9110     0.0744
  564.5000     8.0540     0.0083     2.5309   147.9522    11.2573    10.7576     0.0759
  565.0000     8.0540     0.0053     2.5309   145.2462    11.0965    10.5326     0.0756
  565.5000     8.0540    -0.0068     2.5204   143.4412    10.7861    10.3123     0.0756
  566.0000     8.0690    -0.0098     2.5189   142.5358    10.5550     9.9567     0.0777
  566.5000     8.0690    -0.0098     2.5204   142.2300    10.2560     9.7484     0.0786
  567.0000     8.0840    -0.0068     2.5189   144.0232     9.9552     9.4781     0.0793
  567.5000     8.0840    -0.0038     2.5189   146.1163     9.5611     9.2154     0.0802
  568.0000     8.0840    -0.0038     2.5189   147.6097     9.2937     8.7743     0.0805
  568.5000     8.0840    -0.0038     2.5173   148.5048     8.7236     8.3516     0.0808
  569.0000     8.0840    -0.0098     2.5143   149.3970     8.1314     7.9901     0.0817
  569.5000     8.0840    -0.0158     2.5083   151.4901     7.6861     7.2628     0.0829
  570.0000     8.0840    -0.0128     2.4947   155.6821     7.2652     6.7719     0.0923
  570.5000     8.0990    -0.0008     2.4676   160.7833     6.7249     6.1404     0.1140
  571.0000     8.0840     0.0113     2.4148   167.2565     5.9691     5.5678     0.1346
  571.5000     8.0840     0.0204     2.3861   174.7395     4.7711     5.3758     0.1603
  572.0000     8.0840     0.0238     2.4094   175.7485     4.6381     5.3373     0.1503
  572.5000     8.0840     0.0228     2.4645   158.9495     4.9713     5.4491     0.1116
  573.0000     8.0840    -0.0038     2.5094   151.7472     5.4418     5.7607     0.0911
  573.5000     8.0840    -0.0038     2.5370   146.9437     5.9153     6.1758     0.0730
  574.0000     8.0840    -0.0068     2.5430   144.5390     6.4752     6.8081     0.0672
  574.5000     8.0840    -0.0038     2.5490   145.1328     7.3401     7.5052     0.0645
  575.0000     8.0840     0.0023     2.5490   146.6262     8.3205     8.1023     0.0624
  575.5000     8.0840     0.0113     2.5475   147.8197     8.8019     8.8834     0.0624
  576.0000     8.0840     0.0083     2.5430   149.0132     9.3180     9.3866     0.0645
  576.5000     8.0840    -0.0038     2.5400   150.5066     9.7592     9.7074     0.0660
  577.0000     8.0990    -0.0038     2.5370   152.2998    10.0317     9.7739     0.0672
  577.5000     8.0990    -0.0038     2.5354   154.4028    10.2400     9.9087     0.0690
  578.0000     8.0990    -0.0038     2.5354   156.2180    10.3075    10.0459     0.0700
  578.5000     8.0990    -0.0038     2.5370   157.3796    10.0884    10.3281     0.0706
  579.0000     8.0990    -0.0038     2.5370   153.1743    10.0843    10.6182     0.0709
  579.5000     8.0990    -0.0038     2.5385   148.9705    10.2947    10.9165     0.0700
  580.0000     8.0990    -0.0038     2.5415   147.7667    10.7300    11.1457     0.0694
  580.5000     8.0990    -0.0038     2.5430   149.2586    11.1069    11.3791     0.0682
  581.0000     8.0990    -0.0008     2.5415   148.0533    11.4171    11.5362     0.0673
  581.5000     8.0990     0.0023     2.5354   144.7491    11.5741    11.6145     0.0670
  582.0000     8.0990     0.0053     2.5354   143.2439    11.8145    11.6934     0.0673
  582.5000     8.0990     0.0083     2.5385   142.9397    11.9746    11.7728     0.0691
  583.0000     8.0990     0.0053     2.5416   145.0312    12.2232    11.7846     0.0697
  583.5000     8.0990    -0.0008     2.5415   146.8244    12.3902    11.8504     0.0694
  584.0000     8.0990    -0.0008     2.5382   146.8186    12.4719    11.9309     0.0673
  584.5000     8.0990    -0.0008     2.5264   146.1950    12.4667    12.0120     0.0694
  585.0000     8.0990    -0.0008     2.5249   145.2673    12.4614    12.0936     0.0727
  585.5000     8.0990    -0.0008     2.5309   144.1008    12.5437    12.1758     0.0757
  586.0000     8.0990    -0.0038     2.5324   143.7950    12.5383    12.2585     0.0760
  586.5000     8.0990    -0.0068     2.5309   145.5883    12.5320    12.3418     0.0730
  587.0000     8.0990    -0.0128     2.5264   147.6813    12.5268    12.4257     0.0745
  587.5000     8.0990    -0.0128     2.5234   149.4745    12.5217    12.5096     0.0773
  588.0000     8.1139    -0.0128     2.5128   148.8689    12.6939    12.5069     0.0801
  588.5000     8.1139    -0.0128     2.5068   146.1644    12.7777    12.5043     0.0867
  589.0000     8.1139    -0.0158     2.5083   145.2590    12.7711    12.5017     0.0857
  589.5000     8.0990    -0.0189     2.5128   146.1526    12.7658    12.4991     0.0821
  590.0000     8.0990    -0.0128     2.5234   147.9458    12.7605    12.5841     0.0746
  590.5000     8.0990    -0.0038     2.5339   148.5397    12.7552    12.4934     0.0712
  591.0000     8.0990    -0.0008     2.5370   146.4270    12.4854    12.4908     0.0712
