~VERSION INFORMATION
 VERS.                2.0:   CWLS LOG ASCII STANDARD - VERSION 2.0
 WRAP.                 NO:   ONE LINE PER DEPTH STEP
~WELL INFORMATION
#MNEM.UNIT      DATA TYPE    INFORMATION
#----------   ------------   ------------------------------
 STRT.F           44.0000:   START DEPTH
 STOP.F          510.0000:   STOP DEPTH
 STEP.F            0.5000:   STEP LENGTH
 NULL.          -999.2500:   NO VALUE
 COMP. FENIX & SCISSON INC:   COMPANY
 WELL. NPR-3 76-SX-3 #76-3:   WELL
 FLD . TEAPOT DOME NPR #3:   FIELD
 LOC .       S3 T38N R78W:   LOCATION
 CNTY.            NATRONA:   COUNTY
 STAT.            WYOMING:   STATE
 CTRY. UNITED STATES OF AMERICA:   COUNTRY
 SRVC.            Unknown:   SERVICE COMPANY
 DATE.        13-OCT-1978:   LOGDATE
 API .       490251072300:   API NUMBER
~CURVE INFORMATION
#MNEM.UNIT       API CODE    CURVE DESCRIPTION
#----------   ------------   ------------------------------
 DEPT.F                  :   
 CALD.IN     45 280 60 00:   CALIPER
 RHOB.G/C3   45 350 01 00:   BULK DENSITY
 CORR.G/C3   45 356 01 00:   DENSITY CORRECTION
 SPR .MV     05 010 01 00:   SPONTANEOUS POTENTIAL FROM RES.
 SN  .OHMM   05 040 16 00:   SHORT NORMAL 16"
 ILD .OHMM   05 120 46 00:   INDUCTION LOG DEEP
 DPHI.DEC    45 890 12 00:   DENSITY POROSITY SANDSTONE
~PARAMETER INFORMATION
#MNEM.UNIT          VALUE    DESCRIPTION
#----------   ------------   ------------------------------
 PD  .                 GL:   PERMANENT DATUM
 EPD .F              5151:   ELEVATION PERMANENT DATUM
 LMF .                 KB:   LOG MEASURED FROM
 DAPD.F                 4:   FEET ABOVE PERMANENT DATUM
 DMF .                 KB:   DRILLING MEASURED FROM
 EKB .F              5155:   KELLING BUSHING
 EGL .F              5151:   GROUND LEVEL
 DATE.         10-13-1978:   RUN DATE
 RUN .                  1:   RUN NUMBER
 DD  .F               515:   DEPTH DRILLER
 DL  .F               517:   DEPTH LOGGER
 BLI .F               511:   BOTTOM LOG INTERVAL
 TLI .F                50:   TOP LOG INTERVAL
 CS  .IN            8.625:   CASING SIZE
 CBD .F                40:   CASING BOTTOM DRILLER
 BS  .IN            7.875:   BIT SIZE
 BSD .F               515:   BIT SIZE AT DEPTH
 DFT .                KCL:   DRILLING FLUID TYPE
 MSS .            MUD PIT:   MUD SAMPLE SOURCE
 RMS .OHMM             .2:   RESISTIVITY MUD SAMPLE
 MST .F                54:   MUD SAMPLE TEMPERATURE
 RMF .OHMM            .19:   RESISTIVITY MUD FILTRATE SAMPLE
 MFST.F                63:   MUD FILTRATE SAMPLE TEMPERATURE
 RMC .OHMM            .26:   RESISTIVITY MUD CAKE
 MCST.F                64:   MUD CAKE SAMPLE TEMPERATURE
 MFSS.               MEAS:   MUD FILTRATE SAMPLE SOURCE
 MCSS.               MEAS:   MUD CAKE SAMPLE SOURCE
 TCS .HRS               2:   TIME CURCULATED STOPPED
 LUN .               3006:   LOGGING UNIT NUMBER
 LUL .               CASP:   LOGGING UNIT LOCATION
 ENGI.             MILLER:   RECORDING ENGINEER
 WITN.           DINSMORE:   WITNESSED BY
 CLNT.            A2DTECH:   CLIENT CODE
 ORIG.           5" PRINT:   ORIGIN OF DATA
 UWI .       490251072300:   UNIQUE WELL ID
 DICO. A2D Technologies, Inc.:   DIGITIZING COMPANY
~OTHER INFORMATION
~A   DEPT     CALD       RHOB        CORR       SPR         SN        ILD         DPHI 
# ...
  317.0000     7.8183     2.3593     0.1531    -1.0925    18.5515    30.0746     0.2030
  317.5000     7.8204     2.3486     0.1689    -1.1001    18.8378    31.8886     0.2063
  318.0000     7.8225     2.3407     0.1714    -0.7819    18.8271    34.6328     0.2101
  318.5000     7.8246     2.3349     0.1488    -0.4183    18.8162    34.6302     0.2138
  319.0000     7.8266     2.3293     0.1172    -0.0520    18.8052    31.7748     0.2165
  319.5000     7.8288     2.3254     0.0855     0.3174    18.7943    29.8921     0.2121
  320.0000     7.8310     2.3292     0.0683     0.8932    18.7834    28.1210     0.2077
  320.5000     7.8324     2.3345     0.0626     1.2846    18.7725    27.4808     0.2062
  321.0000     7.8016     2.3353     0.0582     1.2904    18.7617    28.9297     0.2163
  321.5000     7.7678     2.3222     0.0562     1.2887    18.7508    30.4127     0.2327
  322.0000     7.7353     2.2949     0.0540     1.1522    18.7399    31.2630     0.2491
  322.5000     7.7532     2.2685     0.0519     1.0033    18.7290    31.2630     0.2526
  323.0000     7.7742     2.2692     0.0483     0.8547    18.7181    31.2712     0.2352
  323.5000     7.7949     2.2877     0.0437     0.7062    18.7073    31.2723     0.2273
  324.0000     7.8157     2.3021     0.0392     0.5578    18.6965    30.1039     0.2365
  324.5000     7.8364     2.2870     0.0431     0.4093    18.6856    29.3110     0.2482
  325.0000     7.8528     2.2674     0.0541     0.2609    18.6748    29.3110     0.2598
  325.5000     7.8357     2.2553     0.0652     0.1124    18.6358    30.6655     0.2598
  326.0000     7.8181     2.2634     0.0645    -0.0360    18.3646    30.9763     0.2377
  326.5000     7.8007     2.2866     0.0613    -0.1845    18.0974    29.9700     0.2113
  327.0000     7.7834     2.3260     0.0582    -0.3329    17.8340    29.2258     0.1854
  327.5000     7.7733     2.3651     0.0569    -0.4813    17.6090    28.5001     0.1666
  328.0000     7.7734     2.4040     0.0567    -0.6298    17.4540    27.7959     0.1527
  328.5000     7.7733     2.4178     0.0566    -0.7783    17.3003    27.4530     0.1762
  329.0000     7.7734     2.3916     0.0564    -0.9262    17.1481    27.3948     0.1953
  329.5000     7.7735     2.3652     0.0563    -1.0676    16.9671    27.3312     0.2079
  330.0000     7.7733     2.3389     0.0561    -1.3303    16.6443    27.2678     0.2114
  330.5000     7.7650     2.3389     0.0559    -1.5991    16.3276    26.7313     0.1997
  331.0000     7.7268     2.3479     0.0558    -1.8685    16.0170    25.4806     0.1905
  331.5000     7.6902     2.3618     0.0556    -2.1373    15.7122    24.2884     0.1812
  332.0000     7.6525     2.3755     0.0555    -2.4061    15.4133    23.1520     0.1719
  332.5000     7.6153     2.3894     0.0553    -2.6750    15.2160    22.0688     0.1655
  333.0000     7.5403     2.4032     0.0551    -2.9442    15.1547    21.0362     0.1605
  333.5000     7.6756     2.4158     0.0552    -3.2192    15.0936    20.2427     0.1595
  334.0000     7.6772     2.4151     0.0572    -3.3067    15.0328    20.0913     0.1602
  334.5000     7.6036     2.4147     0.0592    -3.3500    14.9723    19.9413     0.1576
  335.0000     7.5313     2.4160     0.0613    -3.3921    14.9120    19.7931     0.1540
  335.5000     7.5237     2.4211     0.0627    -3.4346    14.8519    19.6449     0.1522
  336.0000     7.5923     2.4246     0.0594    -3.4773    14.7921    19.4965     0.1542
  336.5000     7.6623     2.4223     0.0562    -3.5199    14.7325    19.3678     0.1650
  337.0000     7.6841     2.4157     0.0531    -3.5625    14.6280    19.7591     0.1752
  337.5000     7.6187     2.4015     0.0509    -3.6049    14.4152    20.1294     0.1762
  338.0000     7.5844     2.3893     0.0505    -3.6479    14.2054    20.4659     0.1745
  338.5000     7.6148     2.3904     0.0502    -3.6964    13.9005    20.3700     0.1726
  339.0000     7.6179     2.3913     0.0499    -3.8115    13.9154    20.2663     0.1732
  339.5000     7.5722     2.3922     0.0495    -3.9231    13.9441    20.1626     0.1758
  340.0000     7.5471     2.3876     0.0492    -4.0389    13.9729    19.8779     0.1811
  340.5000     7.6151     2.3791     0.0503    -4.0925    14.0018    19.2522     0.1866
  341.0000     7.5949     2.3707     0.0536    -4.1287    14.0307    18.6479     0.1911
  341.5000     7.5746     2.3635     0.0570    -4.1642    14.0597    18.1516     0.1915
  342.0000     7.5546     2.3584     0.0604    -4.1996    14.0887    18.7413     0.1955
  342.5000     7.5344     2.3514     0.0637    -4.2355    14.1177    19.3678     0.2046
  343.0000     7.5138     2.3412     0.0671    -4.2937    14.1589    20.0152     0.2082
  343.5000     7.4990     2.3387     0.0704    -4.4764    14.0905    20.6839     0.2000
  344.0000     7.5964     2.3510     0.0738    -4.6591    13.9755    21.3031     0.1870
  344.5000     7.6974     2.3691     0.0770    -4.8417    13.8615    21.6327     0.1753
  345.0000     7.7983     2.3864     0.0777    -5.0271    13.7484    21.9700     0.1730
  345.5000     7.8133     2.3944     0.0784    -5.0597    13.6363    22.3126     0.1678
  346.0000     7.8133     2.4020     0.0790    -5.0600    13.5248    22.6480     0.1653
  346.5000     7.8131     2.4050     0.0797    -5.0596    13.4156    22.7249     0.1645
  347.0000     7.8131     2.4059     0.0803    -5.0595    13.2665    22.8061     0.1653
  347.5000     7.8131     2.4066     0.0812    -5.0595    13.1138    22.8714     0.1658
  348.0000     7.8131     2.4068     0.0847    -5.0594    12.9625    21.2025     0.1661
  348.5000     7.8131     2.4071     0.0882    -5.0595    12.8130    19.9752     0.1662
  349.0000     7.8131     2.4074     0.0917    -5.0609    12.7947    18.8164     0.1650
  349.5000     7.8131     2.4100     0.0952    -5.1341    12.7947    17.8231     0.1610
  350.0000     7.8131     2.4160     0.0967    -5.2888    12.7947    17.8526     0.1555
  350.5000     7.8131     2.4227     0.0961    -5.4426    12.7947    17.8820     0.1494
  351.0000     7.8132     2.4277     0.0955    -5.5970    12.7947    17.9106     0.1525
  351.5000     7.8130     2.4235     0.0949    -5.7495    12.7947    17.9384     0.1561
  352.0000     7.8019     2.4181     0.0943    -5.8599    12.7947    17.9664     0.1617
  352.5000     7.7676     2.4127     0.0937    -5.8735    12.7947    18.0231     0.1672
  353.0000     7.7356     2.4072     0.0931    -5.8893    12.7949    18.2481     0.1690
  353.5000     7.7659     2.4016     0.0936    -5.9046    12.7965    18.4758     0.1698
  354.0000     7.8000     2.4002     0.0947    -5.9200    12.7204    18.6651     0.1706
  354.5000     7.8314     2.3998     0.0958    -5.9354    12.6249    18.5451     0.1702
  355.0000     7.8120     2.3996     0.0972    -5.9509    12.5300    18.4439     0.1682
  355.5000     7.7904     2.4025     0.1048    -5.9663    12.4358    18.3433     0.1646
  356.0000     7.7694     2.4074     0.1137    -5.9817    12.3423    18.0302     0.1548
  356.5000     7.7642     2.4209     0.1274    -5.9971    12.2496    17.6744     0.1470
  357.0000     7.8165     2.4323     0.1409    -6.0124    12.1575    17.3256     0.1440
  357.5000     7.8670     2.4387     0.1523    -6.0269    12.0901    16.9836     0.1417
  358.0000     7.9164     2.4458     0.1574    -6.0437    12.0527    16.6484     0.1343
  358.5000     7.9420     2.4558     0.1573    -6.1323    12.0154    16.3198     0.1259
  359.0000     7.9024     2.4657     0.1547    -6.4959    11.9551    15.9986     0.1182
  359.5000     7.8640     2.4753     0.1489    -6.8475    11.8699    15.8119     0.1182
  360.0000     7.8257     2.4705     0.1383    -7.1933    11.7852    15.6475     0.1347
  360.5000     7.7959     2.4582     0.1260    -7.4450    11.7012    15.4842     0.1394
  361.0000     7.8220     2.4471     0.1137    -7.4398    11.6178    15.3224     0.1368
  361.5000     7.8481     2.4501     0.1013    -7.4407    11.5429    15.1623     0.1331
  362.0000     7.8402     2.4538     0.0889    -7.4405    11.4850    15.0039     0.1316
