~VERSION INFORMATION
 VERS.                2.0:   CWLS LOG ASCII STANDARD - VERSION 2.0
 WRAP.                 NO:   ONE LINE PER DEPTH STEP
~WELL INFORMATION
#MNEM.UNIT      DATA TYPE    INFORMATION
#----------   ------------   ------------------------------
 STRT.F           10.0000:   START DEPTH
 STOP.F          756.0000:   STOP DEPTH
 STEP.F            0.1000:   STEP LENGTH
 NULL.          -999.2500:   NO VALUE
 COMP. BROWN JOHN E&C INC:   COMPANY
 WELL. N P R 3 SHX- #31-1-X-14:   WELL
 FLD .             TEAPOT:   FIELD
 LOC .      S14 T38N R78W:   LOCATION
 CNTY.            NATRONA:   COUNTY
 STAT.            WYOMING:   STATE
 CTRY. UNITED STATES OF AMERICA:   COUNTRY
 SRVC.     Atlas Wireline:   SERVICE COMPANY
 DATE.        07-JAN-1992:   LOGDATE
 API .       490252249700:   API NUMBER
~CURVE INFORMATION
#MNEM.UNIT       API CODE    CURVE DESCRIPTION
#----------   ------------   ------------------------------
 DEPT.F                  :   
 GRR .GAPI   07 310 01 00:   GAMMA RAY
 RFOC.OHMM   07 220 04 00:   RESISTIVITY FOCUSED LOG RES.
 RILD.OHMM   07 120 46 00:   INDUCTION LOG DEEP RESISTIVITY
 RILM.OHMM   07 120 44 00:   INDUCTION LOG MEDIUM  RESISTIVITY
~PARAMETER INFORMATION
#MNEM.UNIT          VALUE    DESCRIPTION
#----------   ------------   ------------------------------
 PD  .                 GL:   PERMANENT DATUM
 EPD .F              5210:   ELEVATION PERMANENT DATUM
 LMF .                 KB:   LOG MEASURED FROM
 DAPD.F                10:   FEET ABOVE PERMANENT DATUM
 DMF .                 KB:   DRILLING MEASURED FROM
 EKB .F              5220:   KELLING BUSHING
 EDF .F              5219:   DRILLING FLOOR
 EGL .F              5210:   GROUND LEVEL
 DATE.        07-JAN-1992:   RUN DATE
 RUN .                  1:   RUN NUMBER
 DD  .F               762:   DEPTH DRILLER
 DL  .F               760:   DEPTH LOGGER
 BLI .F               758:   BOTTOM LOG INTERVAL
 CS  .IN            9.625:   CASING SIZE
 CBD .F                48:   CASING BOTTOM DRILLER
 CBL .F                50:   CASING BOTTOM LOGGER
 BS  .IN             8.75:   BIT SIZE
 BSD .F               762:   BIT SIZE AT DEPTH
 DFT .    FORMATION FLUID:   DRILLING FLUID TYPE
 MRT .F                90:   MAXIMUM RECORDED TEMPERATURE
 LUN .            HL-6274:   LOGGING UNIT NUMBER
 LUL .             CASPER:   LOGGING UNIT LOCATION
 ENGI.             RAUTIC:   RECORDING ENGINEER
 WITN.        GARY STRONG:   WITNESSED BY
 CLNT.            A2DTECH:   CLIENT CODE
 ORIG.           5" PRINT:   ORIGIN OF DATA
 UWI .       490252249700:   UNIQUE WELL ID
 DICO. A2D Technologies, Inc.:   DIGITIZING COMPANY
~OTHER INFORMATION
~A   DEPT       GRR      RFOC       RILD       RILM   
# ...
  696.2000   108.2032    10.9423    10.4305    10.1252
  696.3000   108.2018    10.9423    10.4309    10.1252
  696.4000   107.9557    10.9423    10.4311    10.1252
  696.5000   107.5108    10.9423    10.4314    10.1252
  696.6000   106.5829    10.9423    10.4317    10.1723
  696.7000   105.3284    10.9423    10.4320    10.1605
  696.8000   104.1521    10.9423    10.4323    10.1252
  696.9000   103.3607    10.9423    10.4326    10.1370
  697.0000   102.4087    10.9423    10.4329    10.1958
  697.1000   101.5915    10.9423    10.4332    10.1958
  697.2000   100.9733    10.9423    10.4334    10.1487
  697.3000   100.3882    10.9423    10.4498    10.1252
  697.4000    99.6667    10.9423    10.5068    10.1252
  697.5000    99.1238    10.9423    10.5071    10.1252
  697.6000    98.8922    10.9423    10.4554    10.1252
  697.7000    98.4616    10.9423    10.4349    10.1252
  697.8000    98.0866    10.9423    10.4352    10.1252
  697.9000    97.9106    10.9423    10.4355    10.1252
  698.0000    97.9094    10.9423    10.4358    10.1252
  698.1000    97.9080    10.9844    10.4361    10.1252
  698.2000    98.1301    11.0188    10.4363    10.1252
  698.3000    98.3794    11.0188    10.4366    10.1252
  698.4000    98.7488    11.0188    10.4369    10.1252
  698.5000    99.2488    11.0188    10.4372    10.1252
  698.6000    99.7489    11.0188    10.4375    10.1252
  698.7000   100.3177    11.0188    10.4378    10.1252
  698.8000   100.5325    11.0188    10.4381    10.1252
  698.9000   100.9461    11.0188    10.4384    10.1252
  699.0000   101.3333    11.0188    10.4387    10.1252
  699.1000   101.5215    11.0188    10.4390    10.1252
  699.2000   101.5299    11.0188    10.4392    10.1252
  699.3000   101.8209    11.0188    10.4396    10.1252
  699.4000   102.0287    11.0457    10.4398    10.1252
  699.5000   102.2780    11.0959    10.4401    10.1252
  699.6000   102.5273    11.0959    10.4404    10.1252
  699.7000   102.7227    11.0959    10.4407    10.1252
  699.8000   102.7215    11.0959    10.4410    10.1252
  699.9000   102.7200    11.0959    10.4413    10.1252
  700.0000   102.7190    11.0959    10.4416    10.1252
  700.1000   101.8140    11.0959    10.4419    10.0551
  700.2000   101.1082    11.0959    10.4422    10.0551
  700.3000   100.6049    11.1600    10.4424     9.9176
  700.4000   100.1015    11.1736    10.4427     9.9181
  700.5000    99.6480    11.1744    10.4430     9.9185
  700.6000    99.3958    11.2043    10.4433     9.8712
  700.7000    98.8936    11.2539    10.4436     9.8506
  700.8000    98.5909    11.2505    10.4209     9.8510
  700.9000    98.3393    11.1764    10.3718     9.8515
  701.0000    97.9879    11.1202    10.3721     9.8519
  701.1000    97.5339    11.0993    10.3724     9.8523
  701.2000    97.2810    11.0996    10.3727     9.8527
  701.3000    96.7802    11.0999    10.3389     9.8531
  701.4000    96.2767    11.1003    10.3014     9.8535
  701.5000    95.6237    11.1006    10.3017     9.8539
  701.6000    95.0670    11.1601    10.3020     9.8543
  701.7000    94.8154    11.2259    10.3023     9.8548
  701.8000    94.5619    11.2574    10.2576     9.8552
  701.9000    94.5619    11.2798    10.2315     9.8556
  702.0000    94.7613    11.3368    10.2318     9.8560
  702.1000    95.1618    11.3371    10.2321     9.8746
  702.2000    95.7637    11.4008    10.2324     9.9255
  702.3000    96.6152    11.4170    10.1768     9.9259
  702.4000    97.8852    11.4174    10.1586     9.9263
  702.5000    98.6330    11.3926    10.1588     9.9267
  702.6000    98.9903    11.3386    10.1589     9.9272
  702.7000    99.0937    11.3390    10.1591     9.9276
  702.8000    99.0937    11.2606    10.1592     9.9280
  702.9000    99.0937    11.2081    10.1593     9.9284
  703.0000    99.0937    11.1430    10.1595     9.9288
  703.1000    98.8451    11.0783    10.1596     9.9292
  703.2000    98.5933    11.0139    10.1598     9.9296
  703.3000    98.3416    10.9500    10.1599     9.9301
  703.4000    97.9927    10.8766    10.1302     9.9196
  703.5000    97.4894    10.7699    10.0898     9.8621
  703.6000    96.9789    10.6856    10.0832     9.8626
  703.7000    96.7308    10.6235    10.0202     9.8630
  703.8000    96.2816    10.5618    10.0203     9.8634
  703.9000    95.9254    10.5005    10.0205     9.8638
  704.0000    95.6737    10.4327     9.9901     9.8514
  704.1000    95.4220    10.3789     9.9323     9.7963
  704.2000    95.1662    10.3608     9.8825     9.7968
  704.3000    95.1662    10.3305     9.8827     9.7971
  704.4000    95.1662    10.2894     9.8291     9.7975
  704.5000    95.1662    10.2822     9.8145     9.7980
  704.6000    95.2622    10.2185     9.7836     9.7838
  704.7000    95.4683    10.1632     9.7271     9.7274
  704.8000    95.4683    10.1480     9.6708     9.6640
  704.9000    95.4683    10.1158     9.6125     9.6157
  705.0000    95.4683    10.0781     9.6126     9.5979
  705.1000    95.6143    10.0783     9.5704     9.5714
  705.2000    95.7704    10.0786     9.5151     9.5004
  705.3000    95.7704    10.0789     9.4601     9.3907
  705.4000    95.7704    10.0792     9.4054     9.2719
  705.5000    96.0166    10.0795     9.3497     9.1754
  705.6000    96.6597    10.0797     9.2969     9.0696
  705.7000    97.7052    10.0800     9.2432     8.9919
  705.8000    98.7740    10.0803     9.1898     8.9234
  705.9000    99.5292    10.0806     9.1367     8.8336
  706.0000   100.3021    10.0809     9.0939     8.8340
  706.1000   100.7934    10.1187     9.0940     8.8344
  706.2000   101.2967    10.1520     9.0942     8.8348
  706.3000   101.8000    10.1522     9.0943     8.8351
  706.4000   102.1148    10.1525     9.0944     8.8355
  706.5000   102.0710    10.1529     9.0945     8.8443
  706.6000   101.8127    10.1531     9.0947     8.8978
  706.7000   101.5677    10.1534     9.0948     8.9486
  706.8000   101.3160    10.1537     9.0949     9.0012
  706.9000   100.7760    10.1539     9.1384     9.0541
  707.0000   100.1147    10.1542     9.1586     9.0867
  707.1000    99.6114    10.1545     9.1587     9.0975
  707.2000    99.0937    10.1548     9.1589     9.1508
  707.3000    98.6049    10.1551     9.1590     9.1512
  707.4000    97.9077    10.1554     9.1591     9.1086
  707.5000    97.1527    10.1758     9.1593     9.0886
  707.6000    96.4907    10.2270     9.1594     9.0666
  707.7000    95.9445    10.2273     9.1359     9.0264
  707.8000    95.1662    10.2276     9.0962     9.0249
  707.9000    94.6785    10.2278     9.0936     8.9647
  708.0000    94.3686    10.2281     9.0334     8.9651
  708.1000    94.1169    10.2284     8.9887     8.9316
  708.2000    93.7728    10.2287     8.9711     8.9038
  708.3000    93.3535    10.2290     8.9471     8.8905
  708.4000    93.3535    10.2293     8.8954     8.8428
  708.5000    93.3535    10.2780     8.8476     8.8433
  708.6000    93.3535    10.2645     8.8478     8.7986
  708.7000    93.4958    10.2301     8.8030     8.7827
  708.8000    93.9312    10.2304     8.7521     8.7831
  708.9000    94.6862    10.2307     8.7259     8.7684
  709.0000    95.4683    10.2310     8.7116     8.7230
  709.1000    96.6812    10.2313     8.6612     8.7234
  709.2000    97.5552    10.2316     8.6058     8.6777
  709.3000    98.4518    10.2040     8.5614     8.6637
  709.4000    99.2761    10.1610     8.5119     8.6378
  709.5000    99.8204    10.1613     8.4627     8.5880
  709.6000   100.6042    10.1616     8.4138     8.5385
  709.7000   101.5723    10.1090     8.3704     8.4865
  709.8000   102.7705    10.0503     8.3706     8.4404
  709.9000   103.7465     9.9919     8.3264     8.3918
  710.0000   104.3202     9.9339     8.2782     8.3434
  710.1000   104.5317     9.8762     8.2304     8.2779
  710.2000   104.2296     9.8151     8.1828     8.1904
  710.3000   103.7470     9.8154     8.1355     8.1421
  710.4000   103.0525     9.7308     8.0853     8.0963
  710.5000   102.0163     9.6488     8.0417     8.0132
  710.6000   100.9383     9.5928     7.9952     7.9479
  710.7000   100.2229     9.5371     7.9490     7.8840
