~VERSION INFORMATION
 VERS.                2.0:   CWLS LOG ASCII STANDARD - VERSION 2.0
 WRAP.                 NO:   ONE LINE PER DEPTH STEP
~WELL INFORMATION
#MNEM.UNIT      DATA TYPE    INFORMATION
#----------   ------------   ------------------------------
 STRT.F            0.0000:   START DEPTH
 STOP.F          448.0000:   STOP DEPTH
 STEP.F            0.5000:   STEP LENGTH
 NULL.          -999.2500:   NO VALUE
 COMP.       F D SERV INC:   COMPANY
 WELL.  65-1 SX-10 #65-10:   WELL
 FLD .             TEAPOT:   FIELD
 LOC .      S10 T38N R78W:   LOCATION
 CNTY.            NATRONA:   COUNTY
 STAT.            WYOMING:   STATE
 CTRY. UNITED STATES OF AMERICA:   COUNTRY
 SRVC.     Atlas Wireline:   SERVICE COMPANY
 DATE.        09-APR-1992:   LOGDATE
 API .       490252252700:   API NUMBER
~CURVE INFORMATION
#MNEM.UNIT       API CODE    CURVE DESCRIPTION
#----------   ------------   ------------------------------
 DEPT.F                  :   
 GRR .GAPI   07 310 01 00:   GAMMA RAY
 SPR .MV     07 010 01 00:   SPONTANEOUS POTENTIAL
 RILD.OHMM   07 120 46 00:   INDUCTION LOG DEEP RESISTIVITY
 RILM.OHMM   07 120 44 00:   INDUCTION LOG MEDIUM RESISTIVITY
 RFOC.OHMM   07 220 04 00:   RESISTIVITY FOCUSED LOG
~PARAMETER INFORMATION
#MNEM.UNIT          VALUE    DESCRIPTION
#----------   ------------   ------------------------------
 PD  .                 GL:   PERMANENT DATUM
 EPD .F              5192:   ELEVATION PERMANENT DATUM
 LMF .                 KB:   LOG MEASURED FROM
 DAPD.F                10:   FEET ABOVE PERMANENT DATUM
 DMF .                 KB:   DRILLING MEASURED FROM
 EKB .F              5202:   KELLING BUSHING
 EDF .F              5201:   DRILLING FLOOR
 EGL .F              5192:   GROUND LEVEL
 DATE.        09-APR-1992:   RUN DATE
 RUN .                  1:   RUN NUMBER
 DD  .F               450:   DEPTH DRILLER
 DL  .F               450:   DEPTH LOGGER
 BLI .F               448:   BOTTOM LOG INTERVAL
 CS  .IN            8.625:   CASING SIZE
 CBD .F               133:   CASING BOTTOM DRILLER
 CBL .F               135:   CASING BOTTOM LOGGER
 BS  .IN            7.875:   BIT SIZE
 BSD .F               450:   BIT SIZE AT DEPTH
 DFT .          CHEM. GEL:   DRILLING FLUID TYPE
 DFD .               12.7:   DRILLING FLUID DENSITY
 DFV .                 47:   DRILLING FLUID VISCOSITY
 DFPH.                  9:   DRILLING FLUID PH
 DFL .                9.2:   DRILLING FLUID LOSS
 MSS .            MUDTANK:   MUD SAMPLE SOURCE
 RMS .OHMM           3.14:   RESISTIVITY MUD SAMPLE
 MST .F                75:   MUD SAMPLE TEMPERATURE
 RMF .OHMM           1.79:   RESISTIVITY MUD FILTRATE SAMPLE
 MFST.F                75:   MUD FILTRATE SAMPLE TEMPERATURE
 RMC .OHMM           4.47:   RESISTIVITY MUD CAKE
 MCST.F                75:   MUD CAKE SAMPLE TEMPERATURE
 MFSS.               MEAS:   MUD FILTRATE SAMPLE SOURCE
 MCSS.               MEAS:   MUD CAKE SAMPLE SOURCE
 RMB .OHMM           2.14:   RESISTIVITY MUD AT BHT
 BHT .F               110:   BOTTOM HOLE TEMPERATURE
 TCS .HRS               2:   TIME CURCULATED STOPPED
 MRT .F               110:   MAXIMUM RECORDED TEMPERATURE
 LUN .            HL-6274:   LOGGING UNIT NUMBER
 LUL .             CASPER:   LOGGING UNIT LOCATION
 ENGI.             RAUTIO:   RECORDING ENGINEER
 WITN.        GARY STRONG:   WITNESSED BY
 CLNT.            A2DTECH:   CLIENT CODE
 ORIG.           5" PRINT:   ORIGIN OF DATA
 UWI .       490252252700:   UNIQUE WELL ID
 DICO. A2D Technologies, Inc.:   DIGITIZING COMPANY
~OTHER INFORMATION
~A    DEPT     GRR        SPR       RILD       RILM       RFOC   
# ...
  244.0000    76.3826   -56.7077    15.5724    14.0056    11.0173
  244.5000    66.9732   -59.8879    16.4565    15.9883    15.8471
  245.0000    54.9699   -60.9527    17.8838    17.5028    20.8133
  245.5000    46.0994   -62.3196    19.7084    19.0541    20.7999
  246.0000    41.3454   -62.1759    21.7191    20.7234    19.0902
  246.5000    42.5723   -61.1259    22.9924    22.4850    18.0668
  247.0000    45.2684   -60.3762    24.2829    23.7703    18.9935
  247.5000    45.8597   -59.0259    25.2722    24.7806    21.9951
  248.0000    46.1461   -58.7271    26.1529    25.6540    24.0852
  248.5000    47.9348   -58.5875    26.8759    26.5582    25.6463
  249.0000    49.7272   -58.4210    27.6188    27.3048    27.3086
  249.5000    50.6197   -57.9999    27.7982    27.8733    29.0787
  250.0000    49.6976   -57.9840    27.3568    27.6717    30.1104
  250.5000    48.4791   -57.7211    27.1309    26.7149    25.8340
  251.0000    53.0381   -57.4581    25.1572    24.7329    23.1870
  251.5000    55.8042   -57.1952    24.1109    22.7386    21.4433
  252.0000    58.1285   -57.4716    23.4334    21.6479    19.9126
  252.5000    60.4640   -58.3943    23.2574    20.8993    19.0904
  253.0000    59.8467   -59.0150    23.2446    21.4855    20.3264
  253.5000    57.4222   -59.4845    23.3979    22.2426    23.0484
  254.0000    53.1904   -61.3136    23.5490    22.7135    23.8649
  254.5000    51.3683   -61.4811    24.0313    23.3440    24.7077
  255.0000    50.7510   -61.3424    24.6989    23.8315    24.8759
  255.5000    51.0373   -61.2118    25.5631    24.0219    24.6975
  256.0000    51.9298   -60.7751    26.2807    24.4930    24.3494
  256.5000    53.1197   -60.3383    27.5885    24.6579    23.8389
  257.0000    54.0047   -60.1995    28.7909    25.1729    23.3391
  257.5000    53.0862   -59.7669    29.1285    25.3423    24.6770
  258.0000    51.8665   -59.6281    28.5046    25.6898    25.7292
  258.5000    51.2492   -59.0444    28.4889    25.6828    25.9046
  259.0000    51.5361   -58.6077    28.4732    25.3196    25.7185
  259.5000    51.8223   -58.1709    28.6610    25.3126    25.3560
  260.0000    53.0120   -57.8852    29.0484    25.3056    24.4797
  260.5000    52.3945   -57.9094    29.2359    25.2986    23.9664
  261.0000    52.6888   -59.1269    29.2158    25.6491    23.6121
  261.5000    53.8926   -59.4456    29.4085    25.8217    23.8144
  262.0000    56.0362   -59.7676    29.5984    25.9955    24.9767
  262.5000    58.4589   -59.7840    29.5780    26.1686    25.6799
  263.0000    61.0550   -59.8005    29.5617    25.9793    25.6746
  263.5000    61.6388   -59.9679    29.5455    25.9721    25.6693
  264.0000    62.2301   -60.2864    29.3235    25.9650    25.3075
  264.5000    60.1030   -60.4539    29.1033    25.5942    24.6042
  265.0000    59.4857   -60.4703    28.8778    25.2357    23.7538
  265.5000    60.3744   -60.4867    28.2695    25.0531    22.3002
  266.0000    62.1668   -60.2010    28.2249    24.6988    21.6806
  266.5000    63.3604   -59.7643    27.6491    24.5187    22.1368
  267.0000    61.2334   -59.0254    27.4414    24.3414    21.9768
  267.5000    57.9053   -58.2865    27.0456    23.8302    21.2172
  268.0000    53.6735   -58.1478    26.4699    23.6578    20.1994
  268.5000    54.5622   -57.7151    25.7261    22.9998    19.6381
  269.0000    59.3666   -57.2784    24.8290    22.0500    19.2264
  269.5000    63.2674   -56.9924    23.9633    20.7012    18.6921
  270.0000    65.6622   -56.2538    23.1277    19.8463    18.3003
  270.5000    67.4545   -55.3565    22.3212    19.4295    17.9166
  271.0000    68.3434   -54.1718    21.6940    19.0215    17.6517
  271.5000    68.3243   -54.1888    21.0843    19.0162    17.5372
  272.0000    63.7309   -54.2087    20.6355    18.8787    17.5328
  272.5000    58.5693   -54.2251    20.6242    18.6118    17.5292
  273.0000    55.9343   -54.0864    20.6128    18.4771    17.4034
  273.5000    59.8313   -54.2580    20.6014    18.4720    17.3998
  274.0000    64.0333   -54.2744    20.7345    18.7268    17.3962
  274.5000    66.1306   -54.8950    20.7227    18.8527    17.2714
  275.0000    64.3047   -54.9114    20.7354    18.9795    17.1475
  275.5000    60.6754   -54.9278    20.9887    19.3822    17.1439
  276.0000    62.1665   -54.7891    21.1991    19.5843    17.1404
  276.5000    64.2601   -54.3564    21.8844    20.0538    17.2976
  277.0000    64.5501   -54.3728    22.5697    21.1986    17.4974
  277.5000    63.3267   -54.5403    23.7507    22.4103    17.7402
  278.0000    64.2192   -54.5567    26.1773    23.3628    18.4956
  278.5000    65.4054   -54.4215    27.8612    23.6864    19.8313
  279.0000    66.5990   -54.2870    26.3318    23.6782    21.2634
  279.5000    64.1708   -53.3975    25.5918    23.1810    22.4823
  280.0000    59.6378   -52.3565    25.3876    22.8532    22.9542
  280.5000    57.5145   -52.2218    24.6432    22.2176    20.0460
  281.0000    60.8129   -52.5408    23.4644    21.1518    17.3097
  281.5000    63.8100   -52.9048    22.2017    19.9971    16.5136
  282.0000    66.5060   -54.3900    21.4275    19.1713    16.5094
  282.5000    68.9106   -55.0106    20.3934    18.5041    16.5060
  283.0000    71.3193   -55.3292    19.8203    18.2364    16.3876
  283.5000    71.8830   -55.3456    19.5344    17.8633    16.1566
  284.0000    70.9639   -55.3620    19.2527    17.7341    15.9289
  284.5000    70.6484   -55.2232    19.1081    17.7282    15.9256
  285.0000    70.3286   -55.3948    19.0976    17.7233    16.0340
  285.5000    67.0005   -55.4112    19.0870    17.7184    15.8081
  286.0000    63.0699   -55.2766    19.0765    17.7135    15.5853
  286.5000    61.2515   -55.1378    19.1997    17.7086    15.4734
  287.0000    63.9437   -55.1583    19.1891    17.7037    15.4702
  287.5000    66.6397   -54.7175    19.1785    17.6988    15.4670
  288.0000    67.8296   -54.1338    19.1680    17.6939    15.4638
  288.5000    69.0233   -53.6970    19.1573    17.6891    15.5692
  289.0000    69.6108   -53.4113    19.1466    17.6842    15.5769
  289.5000    69.8971   -53.4277    19.1359    17.6793    15.4542
  290.0000    69.8785   -52.9909    19.1231    17.4293    15.2364
  290.5000    69.5662   -53.0073    18.9795    17.1828    14.8130
  291.0000    69.8494   -52.8727    18.8369    16.8220    14.7067
  291.5000    69.5327   -52.8897    18.5653    16.7003    14.7036
  292.0000    68.3130   -52.9096    18.4258    16.4642    14.6999
  292.5000    68.5993   -52.6239    18.1601    16.3451    14.6968
  293.0000    70.0984   -52.4852    18.0237    16.1124    14.5914
  293.5000    71.2803   -52.6567    17.8883    15.8860    14.5884
  294.0000    70.9639   -52.9753    17.5075    15.7594    14.5854
  294.5000    69.6978   -53.2938    17.2550    15.4398    14.4807
  295.0000    67.0151   -53.6123    17.0062    15.3272    14.3768
  295.5000    65.4979   -54.2330    16.5283    15.1105    13.9773
  296.0000    69.3950   -53.9473    16.1764    15.0012    13.5889
  296.5000    72.0909   -53.3594    16.0549    14.6862    13.2113
  297.0000    72.6784   -52.9227    15.9344    14.5800    13.1165
  297.5000    72.3624   -52.4859    15.9199    14.5759    13.2065
  298.0000    72.0463   -52.3472    15.8057    14.5719    13.2965
  298.5000    73.2362   -52.5187    15.7969    14.5679    13.3864
  299.0000    74.4261   -52.5352    15.7864    14.5639    13.3835
  299.5000    74.4112   -52.5516    15.7777    14.5598    13.3808
  300.0000    73.2762   -52.5680    15.7690    14.5560    13.4719
  300.5000    70.1466   -52.1312    15.5415    14.5511    13.3705
  301.0000    68.2168   -51.9668    15.5330    14.4448    13.1866
  301.5000    66.2266   -51.3640    15.4163    14.1394    13.1839
  302.0000    65.9165   -50.9720    15.4078    14.0362    12.9982
  302.5000    67.4107   -51.5967    15.1856    13.7406    13.0094
  303.0000    68.6037   -51.7642    15.0715    13.6403    12.7258
  303.5000    68.5889   -52.0827    14.8692    13.3529    12.2786
  304.0000    69.4807   -51.9440    14.5547    13.3483    12.0136
  304.5000    70.6737   -51.6583    14.4473    13.2509    11.9195
