~VERSION INFORMATION
 VERS.                2.0:   CWLS LOG ASCII STANDARD - VERSION 2.0
 WRAP.                 NO:   ONE LINE PER DEPTH STEP
~WELL INFORMATION
#MNEM.UNIT      DATA TYPE    INFORMATION
#----------   ------------   ------------------------------
 STRT.F           20.0000:   START DEPTH
 STOP.F          626.0000:   STOP DEPTH
 STEP.F            0.5000:   STEP LENGTH
 NULL.          -999.2500:   NO VALUE
 COMP. FENIX & SCISSON INC:   COMPANY
 WELL. NPR-3  38-S-34 #38-34:   WELL
 FLD .             TEAPOT:   FIELD
 LOC .      S34 T39N R78W:   LOCATION
 CNTY.            NATRONA:   COUNTY
 STAT.            WYOMING:   STATE
 CTRY. UNITED STATES OF AMERICA:   COUNTRY
 SRVC.           BIRDWELL:   SERVICE COMPANY
 DATE.        08-AUG-1978:   LOGDATE
 API .       490251068300:   API NUMBER
~CURVE INFORMATION
#MNEM.UNIT       API CODE    CURVE DESCRIPTION
#----------   ------------   ------------------------------
 DEPT.F                  :   
 SPR .MV     05 010 01 00:   SPONTANEOUS POTENTIAL FROM RES.
 SN  .OHMM   05 040 16 00:   SHORT NORMAL 16"
 IL  .OHMM   05 120 00 00:   INDUCTION LOG
 RHOB.G/C3   45 350 01 00:   BULK DENSITY
 DPHI.DEC    45 890 12 00:   DENSITY POROSITY SANDSTONE
 CORR.G/C3   45 356 01 00:   DENSITY CORRECTION
 GRD .GAPI   45 310 01 00:   GAMMA RAY FROM DENSITY LOG
 CALD.IN     45 280 60 00:   CALIPER
~PARAMETER INFORMATION
#MNEM.UNIT          VALUE    DESCRIPTION
#----------   ------------   ------------------------------
 PD  .                 GL:   PERMANENT DATUM
 EPD .F              5213:   ELEVATION PERMANENT DATUM
 LMF .                 KB:   LOG MEASURED FROM
 DAPD.F                 4:   FEET ABOVE PERMANENT DATUM
 DMF .                 KB:   DRILLING MEASURED FROM
 EKB .F              5217:   KELLING BUSHING
 EGL .F              5213:   GROUND LEVEL
 DATE.             8-8-78:   RUN DATE
 RUN .                  1:   RUN NUMBER
 DD  .F               620:   DEPTH DRILLER
 DL  .F               632:   DEPTH LOGGER
 BLI .F               626:   BOTTOM LOG INTERVAL
 TLI .F                35:   TOP LOG INTERVAL
 CS  .IN            8.625:   CASING SIZE
 CBL .F                35:   CASING BOTTOM LOGGER
 BS  .IN            7.875:   BIT SIZE
 BSD .F               620:   BIT SIZE AT DEPTH
 DFT .                KCL:   DRILLING FLUID TYPE
 DFD .                8.7:   DRILLING FLUID DENSITY
 DFV .                 33:   DRILLING FLUID VISCOSITY
 DFPH.                  9:   DRILLING FLUID PH
 DFL .                  5:   DRILLING FLUID LOSS
 MSS .          FLOW LINE:   MUD SAMPLE SOURCE
 RMS .OHMM            .12:   RESISTIVITY MUD SAMPLE
 MST .F                80:   MUD SAMPLE TEMPERATURE
 RMF .OHMM            .13:   RESISTIVITY MUD FILTRATE SAMPLE
 MFST.F                83:   MUD FILTRATE SAMPLE TEMPERATURE
 RMC .OHMM            .16:   RESISTIVITY MUD CAKE
 MCST.F                84:   MUD CAKE SAMPLE TEMPERATURE
 MFSS.               MEAS:   MUD FILTRATE SAMPLE SOURCE
 TCS .HRS               1:   TIME CURCULATED STOPPED
 LUN .               3006:   LOGGING UNIT NUMBER
 LUL .               CASP:   LOGGING UNIT LOCATION
 ENGI.             MILLER:   RECORDING ENGINEER
 WITN.           MCGINLEY:   WITNESSED BY
 CLNT.            A2DTECH:   CLIENT CODE
 ORIG.           5" PRINT:   ORIGIN OF DATA
 UWI .       490251068300:   UNIQUE WELL ID
 DICO. A2D Technologies, Inc.:   DIGITIZING COMPANY
~OTHER INFORMATION
~A   DEPT      SPR         SN         IL       RHOB       DPHI       CORR         GRD      CALD   
# ...
  263.0000   -31.2992     7.7758     7.3883     2.4812     0.1129     0.0398    87.8820     7.6067
  263.5000   -31.3175     7.7671     7.3828     2.4853     0.1101     0.0414    87.8051     7.6056
  264.0000   -31.3338     7.7585     7.3776     2.4999     0.1084     0.0382    87.8603     7.6046
  264.5000   -31.3503     7.7498     7.3443     2.5002     0.1126     0.0349    87.8315     7.6035
  265.0000   -31.3669     7.7411     7.3020     2.4833     0.1178     0.0316    87.4270     7.6024
  265.5000   -31.3835     7.7325     7.2599     2.4845     0.1229     0.0282    87.0229     7.6014
  266.0000   -31.4000     7.7238     7.2181     2.4700     0.1281     0.0285    87.9346     7.6003
  266.5000   -31.4166     7.7152     7.1765     2.4635     0.1276     0.0298    91.2107     7.5993
  267.0000   -31.4332     7.7066     7.1351     2.4663     0.1249     0.0312    91.9711     7.5982
  267.5000   -31.4498     7.6980     7.0939     2.4659     0.1258     0.0325    89.5452     7.5972
  268.0000   -31.4663     7.6894     7.0530     2.4618     0.1269     0.0327    88.2429     7.5961
  268.5000   -31.4829     7.6808     7.0124     2.4699     0.1218     0.0303    91.3390     7.5951
  269.0000   -31.4995     7.6722     6.9719     2.4749     0.1227     0.0278    94.5554     7.5955
  269.5000   -31.5161     7.6636     6.9317     2.4692     0.1259     0.0283    92.6767     7.6012
  270.0000   -31.5326     7.6556     6.8918     2.4653     0.1255     0.0293    90.3330     7.6068
  270.5000   -31.5492     7.6170     6.8542     2.4665     0.1244     0.0303    87.9166     7.6124
  271.0000   -31.5658     7.5732     6.8541     2.4670     0.1263     0.0314    87.0671     7.6180
  271.5000   -31.5824     7.5295     6.8542     2.4662     0.1284     0.0282    86.0821     7.6236
  272.0000   -31.5989     7.4861     6.8543     2.4634     0.1256     0.0259    85.1237     7.6294
  272.5000   -31.6155     7.4429     6.8546     2.4592     0.1315     0.0236    84.4058     7.6327
  273.0000   -31.6321     7.4000     6.8284     2.4551     0.1342     0.0213    85.1180     7.6021
  273.5000   -31.6487     7.3464     6.7970     2.4509     0.1369     0.0195    86.0792     7.5725
  274.0000   -31.6653     7.2810     6.7657     2.4467     0.1368     0.0243    86.9911     7.5528
  274.5000   -31.6822     7.2162     6.7345     2.4472     0.1350     0.0292    87.1930     7.5438
  275.0000   -31.6989     7.1519     6.7035     2.4525     0.1331     0.0343    87.3898     7.5348
  275.5000   -31.6493     7.0882     6.6726     2.4580     0.1312     0.0322    87.6288     7.5258
  276.0000   -31.5926     7.0250     6.6605     2.4545     0.1341     0.0260    89.1014     7.5166
  276.5000   -31.5359     6.9808     6.6519     2.4485     0.1374     0.0240    89.4680     7.5149
  277.0000   -31.4794     6.9746     6.6432     2.4455     0.1367     0.0252    89.6277     7.5149
  277.5000   -31.4229     6.9685     6.6346     2.4466     0.1360     0.0265    91.4677     7.5149
  278.0000   -31.3664     6.9625     6.6259     2.4476     0.1356     0.0292    95.2904     7.5149
  278.5000   -31.3099     6.9564     6.6173     2.4486     0.1355     0.0230    97.5954     7.5150
  279.0000   -31.2532     6.9503     6.6087     2.4474     0.1374     0.0144    96.0831     7.5147
  279.5000   -31.1951     6.9442     6.6001     2.4446     0.1415     0.0135    94.5865     7.5009
  280.0000   -31.1404     6.9381     6.5915     2.4420     0.1375     0.0229    93.0815     7.4687
  280.5000   -31.2177     6.9320     6.5830     2.4444     0.1320     0.0251    91.5794     7.4369
  281.0000   -31.7228     6.9260     6.5744     2.4560     0.1407     0.0243    90.0725     7.4453
  281.5000   -32.2015     6.9199     6.5659     2.4445     0.1428     0.0236    88.6376     7.4566
  282.0000   -32.4654     6.9139     6.5573     2.4382     0.1448     0.0228    88.4494     7.4674
  282.5000   -32.3624     6.9078     6.5488     2.4344     0.1421     0.0220    88.4031     7.4702
  283.0000   -32.2644     6.9018     6.5403     2.4408     0.1402     0.0213    88.4136     7.4484
  283.5000   -32.1665     6.8957     6.5318     2.4421     0.1410     0.0205    87.4582     7.4280
  284.0000   -32.1032     6.8897     6.5233     2.4415     0.1403     0.0198    85.7918     7.4213
  284.5000   -32.1170     6.8837     6.5148     2.4412     0.1396     0.0204    85.7562     7.4363
  285.0000   -32.1294     6.8776     6.5063     2.4346     0.1468     0.0225    88.9692     7.4510
  285.5000   -32.1422     6.8716     6.4978     2.4276     0.1483     0.0246    92.1211     7.4658
  286.0000   -32.1548     6.8656     6.4892     2.4258     0.1475     0.0266    93.7971     7.4804
  286.5000   -32.1674     6.8594     6.4493     2.4270     0.1467     0.0287    90.2046     7.4956
  287.0000   -32.1800     6.8440     6.3915     2.4301     0.1469     0.0283    87.3818     7.5233
  287.5000   -32.1927     6.7536     6.3346     2.4294     0.1482     0.0267    89.3607     7.5512
  288.0000   -32.2053     6.6639     6.2782     2.4270     0.1494     0.0261    92.4802     7.5791
  288.5000   -32.2179     6.5755     6.2222     2.4248     0.1461     0.0310    92.9806     7.6069
  289.0000   -32.2306     6.4883     6.1667     2.4365     0.1392     0.0359    92.5029     7.6344
  289.5000   -32.2432     6.4248     6.1383     2.4469     0.1336     0.0410    92.0004     7.6624
  290.0000   -32.2559     6.4170     6.1383     2.4563     0.1320     0.0366    91.5006     7.6901
  290.5000   -32.2684     6.4091     6.1384     2.4544     0.1348     0.0310    90.9979     7.7100
  291.0000   -32.2811     6.4013     6.1384     2.4488     0.1379     0.0253    90.6125     7.6747
  291.5000   -32.2937     6.3935     6.1384     2.4434     0.1410     0.0197    91.7620     7.6402
  292.0000   -32.3403     6.3857     6.1384     2.4380     0.1441     0.0162    92.9646     7.6137
  292.5000   -32.4209     6.3778     6.1384     2.4330     0.1476     0.0203    93.6150     7.6126
  293.0000   -32.4960     6.3688     6.1384     2.4309     0.1480     0.0250    92.9771     7.6111
  293.5000   -32.4363     6.3713     6.1384     2.4288     0.1476     0.0221    92.4227     7.6095
  294.0000   -32.3701     6.3752     6.1384     2.4307     0.1455     0.0184    91.8710     7.6080
  294.5000   -32.2984     6.3791     6.1384     2.4338     0.1458     0.0147    91.3174     7.6064
  295.0000   -32.5471     6.3830     6.1384     2.4335     0.1463     0.0116    90.7712     7.6048
  295.5000   -32.8892     6.3869     6.1384     2.4320     0.1468     0.0139    90.3500     7.6033
  296.0000   -33.1017     6.3909     6.1384     2.4321     0.1460     0.0161    92.2307     7.6017
  296.5000   -33.1004     6.3948     6.1384     2.4320     0.1414     0.0182    94.6697     7.6001
  297.0000   -33.0966     6.3987     6.1384     2.4407     0.1368     0.0178    97.1154     7.5985
  297.5000   -33.3465     6.4026     6.1384     2.4544     0.1336     0.0141    99.5508     7.5970
  298.0000   -33.6858     6.4065     6.1384     2.4523     0.1406     0.0114   100.9224     7.5955
  298.5000   -33.6883     6.4104     6.1384     2.4357     0.1471     0.0161   100.6468     7.5990
  299.0000   -33.6714     6.4143     6.1385     2.4322     0.1424     0.0243    99.8472     7.6120
  299.5000   -33.6562     6.4183     6.1383     2.4402     0.1368     0.0220    98.3067     7.6249
  300.0000   -33.6414     6.4222     6.1388     2.4471     0.1377     0.0177    96.3889     7.6378
  300.5000   -33.6266     6.4266     6.1102     2.4467     0.1388     0.0198    94.4531     7.6507
  301.0000   -33.6118     6.4043     6.0883     2.4463     0.1364     0.0224    92.5052     7.6635
  301.5000   -33.5970     6.3738     6.0666     2.4464     0.1340     0.0257    90.6721     7.6764
  302.0000   -33.5822     6.3434     6.0449     2.4572     0.1291     0.0295    91.4530     7.6894
  302.5000   -33.5674     6.3132     6.0233     2.4616     0.1243     0.0333    92.3426     7.6957
  303.0000   -33.5526     6.2832     6.0018     2.4695     0.1195     0.0373    93.2184     7.6986
