~VERSION INFORMATION
 VERS.                2.0:   CWLS LOG ASCII STANDARD - VERSION 2.0
 WRAP.                 NO:   ONE LINE PER DEPTH STEP
~WELL INFORMATION
#MNEM.UNIT      DATA TYPE    INFORMATION
#----------   ------------   ------------------------------
 STRT.F           43.0000:   START DEPTH
 STOP.F          551.0000:   STOP DEPTH
 STEP.F            0.5000:   STEP LENGTH
 NULL.          -999.2500:   NO VALUE
 COMP. FENIX & SCISSON INC:   COMPANY
 WELL.   NPR 3  27-S #3-3:   WELL
 FLD .             TEAPOT:   FIELD
 LOC .       S3 T38N R78W:   LOCATION
 CNTY.            NATRONA:   COUNTY
 STAT.            WYOMING:   STATE
 CTRY. UNITED STATES OF AMERICA:   COUNTRY
 SRVC.           BIRDWELL:   SERVICE COMPANY
 DATE.        07-OCT-1978:   LOGDATE
 API .       490251071600:   API NUMBER
~CURVE INFORMATION
#MNEM.UNIT       API CODE    CURVE DESCRIPTION
#----------   ------------   ------------------------------
 DEPT.F                  :   
 SPR .MV     05 010 01 00:   SPONTANEOUS POTENTIAL FROM RES.
 SN  .OHMM   05 040 16 00:   SHORT NORMAL 16"
 ILD .OHMM   05 120 46 00:   INDUCTION LOG DEEP
 GRD .GAPI   45 310 01 00:   GAMMA RAY FROM DENSITY LOG
 CALD.IN     45 280 60 00:   CALIPER
 RHOB.G/C3   45 350 01 00:   BULK DENSITY
 CORR.G/C3   45 356 01 00:   DENSITY CORRECTION
 DPHI.DEC    45 890 12 00:   DENSITY POROSITY SANDSTONE
~PARAMETER INFORMATION
#MNEM.UNIT          VALUE    DESCRIPTION
#----------   ------------   ------------------------------
 PD  .                 GL:   PERMANENT DATUM
 EPD .F              5241:   ELEVATION PERMANENT DATUM
 LMF .                 KB:   LOG MEASURED FROM
 DAPD.F                 4:   FEET ABOVE PERMANENT DATUM
 DMF .                 KB:   DRILLING MEASURED FROM
 EKB .F              5245:   KELLING BUSHING
 EGL .F              5241:   GROUND LEVEL
 DATE.            10-7-78:   RUN DATE
 RUN .                  1:   RUN NUMBER
 DD  .F               552:   DEPTH DRILLER
 DL  .F               551:   DEPTH LOGGER
 BLI .F               545:   BOTTOM LOG INTERVAL
 TLI .F                48:   TOP LOG INTERVAL
 CS  .IN            8.625:   CASING SIZE
 CBL .F                43:   CASING BOTTOM LOGGER
 BS  .IN            7.875:   BIT SIZE
 BSD .F               552:   BIT SIZE AT DEPTH
 DFT .                KCL:   DRILLING FLUID TYPE
 DFD .                8.7:   DRILLING FLUID DENSITY
 DFV .                 38:   DRILLING FLUID VISCOSITY
 DFPH.                  9:   DRILLING FLUID PH
 DFL .                 38:   DRILLING FLUID LOSS
 MSS .            MUD PIT:   MUD SAMPLE SOURCE
 RMS .OHMM            .24:   RESISTIVITY MUD SAMPLE
 MST .F                48:   MUD SAMPLE TEMPERATURE
 RMF .OHMM             .2:   RESISTIVITY MUD FILTRATE SAMPLE
 MFST.F                62:   MUD FILTRATE SAMPLE TEMPERATURE
 RMC .OHMM             .3:   RESISTIVITY MUD CAKE
 MCST.F                62:   MUD CAKE SAMPLE TEMPERATURE
 MFSS.               MEAS:   MUD FILTRATE SAMPLE SOURCE
 MCSS.               MEAS:   MUD CAKE SAMPLE SOURCE
 TCS .HRS               3:   TIME CURCULATED STOPPED
 LUN .               2958:   LOGGING UNIT NUMBER
 LUL .               CASP:   LOGGING UNIT LOCATION
 ENGI.             MILLER:   RECORDING ENGINEER
 WITN.              AMEND:   WITNESSED BY
 CLNT.            A2DTECH:   CLIENT CODE
 ORIG.       2", 5" PRINT:   ORIGIN OF DATA
 UWI .       490251071600:   UNIQUE WELL ID
 DICO. A2D Technologies, Inc.:   DIGITIZING COMPANY
~OTHER INFORMATION
~A   DEPT      SPR         SN        ILD        GRD         CALD       RHOB      CORR        DPHI 
# ...
  529.0000   -20.7680    10.3931    12.4976    85.0245     8.1653     2.4662     0.0096     0.1301
  529.5000   -20.7407    10.3931    12.4976    84.9702     8.1721     2.4706     0.0132     0.1279
  530.0000   -20.7145    10.3931    12.4976    84.9350     8.1790     2.4763     0.0168     0.1230
  530.5000   -20.6881    10.3931    12.4976    85.6584     8.1858     2.4820     0.0166     0.1194
  531.0000   -20.6608    10.3931    12.4987    87.1425     8.1927     2.4845     0.0163     0.1189
  531.5000   -20.6375    10.3931    12.4997    89.2460     8.1995     2.4846     0.0159     0.1184
  532.0000   -20.7262    10.3931    12.3382    89.6550     8.2064     2.4846     0.0156     0.1183
  532.5000   -21.1709    10.3931    12.1638    89.7038     8.2129     2.4846     0.0152     0.1187
  533.0000   -21.5997    10.3931    12.0451    89.7020     8.2031     2.4845     0.0149     0.1191
  533.5000   -21.8088    10.3931    12.0577    89.7009     8.1694     2.4860     0.0145     0.1195
  534.0000   -21.8127    10.3931    12.0675    89.7010     8.1358     2.4885     0.0142     0.1189
  534.5000   -21.8131    10.3931    12.0773    89.7051     8.1018     2.4905     0.0138     0.1157
  535.0000   -21.8127    10.3931    12.0870    89.9287     8.1147     2.4902     0.0135     0.1156
  535.5000   -21.8127    10.3931    12.0968    90.4334     8.1348     2.4899     0.0132     0.1156
  536.0000   -21.8127    10.3931    12.1066    90.9336     8.1551     2.4896     0.0132     0.1155
  536.5000   -21.8127    10.3931    12.1164    91.3623     8.1467     2.4915     0.0146     0.1155
  537.0000   -21.8108    10.3931    12.1262    91.6255     8.1314     2.4936     0.0159     0.1154
  537.5000   -21.8010    10.3931    12.1360    91.4561     8.1179     2.4939     0.0173     0.1143
  538.0000   -22.2034    10.3931    12.1455    91.1723     8.1220     2.4942     0.0187     0.1117
  538.5000   -22.6395    10.3931    12.1575    90.9176     8.1263     2.4945     0.0171     0.1119
  539.0000   -23.0967    10.3931    12.1085    90.6667     8.1305     2.4948     0.0148     0.1119
  539.5000   -23.1743    10.3931    12.0556    90.4146     8.1347     2.4950     0.0135     0.1120
  540.0000   -23.1333    10.3931    12.0027  -999.2500     8.1408     2.4954     0.0165     0.1121
  540.5000   -23.0879    10.3931    11.9339  -999.2500     8.1509     2.5000     0.0195     0.1102
  541.0000   -23.0434    10.3931    11.9348  -999.2500     8.1609     2.5104     0.0225     0.1079
  541.5000   -22.9991    10.3931    11.9345  -999.2500     8.1710     2.5136     0.0222     0.1056
  542.0000   -22.9548    10.3931    11.9345  -999.2500     8.1811     2.5107     0.0214     0.1042
  542.5000   -22.9106    10.3931    11.9345  -999.2500     8.1910     2.5073     0.0208     0.1048
  543.0000   -22.8665    10.3931    11.9345  -999.2500     8.1916     2.5057     0.0247     0.1046
  543.5000   -22.8183    10.3931    11.9345  -999.2500     8.1578     2.5119     0.0293     0.1022
  544.0000   -22.8977    10.3926    11.9345  -999.2500     8.1372     2.5166     0.0301     0.1015
  544.5000   -23.0197    10.3915    11.9345  -999.2500     8.1375     2.5098     0.0289     0.1037
  545.0000   -23.1448    10.4020    11.9345  -999.2500     8.1376     2.5007     0.0277     0.1106
  545.5000  -999.2500  -999.2500  -999.2500  -999.2500     8.1389     2.4934     0.0265     0.1112
  546.0000  -999.2500  -999.2500  -999.2500  -999.2500     8.0820     2.4862     0.0252     0.1170
  546.5000  -999.2500  -999.2500  -999.2500  -999.2500     8.0155     2.4798     0.0280     0.1229
  547.0000  -999.2500  -999.2500  -999.2500  -999.2500     7.9860     2.4837     0.0392     0.1219
  547.5000  -999.2500  -999.2500  -999.2500  -999.2500     8.0046     2.4931     0.0513     0.1169
  548.0000  -999.2500  -999.2500  -999.2500  -999.2500     8.0227     2.5024     0.0586     0.1118
  548.5000  -999.2500  -999.2500  -999.2500  -999.2500     8.0413     2.5022     0.0583     0.1081
  549.0000  -999.2500  -999.2500  -999.2500  -999.2500     8.0606     2.5006     0.0577     0.1077
  549.5000  -999.2500  -999.2500  -999.2500  -999.2500     8.0197     2.5024     0.0571     0.1073
  550.0000  -999.2500  -999.2500  -999.2500  -999.2500     7.9425     2.5028     0.0574     0.1070
  550.5000  -999.2500  -999.2500  -999.2500  -999.2500     7.9381     2.5016     0.0642     0.1085
  551.0000  -999.2500  -999.2500  -999.2500  -999.2500     7.9364     2.5027     0.0752     0.1052
