~VERSION INFORMATION
 VERS.                2.0:   CWLS LOG ASCII STANDARD - VERSION 2.0
 WRAP.                 NO:   ONE LINE PER DEPTH STEP
~WELL INFORMATION
#MNEM.UNIT      DATA TYPE    INFORMATION
#----------   ------------   ------------------------------
 STRT.F           43.0000:   START DEPTH
 STOP.F          620.0000:   STOP DEPTH
 STEP.F            0.5000:   STEP LENGTH
 NULL.          -999.2500:   NO VALUE
 COMP. FENIX & SCISSON INC:   COMPANY
 WELL.      16 SX 2 #16-2:   WELL
 FLD .             TEAPOT:   FIELD
 LOC .       S2 T38N R78W:   LOCATION
 CNTY.            NATRONA:   COUNTY
 STAT.            WYOMING:   STATE
 CTRY. UNITED STATES OF AMERICA:   COUNTRY
 SRVC.            Unknown:   SERVICE COMPANY
 DATE.        11-OCT-1978:   LOGDATE
 API .       490251071400:   API NUMBER
~CURVE INFORMATION
#MNEM.UNIT       API CODE    CURVE DESCRIPTION
#----------   ------------   ------------------------------
 DEPT.F                  :   
 SPR .MV     05 010 01 00:   SPONTANEOUS POTENTIAL FROM RES.
 SN  .OHMM   05 040 16 00:   SHORT NORMAL 16"
 ILD .OHMM   05 120 46 00:   INDUCTION LOG DEEP
 CALD.IN     45 280 60 00:   CALIPER
 GRD .GAPI   45 310 01 00:   GAMMA RAY FROM DENSITY LOG
 DPHI.DEC    45 890 12 00:   DENSITY POROSITY SANDSTONE
 RHOB.G/C3   45 350 01 00:   BULK DENSITY
 DRHO.G/C3   45 356 01 00:   DENSITY CORRECTION
~PARAMETER INFORMATION
#MNEM.UNIT          VALUE    DESCRIPTION
#----------   ------------   ------------------------------
 PD  .                 GL:   PERMANENT DATUM
 EPD .F              5135:   ELEVATION PERMANENT DATUM
 LMF .                 KB:   LOG MEASURED FROM
 DAPD.F                 4:   FEET ABOVE PERMANENT DATUM
 DMF .                 KB:   DRILLING MEASURED FROM
 EKB .F              5139:   KELLING BUSHING
 EGL .F              5135:   GROUND LEVEL
 DATE.           10-11-78:   RUN DATE
 RUN .                  1:   RUN NUMBER
 DD  .F               620:   DEPTH DRILLER
 DL  .F               620:   DEPTH LOGGER
 BLI .F               614:   BOTTOM LOG INTERVAL
 TLI .F                40:   TOP LOG INTERVAL
 CS  .IN            8.625:   CASING SIZE
 CBD .F                40:   CASING BOTTOM DRILLER
 CBL .F                40:   CASING BOTTOM LOGGER
 BS  .IN            7.875:   BIT SIZE
 BSD .F               620:   BIT SIZE AT DEPTH
 DFT .                KCL:   DRILLING FLUID TYPE
 RMS .OHMM            .16:   RESISTIVITY MUD SAMPLE
 MST .F                66:   MUD SAMPLE TEMPERATURE
 RMF .OHMM            .16:   RESISTIVITY MUD FILTRATE SAMPLE
 MFST.F                70:   MUD FILTRATE SAMPLE TEMPERATURE
 RMC .OHMM             .2:   RESISTIVITY MUD CAKE
 MCST.F                71:   MUD CAKE SAMPLE TEMPERATURE
 TCS .HRS               1:   TIME CURCULATED STOPPED
 MRT .F                70:   MAXIMUM RECORDED TEMPERATURE
 LUN .               2958:   LOGGING UNIT NUMBER
 LUL .               CASP:   LOGGING UNIT LOCATION
 ENGI.             MILLER:   RECORDING ENGINEER
 WITN.              AMEND:   WITNESSED BY
 CLNT.            A2DTECH:   CLIENT CODE
 ORIG.           5" PRINT:   ORIGIN OF DATA
 UWI .       490251071400:   UNIQUE WELL ID
 DICO. A2D Technologies, Inc.:   DIGITIZING COMPANY
~OTHER INFORMATION
~A   DEPT      SPR         SN        ILD       CALD         GRD      DPHI       RHOB       DRHO   
# ...
   83.5000   -95.7690     6.7419     7.1481     7.9208   117.5721     0.1376     2.4645     0.0967
   84.0000   -94.8900     6.7685     7.1976     7.8960   113.0026     0.1268     2.4827     0.1104
   84.5000   -94.0155     6.7951     7.2474     7.8762   108.7961     0.1159     2.5008     0.1223
   85.0000   -93.1439     6.8219     7.2974     7.8692   105.0599     0.1046     2.5138     0.1142
   85.5000   -92.3165     6.8488     7.3478     7.8621   105.9009     0.1000     2.5229     0.0907
   86.0000   -91.7556     6.8758     7.3986     7.8032   107.6650     0.0970     2.5140     0.0557
   86.5000   -91.2166     6.9029     7.4497     7.6908   106.7122     0.1105     2.4998     0.0214
   87.0000   -90.6718     6.9301     7.5011     7.6702   105.1098     0.1220     2.4856     0.0118
   87.5000   -89.9446     6.9575     7.5529     7.6846   104.3196     0.1286     2.4767     0.0110
   88.0000   -89.1426     6.9849     7.6051     7.6997   103.8407     0.1271     2.4760     0.0116
   88.5000   -88.3632     7.0124     7.6579     7.7152   103.3648     0.1270     2.4751     0.0123
   89.0000   -88.1131     7.0401     7.6668     7.7027   103.7232     0.1277     2.4744     0.0129
   89.5000   -87.8863     7.0678     7.6668     7.6797   108.2167     0.1285     2.4712     0.0136
   90.0000   -87.6572     7.0957     7.6547     7.6564   112.7593     0.1341     2.4669     0.0142
   90.5000   -87.4278     7.1217     7.6358     7.6331   115.5314     0.1381     2.4624     0.0148
   91.0000   -87.1988     7.0772     7.6170     7.6099   117.4802     0.1371     2.4616     0.0155
   91.5000   -86.9554     7.0265     7.5984     7.5862   110.3003     0.1338     2.4702     0.0161
   92.0000   -86.3841     6.9763     7.5797     7.5855   105.7697     0.1311     2.4692     0.0164
   92.5000   -85.7732     6.9264     7.5611     7.5939   107.5326     0.1329     2.4682     0.0165
   93.0000   -85.1612     6.8769     7.5426     7.6193   111.2585     0.1322     2.4718     0.0165
   93.5000   -84.5488     6.8277     7.5241     7.6887   115.7486     0.1265     2.4769     0.0165
   94.0000   -83.9721     6.7789     7.5056     7.7572   120.2812     0.1223     2.4818     0.0165
   94.5000   -83.8559     6.7384     7.4872     7.8203   121.8254     0.1259     2.4787     0.0165
   95.0000   -83.7572     6.7384     7.4689     7.8392   122.4195     0.1289     2.4752     0.0164
   95.5000   -83.6565     6.7385     7.4506     7.8575   124.4635     0.1293     2.4741     0.0163
   96.0000   -83.4837     6.7384     7.4323     7.8759   125.2944     0.1298     2.4731     0.0177
   96.5000   -82.8362     6.7384     7.4141     7.8944   109.1140     0.1303     2.4721     0.0166
   97.0000   -82.1933     6.7384     7.3959     7.9131   109.6831     0.1308     2.4721     0.0155
   97.5000   -82.0814     6.7384     7.3830     7.9157   109.7842     0.1308     2.4721     0.0143
   98.0000   -81.9967     6.7384     7.3731     7.9121   103.9424     0.1306     2.4720     0.0132
   98.5000   -81.9088     6.7384     7.3633     7.9084   102.5306     0.1305     2.4739     0.0121
   99.0000   -81.8146     6.7385     7.3535     7.9047   104.9311     0.1290     2.4767     0.0109
   99.5000   -81.4579     6.7458     7.3437     7.9010   107.3720     0.1268     2.4795     0.0098
  100.0000   -80.7794     6.7612     7.3339     7.8927   107.4855     0.1245     2.4823     0.0086
  100.5000   -80.1054     6.7766     7.3242     7.8724   107.2618     0.1227     2.4827     0.0075
  101.0000   -79.4283     6.7920     7.3144     7.8397   107.0535     0.1250     2.4822     0.0066
  101.5000   -78.7341     6.8075     7.3047     7.7765   108.2255     0.1269     2.4855     0.0076
  102.0000   -78.4694     6.8230     7.2949     7.7139   109.5470     0.1204     2.4921     0.0086
  102.5000   -78.3115     6.8386     7.2852     7.6514   110.9220     0.1110     2.4988     0.0096
  103.0000   -78.1250     6.8541     7.2755     7.6027   110.6964     0.1081     2.5054     0.0105
  103.5000   -77.7852     6.8814     7.2658     7.5530   109.9734     0.1100     2.5091     0.0115
  104.0000   -77.4475     6.9280     7.2542     7.5093   110.5754     0.1167     2.4947     0.0125
  104.5000   -77.1073     6.9749     7.3651     7.4799   111.0490     0.1247     2.4805     0.0135
  105.0000   -76.9565     7.0221     7.5064     7.4668   108.3565     0.1327     2.4663     0.0145
  105.5000   -76.8993     7.0696     7.6505     7.4931   105.7374     0.1385     2.4525     0.0155
  106.0000   -76.8436     7.1174     7.7973     7.5297   105.9252     0.1353     2.4528     0.0165
  106.5000   -76.7607     7.1656     7.9469     7.5768   107.8646     0.1331     2.4733     0.0174
  107.0000   -76.4830     7.2141     8.0994     7.6775   109.5145     0.1343     2.4702     0.0186
  107.5000   -76.2011     7.2629     8.2548     7.7781   107.2938     0.1354     2.4673     0.0241
  108.0000   -75.9209     7.3121     8.4132     7.8781   104.5319     0.1361     2.4654     0.0314
  108.5000   -75.4897     7.3615     8.5746     7.9621   104.0789     0.1300     2.4757     0.0462
  109.0000   -74.9435     7.4114     8.7391     7.9713   105.4478     0.1242     2.4861     0.0607
  109.5000   -74.4104     7.4615     8.9677     7.9818   110.1946     0.1183     2.4964     0.0753
  110.0000   -74.1459     7.5120     8.9677     7.9925   115.5856     0.1124     2.5068     0.0898
  110.5000   -73.8978     7.5628     8.9623     8.0032   120.9807     0.1066     2.5172     0.1044
  111.0000   -73.4548     7.6143     8.9549     8.0143   126.4025     0.1068     2.5274     0.1036
  111.5000   -72.9186     7.6672     8.9476     8.0069   128.3262     0.1080     2.5324     0.0946
  112.0000   -72.3738     7.6670     8.9403     7.9901   123.9357     0.1092     2.5208     0.0787
  112.5000   -72.1277     7.6666     8.9330     7.9731   120.8600     0.1106     2.5120     0.0628
  113.0000   -72.0054     7.6668     8.9257     7.9561   118.2552     0.1088     2.5086     0.0463
  113.5000   -71.8846     7.7258     8.9184     7.9391   117.3529     0.1074     2.5066     0.0411
  114.0000   -71.7640     7.8225     8.9111     7.9221   116.9603     0.1074     2.5058     0.0393
  114.5000   -71.6476     7.9205     8.9038     7.9050   115.4729     0.1074     2.5050     0.0375
  115.0000   -71.2247     8.0196     8.8968     7.8880   112.6349     0.1074     2.5041     0.0341
  115.5000   -70.7202     8.1200     8.8830     7.8710   109.9121     0.1074     2.5033     0.0272
  116.0000   -70.2094     8.2216     8.8805     7.8538   108.4826     0.1078     2.5025     0.0203
  116.5000   -70.0050     8.2717     8.9736     7.8394   118.9083     0.1090     2.5017     0.0134
  117.0000   -69.9739     8.2981     9.1712     7.8531   116.1260     0.1103     2.5009     0.0105
  117.5000   -69.9460     8.3245     9.4075     7.8666   114.7804     0.1115     2.5001     0.0105
  118.0000   -69.9182     8.3510     9.6528     7.8800   115.1645     0.1127     2.4993     0.0105
  118.5000   -69.8906     8.3776     9.9045     7.8934   115.6999     0.1140     2.4985     0.0105
  119.0000   -69.8615     8.4043    10.1623     7.9069   114.6731     0.1149     2.4980     0.0105
  119.5000   -69.8373     8.4312    10.4957     7.9184   113.1418     0.1119     2.5002     0.0105
  120.0000   -69.3877     8.4582    10.4840     7.8996   111.7044     0.1082     2.5038     0.0106
  120.5000   -68.8800     8.4850    10.5825     7.8794   111.1991     0.1046     2.5075     0.0109
  121.0000   -68.6009     8.4558    10.5910     7.8805   110.6674     0.1046     2.5107     0.0112
  121.5000   -68.3267     8.4259    10.4645     7.8829   110.1876     0.1064     2.5068     0.0115
  122.0000   -68.0537     8.3962    10.3912     7.8852   110.1044     0.1098     2.5027     0.0119
  122.5000   -67.7801     8.3667    10.3222     7.8875   110.9041     0.1132     2.4986     0.0121
  123.0000   -67.5064     8.3373    10.2536     7.8898   113.3178     0.1165     2.4946     0.0128
  123.5000   -67.2335     8.3080    10.1855     7.8920   113.8503     0.1198     2.4905     0.0193
