~VERSION INFORMATION
 VERS.                2.0:   CWLS LOG ASCII STANDARD - VERSION 2.0
 WRAP.                 NO:   ONE LINE PER DEPTH STEP
~WELL INFORMATION
#MNEM.UNIT      DATA TYPE    INFORMATION
#----------   ------------   ------------------------------
 STRT.F           32.0000:   START DEPTH
 STOP.F          738.0000:   STOP DEPTH
 STEP.F            0.5000:   STEP LENGTH
 NULL.          -999.2500:   NO VALUE
 COMP. FENIX & SCISSON INC:   COMPANY
 WELL.       NPR-3 #43-34:   WELL
 FLD .             TEAPOT:   FIELD
 LOC .      S34 T39N R78W:   LOCATION
 CNTY.            NATRONA:   COUNTY
 STAT.            WYOMING:   STATE
 CTRY. UNITED STATES OF AMERICA:   COUNTRY
 SRVC.            Unknown:   SERVICE COMPANY
 DATE.        26-AUG-1978:   LOGDATE
 API .       490251069900:   API NUMBER
~CURVE INFORMATION
#MNEM.UNIT       API CODE    CURVE DESCRIPTION
#----------   ------------   ------------------------------
 DEPT.F                  :   
 GRD .GAPI   45 310 01 00:   GAMMA RAY FROM DENSITY LOG
 CALD.IN     45 280 60 00:   CALIPER
 RHOB.G/C3   45 350 01 00:   BULK DENSITY
 DPHI.DEC    45 890 12 00:   DENSITY POROSITY SANDSTONE
 CORR.G/C3   45 356 01 00:   DENSITY CORRECTION
 SPR .MV     05 010 01 00:   SPONTANEOUS POTENTIAL FROM RES.
 SN  .OHMM   05 040 16 00:   SHORT NORMAL 16"
 ILD .OHMM   05 120 46 00:   INDUCTION LOG DEEP
~PARAMETER INFORMATION
#MNEM.UNIT          VALUE    DESCRIPTION
#----------   ------------   ------------------------------
 PD  .                 GL:   PERMANENT DATUM
 EPD .F              5110:   ELEVATION PERMANENT DATUM
 LMF .                 KB:   LOG MEASURED FROM
 DAPD.F                 4:   FEET ABOVE PERMANENT DATUM
 DMF .                 KB:   DRILLING MEASURED FROM
 EKB .F              5114:   KELLING BUSHING
 EGL .F              5110:   GROUND LEVEL
 DATE.            8-26-78:   RUN DATE
 RUN .                  1:   RUN NUMBER
 DD  .F               748:   DEPTH DRILLER
 DL  .F               738:   DEPTH LOGGER
 BLI .F               732:   BOTTOM LOG INTERVAL
 TLI .F                40:   TOP LOG INTERVAL
 CS  .IN            8.625:   CASING SIZE
 CBD .F                40:   CASING BOTTOM DRILLER
 CBL .F                40:   CASING BOTTOM LOGGER
 BS  .IN            7.875:   BIT SIZE
 BSD .F               748:   BIT SIZE AT DEPTH
 DFT .                KCL:   DRILLING FLUID TYPE
 DFD .                8.7:   DRILLING FLUID DENSITY
 DFV .                 33:   DRILLING FLUID VISCOSITY
 DFPH.                  9:   DRILLING FLUID PH
 DFL .                 10:   DRILLING FLUID LOSS
 MSS .          FLOW LINE:   MUD SAMPLE SOURCE
 RMS .OHMM            .36:   RESISTIVITY MUD SAMPLE
 MST .F                80:   MUD SAMPLE TEMPERATURE
 RMF .OHMM             .3:   RESISTIVITY MUD FILTRATE SAMPLE
 MFST.F                80:   MUD FILTRATE SAMPLE TEMPERATURE
 RMC .OHMM            .48:   RESISTIVITY MUD CAKE
 MCST.F                82:   MUD CAKE SAMPLE TEMPERATURE
 MFSS.               MEAS:   MUD FILTRATE SAMPLE SOURCE
 MCSS.               MEAS:   MUD CAKE SAMPLE SOURCE
 TCS .HRS               2:   TIME CURCULATED STOPPED
 LUN .               2958:   LOGGING UNIT NUMBER
 LUL .               CASP:   LOGGING UNIT LOCATION
 ENGI.             MILLER:   RECORDING ENGINEER
 WITN.              AMEND:   WITNESSED BY
 CLNT.            A2DTECH:   CLIENT CODE
 ORIG.           5" PRINT:   ORIGIN OF DATA
 UWI .       490251069900:   UNIQUE WELL ID
 DICO. A2D Technologies, Inc.:   DIGITIZING COMPANY
~OTHER INFORMATION
~A   DEPT       GRD      CALD       RHOB       DPHI       CORR        SPR         SN        ILD   
# ...
  153.5000    77.5589     7.3319     2.4643     0.1243     0.0247   -28.2159    12.9481    19.0216
  154.0000    73.0517     7.3359     2.4924     0.1126     0.0214   -28.2183    13.2962    20.7607
  154.5000    72.8848     7.3306     2.5119     0.1010     0.0220   -28.2178    13.6537    23.4456
  155.0000    72.6702     7.3255     2.5186     0.0964     0.0226   -28.2005    14.0213    26.4720
  155.5000    66.8195     7.3205     2.5219     0.1150     0.0231   -28.1045    14.3981    27.1836
  156.0000    61.8824     7.3154     2.5062     0.1319     0.0235   -28.0691    14.7009    27.4634
  156.5000    63.9243     7.3103     2.4765     0.1488     0.0233   -28.2242    14.4980    27.1048
  157.0000    66.5515     7.3052     2.4466     0.1646     0.0231   -28.0082    14.1811    26.8543
  157.5000    68.4902     7.3002     2.4167     0.1769     0.0230   -28.0220    13.8711    26.4838
  158.0000    70.4203     7.2982     2.3860     0.1892     0.0228   -28.0201    13.5678    24.6347
  158.5000    72.6279     7.3041     2.3730     0.1942     0.0226   -28.0205    13.1524    22.3765
  159.0000    74.8787     7.3099     2.3627     0.1968     0.0225   -28.0151    12.6656    20.4448
  159.5000    75.2079     7.3156     2.3581     0.1993     0.0223   -27.9217    12.1967    17.9657
  160.0000    73.7146     7.3214     2.3532     0.2019     0.0222   -27.8270    11.7888    16.1145
  160.5000    74.7643     7.3272     2.3482     0.2035     0.0220   -28.0314    11.5986    15.6287
  161.0000    77.3664     7.3329     2.3440     0.2035     0.0218   -28.4623    11.3916    15.1995
  161.5000    78.9103     7.3365     2.3449     0.2031     0.0217   -28.8012    11.1878    14.8154
  162.0000    78.9649     7.3351     2.3477     0.1995     0.0215   -28.8279    11.0040    14.6633
  162.5000    77.8250     7.3337     2.3609     0.1845     0.0222   -28.8792    10.8547    14.4316
  163.0000    77.7052     7.3323     2.3744     0.1803     0.0233   -28.9283    10.7076    14.3980
  163.5000    78.0323     7.3309     2.3802     0.1775     0.0244   -28.9801    10.5581    14.3535
  164.0000    77.1040     7.3295     2.3866     0.1726     0.0255   -29.1390    10.4399    14.3092
  164.5000    77.1083     7.3281     2.3930     0.1647     0.0274   -29.4920    10.3194    14.0390
  165.0000    78.9949     7.3267     2.4023     0.1538     0.0294   -29.8418    10.1873    13.4221
  165.5000    82.1843     7.3253     2.4224     0.1410     0.0313   -30.1909     9.9793    12.6889
  166.0000    85.3203     7.3240     2.4441     0.1282     0.0332   -30.3527     9.6660    11.0242
  166.5000    94.8268     7.3226     2.4657     0.1156     0.0351   -30.3734     9.1253     9.5911
  167.0000    97.9813     7.3212     2.4860     0.1212     0.0355   -31.6819     8.6151     8.3435
  167.5000    99.0718     7.3198     2.4873     0.1228     0.0319   -33.2452     8.1326     7.2570
  168.0000    98.1409     7.3184     2.4780     0.1309     0.0266   -34.1301     7.6796     6.3718
  168.5000    98.7154     7.3170     2.4654     0.1384     0.0255   -34.9141     7.2863     5.9261
  169.0000   101.3380     7.3166     2.4532     0.1384     0.0255   -35.1690     6.9558     5.6199
  169.5000   104.0684     7.3166     2.4509     0.1341     0.0255   -35.1495     6.6403     5.3296
  170.0000   104.3847     7.3166     2.4576     0.1294     0.0260   -35.1483     6.5762     5.2520
  170.5000   103.2887     7.3166     2.4657     0.1258     0.0281   -35.1485     6.5462     5.2514
  171.0000   100.0844     7.3166     2.4738     0.1231     0.0302   -35.1485     6.5462     5.2841
  171.5000    96.9824     7.3177     2.4750     0.1203     0.0319   -35.1485     6.5464     5.3150
  172.0000    94.2943     7.3264     2.4758     0.1176     0.0330   -35.1486     6.5467     5.3478
  172.5000    93.7702     7.3351     2.4825     0.1148     0.0341   -35.1492     6.5214     5.3478
  173.0000    97.0157     7.3437     2.4908     0.1184     0.0352   -35.1195     6.4497     5.3259
  173.5000   101.5163     7.3524     2.4918     0.1260     0.0345   -35.0812     6.3788     5.3069
  174.0000   101.2091     7.3566     2.4815     0.1336     0.0319   -35.0426     6.3087     5.2880
  174.5000    92.7850     7.3542     2.4708     0.1342     0.0293   -35.0042     6.2523     5.2692
  175.0000    90.0255     7.3514     2.4624     0.1351     0.0267   -34.9655     6.3294     5.2504
  175.5000    88.5528     7.3487     2.4597     0.1360     0.0256   -34.9507     6.3683     5.2845
  176.0000    91.9277     7.3460     2.4576     0.1370     0.0258   -34.9505     6.4135     5.3414
  176.5000    94.9873     7.3432     2.4560     0.1363     0.0261   -34.9505     6.4696     5.3989
  177.0000    98.0977     7.3405     2.4586     0.1340     0.0263   -34.9505     6.5260     5.4570
  177.5000    99.3124     7.3377     2.4613     0.1334     0.0266   -34.9505     6.5468     5.5158
  178.0000    96.5767     7.3367     2.4639     0.1351     0.0268   -34.9505     6.5334     5.5481
  178.5000    96.8025     7.3361     2.4601     0.1369     0.0270   -34.9505     6.5183     5.5481
  179.0000    97.1590     7.3347     2.4556     0.1326     0.0273   -34.9505     6.5031     5.5481
  179.5000    97.1838     7.3333     2.4557     0.1292     0.0274   -34.9505     6.4859     5.5023
  180.0000    96.3450     7.3320     2.4679     0.1296     0.0262   -34.9505     6.5118     5.4089
  180.5000    96.4406     7.3306     2.4682     0.1340     0.0250   -34.9505     6.5615     5.3172
  181.0000    97.9661     7.3292     2.4649     0.1392     0.0238   -34.9505     6.6074     5.2014
  181.5000    97.2105     7.3278     2.4559     0.1376     0.0226   -34.9505     6.5970     5.2028
  182.0000    95.9961     7.3265     2.4479     0.1326     0.0215   -34.9505     6.5866     5.2024
  182.5000    96.6181     7.3251     2.4648     0.1278     0.0217   -34.9505     6.5760     5.2024
  183.0000    97.8376     7.3237     2.4735     0.1230     0.0220   -34.9505     6.5655     5.2017
  183.5000   100.2577     7.3224     2.4784     0.1200     0.0222   -34.9505     6.5549     5.3193
  184.0000   102.6713     7.3210     2.4832     0.1186     0.0224   -34.9505     6.5458     5.4443
  184.5000   103.1730     7.3196     2.4855     0.1192     0.0227   -34.9508     6.6061     5.5653
  185.0000    99.8792     7.3183     2.4859     0.1212     0.0229   -34.9471     6.6831     5.6550
  185.5000    96.2967     7.3169     2.4832     0.1245     0.0231   -34.9373     6.7612     5.7466
  186.0000    92.7139     7.3167     2.4783     0.1278     0.0234   -35.1207     6.8401     5.8397
  186.5000    89.0917     7.3183     2.4718     0.1304     0.0235   -35.0914     6.9176     5.9343
  187.0000    88.3943     7.3199     2.4678     0.1296     0.0235   -35.0588     6.9333     6.0266
  187.5000    91.6389     7.3215     2.4675     0.1276     0.0235   -35.0239     6.9522     6.1384
  188.0000    94.9995     7.3231     2.4699     0.1276     0.0235   -34.9890     6.9712     6.1951
  188.5000    95.6317     7.3247     2.4713     0.1276     0.0235   -34.9527     6.9814     6.2465
  189.0000    95.5571     7.3263     2.4727     0.1259     0.0235   -35.0228     7.0827     6.2947
  189.5000    94.4944     7.3279     2.4740     0.1248     0.0235   -35.1061     7.1377     6.3435
  190.0000    90.8080     7.3295     2.4754     0.1268     0.0235   -35.1898     7.1931     6.3927
  190.5000    87.7408     7.3311     2.4744     0.1287     0.0235   -35.2731     7.2435     6.4424
  191.0000    88.5664     7.3327     2.4691     0.1292     0.0235   -35.3566     7.2495     6.4924
  191.5000    90.9936     7.3343     2.4650     0.1273     0.0238   -35.4405     7.2625     6.5464
  192.0000    94.6015     7.3359     2.4671     0.1260     0.0247   -35.5320     7.2755     6.5464
  192.5000    95.1990     7.3365     2.4718     0.1272     0.0254   -35.2338     7.2885     6.5464
  193.0000    93.5918     7.3260     2.4732     0.1272     0.0277   -35.1505     7.3015     6.5464
  193.5000    94.5377     7.3144     2.4730     0.1247     0.0282   -35.1784     7.3098     6.4612
