~VERSION INFORMATION
 VERS.                2.0:   CWLS LOG ASCII STANDARD - VERSION 2.0
 WRAP.                 NO:   ONE LINE PER DEPTH STEP
~WELL INFORMATION
#MNEM.UNIT      DATA TYPE    INFORMATION
#----------   ------------   ------------------------------
 STRT.F           20.0000:   START DEPTH
 STOP.F          599.0000:   STOP DEPTH
 STEP.F            0.5000:   STEP LENGTH
 NULL.          -999.2500:   NO VALUE
 COMP. FENIX & SCISSON INC:   COMPANY
 WELL.    47 SX 34 #47-34:   WELL
 FLD .             TEAPOT:   FIELD
 LOC .      S34 T39N R78W:   LOCATION
 CNTY.            NATRONA:   COUNTY
 STAT.            WYOMING:   STATE
 CTRY. UNITED STATES OF AMERICA:   COUNTRY
 SRVC.       Schlumberger:   SERVICE COMPANY
 DATE.        24-JAN-1979:   LOGDATE
 API .       490251077000:   API NUMBER
~CURVE INFORMATION
#MNEM.UNIT       API CODE    CURVE DESCRIPTION
#----------   ------------   ------------------------------
 DEPT.F                  :   
 SN  .OHMM   05 040 16 00:   SHORT NORMAL 16"
 ILD .OHMM   05 120 46 00:   INDUCTION LOG DEEP
 SPR .MV     05 010 01 00:   SPONTANEOUS POTENTIAL FROM RES.
 CALD.IN     45 280 60 00:   CALIPER
 GRD .GAPI   45 310 01 00:   GAMMA RAY FROM DENSITY LOG
 DPHI.DEC    45 890 12 00:   DENSITY POROSITY SANDSTONE
 CORR.G/C3   45 356 01 00:   DENSITY CORRECTION
 RHOB.G/C3   45 350 01 00:   BULK DENSITY
~PARAMETER INFORMATION
#MNEM.UNIT          VALUE    DESCRIPTION
#----------   ------------   ------------------------------
 PD  .                 GL:   PERMANENT DATUM
 EPD .F              5132:   ELEVATION PERMANENT DATUM
 LMF .                 KB:   LOG MEASURED FROM
 DAPD.F                 4:   FEET ABOVE PERMANENT DATUM
 DMF .                 KB:   DRILLING MEASURED FROM
 EKB .F              5136:   KELLING BUSHING
 EGL .F              5132:   GROUND LEVEL
 DATE.            1-24-79:   RUN DATE
 RUN .                  1:   RUN NUMBER
 DD  .F               600:   DEPTH DRILLER
 DL  .F               600:   DEPTH LOGGER
 BLI .F               594:   BOTTOM LOG INTERVAL
 TLI .F                28:   TOP LOG INTERVAL
 CS  .IN            8.625:   CASING SIZE
 CBD .F                40:   CASING BOTTOM DRILLER
 BS  .IN            7.875:   BIT SIZE
 BSD .F               600:   BIT SIZE AT DEPTH
 DFT .                KCL:   DRILLING FLUID TYPE
 DFD .                8.8:   DRILLING FLUID DENSITY
 DFV .                 60:   DRILLING FLUID VISCOSITY
 DFPH.                9.5:   DRILLING FLUID PH
 DFL .               10.8:   DRILLING FLUID LOSS
 MSS .           FLOWLINE:   MUD SAMPLE SOURCE
 RMS .OHMM            .22:   RESISTIVITY MUD SAMPLE
 MST .F                60:   MUD SAMPLE TEMPERATURE
 RMF .OHMM             .2:   RESISTIVITY MUD FILTRATE SAMPLE
 MFST.F                61:   MUD FILTRATE SAMPLE TEMPERATURE
 RMC .OHMM             .3:   RESISTIVITY MUD CAKE
 MCST.F                61:   MUD CAKE SAMPLE TEMPERATURE
 MFSS.           MEASURED:   MUD FILTRATE SAMPLE SOURCE
 MCSS.           MEASURED:   MUD CAKE SAMPLE SOURCE
 RMB .OHMM            .23:   RESISTIVITY MUD AT BHT
 BHT .F                58:   BOTTOM HOLE TEMPERATURE
 TCS .HRS               4:   TIME CURCULATED STOPPED
 MRT .F                58:   MAXIMUM RECORDED TEMPERATURE
 LUN .               3029:   LOGGING UNIT NUMBER
 LUL .             CASPER:   LOGGING UNIT LOCATION
 ENGI.         B. ROLLINS:   RECORDING ENGINEER
 WITN.         RICHARDSON:   WITNESSED BY
 CLNT.            A2DTECH:   CLIENT CODE
 ORIG.           5" PRINT:   ORIGIN OF DATA
 UWI .       490251077000:   UNIQUE WELL ID
 DICO. A2D Technologies, Inc.:   DIGITIZING COMPANY
~OTHER INFORMATION
~A   DEPT       SN        ILD        SPR         CALD       GRD        DPHI       CORR       RHOB 
# ...
  344.0000     5.3698     6.4377   -31.6747     8.4166   111.2615     0.1274     0.0181     2.4643
  344.5000     5.0191     6.2235   -32.0070     8.4186   109.1860     0.1295     0.0145     2.4590
  345.0000     4.6915     5.8953   -32.3388     8.4205   106.6897     0.1379     0.0105     2.4485
  345.5000     4.3851     5.5488   -32.6731     8.4229   105.0199     0.1508     0.0064     2.4317
  346.0000     4.0521     5.0103   -33.2693     8.3969   108.1387     0.1675     0.0025     2.4132
  346.5000     3.7212     4.5261   -34.4776     8.3642   110.9062     0.1842     0.0020     2.3740
  347.0000     3.4090     4.0730   -35.6605     8.3751   109.5716     0.2040     0.0020     2.3365
  347.5000     3.0854     3.6685   -36.5267     8.3864   109.4663     0.2295     0.0039     2.2990
  348.0000     2.7943     3.3017   -35.9042     8.3976   110.9388     0.2562     0.0160     2.2616
  348.5000     2.5307     2.9813   -35.0901     8.4087   110.7856     0.2671     0.0232     2.2345
  349.0000     2.3544     2.7700   -34.4917     8.4199   103.8430     0.2544     0.0304     2.2387
  349.5000     2.3013     2.6384   -34.6176     8.4221    95.9527     0.2345     0.0357     2.2726
  350.0000     2.3013     2.7284   -34.9098     8.4200    99.4170     0.2151     0.0279     2.3126
  350.5000     2.5064     2.8575   -34.7540     8.4179   106.0297     0.1961     0.0187     2.3531
  351.0000     2.7276     3.0299   -34.2483     8.4157   110.7905     0.1769     0.0331     2.3925
  351.5000     3.0129     3.3045   -33.7458     8.4136   111.0112     0.1588     0.0509     2.4251
  352.0000     3.3559     3.6041   -33.2231     8.4115   105.6164     0.1426     0.0357     2.4555
  352.5000     3.6523     3.9309   -33.1528     8.4094   106.4862     0.1314     0.0220     2.4861
  353.0000     4.0058     4.2872   -33.6065     8.4073   107.4397     0.1192     0.0189     2.4869
  353.5000     4.3956     4.6759   -34.0784     8.4051   108.8818     0.1161     0.0162     2.4822
  354.0000     4.8461     5.0998   -34.0994     8.4032   112.1347     0.1189     0.0134     2.4772
  354.5000     4.9573     5.3562   -33.6703     8.4032   115.2364     0.1214     0.0120     2.4765
  355.0000     5.0314     5.5488   -33.1984     8.4032   117.3212     0.1206     0.0134     2.4796
  355.5000     5.0796     5.7483   -32.7241     8.4032   113.6627     0.1202     0.0155     2.4787
  356.0000     5.0749     5.9398   -32.5041     8.4032   110.6829     0.1193     0.0176     2.4775
  356.5000     5.1264     5.9592   -32.5005     8.4032   108.8657     0.1135     0.0197     2.4823
  357.0000     5.1241     5.9792   -32.5002     8.4032   110.7208     0.1118     0.0188     2.4940
  357.5000     5.1241     6.0258   -32.4659     8.4032   112.4740     0.1128     0.0163     2.4985
  358.0000     5.1027     6.1594   -32.1972     8.4032   114.2163     0.1142     0.0138     2.4859
  358.5000     5.0441     6.0795   -31.9293     8.4032   115.6280     0.1192     0.0113     2.4748
  359.0000     4.9862     5.8823   -31.7725     8.4032   116.0537     0.1239     0.0099     2.4714
  359.5000     4.9290     5.5969   -32.3796     8.4032   116.5002     0.1312     0.0125     2.4623
  360.0000     4.7787     5.3253   -32.9835     8.4032   116.8511     0.1465     0.0163     2.4375
  360.5000     4.4887     5.0666   -33.5857     8.4032   120.1881     0.1632     0.0201     2.4049
  361.0000     4.2166     4.8215   -34.1921     8.4032   124.5982     0.1772     0.0239     2.3794
  361.5000     4.0410     4.6310   -34.8566     8.4032   124.5079     0.1772     0.0251     2.3822
  362.0000     3.9310     4.5460   -35.3073     8.4032   117.2974     0.1582     0.0208     2.4066
  362.5000     3.7829     4.5467   -35.0282     8.4031   116.3484     0.1529     0.0167     2.4253
  363.0000     3.8740     4.2238   -34.5901     8.4022   114.7038     0.1532     0.0125     2.4256
  363.5000     4.0358     4.3667   -34.5028     8.4387   112.5448     0.1456     0.0099     2.4275
  364.0000     4.2028     4.5509   -34.5053     8.4388   112.6501     0.1362     0.0099     2.4453
  364.5000     4.3768     4.7429   -34.7127     8.3825   123.7871     0.1301     0.0134     2.4691
  365.0000     4.5578     4.9430   -34.7057     8.3646   131.8887     0.1239     0.0187     2.4736
  365.5000     4.7464     5.1516   -34.4427     8.3667   131.6464     0.1201     0.0239     2.4763
  366.0000     4.9427     5.3690   -33.9891     8.3691   128.5791     0.1167     0.0278     2.4904
  366.5000     5.1472     5.5955   -33.5324     8.3715   119.3436     0.1134     0.0211     2.5013
  367.0000     5.3601     5.8262   -33.0776     8.3739   113.8122     0.1140     0.0144     2.4858
  367.5000     5.5818     6.0482   -32.7095     8.3763   111.7091     0.1155     0.0082     2.4813
  368.0000     5.7143     6.2786   -32.8447     8.3787   113.4570     0.1169     0.0086     2.4943
  368.5000     5.8309     6.5178   -32.9716     8.3811   117.6164     0.1183     0.0094     2.5008
  369.0000     5.9500     6.7543   -33.0970     8.3834   118.1998     0.1198     0.0097     2.4821
  369.5000     5.9924     6.7530   -33.2223     8.3858   114.7955     0.1261     0.0037     2.4673
  370.0000     5.9921     6.7533   -33.3481     8.3882   116.9669     0.1317    -0.0026     2.4522
  370.5000     5.9923     6.7531   -33.4785     8.3906   119.0442     0.1353    -0.0088     2.4457
  371.0000     5.9550     6.7531   -33.3930     8.3930   116.1317     0.1373    -0.0120     2.4486
  371.5000     5.8760     6.7532   -33.2570     8.3954   113.1718     0.1342    -0.0087     2.4557
  372.0000     5.7862     6.7531   -33.1197     8.3978   110.2403     0.1291    -0.0047     2.4632
  372.5000     5.6978     6.7531   -32.9830     8.4002   108.9655     0.1239    -0.0006     2.4707
  373.0000     5.6108     6.6639   -32.8899     8.4026   110.5220     0.1197     0.0034     2.4758
  373.5000     5.5250     6.5823   -33.2672     8.4050   113.0087     0.1186     0.0075     2.4796
  374.0000     5.3944     6.5064   -33.7278     8.4073   115.5114     0.1186     0.0115     2.4816
  374.5000     5.1583     6.1320   -34.1562     8.4097   118.0159     0.1243     0.0155     2.4790
  375.0000     4.9326     5.8019   -34.4156     8.4121   120.4521     0.1297     0.0180     2.4719
  375.5000     4.7168     5.4898   -34.6789     8.4145   121.3108     0.1350     0.0165     2.4470
  376.0000     4.5102     5.1738   -34.9501     8.4169   122.0988     0.1593     0.0147     2.4227
  376.5000     4.3115     5.0220   -35.6011     8.4193   120.2192     0.1724     0.0188     2.3986
  377.0000     4.1073     4.8637   -36.8711     8.4217   117.0896     0.1757     0.0267     2.3841
  377.5000     4.1075     4.7580   -37.2892     8.4244   113.8969     0.1569     0.0282     2.4077
  378.0000     4.2955     4.7618   -37.0204     8.4278   113.0797     0.1412     0.0180     2.4377
  378.5000     4.5146     4.8384   -36.3184     8.4311   113.8541     0.1255     0.0160     2.4681
  379.0000     4.7431     5.1126   -35.6200     8.4344   115.9661     0.1186     0.0193     2.4814
  379.5000     4.9832     5.4024   -35.1848     8.4377   118.0538     0.1194     0.0157     2.4801
  380.0000     5.2354     5.7086   -34.6964     8.4410   120.1361     0.1209     0.0086     2.4760
  380.5000     5.5156     6.0321   -34.4488     8.4415   122.2362     0.1225     0.0039     2.4720
  381.0000     5.6249     6.3740   -34.1976     8.4370   123.3461     0.1240     0.0040     2.4681
  381.5000     5.7433     6.7531   -33.8256     8.4326   122.2563     0.1255     0.0040     2.4655
  382.0000     5.8643     6.7956   -33.4520     8.4282   119.7803     0.1246     0.0040     2.4676
  382.5000     5.9929     6.8199   -33.0811     8.4237   120.2290     0.1219     0.0040     2.4766
  383.0000     5.9911     6.8323   -32.7165     8.4193   118.0543     0.1192     0.0040     2.4804
  383.5000     6.0187     6.8447   -32.7741     8.4149   115.0462     0.1179     0.0041     2.4805
  384.0000     6.0386     6.8571   -33.4266     8.4104   116.2513     0.1126     0.0055     2.4819
