~VERSION INFORMATION
 VERS.                2.0:   CWLS LOG ASCII STANDARD - VERSION 2.0
 WRAP.                 NO:   ONE LINE PER DEPTH STEP
~WELL INFORMATION
#MNEM.UNIT      DATA TYPE    INFORMATION
#----------   ------------   ------------------------------
 STRT.F           20.0000:   START DEPTH
 STOP.F          508.0000:   STOP DEPTH
 STEP.F            0.5000:   STEP LENGTH
 NULL.          -999.2500:   NO VALUE
 COMP. FENIX & SCISSON INC:   COMPANY
 WELL.      NPR #3 #45-10:   WELL
 FLD .             TEAPOT:   FIELD
 LOC .      S10 T38N R78W:   LOCATION
 CNTY.            NATRONA:   COUNTY
 STAT.            WYOMING:   STATE
 CTRY. UNITED STATES OF AMERICA:   COUNTRY
 SRVC.              Welex:   SERVICE COMPANY
 DATE.        09-MAY-1980:   LOGDATE
 API .       490251081000:   API NUMBER
~CURVE INFORMATION
#MNEM.UNIT       API CODE    CURVE DESCRIPTION
#----------   ------------   ------------------------------
 DEPT.F                  :   
 SPR .MV     07 010 01 00:   SPONTANEOUS POTENTIAL
 SGRD.OHMM   07 220 05 00:   SHALLOW GUARD RESISTIVITY
 ILD .OHMM   07 120 46 00:   INDUCTION LOG DEEP RESISTIVITY
 ILM .OHMM   07 120 44 00:   INDUCTION LOG MEDIUM
 GRD .GAPI   45 310 01 00:   GAMMA RAY FROM DENSITY LOG
 CALD.IN     45 280 60 00:   CALIPER
 CORR.G/C3   45 356 01 00:   DENSITY CORRECTION
 RHOB.G/C3   45 350 01 00:   BULK DENSITY
 DPHI.DEC    45 890 12 00:   DENSITY POROSITY SANDSTONE
~PARAMETER INFORMATION
#MNEM.UNIT          VALUE    DESCRIPTION
#----------   ------------   ------------------------------
 PD  .                 GL:   PERMANENT DATUM
 EPD .F              5228:   ELEVATION PERMANENT DATUM
 LMF .                 KB:   LOG MEASURED FROM
 DAPD.F                 5:   FEET ABOVE PERMANENT DATUM
 DMF .                 KB:   DRILLING MEASURED FROM
 EKB .F              5233:   KELLING BUSHING
 EGL .F              5228:   GROUND LEVEL
 DATE.             5-9-80:   RUN DATE
 RUN .                  1:   RUN NUMBER
 DD  .F               507:   DEPTH DRILLER
 DL  .F               510:   DEPTH LOGGER
 BLI .F               508:   BOTTOM LOG INTERVAL
 TLI .F                20:   TOP LOG INTERVAL
 BS  .IN            7.875:   BIT SIZE
 BSD .F               507:   BIT SIZE AT DEPTH
 DFT .                KCL:   DRILLING FLUID TYPE
 DFD .                8.9:   DRILLING FLUID DENSITY
 DFV .                 42:   DRILLING FLUID VISCOSITY
 MSS .                PIT:   MUD SAMPLE SOURCE
 RMS .OHMM            .36:   RESISTIVITY MUD SAMPLE
 MST .F                75:   MUD SAMPLE TEMPERATURE
 RMF .OHMM            .29:   RESISTIVITY MUD FILTRATE SAMPLE
 MFST.F                75:   MUD FILTRATE SAMPLE TEMPERATURE
 RMC .OHMM            .43:   RESISTIVITY MUD CAKE
 MCST.F                75:   MUD CAKE SAMPLE TEMPERATURE
 MFSS.           MEASURED:   MUD FILTRATE SAMPLE SOURCE
 MCSS.           MEASURED:   MUD CAKE SAMPLE SOURCE
 TCS .HRS               2:   TIME CURCULATED STOPPED
 MRT .F               100:   MAXIMUM RECORDED TEMPERATURE
 LUN .               9685:   LOGGING UNIT NUMBER
 LUL .             CASPER:   LOGGING UNIT LOCATION
 ENGI.            TOTHILL:   RECORDING ENGINEER
 WITN.           DINSMORE:   WITNESSED BY
 CLNT.            A2DTECH:   CLIENT CODE
 ORIG.         2.5" PRINT:   ORIGIN OF DATA
 UWI .       490251081000:   UNIQUE WELL ID
 DICO. A2D Technologies, Inc.:   DIGITIZING COMPANY
~OTHER INFORMATION
~A   DEPT      SPR       SGRD        ILD        ILM         GRD        CALD       CORR       RHOB       DPHI 
# ...
  129.5000   -47.1876     8.0993     6.4466     7.2029    97.0913     7.8353     0.0606     2.4437     0.1394
  130.0000   -47.1869     7.9769     6.4670     7.1788    96.5425     7.8138     0.0736     2.4548     0.1320
  130.5000   -47.0537     8.1597     6.4865     7.1544    95.9091     7.7912     0.0847     2.4669     0.1257
  131.0000   -46.8823     8.2524     6.5010     7.1370    95.8793     7.7713     0.0889     2.4720     0.1221
  131.5000   -46.7102     8.1416     6.5373     7.1495    95.8524     7.7501     0.0941     2.4780     0.1169
  132.0000   -46.5405     7.9769     6.6198     7.1811    95.8690     7.7947     0.0907     2.4740     0.1194
  132.5000   -46.3695     8.1170     6.7031     7.2113    95.3669     7.8441     0.0800     2.4670     0.1241
  133.0000   -46.1983     8.4105     6.7864     7.2426    94.6671     7.8972     0.0727     2.4595     0.1288
  133.5000   -46.0281     8.7145     6.8708     7.2738    93.9846     7.9030     0.0843     2.4708     0.1223
  134.0000   -45.8574     8.9171     6.9562     7.3045    93.2384     7.8900     0.1012     2.4875     0.1129
  134.5000   -45.6830     8.9171     7.0426     7.3343    92.2798     7.8780     0.1171     2.5040     0.1034
  135.0000   -45.4840     8.9171     7.1301     7.3630    91.7148     7.8477     0.1342     2.5215     0.0940
  135.5000   -45.2463     8.9171     7.2188     7.3967    92.0741     7.7813     0.1190     2.5451     0.0855
  136.0000   -45.0062     9.1997     7.3167     7.6731    92.0333     7.7118     0.0992     2.5371     0.0942
  136.5000   -44.7636     9.6046     7.4269     7.8145    91.3080     7.7269     0.0733     2.4926     0.1027
  137.0000   -44.5217     9.6046     7.5388     8.0202    90.6498     7.7450     0.0712     2.5063     0.1000
  137.5000   -44.2851     9.6046     7.6524     8.2642    89.9661     7.7672     0.0576     2.4912     0.1070
  138.0000   -44.0414     9.7847     7.7677     8.5425    90.1447     7.7874     0.0300     2.4650     0.1142
  138.5000   -44.0266    10.4078     7.8847     8.8621    90.5724     7.8078     0.0137     2.4348     0.1393
  139.0000   -44.1127    11.1429     8.0035     9.1928    91.0034     7.8288     0.0256     2.4420     0.1451
  139.5000   -44.1920    10.8839     8.1264     9.5343    91.4288     7.8494     0.0365     2.4437     0.1370
  140.0000   -44.2685    10.3452     8.3059     9.8872    91.7519     7.8699     0.0480     2.4416     0.1418
  140.5000   -44.3582    12.9756     8.4931    10.2525    91.9657     7.8913     0.0663     2.4566     0.1321
  141.0000   -44.2844    16.1543     8.6845    10.5193    92.1884     7.9083     0.0867     2.4755     0.1233
  141.5000   -44.1084    12.5452     8.8802    10.4291    92.4146     7.9250     0.1071     2.4861     0.1145
  142.0000   -43.7991    11.1488     9.0803    10.3399    92.6298     7.9416     0.1165     2.4822     0.1169
  142.5000   -43.1939    10.8512     9.2849    10.2515    92.8435     7.9297     0.1255     2.4892     0.1113
  143.0000   -42.5825    10.5391     9.4279    10.1536    92.7663     7.8810     0.1318     2.4980     0.1046
  143.5000   -41.9058    10.5391     9.6046    10.1591    92.6354     7.8330     0.1277     2.5059     0.0980
  144.0000   -41.7152    10.7142     9.5188     9.7339    92.5016     7.7884     0.1147     2.5028     0.1010
  144.5000   -42.3244    10.8679     9.4440     9.1962    92.3733     7.7519     0.0835     2.4547     0.1124
  145.0000   -42.8599    11.0230     9.3698     8.6883    92.2294     7.8067     0.0511     2.4241     0.1372
  145.5000   -43.4106    11.1482     9.2961     8.1264    91.4207     7.8555     0.0442     2.4299     0.1499
  146.0000   -43.9774    11.0198     9.2230     7.9769    91.2216     7.9096     0.0574     2.4364     0.1432
  146.5000   -44.3755    10.7265     9.1505     8.0314    91.9742     7.9329     0.0685     2.4470     0.1375
  147.0000   -44.3733    10.4404     9.0842     8.1164    91.8152     7.8690     0.0796     2.4573     0.1322
  147.5000   -44.3825    10.1433     8.8415     8.2022    90.6537     7.8285     0.0730     2.4497     0.1339
  148.0000   -44.3829    10.0774     8.4988     8.2788    89.5868     7.8309     0.0794     2.4599     0.1258
  148.5000   -44.3395    10.0179     8.2768     8.3187    88.4778     7.8796     0.0781     2.4642     0.1276
  149.0000   -44.2155     9.9681     8.2290     8.3546    87.9588     7.9252     0.0610     2.4491     0.1331
  149.5000   -44.0936    10.0267     8.1793     8.3906    88.4638     7.9720     0.0439     2.4430     0.1410
  150.0000   -43.9710    10.1856     8.1305     8.4339    89.1013     8.0183     0.0390     2.4501     0.1362
  150.5000   -43.8482    10.3452     8.0820     8.4879    89.6873     8.0256     0.0340     2.4383     0.1423
  151.0000   -43.7259    11.0571     8.0335     8.6218    90.3691     8.0222     0.0291     2.4189     0.1539
  151.5000   -43.6043    11.7812     7.9852     8.7530    90.4178     8.0182     0.0316     2.4239     0.1522
  152.0000   -43.4811    10.7759     7.9370     8.7670    90.4489     8.0149     0.0417     2.4296     0.1485
  152.5000   -43.3581     9.6046     7.8889     8.7919    90.8871     8.0112     0.0578     2.4407     0.1423
  153.0000   -43.2403     9.7774     7.8412     8.8169    91.3983     8.0076     0.0791     2.4567     0.1341
  153.5000   -43.0553    10.0434     7.7937     8.8421    91.9263     8.0041     0.0944     2.4578     0.1274
  154.0000   -42.7954    10.3452     7.7465     8.8672    92.4432     8.0005     0.0866     2.4485     0.1369
  154.5000   -42.5403     9.7524     7.6996     8.8922    92.7984     7.9969     0.0644     2.4202     0.1483
  155.0000   -42.2921     9.0842     7.6692     8.9191    92.6274     7.9934     0.0495     2.3968     0.1596
  155.5000   -42.0341     9.0842     7.6160     8.8176    92.4748     7.9902     0.0435     2.4027     0.1676
  156.0000   -42.0539     9.6649     7.5632     8.6313    92.2885     7.9817     0.0751     2.4206     0.1540
  156.5000   -42.1865    10.2094     7.5107     8.4489    92.5499     7.9676     0.0930     2.4380     0.1386
  157.0000   -42.3122     9.9237     7.4587     8.2704    93.0337     7.9538     0.1033     2.4560     0.1334
  157.5000   -42.4372     9.3945     7.4069     8.1264    93.4810     7.9403     0.0962     2.4631     0.1282
  158.0000   -42.5685     9.0842     7.3555     8.1611    93.9389     7.9264     0.1085     2.4797     0.1217
  158.5000   -42.6950     9.0842     7.3045     8.1907    93.5231     7.9123     0.1204     2.4941     0.1145
  159.0000   -42.8227     9.0842     7.2539     8.2203    92.8184     7.9139     0.1055     2.4808     0.1145
  159.5000   -42.9495     9.0869     7.2034     8.2501    92.1219     7.9436     0.0808     2.4725     0.1182
  160.0000   -43.0743     9.0818     7.1533     8.2788    91.6473     7.9742     0.0565     2.4627     0.1257
  160.5000   -43.2496     8.9928     7.1306     8.0791    92.1477     7.9893     0.0449     2.4536     0.1315
  161.0000   -43.5555     8.9124     7.1103     7.8915    92.7157     7.9921     0.0418     2.4462     0.1361
  161.5000   -43.8580     9.0775     7.0902     7.6861    93.2990     7.9958     0.0383     2.4393     0.1406
  162.0000   -44.1656     8.7682     7.0701     7.5447    93.8873     8.0000     0.0354     2.4324     0.1452
  162.5000   -44.4334     8.4289     7.0500     7.5127    94.4656     8.0037     0.0356     2.4269     0.1481
  163.0000   -44.5925     8.1401     7.0300     7.4833    95.0087     8.0076     0.0463     2.4353     0.1435
  163.5000   -44.7656     8.1930     7.0101     7.4541    95.8281     8.0112     0.0590     2.4526     0.1355
  164.0000   -44.6673     8.4526     6.9901     7.4250    96.8319     8.0157     0.0710     2.4669     0.1274
  164.5000   -44.5530     8.7705     6.9703     7.3848    97.8666     8.0185     0.0824     2.4753     0.1195
  165.0000   -44.4275     8.7364     6.9504     7.3239    98.3743     8.0222     0.0708     2.4653     0.1260
  165.5000   -44.3113     8.1633     6.9307     7.2634    99.1861     8.0303     0.0593     2.4496     0.1325
