~VERSION INFORMATION
 VERS.                2.0:   CWLS LOG ASCII STANDARD - VERSION 2.0
 WRAP.                 NO:   ONE LINE PER DEPTH STEP
~WELL INFORMATION
#MNEM.UNIT      DATA TYPE    INFORMATION
#----------   ------------   ------------------------------
 STRT.F            2.0000:   START DEPTH
 STOP.F          548.0000:   STOP DEPTH
 STEP.F            0.1000:   STEP LENGTH
 NULL.          -999.2500:   NO VALUE
 COMP.       F D SERV INC:   COMPANY
 WELL. NAVAL PETROLEUM RESERVE 3 SX-3 #88-10-3:   WELL
 FLD .             TEAPOT:   FIELD
 LOC .       S3 T38N R78W:   LOCATION
 CNTY.            NATRONA:   COUNTY
 STAT.            WYOMING:   STATE
 CTRY. UNITED STATES OF AMERICA:   COUNTRY
 SRVC.     Atlas Wireline:   SERVICE COMPANY
 DATE.        19-OCT-1992:   LOGDATE
 API .       490252254600:   API NUMBER
~CURVE INFORMATION
#MNEM.UNIT       API CODE    CURVE DESCRIPTION
#----------   ------------   ------------------------------
 DEPT.F                  :   
 GRR .GAPI   07 310 01 00:   GAMMA RAY
 ILD .OHMM   07 120 46 00:   INDUCTION LOG DEEP
 ILM .OHMM   07 120 44 00:   INDUCTION LOG MEDIUM
~PARAMETER INFORMATION
#MNEM.UNIT          VALUE    DESCRIPTION
#----------   ------------   ------------------------------
 PD  .                 GL:   PERMANENT DATUM
 EPD .F              5126:   ELEVATION PERMANENT DATUM
 LMF .                 KB:   LOG MEASURED FROM
 DAPD.F                10:   FEET ABOVE PERMANENT DATUM
 DMF .                 KB:   DRILLING MEASURED FROM
 EKB .F              5136:   KELLING BUSHING
 EDF .F              5135:   DRILLING FLOOR
 EGL .F              5126:   GROUND LEVEL
 DATE.        19-OCT-1992:   RUN DATE
 RUN .                  1:   RUN NUMBER
 DD  .F               566:   DEPTH DRILLER
 DL  .F               558:   DEPTH LOGGER
 BLI .F               550:   BOTTOM LOG INTERVAL
 TLI .F                98:   TOP LOG INTERVAL
 CS  .IN            8.625:   CASING SIZE
 CBD .F                85:   CASING BOTTOM DRILLER
 CBL .F                98:   CASING BOTTOM LOGGER
 BS  .IN            7.875:   BIT SIZE
 BSD .F               566:   BIT SIZE AT DEPTH
 DFT .           AIR FOAM:   DRILLING FLUID TYPE
 TCS .HRS               2:   TIME CURCULATED STOPPED
 MRT .F                73:   MAXIMUM RECORDED TEMPERATURE
 LUN .            HL-6274:   LOGGING UNIT NUMBER
 LUL .             CASPER:   LOGGING UNIT LOCATION
 ENGI.             RAUTIO:   RECORDING ENGINEER
 WITN.        GARY STRONG:   WITNESSED BY
 CLNT.            A2DTECH:   CLIENT CODE
 ORIG.           5" PRINT:   ORIGIN OF DATA
 UWI .       490252254600:   UNIQUE WELL ID
 DICO. A2D Technologies, Inc.:   DIGITIZING COMPANY
~OTHER INFORMATION
~A    DEPT     GRR        ILD        ILM   
# ...
  529.8000   131.0157     8.3698     7.8362
  529.9000   130.4125     8.4426     7.9423
  530.0000   129.8030     8.4905     8.0331
  530.1000   128.7493     8.5396     8.1248
  530.2000   127.5908     8.6373     8.2213
  530.3000   126.6295     8.6962     8.3116
  530.4000   125.8496     8.7454     8.4066
  530.5000   125.6026     8.8128     8.5027
  530.6000   125.5371     8.9004     8.5857
  530.7000   125.6692     8.8998     8.6374
  530.8000   125.9991     8.9454     8.7524
  530.9000   126.4620     9.0313     8.8362
  531.0000   126.7268     9.1105     8.9059
  531.1000   126.9521     9.1621     8.9764
  531.2000   127.1972     9.2140     9.0703
  531.3000   127.4423     9.2662     9.1250
  531.4000   127.6147     9.3188     9.2230
  531.5000   127.6097     9.3716     9.3284
  531.6000   127.6040     9.4064     9.3823
  531.7000   127.1639     9.4059     9.3961
  531.8000   126.6587     9.4053     9.4472
  531.9000   126.0405     9.4529     9.4468
  532.0000   125.1640     9.4702     9.4906
  532.1000  -999.2500     9.4939     9.5445
  532.2000  -999.2500     9.5476     9.5785
  532.3000  -999.2500     9.6018     9.5859
  532.4000  -999.2500     9.6013     9.6448
  532.5000  -999.2500     9.6433     9.6444
  532.6000  -999.2500     9.6675     9.6440
  532.7000  -999.2500     9.6669     9.6436
  532.8000  -999.2500     9.6664     9.6432
  532.9000  -999.2500     9.6658     9.6428
  533.0000  -999.2500     9.6653     9.6424
  533.1000  -999.2500     9.6648     9.6420
  533.2000  -999.2500     9.6642     9.6416
  533.3000  -999.2500     9.6637     9.6412
  533.4000  -999.2500     9.6631     9.6408
  533.5000  -999.2500     9.6626     9.6403
  533.6000  -999.2500     9.6621     9.6399
  533.7000  -999.2500     9.6615     9.6027
  533.8000  -999.2500     9.6610     9.5721
  533.9000  -999.2500     9.6604     9.5717
  534.0000  -999.2500     9.6598     9.5713
  534.1000  -999.2500     9.6594     9.5709
  534.2000  -999.2500     9.6588     9.5705
  534.3000  -999.2500     9.6583     9.5701
  534.4000  -999.2500     9.6577     9.5697
  534.5000  -999.2500     9.6572     9.5693
  534.6000  -999.2500     9.6031     9.5688
  534.7000  -999.2500     9.5889     9.5685
  534.8000  -999.2500     9.5884     9.5681
  534.9000  -999.2500     9.5879     9.5677
  535.0000  -999.2500     9.5829     9.5673
  535.1000  -999.2500     9.5200     9.5668
  535.2000  -999.2500     9.5195     9.5665
  535.3000  -999.2500     9.5190     9.5661
  535.4000  -999.2500     9.4962     9.5657
  535.5000  -999.2500     9.4517     9.5653
  535.6000  -999.2500     9.4512     9.5649
  535.7000  -999.2500     9.4507     9.5644
  535.8000  -999.2500     9.4501     9.5175
  535.9000  -999.2500     9.4496     9.4630
  536.0000  -999.2500     9.4491     9.4306
  536.1000  -999.2500     9.4485     9.4302
  536.2000  -999.2500     9.4479     9.4298
  536.3000  -999.2500     9.4475     9.4294
  536.4000  -999.2500     9.4470     9.3897
  536.5000  -999.2500     9.4464     9.3630
  536.6000  -999.2500     9.4459     9.3626
  536.7000  -999.2500     9.4454     9.3623
  536.8000  -999.2500     9.3937     9.3618
  536.9000  -999.2500     9.3786     9.3615
  537.0000  -999.2500     9.3781     9.3611
  537.1000  -999.2500     9.3776     9.3607
  537.2000  -999.2500     9.3770     9.3516
  537.3000  -999.2500     9.3764     9.2947
  537.4000  -999.2500     9.3760     9.2944
  537.5000  -999.2500     9.3755     9.2940
  537.6000  -999.2500     9.3749     9.2936
  537.7000  -999.2500     9.3744     9.3073
  537.8000  -999.2500     9.3739     9.3580
  537.9000  -999.2500     9.3734     9.3575
  538.0000  -999.2500     9.3728     9.3572
  538.1000  -999.2500     9.3723     9.3568
  538.2000  -999.2500     9.3718     9.3564
  538.3000  -999.2500     9.3713     9.3560
  538.4000  -999.2500     9.3707     9.3556
  538.5000  -999.2500     9.3702     9.3552
  538.6000  -999.2500     9.3697     9.3920
  538.7000  -999.2500     9.3894     9.4200
  538.8000  -999.2500     9.4344     9.4196
  538.9000  -999.2500     9.4337     9.4203
  539.0000  -999.2500     9.4333     9.4738
  539.1000  -999.2500     9.4327     9.4844
  539.2000  -999.2500     9.4322     9.4840
  539.3000  -999.2500     9.4317     9.4649
  539.4000  -999.2500     9.4311     9.4172
  539.5000  -999.2500     9.4305     9.4168
  539.6000  -999.2500     9.4301     9.3684
  539.7000  -999.2500     9.4296     9.3505
  539.8000  -999.2500     9.4095     9.3263
  539.9000  -999.2500     9.3629     9.2611
  540.0000  -999.2500     9.3623     9.1555
  540.1000  -999.2500     9.3130     9.1031
  540.2000  -999.2500     9.1867     9.0910
  540.3000  -999.2500     9.0785     9.0622
  540.4000  -999.2500     9.0137     8.9771
  540.5000  -999.2500     8.9120     8.8395
  540.6000  -999.2500     8.8506     8.8391
  540.7000  -999.2500     8.7302     8.7509
  540.8000  -999.2500     8.6378     8.6514
  540.9000  -999.2500     8.5882     8.5322
  541.0000  -999.2500     8.5325     8.4063
  541.1000  -999.2500     8.4261     8.3571
  541.2000  -999.2500     8.3822     8.2641
  541.3000  -999.2500     8.3018     8.1701
  541.4000  -999.2500     8.2285     8.1259
  541.5000  -999.2500     8.1812     8.1114
  541.6000  -999.2500     8.1348     8.0613
  541.7000  -999.2500     8.1343     7.9564
  541.8000  -999.2500     8.0973     7.9561
  541.9000  -999.2500     8.0250     7.9272
  542.0000  -999.2500     7.9489     7.9001
  542.1000  -999.2500     7.9031     7.8916
  542.2000  -999.2500     7.8530     7.8445
  542.3000  -999.2500     7.8126     7.7589
  542.4000  -999.2500     7.7677     7.7027
  542.5000  -999.2500     7.7231     7.6809
  542.6000  -999.2500     7.6885     7.6681
  542.7000  -999.2500     7.6880     7.6215
  542.8000  -999.2500     7.6439     7.5207
  542.9000  -999.2500     7.6000     7.4846
  543.0000  -999.2500     7.5325     7.4418
  543.1000  -999.2500     7.4606     7.3829
  543.2000  -999.2500     7.4131     7.3056
  543.3000  -999.2500     7.3188     7.2611
  543.4000  -999.2500     7.2817     7.2221
  543.5000  -999.2500     7.2398     7.1517
  543.6000  -999.2500     7.1627     7.0899
  543.7000  -999.2500     7.0491     7.0387
  543.8000  -999.2500     6.9678     6.9585
  543.9000  -999.2500     6.8892     6.8649
  544.0000  -999.2500     6.7811     6.8012
  544.1000  -999.2500     6.6862     6.7238
  544.2000  -999.2500     6.5980     6.6335
  544.3000  -999.2500     6.4890     6.5258
  544.4000  -999.2500     6.4055     6.4454
  544.5000  -999.2500     6.3418     6.3120
  544.6000  -999.2500     6.2237     6.0979
  544.7000  -999.2500     6.0828     5.9051
  544.8000  -999.2500     5.9450     5.7637
  544.9000  -999.2500     5.8074     5.5997
  545.0000  -999.2500     5.6156     5.3812
  545.1000  -999.2500  -999.2500     5.1709
  545.2000  -999.2500  -999.2500     5.0002
  545.3000  -999.2500  -999.2500     4.8687
  545.4000  -999.2500  -999.2500     4.7585
  545.5000  -999.2500  -999.2500     4.6400
  545.6000  -999.2500  -999.2500     4.5461
  545.7000  -999.2500  -999.2500     4.4267
  545.8000  -999.2500  -999.2500     4.2913
  545.9000  -999.2500  -999.2500     4.1516
  546.0000  -999.2500  -999.2500     4.0344
  546.1000  -999.2500  -999.2500     3.9434
  546.2000  -999.2500  -999.2500     3.8044
  546.3000  -999.2500  -999.2500     3.6780
  546.4000  -999.2500  -999.2500     3.5614
  546.5000  -999.2500  -999.2500     3.4252
  546.6000  -999.2500  -999.2500     3.3170
  546.7000  -999.2500  -999.2500     3.2514
  546.8000  -999.2500  -999.2500     3.1781
  546.9000  -999.2500  -999.2500     3.0841
  547.0000  -999.2500  -999.2500     2.9696
  547.1000  -999.2500  -999.2500     2.8841
  547.2000  -999.2500  -999.2500     2.8204
  547.3000  -999.2500  -999.2500     2.7804
  547.4000  -999.2500  -999.2500     2.7488
  547.5000  -999.2500  -999.2500     2.7222
  547.6000  -999.2500  -999.2500     2.7066
  547.7000  -999.2500  -999.2500     2.6889
  547.8000  -999.2500  -999.2500     2.6888
  547.9000  -999.2500  -999.2500     2.6887
