~VERSION INFORMATION
 VERS.                2.0:   CWLS LOG ASCII STANDARD - VERSION 2.0
 WRAP.                 NO:   ONE LINE PER DEPTH STEP
~WELL INFORMATION
#MNEM.UNIT      DATA TYPE    INFORMATION
#----------   ------------   ------------------------------
 STRT.F            0.0000:   START DEPTH
 STOP.F          649.0000:   STOP DEPTH
 STEP.F            0.1000:   STEP LENGTH
 NULL.          -999.2500:   NO VALUE
 COMP.   FLUOR DANIEL INC:   COMPANY
 WELL.     17-1 X 2 #17-2:   WELL
 FLD .             TEAPOT:   FIELD
 LOC .       S2 T38N R78W:   LOCATION
 CNTY.            NATRONA:   COUNTY
 STAT.            WYOMING:   STATE
 CTRY. UNITED STATES OF AMERICA:   COUNTRY
 SRVC.      Western Atlas:   SERVICE COMPANY
 DATE.        20-MAY-1995:   LOGDATE
 API .       490252271000:   API NUMBER
~CURVE INFORMATION
#MNEM.UNIT       API CODE    CURVE DESCRIPTION
#----------   ------------   ------------------------------
 DEPT.F                  :   
 GRR .GAPI   07 310 01 00:   GAMMA RAY
 RILD.OHMM   07 120 46 00:   INDUCTION LOG DEEP RESISTIVITY
 RILM.OHMM   07 120 44 00:   RESITIVITY LOG MEDIUM
~PARAMETER INFORMATION
#MNEM.UNIT          VALUE    DESCRIPTION
#----------   ------------   ------------------------------
 PD  .                 GL:   PERMANENT DATUM
 EPD .F              5145:   ELEVATION PERMANENT DATUM
 LMF .                 KB:   LOG MEASURED FROM
 DAPD.F                10:   FEET ABOVE PERMANENT DATUM
 DMF .                 KB:   DRILLING MEASURED FROM
 EKB .F              5155:   KELLING BUSHING
 EDF .F              5154:   DRILLING FLOOR
 EGL .F              5145:   GROUND LEVEL
 DATE.        20-MAY-1995:   RUN DATE
 RUN .                  1:   RUN NUMBER
 DD  .F               657:   DEPTH DRILLER
 DL  .F               657:   DEPTH LOGGER
 BLI .F               649:   BOTTOM LOG INTERVAL
 CS  .IN            9.625:   CASING SIZE
 CBD .F                82:   CASING BOTTOM DRILLER
 CBL .F                82:   CASING BOTTOM LOGGER
 BS  .IN             8.75:   BIT SIZE
 BSD .F               657:   BIT SIZE AT DEPTH
 DFT .                AIR:   DRILLING FLUID TYPE
 MRT .F                92:   MAXIMUM RECORDED TEMPERATURE
 LUN .            HL 6530:   LOGGING UNIT NUMBER
 LUL .             CASPER:   LOGGING UNIT LOCATION
 ENGI.        VERN RAUTIO:   RECORDING ENGINEER
 WITN.        STEVE HARDY:   WITNESSED BY
 CLNT.            A2DTECH:   CLIENT CODE
 ORIG.           5" PRINT:   ORIGIN OF DATA
 UWI .       490252271000:   UNIQUE WELL ID
 DICO. A2D Technologies, Inc.:   DIGITIZING COMPANY
~OTHER INFORMATION
~A    DEPT      GRR      RILD       RILM   
# ...
  218.4000   116.9310    10.5423    10.1991
  218.5000   117.9185    10.4874    10.1492
  218.6000   119.2294    10.4279    10.1296
  218.7000   120.7457    10.3964    10.1061
  218.8000   121.4938    10.3821    10.0497
  218.9000   121.7391    10.3243     9.9916
  219.0000   121.9869    10.3245     9.9378
  219.1000   122.1008    10.2779     9.9236
  219.2000   122.0231    10.2195     9.9241
  219.3000   121.7541    10.1615     9.9247
  219.4000   121.1995    10.1108     9.9221
  219.5000   120.7702    10.1110     9.8572
  219.6000   120.1182    10.1111     9.8577
  219.7000   119.3798    10.0725     9.8582
  219.8000   118.6912    10.0153     9.8380
  219.9000   118.1889     9.9712     9.7910
  220.0000   117.7074     9.9713     9.7917
  220.1000   117.4017     9.9148     9.7922
  220.2000   117.2875     9.8585     9.7928
  220.3000   117.4407     9.8334     9.7933
  220.4000   117.9141     9.8335     9.7938
  220.5000   118.1962     9.8336     9.7944
  220.6000   118.4097     9.8338     9.7393
  220.7000   118.8147     9.7848     9.7277
  220.8000   119.3090     9.7656     9.7283
  220.9000   119.7562     9.7657     9.7288
  221.0000   120.0121     9.7545     9.7240
  221.1000   120.4903     9.6980     9.6627
  221.2000   120.8012     9.6981     9.6631
  221.3000   120.9207     9.6982     9.6637
  221.4000   120.9219     9.6984     9.6642
  221.5000   120.9231     9.6985     9.6545
  221.6000   120.9245     9.6942     9.5984
  221.7000   120.9255     9.6313     9.5989
  221.8000   120.9267     9.6314     9.5598
  221.9000   121.0272     9.6315     9.5064
  222.0000   121.2308     9.6316     9.4534
  222.1000   121.2320     9.6318     9.4032
  222.2000   121.2332     9.6319     9.4038
  222.3000   121.4150     9.5795     9.4043
  222.4000   121.5373     9.5651     9.3732
  222.5000   121.5385     9.5652     9.3403
  222.6000   121.5244     9.5654     9.3334
  222.7000   121.2394     9.5655     9.2767
  222.8000   121.0337     9.5657     9.2772
  222.9000   120.9400     9.5658     9.2419
  223.0000   120.8446     9.5659     9.1903
  223.1000   120.5993     9.5660     9.1508
  223.2000   120.3403     9.5662     9.1514
  223.3000   120.1086     9.5663     9.1519
  223.4000   119.8632     9.5665     9.1524
  223.5000   119.7406     9.5277     9.1246
  223.6000   119.7418     9.5001     9.0901
  223.7000   119.7181     9.5002     9.0906
  223.8000   119.1411     9.5004     9.0911
  223.9000   118.7342     9.5005     9.0916
  224.0000   117.9446     9.4565     9.0594
  224.1000   117.2408     9.4346     9.0297
  224.2000   116.9183     9.4347     9.0209
  224.3000   116.1304     9.4272     8.9683
  224.4000   116.1315     9.3693     8.9687
  224.5000   115.9577     9.3694     8.9692
  224.6000   115.7124     9.3696     8.9697
  224.7000   115.4023     9.3697     8.9702
  224.8000   114.9297     9.3568     8.9707
  224.9000   114.9311     9.3047     8.9713
  225.0000   114.9321     9.3048     8.9717
  225.1000   114.9333     9.3050     8.9722
  225.2000   115.1163     9.3051     8.9727
  225.3000   115.5748     9.3052     8.9732
  225.4000   115.8420     9.3053     8.9738
  225.5000   116.0704     9.3055     8.9742
  225.6000   116.6624     9.3056     8.9747
  225.7000   117.2863     9.3057     8.9752
  225.8000   117.7186     9.3298     8.9872
  225.9000   117.9664     9.3713     9.0387
  226.0000   118.2627     9.3714     9.0392
  226.1000   118.0654     9.3715     9.0397
  226.2000   117.8200     9.3716     9.0681
  226.3000   117.5747     9.3718     9.1037
  226.4000   117.3621     9.3894     9.1042
  226.5000   117.3636     9.4378     9.1048
  226.6000   117.3647     9.4379     9.1052
  226.7000   117.3659     9.4855     9.1057
  226.8000   117.3671     9.5043     9.1272
  226.9000   117.3683     9.5045     9.1702
  227.0000   117.3695     9.5157     9.1707
  227.1000   117.3707     9.5714     9.1712
  227.2000   117.5674     9.5715     9.1717
  227.3000   117.9555     9.5717     9.1722
  227.4000   118.3646     9.5718     9.1727
  227.5000   118.5822     9.5887     9.1754
  227.6000   118.5835     9.6392     9.2377
  227.7000   118.8062     9.6393     9.2808
  227.8000   119.0540     9.6868     9.3030
  227.9000   119.3018     9.7072     9.3035
  228.0000   119.5495     9.7300     9.3109
  228.1000   119.7961     9.7755     9.3694
  228.2000   118.8062     9.7757     9.3699
  228.3000   117.8212     9.7758     9.4063
  228.4000   116.8362     9.7760     9.4362
  228.5000   115.9336     9.8046     9.4367
  228.6000   115.1952     9.8448     9.4372
  228.7000   114.3736     9.8449     9.4378
  228.8000   113.9371     9.8451     9.4383
  228.9000   113.4452     9.8452     9.4388
  229.0000   112.9532     9.8453     9.4560
  229.1000   112.5683     9.8455     9.5056
  229.2000   112.5695     9.8456     9.5062
  229.3000   112.0809     9.8458     9.5067
  229.4000   111.7788     9.7933     9.5072
  229.5000   111.6682     9.7775     9.5077
  229.6000   111.5898     9.7776     9.5082
  229.7000   111.3688     9.7777     9.5088
  229.8000   111.3703     9.7756     9.5093
  229.9000   111.3713     9.7099     9.5098
  230.0000   111.3726     9.7100     9.4840
  230.1000   111.4795     9.6775     9.4451
  230.2000   111.7273     9.6427     9.4456
  230.3000   111.9795     9.6350     9.4462
  230.4000   112.2228     9.5758     9.4467
  230.5000   112.4706     9.5759     9.4472
  230.6000   112.8503     9.5761     9.4289
  230.7000   113.2678     9.5507     9.3828
  230.8000   113.5155     9.5097     9.3835
  230.9000   113.7968     9.5087     9.3839
  231.0000   114.0111     9.4547     9.3490
  231.1000   114.4169     9.3586     9.3201
  231.2000   114.8083     9.3129     9.3092
  231.3000   115.0560     9.2946     9.2566
  231.4000   115.3111     9.2483     9.2056
  231.5000   115.5515     9.2484     9.1936
  231.6000   115.7993     9.2013     9.1665
  231.7000   115.9180     9.1491     9.1153
  231.8000   115.9932     9.0972     9.0604
  231.9000   116.2220     9.0571     8.9440
  232.0000   116.2234     9.0572     8.9444
  232.1000   116.2244     9.0058     8.9134
  232.2000   116.0704     8.9547     8.8637
  232.3000   115.8250     8.9039     8.8058
  232.4000   115.5797     8.8533     8.7014
  232.5000   115.3243     8.8081     8.6557
  232.6000   115.0890     8.8083     8.6074
  232.7000   115.0250     8.7644     8.5360
  232.8000   115.0262     8.7147     8.4527
  232.9000   115.0275     8.6652     8.4055
  233.0000   115.0287     8.6160     8.3493
  233.1000   115.0301     8.5661     8.2744
  233.2000   115.0311     8.5185     8.2083
  233.3000   115.1847     8.4701     8.1625
  233.4000   115.4325     8.4220     8.1169
  233.5000   115.6803     8.3742     8.0668
  233.6000   115.9409     8.3305     8.0265
  233.7000   115.9421     8.3306     8.0118
  233.8000   116.1219     8.2901     8.0123
  233.9000   116.6166     8.2729     8.0127
  234.0000   117.2207     8.2538     8.0132
  234.1000   117.4950     8.2154     8.0136
  234.2000   118.3616     8.2156     8.0140
  234.3000   118.7720     8.2157     8.0385
  234.4000   119.4160     8.2158     8.0845
  234.5000   120.1569     8.2159     8.1274
  234.6000   120.8583     8.2160     8.1279
  234.7000   121.3841     8.2162     8.1673
  234.8000   121.8469     8.2163     8.2141
  234.9000   122.3413     8.1773     8.2429
  235.0000   122.8356     8.1593     8.2510
  235.1000   123.1332     8.1594     8.3012
  235.2000   122.8879     8.1595     8.3016
  235.3000   122.5981     8.1596     8.3355
  235.4000   122.3972     8.1597     8.3604
  235.5000   122.1518     8.1599     8.3609
  235.6000   121.7231     8.1600     8.3626
  235.7000   121.0942     8.1601     8.4105
  235.8000   121.0957     8.1602     8.4205
  235.9000   120.8688     8.1603     8.4210
  236.0000   120.7964     8.1604     8.4379
  236.1000   120.9154     8.1605     8.4806
  236.2000   121.1004     8.1778     8.4811
  236.3000   121.1017     8.2180     8.4815
  236.4000   121.1031     8.2181     8.4504
  236.5000   121.1041     8.2182     8.4238
