~VERSION INFORMATION
 VERS.                2.0:   CWLS LOG ASCII STANDARD - VERSION 2.0
 WRAP.                 NO:   ONE LINE PER DEPTH STEP
~WELL INFORMATION
#MNEM.UNIT      DATA TYPE    INFORMATION
#----------   ------------   ------------------------------
 STRT.F          458.0000:   START DEPTH
 STOP.F         2155.0000:   STOP DEPTH
 STEP.F            0.5000:   STEP LENGTH
 NULL.          -999.2500:   NO VALUE
 COMP.   FLUOR DANIEL INC:   COMPANY
 WELL. NAVAL PETROLEUM RESERVE 3 SHX- 1 #33-29:   WELL
 FLD .             TEAPOT:   FIELD
 LOC .      S29 T39N R78W:   LOCATION
 CNTY.            NATRONA:   COUNTY
 STAT.            WYOMING:   STATE
 CTRY. UNITED STATES OF AMERICA:   COUNTRY
 SRVC.            Unknown:   SERVICE COMPANY
 DATE.        29-JUN-1995:   LOGDATE
 API .       490252272500:   API NUMBER
~CURVE INFORMATION
#MNEM.UNIT       API CODE    CURVE DESCRIPTION
#----------   ------------   ------------------------------
 DEPT.F                  :   
 C1  .VF     91 831 01 00:   METHANE
 C2  .VF     91 832 01 00:   ETHANE
 C3  .VF     91 833 01 00:   PROPANE
 C4  .VF     91 834 01 00:   BUTANE
 ROP .FT/HR  91 810 01 00:   RAT OF DRILLING PENETRATION
 TGAS.TC/CC  91 830 01 00:   TOTAL GAS UNIT
~PARAMETER INFORMATION
#MNEM.UNIT          VALUE    DESCRIPTION
#----------   ------------   ------------------------------
 EKB .F              5020:   KELLING BUSHING
 EGL .F              5010:   GROUND LEVEL
 DATE.        29-JUN-1995:   RUN DATE
 RUN .                  1:   RUN NUMBER
 BLI .F              2155:   BOTTOM LOG INTERVAL
 TLI .F               460:   TOP LOG INTERVAL
 ENGI.     C.TOWER/R.HUSK:   RECORDING ENGINEER
 CLNT.            A2DTECH:   CLIENT CODE
 ORIG.           5" PRINT:   ORIGIN OF DATA
 UWI .       490252272500:   UNIQUE WELL ID
 DICO. A2D Technologies, Inc.:   DIGITIZING COMPANY
~OTHER INFORMATION
~A   DEPT       C1         C2         C3         C4          ROP       TGAS 
# ...
  770.0000     6.4167     0.4673     0.0000     0.0000     0.7015    33.8912
  770.5000     6.4585     0.4673     0.0000     0.0000     0.7013    33.8912
  771.0000     6.4469     0.4673     0.0000     0.0000     0.7010    33.8912
  771.5000     6.4344     0.3738     0.0000     0.0000     0.7008    32.9498
  772.0000     6.4238     0.4673     0.0000     0.0000     0.7006    32.0084
  772.5000     6.4141     0.4673     0.0000     0.0000     0.7003    32.0084
  773.0000     6.4024     0.4673     0.0000     0.0000     0.7001    32.9498
  773.5000     6.3917     0.4673     0.0000     0.0000     0.6998    33.8912
  774.0000     6.5687     0.4673     0.0000     0.0000     0.6996    33.8912
  774.5000     6.5578     0.4673     0.0000     0.0000     0.6994    33.8912
  775.0000     6.5469     0.4673     0.0000     0.0000     0.6991    34.8326
  775.5000     6.5359     0.4673     0.0000     0.0000     0.6989    34.8326
  776.0000     6.5230     0.5607     0.0000     0.0000     0.6987    34.8326
  776.5000     6.5141     0.5607     0.0000     0.0000     0.6984    34.8326
  777.0000     6.5031     0.5607     0.0000     0.0000     0.6887    34.6759
  777.5000     6.6797     0.5607     0.0000     0.0000     0.6885    33.8912
  778.0000     6.6678     0.5607     0.0000     0.0000     0.6883    33.8912
  778.5000     6.6578     0.5607     0.0000     0.0000     0.6881    32.9498
  779.0000     6.6464     0.5607     0.0000     0.0000     0.6878    32.0084
  779.5000     6.6357     0.5607     0.0000     0.0000     0.6876    32.0084
  780.0000     6.6250     0.5607     0.0000     0.0000     0.6874    31.0669
  780.5000     6.6141     0.5607     0.0000     0.0000     0.6871    30.1255
  781.0000     6.6031     0.4673     0.0000     0.0000     0.6963    29.1841
  781.5000     6.5902     0.4673     0.0000     0.0000     0.6961    29.1841
  782.0000     6.5813     0.4673     0.0000     0.0000     0.6958    30.1255
  782.5000     6.5689     0.4673     0.0000     0.0000     0.6862    30.2039
  783.0000     6.5582     0.3738     0.0018     0.0000     0.6859    31.0669
  783.5000     6.5484     0.3738     0.0000     0.0000     0.6669    31.0669
  784.0000     6.5375     0.3738     0.0000     0.0000     0.5819    31.0669
  784.5000     6.5266     0.3738     0.0000     0.0000     0.5817    31.0669
  785.0000     6.5154     0.3738     0.0000     0.0000     0.5814    30.1255
  785.5000     6.5047     0.3738     0.0000     0.0000     0.5812    31.0669
  786.0000     6.4938     0.3738     0.0000     0.0000     0.5810    31.0669
  786.5000     6.4807     0.3738     0.0000     0.0000     0.5807    32.0084
  787.0000     6.4700     0.3738     0.0000     0.0000     0.5805    32.9498
  787.5000     6.2718     0.3738     0.0000     0.0000     0.5802    32.9498
  788.0000     6.2611     0.3738     0.0000     0.0000     0.5800    32.9498
  788.5000     6.2504     0.3738     0.0000     0.0000     0.5798    33.8912
  789.0000     6.2397     0.3738     0.0000     0.0000     0.5796    33.9696
  789.5000     6.2290     0.3738     0.0000     0.0000     0.5793    34.8326
  790.0000     6.2183     0.3738     0.0000     0.0000     0.7580    34.8326
  790.5000     6.2076     0.3738     0.0000     0.0000     0.8049    34.8326
  791.0000     6.1969     0.3738     0.0000     0.0000     0.8046    33.8912
  791.5000     5.9984     0.4673     0.0000     0.0000     0.8043    33.8912
  792.0000     5.9854     0.4673     0.0000     0.0000     0.8041    33.8912
  792.5000     5.9747     0.4673     0.0000     0.0000     0.8039    33.8912
  793.0000     5.9640     0.4673     0.0351     0.0000     0.8036    33.8912
  793.5000     5.9533     0.4673     0.0326     0.0000     0.8034    33.8912
  794.0000     5.9426     0.4673     0.0302     0.0000     0.8032    33.8912
  794.5000     5.9328     0.4673     0.0277     0.0000     0.8030    33.8128
  795.0000     5.9212     0.4673     0.0252     0.0000     0.8027    32.9498
  795.5000     5.9105     0.4673     0.0227     0.0000     0.7542    32.0084
  796.0000     5.8998     0.4673     0.0202     0.0000     0.7175    31.0669
  796.5000     5.8891     0.4673     0.0178     0.0000     0.7267    30.1255
  797.0000     5.8781     0.4673     0.0153     0.0000     0.7264    30.1255
  797.5000     6.0552     0.4673     0.0127     0.0000     0.7262    30.1255
  798.0000     6.0419     0.4673     0.0097     0.0000     0.7260    31.0669
  798.5000     6.0312     0.4673     0.0107     0.0000     0.7257    31.0669
  799.0000     6.0205     0.3738     0.0136     0.0000     0.7255    32.0305
  799.5000     6.0098     0.3738     0.0165     0.0000     0.7253    32.0189
  800.0000     5.9991     0.3738     0.0193     0.0000     0.7250    32.0074
  800.5000     5.9884     0.3738     0.0222     0.0000     0.7227    31.9959
  801.0000     5.9777     0.3738     0.0251     0.0000     0.7203    31.9844
  801.5000     5.9670     0.3726     0.0279     0.0000     0.7180    31.9728
  802.0000     5.9562     0.3672     0.0308     0.0000     0.7156    31.9613
  802.5000     6.1331     0.3645     0.0337     0.0000     0.7250    31.9495
  803.0000     6.0112     0.3622     0.0365     0.0000     0.7263    31.9378
  803.5000     5.6385     0.3604     0.0394     0.0000     0.7287    31.9238
  804.0000     5.6403     0.3586     0.0423     0.0000     0.7311    31.9123
  804.5000     5.6419     0.4507     0.0451     0.0000     0.7336    32.8451
  805.0000     5.6440     0.3549     0.0480     0.0000     0.7360    32.8307
  805.5000     5.6456     0.3531     0.0508     0.0000     0.7384    32.8191
  806.0000     5.6475     0.3513     0.0537     0.0000     0.7408    32.8076
  806.5000     5.6495     0.3494     0.0566     0.0000     0.7432    32.7961
  807.0000     5.6514     0.3476     0.0594     0.0000     0.7250    32.7846
  807.5000     5.6532     0.3458     0.0623     0.0000     0.7250    32.7730
  808.0000     5.6550     0.3439     0.0652     0.0000     0.7250    32.7615
  808.5000     5.6569     0.3421     0.0667     0.0000     0.7250    32.7497
  809.0000     5.6588     0.3398     0.0657     0.0000     0.7250    32.7380
  809.5000     5.6606     0.3383     0.0646     0.0000     0.7250    32.7240
  810.0000     5.4754     0.3362     0.0636     0.0000     0.7250    32.7125
  810.5000     5.2897     0.3343     0.0625     0.0000     0.7345    32.7010
  811.0000     5.2915     0.3327     0.0614     0.0000     0.7345    32.6895
  811.5000     5.2934     0.3308     0.0604     0.0000     0.7345    32.6779
  812.0000     5.1073     0.3289     0.0593     0.0000     0.7815    31.7250
  812.5000     4.9216     0.3270     0.0583     0.0000     0.7910    30.7720
  813.0000     4.9239     0.3252     0.0572     0.0000     0.7910    28.8777
  813.5000     4.7382     0.3234     0.0561     0.0000     0.7910    27.9247
  814.0000     4.7400     0.3171     0.0551     0.0000     0.7910    26.9718
  814.5000     4.5544     0.2262     0.0540     0.0000     0.7910    26.0186
  815.0000     4.5563     0.2240     0.0530     0.0000     0.7910    25.0654
  815.5000     4.5581     0.2224     0.0519     0.0000     0.7910    25.0514
  816.0000     4.5600     0.2203     0.0508     0.0000     0.7910    25.0399
  816.5000     4.5622     0.2187     0.0498     0.0000     0.7910    25.0284
  817.0000     4.4842     0.3106     0.0487     0.0000     0.7910    25.0169
  817.5000     4.3780     0.3083     0.0477     0.0000     0.7910    25.0053
  818.0000     4.3803     0.3064     0.0466     0.0000     0.7910    24.0524
  818.5000     4.3821     0.3046     0.0456     0.0000     0.7910    24.0409
  819.0000     4.3837     0.3028     0.0445     0.0000     0.7910    23.0879
  819.5000     4.3856     0.3009     0.0434     0.0000     0.8851    23.0764
  820.0000     4.3876     0.3926     0.0424     0.0000     0.8851    23.0649
  820.5000     4.3894     0.3903     0.0413     0.0000     0.8757    23.0531
  821.0000     4.3913     0.3885     0.0403     0.0000     0.8757    23.0413
  821.5000     4.3931     0.3866     0.0392     0.0000     0.9134    23.0274
