~VERSION INFORMATION
 VERS.                2.0:   CWLS LOG ASCII STANDARD - VERSION 2.0
 WRAP.                 NO:   ONE LINE PER DEPTH STEP
~WELL INFORMATION
#MNEM.UNIT      DATA TYPE    INFORMATION
#----------   ------------   ------------------------------
 STRT.F           41.0000:   START DEPTH
 STOP.F          468.0000:   STOP DEPTH
 STEP.F            0.1000:   STEP LENGTH
 NULL.          -999.2500:   NO VALUE
 COMP.       F D SERV INC:   COMPANY
 WELL. NAVAL PETROLEUM RESERVE 3 SX-1 #53-1-10:   WELL
 FLD .             TEAPOT:   FIELD
 LOC .      S10 T38N R78W:   LOCATION
 CNTY.            NATRONA:   COUNTY
 STAT.            WYOMING:   STATE
 CTRY. UNITED STATES OF AMERICA:   COUNTRY
 SRVC.     Atlas Wireline:   SERVICE COMPANY
 DATE.        22-DEC-1992:   LOGDATE
 API .       490252256900:   API NUMBER
~CURVE INFORMATION
#MNEM.UNIT       API CODE    CURVE DESCRIPTION
#----------   ------------   ------------------------------
 DEPT.F                  :   
 GRR .GAPI   07 310 01 00:   GAMMA RAY
 RILD.OHMM   07 120 46 00:   INDUCTION LOG DEEP RESISTIVITY
 RILM.OHMM   07 120 44 00:   RESITIVITY LONG MEDIUM
~PARAMETER INFORMATION
#MNEM.UNIT          VALUE    DESCRIPTION
#----------   ------------   ------------------------------
 PD  .                 GL:   PERMANENT DATUM
 EPD .F              5185:   ELEVATION PERMANENT DATUM
 LMF .                 KB:   LOG MEASURED FROM
 DAPD.F                10:   FEET ABOVE PERMANENT DATUM
 DMF .                 KB:   DRILLING MEASURED FROM
 EKB .F              5195:   KELLING BUSHING
 EDF .F              5194:   DRILLING FLOOR
 EGL .F              5185:   GROUND LEVEL
 DATE.        22-DEC-1992:   RUN DATE
 RUN .                  1:   RUN NUMBER
 DD  .F               475:   DEPTH DRILLER
 DL  .F               472:   DEPTH LOGGER
 BLI .F               470:   BOTTOM LOG INTERVAL
 CS  .IN            8.625:   CASING SIZE
 CBL .F                80:   CASING BOTTOM LOGGER
 BS  .IN            7.875:   BIT SIZE
 BSD .F               475:   BIT SIZE AT DEPTH
 DFT .        AIR DRILLED:   DRILLING FLUID TYPE
 LUN .            HL 6321:   LOGGING UNIT NUMBER
 LUL .       RCK, SPRINGS:   LOGGING UNIT LOCATION
 ENGI.      JOHN THOMPSON:   RECORDING ENGINEER
 WITN.          G. STRONG:   WITNESSED BY
 CLNT.            A2DTECH:   CLIENT CODE
 ORIG.           5" PRINT:   ORIGIN OF DATA
 UWI .       490252256900:   UNIQUE WELL ID
 DICO. A2D Technologies, Inc.:   DIGITIZING COMPANY
~OTHER INFORMATION
~A   DEPT      GRR       RILD       RILM   
# ...
  314.0000   127.3778    12.8409    13.4398
  314.1000   127.0431    12.8418    13.4407
  314.2000   126.2741    12.8427    13.4416
  314.3000   125.3282    12.8435    13.4426
  314.4000   123.9782    12.8444    13.4435
  314.5000   122.6233    12.8455    13.4446
  314.6000   121.4603    12.8462    13.4454
  314.7000   120.5042    12.8471    13.4463
  314.8000   119.9327    12.8480    13.4473
  314.9000   119.5216    12.8354    13.4482
  315.0000   119.1818    12.7606    13.4492
  315.1000   119.0339    12.7615    13.4501
  315.2000   118.9972    12.7624    13.4510
  315.3000   118.7384    12.7633    13.4519
  315.4000   118.5095    12.7642    13.4529
  315.5000   118.0889    12.7650    13.4538
  315.6000   117.5976    12.7661    13.4549
  315.7000   116.7778    12.7668    13.4557
  315.8000   115.0591    12.7677    13.4796
  315.9000   113.3061    12.7686    13.5189
  316.0000   112.7031    12.7695    13.5525
  316.1000   112.1107    12.7705    13.5535
  316.2000   111.7103    12.8383    13.5544
  316.3000   111.4664    12.8615    13.6089
  316.4000   111.2027    12.8624    13.6510
  316.5000   110.9788    12.8633    13.6707
  316.6000   110.7350    12.8641    13.7494
  316.7000   110.6073    12.8650    13.8287
  316.8000   110.6715    12.9237    13.8463
  316.9000   110.9276    12.9568    13.8915
  317.0000   111.4263    12.9577    13.9449
  317.1000   111.7279    12.9586    13.9459
  317.2000   112.2618    12.9596    13.9470
  317.3000   113.0078    13.0256    13.9829
  317.4000   113.7539    13.0519    14.0236
  317.5000   114.5761    13.0528    14.0472
  317.6000   115.0238    13.0688    14.0482
  317.7000   115.6891    13.1459    14.0492
  317.8000   116.3240    13.1468    14.0502
  317.9000   116.8781    13.1478    14.0511
  318.0000   117.6242    13.1487    14.0521
  318.1000   118.1229    13.1718    14.0531
  318.2000   118.4295    13.2424    14.0541
  318.3000   118.6806    13.2435    14.0552
  318.4000   118.8509    13.2443    14.0560
  318.5000   118.8798    13.2452    14.0570
  318.6000   119.1617    13.2756    14.0580
  318.7000   118.7306    13.3397    14.0590
  318.8000   118.0776    13.3407    14.0600
  318.9000   117.3388    13.3415    14.0609
  319.0000   116.7010    13.3966    14.0619
  319.1000   116.4522    13.4738    14.0629
  319.2000   116.2133    13.5316    14.0639
  319.3000   115.9695    13.5325    14.0648
  319.4000   115.7256    13.5336    14.0660
  319.5000   115.5576    13.5344    14.1314
  319.6000   115.5814    13.5800    14.1661
  319.7000   115.8684    13.6309    14.1670
  319.8000   116.2958    13.6319    14.1680
  319.9000   116.7943    13.6329    14.1691
  320.0000   117.4949    13.5643    14.1700
  320.1000   118.6248    13.5400    14.1710
  320.2000   120.4317    13.5410    14.1720
  320.3000   121.6220    13.5419    14.1730
  320.4000   122.6812    13.5429    14.1740
  320.5000   123.4223    13.4676    14.1749
  320.6000   123.9209    13.3923    14.1759
  320.7000   124.4042    13.3174    14.1769
  320.8000   124.6964    13.2664    14.1527
  320.9000   124.6994    13.2608    14.0804
  321.0000   124.7030    13.1763    14.0816
  321.1000   124.7067    13.1771    14.0139
  321.2000   124.6699    13.1307    13.9858
  321.3000   124.4111    13.0572    13.9545
  321.4000   124.1822    12.9841    13.8905
  321.5000   124.1152    12.9082    13.8917
  321.6000   123.9976    12.8393    13.8176
  321.7000   123.6881    12.8203    13.7403
  321.8000   123.1968    12.7848    13.7024
  321.9000   122.6152    12.7132    13.6820
  322.0000   121.8100    12.6420    13.6055
  322.1000   120.9703    12.5588    13.5159
  322.2000   120.2316    12.5595    13.5167
  322.3000   119.5635    12.5180    13.4721
  322.4000   119.2997    12.4740    13.3967
  322.5000   119.3030    12.4548    13.3218
  322.6000   119.1350    12.3032    13.2411
  322.7000   119.1234    12.2402    13.1733
  322.8000   119.3745    12.1717    13.1510
  322.9000   119.6409    12.1036    13.1174
  323.0000   120.6343    12.0359    13.0441
  323.1000   121.6277    11.9685    12.9719
  323.2000   123.1870    11.9015    12.9728
  323.3000   125.3425    11.8877    12.9161
  323.4000   127.6993    11.8510    12.8846
  323.5000   129.3398    11.8069    12.8613
  323.6000   130.2321    11.8007    12.7969
  323.7000   130.8922    11.7266    12.7980
  323.8000   131.2796    11.7273    12.7352
  323.9000   131.5307    11.6849    12.7108
  324.0000   131.7818    11.6475    12.6811
  324.1000   132.2805    11.6484    12.6102
  324.2000   132.3952    11.6492    12.5377
  324.3000   132.2624    11.6500    12.5386
  324.4000   131.9378    11.6508    12.4866
  324.5000   131.4213    11.6516    12.4533
  324.6000   130.5920    11.6524    12.4336
  324.7000   130.1608    11.6532    12.3640
  324.8000   129.6695    11.6542    12.2838
  324.9000   129.1782    11.6548    12.2846
  325.0000   128.7374    11.6557    12.2854
  325.1000   128.4886    11.6565    12.2863
  325.2000   128.2497    11.6573    12.2760
  325.3000   128.1927    11.6581    12.2028
  325.4000   128.1964    11.6589    12.2685
  325.5000   128.2758    11.7067    12.2897
  325.6000   128.5269    11.7421    12.2905
  325.7000   128.8138    11.7599    12.3271
  325.8000   128.8170    11.8258    12.4646
  325.9000   128.8206    11.8268    12.4656
  326.0000   128.8242    11.8274    12.5232
  326.1000   128.7824    11.8670    12.5543
  326.2000   128.5286    11.9354    12.5801
  326.3000   128.2947    11.9959    12.6438
  326.4000   128.0509    11.9968    12.6447
  326.5000   127.9333    12.0588    12.7100
  326.6000   127.8663    12.0823    12.7833
  326.7000   127.6224    12.1136    12.8246
  326.8000   127.3388    12.1685    12.8413
  326.9000   127.1348    12.1693    12.9160
  327.0000   127.0424    12.2388    12.9897
  327.1000   126.9501    12.3094    13.1215
  327.2000   126.7062    12.3804    13.2722
  327.3000   126.4475    12.4518    13.4246
  327.4000   125.9863    12.5235    13.5852
  327.5000   125.6717    12.6061    13.8531
  327.6000   125.3067    12.7304    13.9897
  327.7000   124.8810    12.8768    14.2016
  327.8000   124.6372    13.0551    14.3797
  327.9000   124.3485    13.2531    14.4920
  328.0000   124.1495    13.3332    14.7539
  328.1000   123.9056    13.5524    14.9153
  328.2000   123.6618    13.7865    15.1493
  328.3000   123.4180    13.9844    15.4106
  328.4000   123.1542    14.1451    15.7007
  328.5000   122.4758    14.3113    16.0659
  328.6000   121.3934    14.6034    16.6147
  328.7000   120.0435    14.8101    16.9287
  328.8000   118.5019    15.1172    17.4378
  328.9000   116.7785    15.4655    18.0426
  329.0000   115.2967    15.8213    18.6519
  329.1000   113.8156    16.2177    19.2367
  329.2000   112.4760    16.4735    19.7449
  329.3000   111.4140    16.8242    20.3961
  329.4000   110.6448    17.2120    21.1607
  329.5000   109.5579    17.6083    21.9576
  329.6000   108.8946    18.0137    22.5883
  329.7000   108.3225    18.5357    23.1100
  329.8000   107.7201    19.0720    23.7493
  329.9000   106.9255    19.6861    24.2794
  330.0000   105.9394    20.3302    24.6978
  330.1000   105.2007    20.9405    25.1230
  330.2000   104.2698    21.8992    25.6110
  330.3000   103.1471    22.5669    25.9978
  330.4000   101.8327    23.1778    26.3485
  330.5000   100.4021    23.7119    26.7156
  330.6000    99.2950    24.3128    27.1757
  330.7000    99.0810    25.1821    27.6587
  330.8000    98.8372    25.8885    27.9667
  330.9000    98.5933    26.4114    28.2882
  331.0000    98.3495    26.7092    28.5291
  331.1000    98.1007    26.8632    28.6934
  331.2000    97.8618    27.0276    28.8485
  331.3000    97.6180    27.3896    28.8508
  331.4000    97.5055    27.5217    28.8525
  331.5000    97.4333    27.6804    28.8545
  331.6000    97.1895    27.8400    28.8565
  331.7000    96.9108    28.0005    28.8330
  331.8000    96.7018    28.1733    28.6605
  331.9000    96.6145    28.3244    28.5116
  332.0000    96.5172    28.4878    28.4654
  332.1000    96.3181    28.5744    28.3907
