~VERSION INFORMATION
 VERS.                2.0:   CWLS LOG ASCII STANDARD - VERSION 2.0
 WRAP.                 NO:   ONE LINE PER DEPTH STEP
~WELL INFORMATION
#MNEM.UNIT      DATA TYPE    INFORMATION
#----------   ------------   ------------------------------
 STRT.F           22.0000:   START DEPTH
 STOP.F          654.0000:   STOP DEPTH
 STEP.F            0.5000:   STEP LENGTH
 NULL.          -999.2500:   NO VALUE
 COMP. FENIX & SCISSON INC:   COMPANY
 WELL.     54 S 34 #54-34:   WELL
 FLD .             TEAPOT:   FIELD
 LOC .      S34 T39N R78W:   LOCATION
 CNTY.            NATRONA:   COUNTY
 STAT.            WYOMING:   STATE
 CTRY. UNITED STATES OF AMERICA:   COUNTRY
 SRVC.           BIRDWELL:   SERVICE COMPANY
 DATE.        22-AUG-1978:   LOGDATE
 API .       490251070100:   API NUMBER
~CURVE INFORMATION
#MNEM.UNIT       API CODE    CURVE DESCRIPTION
#----------   ------------   ------------------------------
 DEPT.F                  :   
 SPR .MV     05 010 01 00:   SPONTANEOUS POTENTIAL FROM RES.
 SN  .OHMM   05 040 16 00:   SHORT NORMAL 16"
 ILD .OHMM   05 120 46 00:   INDUCTION LOG DEEP
 CALD.IN     45 280 60 00:   CALIPER
 GRD .GAPI   45 310 01 00:   GAMMA RAY FROM DENSITY LOG
 DPHI.DEC    45 890 12 00:   DENSITY POROSITY SANDSTONE
 RHOB.G/C3   45 350 01 00:   BULK DENSITY
 CORR.G/C3   45 356 01 00:   DENSITY CORRECTION
~PARAMETER INFORMATION
#MNEM.UNIT          VALUE    DESCRIPTION
#----------   ------------   ------------------------------
 PD  .                 GL:   PERMANENT DATUM
 EPD .F              5085:   ELEVATION PERMANENT DATUM
 LMF .                 KB:   LOG MEASURED FROM
 DAPD.F                 4:   FEET ABOVE PERMANENT DATUM
 DMF .                 KB:   DRILLING MEASURED FROM
 EKB .F              5089:   KELLING BUSHING
 EGL .F              5085:   GROUND LEVEL
 DATE.            8-22-78:   RUN DATE
 RUN .                  1:   RUN NUMBER
 DD  .F               685:   DEPTH DRILLER
 DL  .F               653:   DEPTH LOGGER
 BLI .F               646:   BOTTOM LOG INTERVAL
 TLI .F                30:   TOP LOG INTERVAL
 CS  .IN            8.625:   CASING SIZE
 CBD .F                46:   CASING BOTTOM DRILLER
 CBL .F                46:   CASING BOTTOM LOGGER
 BS  .IN            7.875:   BIT SIZE
 BSD .F               685:   BIT SIZE AT DEPTH
 DFT .                KCL:   DRILLING FLUID TYPE
 DFD .                8.7:   DRILLING FLUID DENSITY
 DFV .                 33:   DRILLING FLUID VISCOSITY
 DFPH.                  9:   DRILLING FLUID PH
 MSS .           FLOWLINE:   MUD SAMPLE SOURCE
 RMS .OHMM            .18:   RESISTIVITY MUD SAMPLE
 MST .F                86:   MUD SAMPLE TEMPERATURE
 RMF .OHMM            .16:   RESISTIVITY MUD FILTRATE SAMPLE
 MFST.F                86:   MUD FILTRATE SAMPLE TEMPERATURE
 RMC .OHMM            .52:   RESISTIVITY MUD CAKE
 MCST.F                86:   MUD CAKE SAMPLE TEMPERATURE
 MFSS.               MEAS:   MUD FILTRATE SAMPLE SOURCE
 MCSS.               MEAS:   MUD CAKE SAMPLE SOURCE
 BHT .F                70:   BOTTOM HOLE TEMPERATURE
 TCS .HRS               2:   TIME CURCULATED STOPPED
 MRT .F                70:   MAXIMUM RECORDED TEMPERATURE
 LUN .               2958:   LOGGING UNIT NUMBER
 LUL .               CASP:   LOGGING UNIT LOCATION
 ENGI.           REYNOLDS:   RECORDING ENGINEER
 WITN.              AMEND:   WITNESSED BY
 CLNT.            A2DTECH:   CLIENT CODE
 ORIG.           5" PRINT:   ORIGIN OF DATA
 UWI .       490251070100:   UNIQUE WELL ID
 DICO. A2D Technologies, Inc.:   DIGITIZING COMPANY
~OTHER INFORMATION
~A   DEPT      SPR         SN        ILD       CALD         GRD      DPHI       RHOB       CORR   
# ...
  629.5000    -3.8844    11.0473    12.8943     7.5576    73.5477     0.1745     2.3947     0.0289
  630.0000    -4.2984    11.0392    12.7580     7.5601    74.1093     0.1749     2.3930     0.0264
  630.5000    -4.7526    11.0311    12.6233     7.5625    74.6248     0.1749     2.3939     0.0239
  631.0000    -5.2051    11.0231    12.4899     7.5650    72.9460     0.1657     2.3967     0.0225
  631.5000    -5.6617    11.0148    12.3580     7.5675    72.3475     0.1550     2.4189     0.0223
  632.0000    -5.9828    10.9975    12.2275     7.5699    76.6814     0.1413     2.4413     0.0221
  632.5000    -6.1723    10.9684    12.0983     7.5724    79.4967     0.1445     2.4494     0.0220
  633.0000    -6.7546    10.9391    11.9705     7.5748    75.4439     0.1508     2.4376     0.0218
  633.5000    -7.2766    10.9100    11.8498     7.5773    71.7965     0.1571     2.4233     0.0216
  634.0000    -7.7976    10.8809    11.8246     7.5798    71.5001     0.1633     2.4115     0.0215
  634.5000    -8.3122    10.8519    11.8006     7.5822    71.9427     0.1582     2.4177     0.0213
  635.0000    -8.7503    10.8230    11.7766     7.5847    72.8333     0.1521     2.4290     0.0211
  635.5000    -8.9904    10.7942    11.7526     7.5871    72.1372     0.1469     2.4384     0.0210
  636.0000    -9.2301    10.7654    11.7287     7.5896    69.8400     0.1464     2.4400     0.0208
  636.5000    -9.4670    10.7368    11.7049     7.5921    68.7364     0.1461     2.4417     0.0207
  637.0000    -9.6909    10.7082    11.6811     7.5945    71.6962     0.1422     2.4449     0.0212
  637.5000    -9.7583    10.6797    11.6573     7.5970    75.0376     0.1418     2.4467     0.0247
  638.0000    -9.8282    10.6512    11.6336     7.5994    76.9699     0.1425     2.4454     0.0282
  638.5000    -9.8985    10.6228    11.6099     7.6019    74.8121     0.1432     2.4441     0.0317
  639.0000    -9.9688    10.5945    11.5863     7.6043    73.3350     0.1439     2.4428     0.0352
  639.5000   -10.0391    10.5663    11.5627     7.6068    73.6141     0.1440     2.4423     0.0387
  640.0000   -10.1094    10.5382    11.5392     7.6091    73.8556     0.1423     2.4446     0.0422
  640.5000   -10.1796    10.5101    11.5158     7.6205    74.0965     0.1424     2.4470     0.0457
  641.0000   -10.2499    10.4821    11.4923     7.6355    74.3380     0.1448     2.4468     0.0487
  641.5000   -10.3202    10.4542    11.4690     7.6505    74.5899     0.1444     2.4451     0.0488
  642.0000   -10.3905    10.4263    11.4456     7.6660    74.6912     0.1404     2.4501     0.0491
  642.5000   -10.4608    10.3985    11.4223     7.6702    72.5552     0.1360     2.4556     0.0493
  643.0000   -10.5308    10.3708    11.3991     7.6600    72.2313     0.1360     2.4579     0.0496
  643.5000   -10.6017    10.3432    11.3759     7.6458    71.4055     0.1360     2.4580     0.0498
  644.0000   -10.6777    10.3157    11.3528     7.6314  -999.2500     0.1318     2.4618     0.0501
  644.5000   -10.8774    10.2882    11.3297     7.6170  -999.2500     0.1288     2.4658     0.0504
  645.0000   -11.3865    10.2608    11.3181     7.5889  -999.2500     0.1312     2.4659     0.0525
  645.5000   -11.7727    10.2334    11.3181     7.5471  -999.2500     0.1288     2.4650     0.0591
  646.0000   -12.2930    10.2306    11.3180     7.5052  -999.2500     0.1218     2.4705     0.0645
  646.5000  -999.2500  -999.2500  -999.2500     7.4632  -999.2500     0.1148     2.4822     0.0628
  647.0000  -999.2500  -999.2500  -999.2500     7.4212  -999.2500     0.1140     2.4982     0.0593
  647.5000  -999.2500  -999.2500  -999.2500     7.3795  -999.2500     0.1096     2.4978     0.0589
  648.0000  -999.2500  -999.2500  -999.2500     7.3493  -999.2500     0.1131     2.4924     0.0623
  648.5000  -999.2500  -999.2500  -999.2500     7.3500  -999.2500     0.1158     2.4850     0.0588
  649.0000  -999.2500  -999.2500  -999.2500     7.3502  -999.2500     0.1052     2.5132     0.0547
  649.5000  -999.2500  -999.2500  -999.2500     7.3504  -999.2500     0.1087     2.5056     0.0545
  650.0000  -999.2500  -999.2500  -999.2500     7.3475  -999.2500     0.1138     2.4928     0.0620
  650.5000  -999.2500  -999.2500  -999.2500     7.3013  -999.2500     0.1188     2.4807     0.0692
  651.0000  -999.2500  -999.2500  -999.2500     7.2884  -999.2500     0.1060     2.4938     0.0765
  651.5000  -999.2500  -999.2500  -999.2500  -999.2500  -999.2500     0.1204     2.4868     0.0820
  652.0000  -999.2500  -999.2500  -999.2500  -999.2500  -999.2500     0.1052     2.4987     0.0848
  652.5000  -999.2500  -999.2500  -999.2500  -999.2500  -999.2500     0.1096     2.5146     0.0804
  653.0000  -999.2500  -999.2500  -999.2500  -999.2500  -999.2500     0.1054     2.5020  -999.2500
  653.5000  -999.2500  -999.2500  -999.2500  -999.2500  -999.2500     0.1037     2.5159  -999.2500
  654.0000  -999.2500  -999.2500  -999.2500  -999.2500  -999.2500     0.1079  -999.2500  -999.2500
