~VERSION INFORMATION
 VERS.                2.0:   CWLS LOG ASCII STANDARD - VERSION 2.0
 WRAP.                 NO:   ONE LINE PER DEPTH STEP
~WELL INFORMATION
#MNEM.UNIT      DATA TYPE    INFORMATION
#----------   ------------   ------------------------------
 STRT.F            0.0000:   START DEPTH
 STOP.F          666.0000:   STOP DEPTH
 STEP.F            0.1000:   STEP LENGTH
 NULL.          -999.2500:   NO VALUE
 COMP.   FLUOR DANIEL INC:   COMPANY
 WELL.   77-2 X 34 #77-34:   WELL
 FLD .             TEAPOT:   FIELD
 LOC .      S34 T39N R78W:   LOCATION
 CNTY.            NATRONA:   COUNTY
 STAT.            WYOMING:   STATE
 CTRY. UNITED STATES OF AMERICA:   COUNTRY
 SRVC.      Western Atlas:   SERVICE COMPANY
 DATE.        01-APR-1995:   LOGDATE
 API .       490252270000:   API NUMBER
~CURVE INFORMATION
#MNEM.UNIT       API CODE    CURVE DESCRIPTION
#----------   ------------   ------------------------------
 DEPT.F                  :   
 GRR .GAPI   07 310 01 00:   GAMMA RAY
 RILD.OHMM   07 120 46 00:   INDUCTION LOG DEEP RESISTIVITY
 RILM.OHMM   07 120 44 00:   INDUCTION LOG MEDIUM RESISTIVITY
~PARAMETER INFORMATION
#MNEM.UNIT          VALUE    DESCRIPTION
#----------   ------------   ------------------------------
 PD  .                 GL:   PERMANENT DATUM
 EPD .F              5106:   ELEVATION PERMANENT DATUM
 LMF .                 KB:   LOG MEASURED FROM
 DAPD.F                10:   FEET ABOVE PERMANENT DATUM
 DMF .                 KB:   DRILLING MEASURED FROM
 EKB .F              5116:   KELLING BUSHING
 EDF .F              5115:   DRILLING FLOOR
 EGL .F              5106:   GROUND LEVEL
 DATE.        01-APR-1995:   RUN DATE
 RUN .                  1:   RUN NUMBER
 DD  .F               674:   DEPTH DRILLER
 DL  .F               674:   DEPTH LOGGER
 BLI .F               666:   BOTTOM LOG INTERVAL
 TLI .F                52:   TOP LOG INTERVAL
 CS  .IN            9.625:   CASING SIZE
 CBD .F                52:   CASING BOTTOM DRILLER
 CBL .F                52:   CASING BOTTOM LOGGER
 BS  .IN             8.75:   BIT SIZE
 BSD .F               674:   BIT SIZE AT DEPTH
 DFT .                AIR:   DRILLING FLUID TYPE
 MRT .F                89:   MAXIMUM RECORDED TEMPERATURE
 LUN .            HL 6530:   LOGGING UNIT NUMBER
 LUL .             CASPER:   LOGGING UNIT LOCATION
 ENGI.      PAT RASMUSSEN:   RECORDING ENGINEER
 WITN.        GARY STRONG:   WITNESSED BY
 CLNT.            A2DTECH:   CLIENT CODE
 ORIG.           5" PRINT:   ORIGIN OF DATA
 UWI .       490252270000:   UNIQUE WELL ID
 DICO. A2D Technologies, Inc.:   DIGITIZING COMPANY
~OTHER INFORMATION
~A    DEPT      GRR      RILD       RILM   
# ...
  582.4000    71.4270    26.7701    31.9294
  582.5000    71.4263    27.4369    32.2412
  582.6000    71.4258    28.1036    32.4927
  582.7000    71.5961    28.7704    32.6002
  582.8000    71.7281    29.4371    32.6002
  582.9000    71.7275    29.7138    32.6002
  583.0000    71.7269    30.0836    32.6002
  583.1000    71.7261    30.4775    32.6002
  583.2000    71.9320    30.6797    32.6002
  583.3000    71.8758    31.0561    32.5368
  583.4000    71.7244    31.2240    32.3518
  583.5000    71.6327    31.2745    32.1514
  583.6000    71.1162    31.2758    32.1514
  583.7000    70.6320    31.2771    32.0244
  583.8000    70.1318    31.2632    31.8423
  583.9000    69.6314    31.0639    31.6612
  584.0000    69.0500    30.9105    31.4725
  584.1000    68.3273    30.7357    31.0564
  584.2000    67.7741    30.5618    30.9095
  584.3000    67.5500    30.3082    30.5196
  584.4000    67.1295    29.8009    30.0698
  584.5000    66.8619    29.6003    29.6976
  584.6000    66.8613    29.1945    29.1785
  584.7000    66.8607    28.8948    28.8576
  584.8000    66.8600    28.6062    28.4088
  584.9000    66.8595    28.1479    27.9272
  585.0000    66.8589    27.8161    27.4533
  585.1000    66.8583    27.5142    26.9875
  585.2000    66.9467    27.0878    26.5346
  585.3000    67.4640    26.7091    26.0818
  585.4000    67.7042    26.4066    25.6382
  585.5000    68.3277    26.1073    25.2033
  585.6000    69.0767    25.7809    24.7756
  585.7000    69.9857    25.3895    24.3548
  585.8000    71.2085    24.9592    23.8660
  585.9000    72.3162    24.5360    23.5365
  586.0000    73.4287    24.1548    23.1376
  586.1000    74.3393    23.8810    22.7451
  586.2000    74.9729    23.5657    22.3801
  586.3000    75.4721    23.3436    22.1142
  586.4000    75.9714    23.0793    21.8756
  586.5000    76.5613    22.7653    21.6278
  586.6000    76.5609    22.4035    21.3826
  586.7000    76.8617    22.1452    21.1766
  586.8000    77.2637    21.7767    21.0454
  586.9000    77.5131    21.5016    20.7770
  587.0000    77.7724    21.2582    20.6737
  587.1000    77.7718    21.0174    20.4794
  587.2000    77.7712    20.7791    20.2982
  587.3000    77.9031    20.5249    20.1828
  587.4000    78.1524    20.3114    20.0664
  587.5000    78.4269    20.0815    19.8392
  587.6000    78.9826    19.8541    19.7932
  587.7000    79.4251    19.6606    19.6628
  587.8000    80.0923    19.5417    19.4801
  587.9000    80.8413    19.2887    19.3693
  588.0000    81.5903    19.1017    19.2520
  588.1000    82.3251    18.9548    19.2520
  588.2000    82.6208    18.8014    19.0951
  588.3000    82.6203    18.6115    18.9870
  588.4000    82.6197    18.5062    18.9559
  588.5000    82.6191    18.4015    18.8481
  588.6000    82.6185    18.2975    18.7257
  588.7000    82.6179    18.1940    18.7257
  588.8000    82.3786    18.0910    18.6574
  588.9000    81.9430    17.9885    18.5963
  589.0000    81.5742    17.8810    18.5963
  589.1000    81.2458    17.7856    18.5963
  589.2000    80.7697    17.7590    18.5963
  589.3000    80.4898    17.7597    18.6793
  589.4000    80.2687    17.7296    18.7257
  589.5000    80.1851    17.6385    18.7257
  589.6000    80.0712    17.6394    18.7257
  589.7000    79.8804    17.6400    18.7257
  589.8000    79.8798    17.6407    18.7257
  589.9000    79.8791    17.6415    18.8008
  590.0000    80.0810    17.6422    18.9083
  590.1000    80.1815    17.6429    18.9870
  590.2000    80.3711    17.6438    18.9930
  590.3000    80.8700    17.6444    19.1191
  590.4000    81.3936    17.6451    19.2109
  590.5000    82.1063    17.6459    19.2520
  590.6000    83.0394    17.6466    19.2970
  590.7000    84.1688    17.6474    19.3859
  590.8000    85.4944    17.6481    19.3859
  590.9000    86.9698    17.7251    19.4943
  591.0000    88.3702    17.7723    19.5207
  591.1000    89.0282    17.7730    19.5817
  591.2000    89.4454    17.7738    19.6565
  591.3000    89.5824    17.7746    19.6695
  591.4000    89.5230    17.7752    19.7932
  591.5000    89.2676    17.7760    19.7932
  591.6000    88.6700    17.8255    19.8706
  591.7000    88.2669    17.9011    19.9308
  591.8000    87.4713    17.9018    19.9308
  591.9000    86.4710    17.9027    19.9308
  592.0000    85.3895    17.9033    19.9308
  592.1000    83.8112    17.9685    19.9308
  592.2000    83.1003    18.0293    19.9999
  592.3000    82.5333    18.0301    20.0694
  592.4000    82.2920    18.0308    20.0694
  592.5000    82.2914    18.0316    20.0694
  592.6000    82.3129    18.0323    19.9600
  592.7000    82.5936    18.0331    19.9308
  592.8000    83.0302    18.0338    19.9308
  592.9000    83.3643    18.0346    19.8954
  593.0000    83.7247    18.0354    19.7932
  593.1000    84.2240    18.0361    19.7932
  593.2000    84.7229    18.0368    19.7932
  593.3000    85.3213    18.0376    19.7183
  593.4000    85.9218    18.0383    19.6061
  593.5000    86.3774    18.0391    19.5207
  593.6000    86.4404    18.0399    19.5185
  593.7000    86.1110    18.0406    19.3859
  593.8000    85.3183    18.0413    19.2974
  593.9000    84.8463    17.9970    19.2520
  594.0000    83.9814    17.9182    19.2520
  594.1000    83.2385    17.9190    19.2348
  594.2000    82.8132    17.7961    19.1191
  594.3000    82.5839    17.7967    19.0167
  594.4000    82.5832    17.7974    18.9086
  594.5000    82.8002    17.7982    18.8559
  594.6000    83.0494    17.7989    18.8243
  594.7000    83.2987    17.7997    18.7257
  594.8000    83.5480    17.7040    18.7257
  594.9000    83.8036    17.6782    18.6338
  595.0000    84.5523    17.6789    18.5279
  595.1000    85.7002    17.6482    18.4679
  595.2000    86.8031    17.5582    18.4451
  595.3000    87.8939    17.5591    18.3404
  595.4000    89.1046    17.5597    18.3404
  595.5000    90.1638    17.5605    18.3404
  595.6000    90.8672    17.5150    18.2809
  595.7000    91.2542    17.4407    18.2137
  595.8000    91.5035    17.4414    18.2137
  595.9000    91.6789    17.4422    18.2137
  596.0000    91.6580    17.4428    18.2137
  596.1000    91.3741    17.3828    18.2137
  596.2000    91.1571    17.3238    18.2137
  596.3000    90.9066    17.3245    18.2137
  596.4000    90.4375    17.3253    18.2137
  596.5000    89.7430    17.3260    18.2137
  596.6000    89.2427    17.2515    18.2137
  596.7000    88.7423    17.2077    18.2137
  596.8000    88.2420    17.2085    18.2137
  596.9000    87.7416    17.2214    18.2137
  597.0000    87.2413    17.3296    18.2137
  597.1000    86.8158    17.3303    18.2137
  597.2000    86.8151    17.3310    18.2137
  597.3000    86.8146    17.3317    18.2137
  597.4000    86.8140    17.3596    18.1788
  597.5000    86.9398    17.4537    18.0879
  597.6000    87.1892    17.4545    18.0879
  597.7000    87.4383    17.4552    17.9948
  597.8000    87.7219    17.4559    17.9630
  597.9000    88.1524    17.4566    17.9145
  598.0000    88.4897    17.4573    17.8389
  598.1000    88.8472    17.4581    17.8345
  598.2000    89.3462    17.4588    17.7157
  598.3000    89.8444    17.3815    17.7157
  598.4000    90.0937    17.3397    17.6541
  598.5000    90.3429    17.3404    17.5537
  598.6000    90.4486    17.3411    17.4719
  598.7000    90.3579    17.3419    17.4719
  598.8000    90.1075    17.2502    17.3760
  598.9000    89.8397    17.2235    17.3512
  599.0000    89.8392    17.2242    17.3512
  599.1000    89.6594    17.1958    17.3197
  599.2000    89.4090    17.1066    17.2314
  599.3000    89.1585    17.1075    17.2314
  599.4000    88.9080    17.1081    17.2314
  599.5000    88.6221    17.0446    17.1655
  599.6000    88.6215    16.9482    17.1124
  599.7000    88.4601    16.8747    17.0889
  599.8000    88.3168    16.8754    16.9942
  599.9000    88.3162    16.8762    16.9942
  600.0000    88.3156    16.8465    16.9821
  600.1000    88.3150    16.8097    16.9672
  600.2000    88.3144    16.7729    16.9523
  600.3000    87.6260    16.7361    16.9374
  600.4000    87.4133    16.6993    16.9225
  600.5000    87.3313    16.6625    16.9076
