~VERSION INFORMATION
 VERS.                2.0:   CWLS LOG ASCII STANDARD - VERSION 2.0
 WRAP.                 NO:   ONE LINE PER DEPTH STEP
~WELL INFORMATION
#MNEM.UNIT      DATA TYPE    INFORMATION
#----------   ------------   ------------------------------
 STRT.F          248.0000:   START DEPTH
 STOP.F         2495.0000:   STOP DEPTH
 STEP.F            0.5000:   STEP LENGTH
 NULL.          -999.2500:   NO VALUE
 COMP. FENIX & SCISSON INC:   COMPANY
 WELL.      85 SHX #28-28:   WELL
 FLD .             TEAPOT:   FIELD
 LOC .      S28 T39N R78W:   LOCATION
 CNTY.            NATRONA:   COUNTY
 STAT.            WYOMING:   STATE
 CTRY. UNITED STATES OF AMERICA:   COUNTRY
 SRVC.           BIRDWELL:   SERVICE COMPANY
 DATE.        18-AUG-1979:   LOGDATE
 API .       490251079700:   API NUMBER
~CURVE INFORMATION
#MNEM.UNIT       API CODE    CURVE DESCRIPTION
#----------   ------------   ------------------------------
 DEPT.F                  :   
 CALD.IN     45 280 60 00:   CALIPER
 CORR.G/C3   45 356 01 00:   DENSITY CORRECTION
 RHOB.G/C3   45 350 01 00:   BULK DENSITY
 DPHI.DEC    45 890 12 00:   DENSITY POROSITY SANDSTONE
 GRD .GAPI   45 310 01 00:   GAMMA RAY FROM DENSITY LOG
~PARAMETER INFORMATION
#MNEM.UNIT          VALUE    DESCRIPTION
#----------   ------------   ------------------------------
 PD  .                 GL:   PERMANENT DATUM
 EPD .F              5044:   ELEVATION PERMANENT DATUM
 LMF .                 DF:   LOG MEASURED FROM
 DMF .                 KB:   DRILLING MEASURED FROM
 EKB .F              5054:   KELLING BUSHING
 EDF .F              5052:   DRILLING FLOOR
 EGL .F              5044:   GROUND LEVEL
 DATE.            8-18-79:   RUN DATE
 RUN .                  1:   RUN NUMBER
 DD  .F              2500:   DEPTH DRILLER
 DL  .F              2495:   DEPTH LOGGER
 BLI .F              2495:   BOTTOM LOG INTERVAL
 CS  .IN            9.625:   CASING SIZE
 CBD .F               520:   CASING BOTTOM DRILLER
 CBL .F               505:   CASING BOTTOM LOGGER
 BS  .IN             8.75:   BIT SIZE
 BSD .F              2500:   BIT SIZE AT DEPTH
 DFT .                AIR:   DRILLING FLUID TYPE
 TCS .HRS               2:   TIME CURCULATED STOPPED
 ENGI.          B. MILLER:   RECORDING ENGINEER
 WITN.           DINSMORE:   WITNESSED BY
 CLNT.            A2DTECH:   CLIENT CODE
 ORIG.           5" PRINT:   ORIGIN OF DATA
 UWI .       490251079700:   UNIQUE WELL ID
 DICO. A2D Technologies, Inc.:   DIGITIZING COMPANY
~OTHER INFORMATION
~A   DEPT     CALD       CORR       RHOB       DPHI         GRD  
# ...
 2444.0000     8.9606    -0.0002     2.4963     0.0279   157.0960
 2444.5000     8.9552    -0.0118     2.4894     0.0307   152.0547
 2445.0000     8.9498    -0.0115     2.4984     0.0240   152.3458
 2445.5000     8.9443    -0.0125     2.5080     0.0195   154.4606
 2446.0000     8.9389    -0.0166     2.5075     0.0206   153.8212
 2446.5000     8.9335    -0.0144     2.5074     0.0188   152.1568
 2447.0000     8.9281    -0.0057     2.5162     0.0147   147.7115
 2447.5000     8.9226    -0.0117     2.5209     0.0141   143.2494
 2448.0000     8.9172    -0.0192     2.5180     0.0146   143.1803
 2448.5000     8.9118    -0.0257     2.5140     0.0160   149.5446
 2449.0000     8.9064    -0.0256     2.5079     0.0185   148.5442
 2449.5000     8.9009    -0.0254     2.5016     0.0214   148.5007
 2450.0000     8.8955    -0.0223     2.5078     0.0219   156.4947
 2450.5000     8.8901    -0.0190     2.5056     0.0218   158.8481
 2451.0000     8.8846    -0.0146     2.4990     0.0249   150.5201
 2451.5000     8.8792    -0.0102     2.4992     0.0257   149.9602
 2452.0000     8.8743    -0.0057     2.5094     0.0205   149.2086
 2452.5000     8.8738    -0.0062     2.5196     0.0119   144.9788
 2453.0000     8.8730    -0.0118     2.5176     0.0125   145.0316
 2453.5000     8.8723    -0.0173     2.5130     0.0153   153.0254
 2454.0000     8.8716    -0.0160     2.5131     0.0172   165.0522
 2454.5000     8.8708    -0.0184     2.5090     0.0187   167.7427
 2455.0000     8.8701    -0.0264     2.4949     0.0275   154.0484
 2455.5000     8.8693    -0.0266     2.4962     0.0255   142.2569
 2456.0000     8.8686    -0.0220     2.5069     0.0230   142.5949
 2456.5000     8.8678    -0.0172     2.5089     0.0205   150.2196
 2457.0000     8.8671    -0.0133     2.5087     0.0180   150.7377
 2457.5000     8.8663    -0.0104     2.5148     0.0190   152.4007
 2458.0000     8.8656    -0.0072     2.5061     0.0222   158.5663
 2458.5000     8.8648    -0.0041     2.4983     0.0253   163.4374
 2459.0000     8.8641    -0.0010     2.5033     0.0244   162.4867
 2459.5000     8.8633     0.0021     2.4985     0.0235   158.1289
 2460.0000     8.8626    -0.0011     2.4904     0.0292   154.7641
 2460.5000     8.8618    -0.0087     2.4821     0.0345   157.6358
 2461.0000     8.8611    -0.0155     2.4777     0.0355   159.4215
 2461.5000     8.8603    -0.0157     2.4878     0.0299   155.7325
 2462.0000     8.8596    -0.0073     2.4993     0.0243   154.3331
 2462.5000     8.8588     0.0003     2.5015     0.0237   157.5076
 2463.0000     8.8581    -0.0009     2.4885     0.0279   161.6098
 2463.5000     8.8573    -0.0063     2.4755     0.0367   165.7169
 2464.0000     8.8566    -0.0151     2.4610     0.0458   168.4262
 2464.5000     8.8558    -0.0081     2.4401     0.0525   165.7498
 2465.0000     8.8551     0.0257     2.4281     0.0667   162.8313
 2465.5000     8.8543     0.0570     2.4191     0.0732   162.3867
 2466.0000     8.8536     0.0229     2.4114     0.0713   164.7050
 2466.5000     8.8528    -0.0063     2.4607     0.0384   157.4840
 2467.0000     8.8521    -0.0039     2.4970     0.0224   156.5925
 2467.5000     8.8513     0.0086     2.5113     0.0191   159.6147
 2468.0000     8.8506     0.0191     2.5090     0.0179   158.5987
 2468.5000     8.8498     0.0058     2.4987     0.0275   155.6773
 2469.0000     8.8491    -0.0101     2.4898     0.0287   155.8569
 2469.5000     8.8483    -0.0089     2.5007     0.0263   160.7433
 2470.0000     8.8476     0.0010     2.5138     0.0115   164.0565
 2470.5000     8.8468     0.0063     2.5159     0.0191   163.0638
 2471.0000     8.8461     0.0021     2.5129     0.0167   162.0120
 2471.5000     8.8453    -0.0021     2.5101     0.0171   163.3937
 2472.0000     8.8446    -0.0064     2.5106     0.0191   163.6997
 2472.5000     8.8438    -0.0096     2.5129     0.0181   161.4216
 2473.0000     8.8431    -0.0048     2.5122     0.0196   160.6362
 2473.5000     8.8423    -0.0049     2.5059     0.0206   168.9131
 2474.0000     8.8416    -0.0074     2.5035     0.0205   175.6541
 2474.5000     8.8408    -0.0049     2.5074     0.0191   175.5390
 2475.0000     8.8401     0.0033     2.5125     0.0164   165.1459
 2475.5000     8.8393     0.0113     2.5199     0.0115   160.5903
 2476.0000     8.8386     0.0154     2.5252     0.0091   157.2427
 2476.5000     8.8378     0.0072     2.5184     0.0141   145.1979
 2477.0000     8.8371    -0.0002     2.5127     0.0142   145.0861
 2477.5000     8.8363     0.0006     2.5196     0.0100   149.4389
 2478.0000     8.8356    -0.0011     2.5279     0.0088   153.1693
 2478.5000     8.8349    -0.0053     2.5220     0.0130   153.9029
 2479.0000     8.8331    -0.0044     2.5159     0.0143   148.9309
 2479.5000     8.8310    -0.0017     2.5160     0.0142   150.2511
 2480.0000     8.8289    -0.0001     2.5200     0.0139   153.9620
 2480.5000     8.8268    -0.0014     2.5271     0.0067   161.4092
 2481.0000     8.8247    -0.0028     2.5194     0.0126   166.1640
 2481.5000     8.8226    -0.0022     2.5064     0.0219   166.2075
 2482.0000     8.8205     0.0038     2.5023     0.0248   166.3245
 2482.5000     8.8184     0.0026     2.5083     0.0207   166.4856
 2483.0000     8.8163    -0.0059     2.5060     0.0215   170.2826
 2483.5000     8.8142    -0.0117     2.5032     0.0233   171.2772
 2484.0000     8.8122    -0.0080     2.5085     0.0191   166.9563
 2484.5000     8.8101    -0.0060     2.5138     0.0162   163.0992
 2485.0000     8.8080    -0.0102     2.5131     0.0168   164.1325
 2485.5000     8.8059    -0.0145     2.5117     0.0175   168.6038
 2486.0000     8.8038    -0.0156     2.5101     0.0181   172.9566
 2486.5000     8.8017    -0.0193     2.5198     0.0135   175.1158
 2487.0000     8.7996    -0.0231     2.5331     0.0119   169.6801
 2487.5000     8.7976    -0.0155     2.5352     0.0119   164.7920
 2488.0000     8.7955    -0.0053     2.5213     0.0134  -999.2500
 2488.5000     8.7895    -0.0094     2.5097     0.0175  -999.2500
 2489.0000     8.7434    -0.0095     2.5085     0.0231  -999.2500
 2489.5000     8.6968    -0.0128     2.5133     0.0214  -999.2500
 2490.0000     8.6757    -0.0181     2.5061     0.0207  -999.2500
 2490.5000     8.6752    -0.0235     2.4976     0.0248  -999.2500
 2491.0000     8.6753    -0.0215     2.4906     0.0255  -999.2500
 2491.5000     8.6753    -0.0121     2.5001     0.0225  -999.2500
 2492.0000     8.6753    -0.0027     2.5112     0.0182  -999.2500
 2492.5000     8.6753     0.0025     2.5156     0.0159  -999.2500
 2493.0000     8.6753     0.0054     2.5009     0.0223  -999.2500
 2493.5000  -999.2500     0.0087     2.4912     0.0295  -999.2500
 2494.0000  -999.2500     0.0127     2.4831     0.0331  -999.2500
 2494.5000  -999.2500     0.0006     2.4153     0.0681  -999.2500
 2495.0000  -999.2500    -0.0013     2.3762     0.0928  -999.2500
