~VERSION INFORMATION
 VERS.                2.0:   CWLS LOG ASCII STANDARD - VERSION 2.0
 WRAP.                 NO:   ONE LINE PER DEPTH STEP
~WELL INFORMATION
#MNEM.UNIT      DATA TYPE    INFORMATION
#----------   ------------   ------------------------------
 STRT.F           32.0000:   START DEPTH
 STOP.F          688.5000:   STOP DEPTH
 STEP.F            0.5000:   STEP LENGTH
 NULL.          -999.2500:   NO VALUE
 COMP. FENIX & SCISSON INC:   COMPANY
 WELL.       NPR 3 #78-34:   WELL
 FLD .  TEAPOT DOME NPR-3:   FIELD
 LOC .      S34 T39N R78W:   LOCATION
 CNTY.            NATRONA:   COUNTY
 STAT.            WYOMING:   STATE
 CTRY. UNITED STATES OF AMERICA:   COUNTRY
 SRVC.           BIRDWELL:   SERVICE COMPANY
 DATE.        16-AUG-1978:   LOGDATE
 API .       490251070700:   API NUMBER
~CURVE INFORMATION
#MNEM.UNIT       API CODE    CURVE DESCRIPTION
#----------   ------------   ------------------------------
 DEPT.F                  :   
 SPR .MV     05 010 01 00:   SPONTANEOUS POTENTIAL
 SN  .OHMM   05 040 16 00:   SHORT NORMAL 16'
 ILD .OHMM   05 120 46 00:   INDUCTION LOG DEEP RESISTIVITY
 CALD.IN     45 280 60 00:   CALIPER
 GRD .GAPI   45 310 01 00:   GAMMA RAY FROM DENSITY LOG
 RHOB.G/C3   45 350 01 00:   BULK DENSITY
 DPHI.DEC    45 890 12 00:   DENSITY POROSITY SANDSTONE
 CORR.G/C3   45 356 01 00:   DENSITY CORRECTION
~PARAMETER INFORMATION
#MNEM.UNIT          VALUE    DESCRIPTION
#----------   ------------   ------------------------------
 PD  .                 GL:   PERMANENT DATUM
 EPD .F              5085:   ELEVATION PERMANENT DATUM
 LMF .                 KB:   LOG MEASURED FROM
 DAPD.F                 4:   FEET ABOVE PERMANENT DATUM
 DMF .                 KB:   DRILLING MEASURED FROM
 EKB .F              5089:   KELLING BUSHING
 EGL .F              5085:   GROUND LEVEL
 DATE.          8-16-1978:   RUN DATE
 RUN .                  1:   RUN NUMBER
 DD  .F               680:   DEPTH DRILLER
 DL  .F               688:   DEPTH LOGGER
 BLI .F               682:   BOTTOM LOG INTERVAL
 TLI .F                50:   TOP LOG INTERVAL
 CS  .IN            8.625:   CASING SIZE
 CBD .F                40:   CASING BOTTOM DRILLER
 BS  .IN            7.875:   BIT SIZE
 BSD .F               680:   BIT SIZE AT DEPTH
 DFT .                KCL:   DRILLING FLUID TYPE
 RMS .OHMM            .32:   RESISTIVITY MUD SAMPLE
 MST .F                64:   MUD SAMPLE TEMPERATURE
 RMF .OHMM             .3:   RESISTIVITY MUD FILTRATE SAMPLE
 MFST.F                76:   MUD FILTRATE SAMPLE TEMPERATURE
 RMC .OHMM            .16:   RESISTIVITY MUD CAKE
 MCST.F                64:   MUD CAKE SAMPLE TEMPERATURE
 MFSS.               MEAS:   MUD FILTRATE SAMPLE SOURCE
 MCSS.               MEAS:   MUD CAKE SAMPLE SOURCE
 TCS .HRS               1:   TIME CURCULATED STOPPED
 LUN .               3006:   LOGGING UNIT NUMBER
 LUL .               CASP:   LOGGING UNIT LOCATION
 ENGI.             MILLER:   RECORDING ENGINEER
 WITN.           MCGINLEY:   WITNESSED BY
 CLNT.            A2DTECH:   CLIENT CODE
 ORIG.           5" PRINT:   ORIGIN OF DATA
 UWI .       490251070700:   UNIQUE WELL ID
 DICO. A2D Technologies, Inc.:   DIGITIZING COMPANY
~OTHER INFORMATION
~A   DEPT      SPR         SN        ILD       CALD         GRD      RHOB       DPHI       CORR   
# ...
  518.0000   -23.9109    12.3368    11.3444     7.4079    70.1731     2.4255     0.1552     0.1145
  518.5000   -23.9207    12.2932    11.4711     7.4685    71.6045     2.4277     0.1528     0.1256
  519.0000   -23.9295    12.2499    11.4646     7.5331    73.3962     2.4251     0.1540     0.1325
  519.5000   -23.9402    12.2066    11.5798     7.5821    72.2013     2.4213     0.1565     0.1387
  520.0000   -24.0329    12.1636    11.5746     7.6140    70.4358     2.4162     0.1609     0.1494
  520.5000   -24.4350    12.1207    11.4290     7.6475    68.6545     2.4144     0.1661     0.1655
  521.0000   -24.8240    12.0779    11.2880     7.7179    67.2244     2.4323     0.1560     0.1811
  521.5000   -25.1621    12.0353    11.1487     7.7910    66.3213     2.4507     0.1426     0.1798
  522.0000   -25.1699    11.9929    11.0111     7.8478    65.4210     2.4517     0.1381     0.1774
  522.5000   -25.1853    11.9506    10.8752     7.8465    65.7211     2.4514     0.1398     0.1702
  523.0000   -25.2014    11.9084    10.7410     7.8457    68.7032     2.4509     0.1413     0.1631
  523.5000   -25.2176    11.8664    10.6085     7.8728    69.4750     2.4510     0.1383     0.1559
  524.0000   -25.2338    11.8245    10.4776     7.9040    70.2592     2.4639     0.1310     0.1473
  524.5000   -25.2500    11.7771    10.3483     7.8963    71.0699     2.4882     0.1269     0.1267
  525.0000   -25.2662    11.6995    10.2206     7.8347    71.6080     2.4640     0.1436     0.0925
  525.5000   -25.2824    11.6221    10.0945     7.7726    71.5914     2.4393     0.1552     0.0575
  526.0000   -25.2985    11.5454     9.9698     7.7102    70.2030     2.4149     0.1668     0.0427
  526.5000   -25.3147    11.4691     9.8469     7.6480    67.6908     2.3938     0.1755     0.0332
  527.0000   -25.3308    11.3934     9.7198     7.5857    65.1809     2.3864     0.1799     0.0279
  527.5000   -25.3458    11.3181     9.7198     7.5234    62.9209     2.3788     0.1844     0.0280
  528.0000   -25.4217    11.2502     9.7198     7.4611    62.2463     2.3709     0.1890     0.0279
  528.5000   -25.5130    11.2070     9.7138     7.3988    62.3896     2.3689     0.1886     0.0280
  529.0000   -25.6046    11.1639     9.7046     7.3365    63.9632     2.3702     0.1874     0.0275
  529.5000   -25.6960    11.1210     9.6953     7.2742    65.5484     2.3718     0.1882     0.0253
  530.0000   -25.7875    11.0782     9.6861     7.2256    66.2763     2.3705     0.1901     0.0230
  530.5000   -25.8789    11.0356     9.6768     7.2562    66.6533     2.3568     0.1947     0.0257
  531.0000   -25.9703    10.9932     9.6676     7.2898    65.7751     2.3368     0.1988     0.0328
  531.5000   -26.0617    10.9509     9.6584     7.3233    62.6290     2.3457     0.1983     0.0399
  532.0000   -26.1531    10.9088     9.6492     7.3569    60.9755     2.3596     0.1960     0.0451
  532.5000   -26.2446    10.8669     9.6401     7.3874    63.4473     2.3742     0.1898     0.0477
  533.0000   -26.3360    10.8251     9.6308     7.3758    64.6136     2.3775     0.1852     0.0503
  533.5000   -26.4274    10.7835     9.5960     7.3626    64.8155     2.3824     0.1800     0.0528
  534.0000   -26.5194    10.7420     9.5612     7.3495    65.9946     2.3990     0.1717     0.0554
  534.5000   -26.5590    10.7007     9.5267     7.3364    67.2746     2.4038     0.1709     0.0580
  535.0000   -26.5696    10.6596     9.4924     7.3234    67.3233     2.4078     0.1668     0.0606
  535.5000   -26.5796    10.6186     9.4581     7.3111    67.1594     2.4115     0.1645     0.0645
  536.0000   -26.5896    10.5778     9.4240     7.2602    69.1179     2.4149     0.1637     0.0698
  536.5000   -26.5996    10.5371     9.3900     7.1993    71.6180     2.4220     0.1574     0.0750
  537.0000   -26.6097    10.4966     9.3561     7.1382    72.0012     2.4299     0.1510     0.0819
  537.5000   -26.6197    10.4563     9.3224     7.0773    71.3866     2.4359     0.1465     0.0913
  538.0000   -26.6298    10.4160     9.2887     7.0277    68.9834     2.4366     0.1513     0.1005
  538.5000   -26.6399    10.3760     9.2552     7.0356    66.4220     2.4374     0.1484     0.1097
  539.0000   -26.6499    10.3361     9.2218     7.0420    63.9017     2.4444     0.1424     0.1257
  539.5000   -26.6600    10.2964     9.1886     7.0473    63.5820     2.4614     0.1303     0.1433
  540.0000   -26.6700    10.2568     9.1554     7.0536    64.9063     2.4783     0.1182     0.1611
  540.5000   -26.6801    10.2174     9.1224     7.1303    66.0830     2.4958     0.1054     0.1791
  541.0000   -26.6902    10.1781     9.0895     7.2885    65.7148     2.5012     0.1073     0.1910
  541.5000   -26.7002    10.1389     9.0567     7.4451    65.2374     2.5059     0.1066     0.2030
  542.0000   -26.7103    10.1000     9.0240     7.6020    67.9777     2.5173     0.1016     0.2150
  542.5000   -26.7203    10.0611     8.9915     7.7286    70.5047     2.5263     0.0966     0.2237
  543.0000   -26.7304    10.0225     8.9590     7.7479    70.5997     2.5301     0.0914     0.2236
  543.5000   -26.7404     9.9889     8.9267     7.7541    70.6010     2.5375     0.0873     0.2223
  544.0000   -26.7506     9.9755     8.8945     7.7873    70.5481     2.5465     0.0830     0.2126
  544.5000   -26.7579     9.9621     8.8624     7.8189    70.3880     2.5523     0.0926     0.1825
  545.0000   -26.7641     9.9487     8.8304     7.8505    70.2299     2.5242     0.1041     0.1497
  545.5000   -26.7703     9.9353     8.7986     7.8822    70.0717     2.5008     0.1156     0.1169
  546.0000   -26.7764     9.9220     8.7857     7.9142    69.9138     2.4775     0.1271     0.0860
  546.5000   -26.7826     9.9087     8.7874     7.9443    69.7575     2.4593     0.1332     0.0681
  547.0000   -26.7889     9.8954     8.7893     7.9120    69.5874     2.4576     0.1357     0.0618
  547.5000   -26.7950     9.8821     8.7911     7.8763    69.1293     2.4580     0.1351     0.0560
  548.0000   -26.8012     9.8688     8.7928     7.8409    68.7953     2.4584     0.1341     0.0502
  548.5000   -26.8074     9.8555     8.7946     7.8056    69.2520     2.4594     0.1355     0.0443
  549.0000   -26.8136     9.8423     8.7964     7.7703    70.0930     2.4565     0.1337     0.0422
  549.5000   -26.8198     9.8291     8.7982     7.7350    70.2629     2.4531     0.1429     0.0426
  550.0000   -26.8260     9.8159     8.7999     7.6997    70.0496     2.4520     0.1387     0.0430
  550.5000   -26.8322     9.8104     8.8017     7.6644    70.2220     2.4513     0.1392     0.0434
  551.0000   -26.8384     9.8245     8.8035     7.6291    70.5467     2.4507     0.1413     0.0439
  551.5000   -26.8446     9.8344     8.8053     7.5941    70.3694     2.4500     0.1397     0.0430
  552.0000   -26.8508     9.8442     8.8070     7.5473    69.0683     2.4505     0.1416     0.0418
  552.5000   -26.8570     9.8541     8.8088     7.4981    68.4025     2.4565     0.1396     0.0405
  553.0000   -26.8632     9.8640     8.8106     7.4488    69.6799     2.4634     0.1333     0.0393
  553.5000   -26.8694     9.8739     8.8124     7.3997    71.9064     2.4704     0.1270     0.0381
  554.0000   -26.8756     9.8838     8.8142     7.3398    73.8487     2.4701     0.1242     0.0369
  554.5000   -26.8818     9.8937     8.8159     7.2589    73.1196     2.4604     0.1319     0.0360
  555.0000   -26.8880     9.9037     8.8177     7.1782    72.3424     2.4508     0.1385     0.0363
  555.5000   -26.8942     9.9136     8.8195     7.0973    72.2001     2.4413     0.1451     0.0366
  556.0000   -26.9004     9.9235     8.8213     7.0170    72.1945     2.4314     0.1517     0.0369
  556.5000   -26.9066     9.9335     8.8231     7.0087    72.4209     2.4201     0.1584     0.0372
  557.0000   -26.9128     9.9435     8.8249     7.0179    73.1990     2.4158     0.1605     0.0375
  557.5000   -26.9190     9.9534     8.8266     7.0272    74.0090     2.4166     0.1587     0.0378
  558.0000   -26.9252     9.9634     8.8284     7.0363    75.7178     2.4171     0.1613     0.0417
