~VERSION INFORMATION
 VERS.                2.0:   CWLS LOG ASCII STANDARD - VERSION 2.0
 WRAP.                 NO:   ONE LINE PER DEPTH STEP
~WELL INFORMATION
#MNEM.UNIT      DATA TYPE    INFORMATION
#----------   ------------   ------------------------------
 STRT.F          248.0000:   START DEPTH
 STOP.F         2495.0000:   STOP DEPTH
 STEP.F            0.5000:   STEP LENGTH
 NULL.          -999.2500:   NO VALUE
 COMP. FENIX & SCISSON INC:   COMPANY
 WELL.      85 SHX #28-28:   WELL
 FLD .             TEAPOT:   FIELD
 LOC .      S28 T39N R78W:   LOCATION
 CNTY.            NATRONA:   COUNTY
 STAT.            WYOMING:   STATE
 CTRY. UNITED STATES OF AMERICA:   COUNTRY
 SRVC.           BIRDWELL:   SERVICE COMPANY
 DATE.        18-AUG-1979:   LOGDATE
 API .       490251079700:   API NUMBER
~CURVE INFORMATION
#MNEM.UNIT       API CODE    CURVE DESCRIPTION
#----------   ------------   ------------------------------
 DEPT.F                  :   
 CALD.IN     45 280 60 00:   CALIPER
 CORR.G/C3   45 356 01 00:   DENSITY CORRECTION
 RHOB.G/C3   45 350 01 00:   BULK DENSITY
 DPHI.DEC    45 890 12 00:   DENSITY POROSITY SANDSTONE
 GRD .GAPI   45 310 01 00:   GAMMA RAY FROM DENSITY LOG
~PARAMETER INFORMATION
#MNEM.UNIT          VALUE    DESCRIPTION
#----------   ------------   ------------------------------
 PD  .                 GL:   PERMANENT DATUM
 EPD .F              5044:   ELEVATION PERMANENT DATUM
 LMF .                 DF:   LOG MEASURED FROM
 DMF .                 KB:   DRILLING MEASURED FROM
 EKB .F              5054:   KELLING BUSHING
 EDF .F              5052:   DRILLING FLOOR
 EGL .F              5044:   GROUND LEVEL
 DATE.            8-18-79:   RUN DATE
 RUN .                  1:   RUN NUMBER
 DD  .F              2500:   DEPTH DRILLER
 DL  .F              2495:   DEPTH LOGGER
 BLI .F              2495:   BOTTOM LOG INTERVAL
 CS  .IN            9.625:   CASING SIZE
 CBD .F               520:   CASING BOTTOM DRILLER
 CBL .F               505:   CASING BOTTOM LOGGER
 BS  .IN             8.75:   BIT SIZE
 BSD .F              2500:   BIT SIZE AT DEPTH
 DFT .                AIR:   DRILLING FLUID TYPE
 TCS .HRS               2:   TIME CURCULATED STOPPED
 ENGI.          B. MILLER:   RECORDING ENGINEER
 WITN.           DINSMORE:   WITNESSED BY
 CLNT.            A2DTECH:   CLIENT CODE
 ORIG.           5" PRINT:   ORIGIN OF DATA
 UWI .       490251079700:   UNIQUE WELL ID
 DICO. A2D Technologies, Inc.:   DIGITIZING COMPANY
~OTHER INFORMATION
~A   DEPT     CALD       CORR       RHOB       DPHI         GRD  
# ...
 1651.0000    10.6949     0.3200     2.4546     0.0515   178.5722
 1651.5000    10.7002     0.3625     2.4637     0.0468   179.6921
 1652.0000    10.7056     0.4051     2.4697     0.0428   183.8688
 1652.5000    10.7015     0.4387     2.5235     0.0116   188.4623
 1653.0000    10.6932     0.4224     2.5144     0.0196   193.1031
 1653.5000    10.6848     0.4035     2.5029     0.0267   195.0303
 1654.0000    10.6765     0.4041     2.5131     0.0183   192.9965
 1654.5000    10.6681     0.4020     2.5083     0.0215   177.1150
 1655.0000    10.6598     0.3954     2.4949     0.0318   179.2702
 1655.5000    10.6514     0.3892     2.4742     0.0454   174.7607
 1656.0000    10.6431     0.3952     2.4610     0.0487   172.5357
 1656.5000    10.6347     0.4244     2.4916     0.0337   171.6257
 1657.0000    10.6264     0.4473     2.5178     0.0134   171.3464
 1657.5000    10.6182     0.4247     2.5277     0.0107   167.5318
 1658.0000    10.6118     0.3846     2.4680     0.0431   164.1427
 1658.5000    10.4971     0.3335     2.4230     0.0748   165.0206
 1659.0000    10.3501     0.3020     2.3773     0.0952   167.3670
 1659.5000    10.2761     0.3105     2.4114     0.0948   168.4901
 1660.0000    10.4541     0.3615     2.4457     0.0574   160.9217
 1660.5000    10.6167     0.4353     2.4195     0.0690   160.8983
 1661.0000    10.6314  -999.2500     2.4670     0.0356   173.7207
 1661.5000    10.6426  -999.2500     2.5637    -0.0086   182.8182
 1662.0000    10.6530  -999.2500     2.7133    -0.1010   177.7233
 1662.5000    10.6630  -999.2500     2.8332    -0.0981   174.0013
 1663.0000    10.6869  -999.2500     2.8484    -0.0994   176.9071
 1663.5000    10.7125  -999.2500     2.6433    -0.0425   181.0572
 1664.0000    10.7398  -999.2500     2.5297     0.0179   185.2094
 1664.5000    10.7668  -999.2500     2.4337     0.0684   188.2943
 1665.0000    10.7937  -999.2500     2.4016     0.0796   187.0904
 1665.5000    10.7969  -999.2500     2.4658     0.0516   197.1464
 1666.0000    10.7661  -999.2500     2.6063    -0.0357   194.0263
 1666.5000    10.7354  -999.2500     2.5122     0.0135   185.6520
 1667.0000    10.7045     0.2946     2.3928     0.0867   178.0592
 1667.5000    10.6735     0.2518     2.3530     0.1068   177.7215
 1668.0000    10.6476     0.3002     2.4048     0.0713   181.7546
 1668.5000    10.7159     0.3187     2.4480     0.0520   183.6934
 1669.0000    10.7894     0.3239     2.4641     0.0474   183.6200
 1669.5000    10.8636     0.3266     2.4775     0.0395   182.0856
 1670.0000    10.8851     0.3019     2.4601     0.0479   179.8400
 1670.5000    10.8629     0.2914     2.4843     0.0361   177.5879
 1671.0000    10.8408     0.2818     2.5073     0.0223   176.0538
 1671.5000    10.8190     0.2306     2.4635     0.0459   176.5352
 1672.0000    10.8066     0.1853     2.4103     0.0795   187.5795
 1672.5000    10.8069     0.2015     2.4040     0.0823   195.9890
 1673.0000    10.8279     0.2225     2.3920     0.0870   195.2906
 1673.5000    10.8515     0.2688     2.3865     0.0811   194.6287
 1674.0000    10.8752     0.3801     2.4558     0.0172   190.9729
 1674.5000    10.8998     0.4276     2.5635    -0.0121   182.8475
 1675.0000    10.9277     0.3814     2.5040     0.0247   174.5883
 1675.5000    10.9146     0.3936     2.5001     0.0246   167.5563
 1676.0000    10.9010     0.4027     2.4887     0.0332   171.0503
 1676.5000    10.8877     0.3917     2.4774     0.0410   175.7378
 1677.0000    10.8744     0.3817     2.4725     0.0472   180.1398
 1677.5000    10.8612     0.3482     2.4469     0.0657   181.8032
 1678.0000    10.8478     0.3268     2.4341     0.0565   183.3716
 1678.5000    10.8346     0.3040     2.4466     0.0624   184.7836
 1679.0000    10.8309     0.2676     2.4622     0.0456   181.6765
 1679.5000    10.8541     0.2377     2.4730     0.0411   184.3246
 1680.0000    10.8768     0.2262     2.4162     0.0808   188.5760
 1680.5000    10.8995     0.2685     2.3835     0.0918   191.5397
 1681.0000    10.9222     0.3414     2.4143     0.0693   183.4638
 1681.5000    10.9449     0.4140     2.4728     0.0403   176.2430
 1682.0000    10.9659     0.4840     2.5327     0.0109   175.3370
 1682.5000    10.9610     0.4949     2.5711    -0.0157   180.2527
 1683.0000    10.9532     0.4972     2.5654    -0.0123   185.1965
 1683.5000    10.9455     0.4987     2.5744    -0.0173   187.2481
 1684.0000    10.9377     0.4966     2.5518    -0.0049   180.6491
 1684.5000    10.9300     0.4946     2.5278     0.0131   174.9069
 1685.0000    10.9223     0.4918     2.5031     0.0259   168.9433
 1685.5000    10.9145     0.4724     2.5159     0.0141   167.3344
 1686.0000    10.9068     0.4158     2.5279     0.0079   178.8031
 1686.5000    10.8991     0.3383     2.5193     0.0171   179.0468
 1687.0000    10.8914     0.2610     2.5002     0.0350   174.1859
 1687.5000    10.8836     0.2466     2.4812     0.0395   169.3046
 1688.0000    10.8759     0.2549     2.4623     0.0514   165.6911
 1688.5000    10.8680     0.2579     2.4410     0.0602   165.7673
 1689.0000    10.8665     0.2515     2.4177     0.0822   166.6204
 1689.5000    10.8665     0.2789     2.3947     0.0860   171.7034
 1690.0000    10.8665     0.3479     2.4792     0.0410   179.2564
 1690.5000    10.8665     0.4166     2.5574    -0.0108   183.0511
 1691.0000    10.8665     0.4761     2.6144    -0.0426   173.9729
 1691.5000    10.8665     0.4741     2.6360    -0.0529   175.1114
 1692.0000    10.8665     0.4268     2.6200    -0.0371   175.5669
 1692.5000    10.8665     0.3869     2.5879    -0.0225   171.2495
 1693.0000    10.8665     0.3470     2.5693    -0.0191   166.8424
 1693.5000    10.8663     0.3068     2.5357     0.0061   173.0027
 1694.0000    10.8679     0.2807     2.5030     0.0215   174.6088
 1694.5000    10.8442     0.2584     2.5159     0.0207   173.2438
 1695.0000    10.8153     0.2052     2.4825     0.0281   164.9546
 1695.5000    10.7847     0.1467     2.4224     0.0675   164.0835
 1696.0000    10.7547     0.1524     2.4408     0.0507   164.8320
 1696.5000    10.7247     0.2080     2.4855     0.0332   169.1563
 1697.0000    10.6948     0.2140     2.4671     0.0470   173.7599
 1697.5000    10.6622     0.2007     2.4538     0.0463   171.1648
 1698.0000    10.6280     0.1679     2.4235     0.0772   167.8834
 1698.5000    10.5801     0.1452     2.4131     0.0636   164.6706
 1699.0000    10.5306     0.1374     2.4421     0.0588   164.2401
 1699.5000    10.4809     0.1047     2.4351     0.0667   162.7874
 1700.0000    10.4317     0.1027     2.4243     0.0711   160.7776
 1700.5000    10.3815     0.1115     2.4093     0.0740   163.2296
 1701.0000    10.3476     0.1315     2.3904     0.0875   168.0620
 1701.5000    10.3413     0.1697     2.3743     0.0976   172.9576
 1702.0000    10.3361     0.2781     2.3938     0.0819   169.6994
 1702.5000    10.3314     0.3902     2.4155     0.0776   165.7053
 1703.0000    10.3502     0.4895     2.4991     0.0256   165.8498
 1703.5000    10.3493     0.4925     2.6118    -0.0373   169.7146
 1704.0000    10.3441     0.4928     2.5888    -0.0237   161.0151
 1704.5000    10.3312     0.4941     2.5988    -0.0297   154.6918
 1705.0000    10.3040     0.4345     2.5433     0.0068   155.0876
 1705.5000    10.2592     0.3570     2.5067     0.0232   159.3057
 1706.0000    10.2001     0.3032     2.4923     0.0306   162.2836
 1706.5000    10.1415     0.2488     2.5012     0.0339   165.9701
 1707.0000    10.0820     0.1940     2.4779     0.0415   162.7309
 1707.5000    10.0345     0.1546     2.4640     0.0455   155.4992
 1708.0000    10.0294     0.1420     2.5059     0.0271   154.7321
 1708.5000    10.0298     0.1146     2.4971     0.0251   158.2155
 1709.0000    10.0306     0.0878     2.4838     0.0339   161.6515
 1709.5000    10.0509     0.0930     2.4875     0.0326   165.0123
 1710.0000    10.0650     0.0918     2.4899     0.0425   167.2177
 1710.5000    10.0843     0.0920     2.4376     0.0685   166.2937
 1711.0000    10.1040     0.1405     2.4098     0.0780   165.0517
 1711.5000    10.1236     0.1910     2.4362     0.0643   160.7972
