~VERSION INFORMATION
 VERS.                2.0:   CWLS LOG ASCII STANDARD - VERSION 2.0
 WRAP.                 NO:   ONE LINE PER DEPTH STEP
~WELL INFORMATION
#MNEM.UNIT      DATA TYPE    INFORMATION
#----------   ------------   ------------------------------
 STRT.F          974.5000:   START DEPTH
 STOP.F         2805.0000:   STOP DEPTH
 STEP.F            0.5000:   STEP LENGTH
 NULL.          -999.2500:   NO VALUE
 COMP.   FLUOR DANIEL INC:   COMPANY
 WELL. NAVAL PETROLEUM RESERVE 3 SHX- #38-14:   WELL
 FLD .             TEAPOT:   FIELD
 LOC .      S14 T38N R78W:   LOCATION
 CNTY.            NATRONA:   COUNTY
 STAT.            WYOMING:   STATE
 CTRY. UNITED STATES OF AMERICA:   COUNTRY
 SRVC.            Unknown:   SERVICE COMPANY
 DATE.        20-AUG-1995:   LOGDATE
 API .       490252273400:   API NUMBER
~CURVE INFORMATION
#MNEM.UNIT       API CODE    CURVE DESCRIPTION
#----------   ------------   ------------------------------
 DEPT.F                  :   
 ROP .MIN/FT 91 810 01 00:   RAT OF DRILLING PENETRATION
 TGAS.UNITS  91 830 01 00:   TOTAL GAS FROM HOTWIRE
~PARAMETER INFORMATION
#MNEM.UNIT          VALUE    DESCRIPTION
#----------   ------------   ------------------------------
 EKB .F              5264:   KELLING BUSHING
 EGL .F              5254:   GROUND LEVEL
 DATE.            8-20-95:   RUN DATE
 DD  .F              2805:   DEPTH DRILLER
 CBD .F               980:   CASING BOTTOM DRILLER
 ENGI.              TOWER:   RECORDING ENGINEER
 WITN.               HUSK:   WITNESSED BY
 CLNT.            A2DTECH:   CLIENT CODE
 ORIG.           5" PRINT:   ORIGIN OF DATA
 UWI .       490252273400:   UNIQUE WELL ID
 DICO. A2D Technologies, Inc.:   DIGITIZING COMPANY
~OTHER INFORMATION
~A   DEPT      ROP         TGAS 
# ...
 2675.5000     0.8006    83.6135
 2676.0000     0.8011    82.5657
 2676.5000     0.9754    81.5445
 2677.0000     0.9867    80.4878
 2677.5000     0.9871    80.5588
 2678.0000     0.9984    80.6121
 2678.5000     0.8249    80.6654
 2679.0000     0.8144    80.7187
 2679.5000     0.8149    78.5964
 2680.0000     1.0326    77.5397
 2680.5000     1.0324    77.6107
 2681.0000     1.0322    77.6640
 2681.5000     1.0320    77.7173
 2682.0000     1.0318    77.7705
 2682.5000     0.6837    78.9160
 2683.0000     0.6835    78.9782
 2683.5000     0.6833    79.0315
 2684.0000     0.6723    77.9837
 2684.5000     0.6721    78.0458
 2685.0000     0.6827    78.0991
 2685.5000     0.6825    77.0513
 2686.0000     0.6823    77.1223
 2686.5000     0.6821    77.1756
 2687.0000     0.6819    77.2289
 2687.5000     0.6817    77.2821
 2688.0000     0.6924    77.3354
 2688.5000     0.6922    77.3887
 2689.0000     0.6920    77.4420
 2689.5000     0.6918    77.5042
 2690.0000     0.6916    76.4563
 2690.5000     0.6914    76.5185
 2691.0000     0.6911    76.5718
 2691.5000     0.6909    75.5239
 2692.0000     0.6907    75.5861
 2692.5000     0.7015    75.6394
 2693.0000     0.7012    75.7015
 2693.5000     0.7010    75.7548
 2694.0000     0.8639    73.6059
 2694.5000     0.8637    72.5758
 2695.0000     0.8526    73.7302
 2695.5000     0.8523    73.7834
 2696.0000     0.8521    73.8456
 2696.5000     0.8519    73.8989
 2697.0000     0.8517    73.9522
 2697.5000     0.8516    74.0054
 2698.0000     0.8405    74.0587
 2698.5000     0.8403    74.1120
 2699.0000     0.8401    75.2575
 2699.5000     0.8398    76.4119
 2700.0000     0.8396    76.4474
 2700.5000     0.8504    76.4201
 2701.0000     0.8501    76.3966
 2701.5000     0.8608    76.3731
 2702.0000     0.8171    76.3496
 2702.5000     0.6865    76.3261
 2703.0000     0.6754    76.3026
 2703.5000     0.6752    76.2791
 2704.0000     0.6641    76.2557
 2704.5000     0.6639    76.2322
 2705.0000     0.6746    76.2087
 2705.5000     0.6744    76.1852
 2706.0000     0.6742    76.1617
 2706.5000     0.6849    76.1382
 2707.0000     0.6955    76.1189
 2707.5000     0.7062    75.0888
 2708.0000     0.7169    75.1510
 2708.5000     0.7166    74.1031
 2709.0000     0.7164    73.0642
 2709.5000     0.7162    70.9507
 2710.0000     0.7269    71.0040
 2710.5000     0.7267    71.0484
 2711.0000     0.7265    70.9793
 2711.5000     0.7154    70.9117
 2712.0000     0.7152    70.8442
 2712.5000     0.7150    70.7767
 2713.0000     0.7148    70.7092
 2713.5000     0.7146    70.6417
 2714.0000     0.7144    70.5742
 2714.5000     0.7142    70.5066
 2715.0000     0.7140    70.4446
 2715.5000     0.7138    71.5990
 2716.0000     0.7136    71.6611
 2716.5000     0.7025    71.7144
 2717.0000     0.7023    71.7677
 2717.5000     0.6912    71.8210
 2718.0000     0.6910    71.8743
 2718.5000     0.6908    71.9275
 2719.0000     0.6797    71.9808
 2719.5000     0.6795    72.0430
 2720.0000     0.6685    70.9863
 2720.5000     0.6683    71.0573
 2721.0000     0.6680    70.0095
 2721.5000     0.6678    70.0716
 2722.0000     0.6676    71.2171
 2722.5000     0.6674    70.1693
 2723.0000     0.6782    72.4248
 2723.5000     0.6779    72.4781
 2724.0000     0.8842    72.5314
 2724.5000     0.8726    72.5847
 2725.0000     0.8603    72.6379
 2725.5000     0.8510    72.6912
 2726.0000     0.8508    71.6434
 2726.5000     0.8506    71.7144
 2727.0000     0.8504    71.7677
 2727.5000     0.8393    71.8210
 2728.0000     0.6761    72.9665
 2728.5000     0.6759    73.0198
 2729.0000     0.6757    73.0730
 2729.5000     0.6754    73.1352
 2730.0000     0.6752    73.1885
 2730.5000     0.6750    73.2418
 2731.0000     0.6748    73.2951
 2731.5000     0.6746    73.3483
 2732.0000     0.6744    74.4939
 2732.5000     0.6634    74.5471
 2733.0000     0.6632    73.4993
 2733.5000     0.6630    73.5703
 2734.0000     0.6627    73.6236
 2734.5000     0.6625    73.6769
 2735.0000     0.6623    73.7302
 2735.5000     0.6621    73.7834
 2736.0000     0.6619    73.8456
 2736.5000     0.6617    73.8989
 2737.0000     0.6615    73.9522
 2737.5000     0.6505    74.0055
 2738.0000     0.6502    74.0587
 2738.5000     0.6500    74.1120
 2739.0000     0.6498    75.2575
 2739.5000     0.6496    75.3197
 2740.0000     0.6386    76.4652
 2740.5000     0.6384    76.5172
 2741.0000     0.6382    76.5812
 2741.5000     0.6380    76.6451
 2742.0000     0.6486    76.7091
 2742.5000     0.6484    76.7730
 2743.0000     0.6482    76.8370
 2743.5000     0.6480    76.9009
 2744.0000     0.6369    76.9649
 2744.5000     0.6259    77.0289
 2745.0000     0.6257    77.0928
 2745.5000     0.6146    77.1568
 2746.0000     0.6144    77.2207
 2746.5000     0.6142    76.2021
 2747.0000     0.6140    76.2642
 2747.5000     0.6138    76.3263
 2748.0000     0.6245    75.2857
 2748.5000     0.6242    75.3581
 2749.0000     0.6240    75.4306
 2749.5000     0.6238    75.4927
 2750.0000     0.6236    75.5547
 2750.5000     0.6343    75.6168
 2751.0000     0.6450    75.6789
 2751.5000     0.6447    75.7410
 2752.0000     0.6555    75.8134
 2752.5000     0.6552    75.8755
 2753.0000     0.6550    75.9375
 2753.5000     0.6548    75.9996
 2754.0000     0.6546    76.0617
 2754.5000     0.6544    76.1238
 2755.0000     0.6542    74.0014
 2755.5000     0.6540    74.0738
 2756.0000     0.6538    73.0436
 2756.5000     0.6427    71.9928
 2757.0000     0.6425    70.9833
 2757.5000     0.6423    69.9428
 2758.0000     0.7943    67.8204
 2758.5000     0.8158    65.6980
 2759.0000     0.8374    65.7808
 2759.5000     0.8480    65.8429
 2760.0000     0.7065    65.9049
 2760.5000     0.6846    64.8645
 2761.0000     0.6833    64.9369
 2761.5000     0.6827    63.8964
 2762.0000     0.6820    62.8766
 2762.5000     0.6813    61.8361
 2763.0000     0.6917    59.7240
 2763.5000     0.6909    57.6016
 2764.0000     0.6902    55.4792
 2764.5000     0.6895    54.4491
 2765.0000     0.6780    54.5318
 2765.5000     0.6772    53.4810
 2766.0000     0.6656    53.5638
 2766.5000     0.6650    53.6258
 2767.0000     0.6643    53.6879
 2767.5000     0.6528    53.7500
 2768.0000     0.6521    51.6379
 2768.5000     0.6514    51.7000
 2769.0000     0.6508    52.8543
 2769.5000     0.6501    51.8138
 2770.0000     0.6494    51.8862
 2770.5000     0.6379    51.9483
 2771.0000     0.6372    53.1130
 2771.5000     0.6365    53.1750
 2772.0000     0.6357    53.2371
 2772.5000     0.6351    53.2992
 2773.0000     0.6344    53.3613
 2773.5000     0.6337    52.3208
 2774.0000     0.6441    52.3932
 2774.5000     0.6433    51.3630
 2775.0000     0.6535    48.1588
 2775.5000     0.6639    47.1182
 2776.0000     0.5217    46.0881
 2776.5000     0.5211    45.0683
 2777.0000     0.5204    44.0278
 2777.5000     0.5088    41.9054
 2778.0000     0.5191    40.8752
 2778.5000     0.5182    39.8451
 2779.0000     0.5176    39.9278
 2779.5000     0.5279    39.9899
 2780.0000     0.5162    40.0417
 2780.5000     0.5156    39.8080
 2781.0000     0.5259    39.5971
 2781.5000     0.5361    39.3863
 2782.0000     0.5462    39.1755
 2782.5000     0.5564    38.9646
 2783.0000     0.5666    38.7538
 2783.5000     0.5768    38.5430
 2784.0000     0.5761    38.3321
 2784.5000     0.5753    38.1213
 2785.0000     0.5855    37.9105
 2785.5000     0.5848    37.6996
 2786.0000     0.5841    37.4888
 2786.5000     0.5835    37.2780
 2787.0000     0.5828    37.0671
 2787.5000     0.5821    36.8563
 2788.0000     0.6686    36.6455
 2788.5000     0.6678    36.4346
 2789.0000     0.6671    36.2238
 2789.5000     0.6664    36.0130
 2790.0000     0.6658    35.8500
 2790.5000     0.6868    35.8602
 2791.0000     0.6971    35.8703
 2791.5000     0.6962    35.8804
 2792.0000     0.6956    35.8905
 2792.5000     0.7059    35.9006
 2793.0000     0.7051    35.9107
 2793.5000     0.7155    35.9209
 2794.0000     0.7257    35.9310
 2794.5000     0.7359    35.9411
 2795.0000     0.7242    35.9512
 2795.5000     0.7235    35.9613
 2796.0000     0.7337    35.9715
 2796.5000     0.7330    35.9816
