~VERSION INFORMATION
 VERS.                2.0:   CWLS LOG ASCII STANDARD - VERSION 2.0
 WRAP.                 NO:   ONE LINE PER DEPTH STEP
~WELL INFORMATION
#MNEM.UNIT      DATA TYPE    INFORMATION
#----------   ------------   ------------------------------
 STRT.F            4.0000:   START DEPTH
 STOP.F          572.0000:   STOP DEPTH
 STEP.F            0.5000:   STEP LENGTH
 NULL.          -999.2500:   NO VALUE
 COMP. FENIX & SCISSON INC:   COMPANY
 WELL.       NPR#3 #33-10:   WELL
 FLD .             TEAPOT:   FIELD
 LOC .      S10 T38N R78W:   LOCATION
 CNTY.            NATRONA:   COUNTY
 STAT.            WYOMING:   STATE
 CTRY. UNITED STATES OF AMERICA:   COUNTRY
 SRVC.              Welex:   SERVICE COMPANY
 DATE.        05-MAY-1980:   LOGDATE
 API .       490251080800:   API NUMBER
~CURVE INFORMATION
#MNEM.UNIT       API CODE    CURVE DESCRIPTION
#----------   ------------   ------------------------------
 DEPT.F                  :   
 SGRD.OHMM   07 220 05 00:   SHALLOW GUARD RESISTIVITY
 ILD .OHMM   07 120 46 00:   INDUCTION LOG DEEP RESISTIVITY
 ILM .OHMM   07 120 44 00:   INDUCTION LOG MEDIUM
 SPR .MV     07 010 01 00:   SPONTANEOUS POTENTIAL
 CALD.IN     45 280 60 00:   CALIPER
 GRD .GAPI   45 310 01 00:   GAMMA RAY FROM DENSITY LOG
 RHOB.G/C3   45 350 01 00:   BULK DENSITY
 CORR.G/C3   45 356 01 00:   DENSITY CORRECTION
 DPHI.DEC    45 890 12 00:   DENSITY POROSITY SANDSTONE
~PARAMETER INFORMATION
#MNEM.UNIT          VALUE    DESCRIPTION
#----------   ------------   ------------------------------
 PD  .                 GL:   PERMANENT DATUM
 EPD .F              5228:   ELEVATION PERMANENT DATUM
 LMF .                 KB:   LOG MEASURED FROM
 DAPD.F                 5:   FEET ABOVE PERMANENT DATUM
 DMF .                 KB:   DRILLING MEASURED FROM
 EKB .F              5233:   KELLING BUSHING
 EGL .F              5228:   GROUND LEVEL
 DATE.             5-5-80:   RUN DATE
 RUN .                  1:   RUN NUMBER
 DD  .F               572:   DEPTH DRILLER
 DL  .F               572:   DEPTH LOGGER
 BLI .F               570:   BOTTOM LOG INTERVAL
 TLI .F                30:   TOP LOG INTERVAL
 BS  .IN            7.875:   BIT SIZE
 BSD .F               572:   BIT SIZE AT DEPTH
 DFT .            KCL MUD:   DRILLING FLUID TYPE
 DFD .                8.9:   DRILLING FLUID DENSITY
 DFV .                 36:   DRILLING FLUID VISCOSITY
 DFL .               12.6:   DRILLING FLUID LOSS
 MSS .           FLOWLINE:   MUD SAMPLE SOURCE
 RMS .OHMM           1.08:   RESISTIVITY MUD SAMPLE
 MST .F                60:   MUD SAMPLE TEMPERATURE
 RMF .OHMM            .86:   RESISTIVITY MUD FILTRATE SAMPLE
 MFST.F                60:   MUD FILTRATE SAMPLE TEMPERATURE
 RMC .OHMM           1.29:   RESISTIVITY MUD CAKE
 MCST.F                60:   MUD CAKE SAMPLE TEMPERATURE
 MFSS.           MEASURED:   MUD FILTRATE SAMPLE SOURCE
 MCSS.           MEASURED:   MUD CAKE SAMPLE SOURCE
 TCS .HRS               2:   TIME CURCULATED STOPPED
 MRT .F               100:   MAXIMUM RECORDED TEMPERATURE
 LUN .               1892:   LOGGING UNIT NUMBER
 LUL .             CASPER:   LOGGING UNIT LOCATION
 ENGI.               REIN:   RECORDING ENGINEER
 WITN.              AMEND:   WITNESSED BY
 CLNT.            A2DTECH:   CLIENT CODE
 ORIG.           5" PRINT:   ORIGIN OF DATA
 UWI .       490251080800:   UNIQUE WELL ID
 DICO. A2D Technologies, Inc.:   DIGITIZING COMPANY
~OTHER INFORMATION
~A    DEPT    SGRD        ILD        ILM        SPR       CALD         GRD        RHOB       CORR     DPHI   
# ...
  223.0000     9.8990     6.9843     7.5753   -31.8398     7.8676    91.3723     2.5523     0.0210     0.0820
  223.5000    10.3931     7.0818     7.5930   -31.6392     7.8676    90.5181     2.5506     0.0185     0.0871
  224.0000     9.8338     7.1217     7.5964   -31.4873     7.8676    90.2253     2.5338     0.0043     0.0950
  224.5000     9.9249     7.1108     7.5964   -31.3375     7.8676    90.7163     2.5165    -0.0090     0.1039
  225.0000     9.1306     7.1030     7.5964   -31.1865     7.8676    91.1415     2.4993    -0.0263     0.1128
  225.5000     9.5684     7.0951     7.5964   -31.0435     7.8676    90.4472     2.4820    -0.0437     0.1217
  226.0000     9.2173     7.0873     7.5964   -30.9295     7.8676    89.6179     2.4650    -0.0611     0.1306
  226.5000     9.2931     7.0795     7.5964   -30.7548     7.8676    88.8309     2.4504    -0.0781     0.1396
  227.0000     9.3908     7.0718     7.5964   -30.5787     7.8676    88.9609     2.4552    -0.0728     0.1400
  227.5000     9.2164     7.0641     7.5964   -30.4223     7.8676    89.0945     2.4710    -0.0576     0.1315
  228.0000     8.9369     7.0570     7.5964   -30.3525     7.8676    89.4910     2.4874    -0.0411     0.1219
  228.5000     8.8854     7.0819     7.5964   -30.2813     7.8676    89.9129     2.5039    -0.0282     0.1123
  229.0000     9.4778     7.1070     7.5964   -30.2098     7.8676    90.3399     2.5234    -0.0114     0.1026
  229.5000     9.3882     7.1322     7.5964   -30.1385     7.8676    90.7583     2.5478     0.0052     0.0930
  230.0000     9.3046     7.1576     7.5965   -30.0660     7.8676    91.0989     2.5677     0.0222     0.0812
  230.5000     9.5250     7.1876     7.5967   -30.0688     7.8676    91.7441     2.5474     0.0167     0.0900
  231.0000     9.7456     7.1547     7.5973   -30.1134     7.8676    92.5497     2.5241     0.0057     0.0956
  231.5000     9.5849     7.1150     7.5566   -30.1583     7.8676    93.3594     2.5240    -0.0056     0.0948
  232.0000     9.3040     7.0754     7.5179   -30.2046     7.8676    93.7648     2.5470    -0.0046     0.0912
  232.5000     9.3600     7.0361     7.4795   -30.2980     7.8676    93.4340     2.5826     0.0160     0.0780
  233.0000     9.3908     6.9970     7.4412   -30.5904     7.8676    93.1151     2.6192     0.0371     0.0643
  233.5000     8.8854     6.9581     7.4031   -30.8770     7.8676    92.7952     2.6266     0.0583     0.0507
  234.0000     9.1498     6.9194     7.3652   -31.1638     7.8676    92.4749     2.6237     0.0673     0.0393
  234.5000     9.2192     6.8809     7.3275   -31.4320     7.8676    92.1546     2.6084     0.0501     0.0612
  235.0000     8.9398     6.8427     7.2900   -31.4425     7.8676    91.8307     2.5648     0.0303     0.0808
  235.5000     8.7202     6.8047     7.2542   -31.3014     7.8676    91.5136     2.5425     0.0104     0.0871
  236.0000     8.6396     6.7682     7.2892   -31.1392     7.8676    91.6610     2.5255    -0.0097     0.0970
  236.5000     8.8931     6.7350     7.3229   -30.9766     7.8676    91.8316     2.5088    -0.0297     0.1069
  237.0000     9.1978     6.6575     7.3569   -30.8144     7.8676    92.8167     2.4913    -0.0497     0.1192
  237.5000     9.3046     6.6233     7.3906   -30.6520     7.8676    94.0135     2.4891    -0.0531     0.1163
  238.0000     8.7858     6.5912     7.2637   -30.4899     7.8676    94.3415     2.5014    -0.0429     0.1110
  238.5000     8.4447     6.5592     7.1199   -30.3293     7.8676    94.6948     2.5144    -0.0330     0.1057
  239.0000     8.3301     6.4477     6.9781   -30.2984     7.8676    95.0474     2.5231    -0.0231     0.1004
  239.5000     8.4428     6.3248     6.8394   -30.4313     7.8676    95.0627     2.5174    -0.0186     0.0992
  240.0000     8.4851     6.2042     6.7115   -30.5624     7.8676    95.0597     2.5116    -0.0239     0.1044
  240.5000     8.1105     6.0860     6.6090   -30.6941     7.8676    95.0598     2.5058    -0.0305     0.1104
  241.0000     7.5630     5.9700     6.5031   -30.8257     7.8676    95.0789     2.5019    -0.0221     0.1099
  241.5000     7.3851     5.8562     6.3934   -30.9574     7.8676    94.3291     2.5047    -0.0067     0.1060
  242.0000     6.9261     5.7445     6.2853   -31.0894     7.8676    93.3531     2.5186     0.0090     0.1018
  242.5000     6.2593     5.7080     6.1439   -31.2204     7.8676    92.3666     2.5324     0.0060     0.0972
  243.0000     7.7358     5.7080     6.1438   -31.2094     7.8676    92.2175     2.5464     0.0015     0.0926
  243.5000     8.4851     5.7086     6.2566   -31.1485     7.8676    92.8045     2.5505     0.0059     0.0881
  244.0000     8.4851     5.7068     6.3625   -31.0878     7.8676    93.0828     2.5344     0.0036     0.0872
  244.5000     8.1699     5.8767     6.4703   -31.0272     7.8676    93.0729     2.5219    -0.0102     0.0986
  245.0000     8.1028     5.9946     6.6164   -30.9665     7.8676    92.7419     2.5095    -0.0234     0.1102
  245.5000     8.8058     6.1145     6.6166   -30.9066     7.8676    91.5207     2.5010    -0.0325     0.1116
  246.0000     8.7375     6.2368     6.5068   -30.8510     7.8676    90.8003     2.5164    -0.0211     0.1033
  246.5000     8.6051     6.3614     6.4067   -30.6466     7.8676    91.7188     2.5333    -0.0086     0.0943
  247.0000     8.5637     6.4886     6.3087   -30.4293     7.8676    92.6509     2.5502     0.0039     0.0844
  247.5000     8.8292     6.5546     6.2122   -30.2117     7.8680    92.6941     2.5673     0.0164     0.0793
  248.0000     8.8854     6.5204     6.1174   -29.9939     7.8685    92.5192     2.5796     0.0281     0.0732
  248.5000     8.5986     6.4512     6.0327   -29.7806     7.8690    92.3307     2.5905     0.0330     0.0702
  249.0000     8.3829     6.3828     6.0327   -29.5469     7.8695    92.1433     2.5970     0.0342     0.0664
  249.5000     8.1727     6.2916     6.1439   -29.3199     7.8700    91.9272     2.5888     0.0264     0.0672
  250.0000     8.0285     6.1989     6.2311   -29.0932     7.8705    91.5831     2.5729     0.0164     0.0758
  250.5000     8.0662     6.1076     6.3195   -28.8658     7.8710    92.2658     2.5550     0.0064     0.0814
  251.0000     8.1415     6.0177     6.4107   -28.6391     7.8715    93.1394     2.5370    -0.0036     0.0905
  251.5000     8.2175     5.9225     6.4348   -28.4260     7.8720    94.0476     2.5191    -0.0136     0.0996
  252.0000     8.3301     5.7966     6.3131   -28.3430     7.8725    93.8005     2.5015    -0.0241     0.1095
  252.5000     7.9415     5.6635     6.1841   -28.2557     7.8730    93.1518     2.4898    -0.0165     0.1108
  253.0000     7.5281     5.5334     6.0577   -28.1678     7.8734    92.4943     2.5067    -0.0028     0.1041
  253.5000     7.8379     5.4063     5.9097   -28.0806     7.8739    91.8386     2.5232     0.0090     0.0968
  254.0000     8.0372     5.2826     5.8279   -27.9247     7.8744    91.7998     2.5113     0.0022     0.1054
  254.5000     6.3816     5.1575     5.7470   -27.7209     7.8749    92.3865     2.4940    -0.0097     0.1148
  255.0000     4.9196     5.1102     5.6678   -27.6852     7.8754    92.0206     2.4815    -0.0212     0.1220
  255.5000     5.5072     5.0936     5.6026   -27.7464     7.8759    90.6518     2.4872    -0.0327     0.1216
  256.0000     7.3506     5.0767     5.6695   -27.8076     7.8764    90.9510     2.5021    -0.0405     0.1130
  256.5000     8.2536     5.0633     5.7540   -27.7476     7.8769    91.8218     2.5167    -0.0282     0.1056
  257.0000     7.6668     5.2502     5.8397   -27.5293     7.8774    92.7142     2.5295    -0.0142     0.0983
  257.5000     8.4174     5.4107     5.9267   -27.3118     7.8779    93.6249     2.5194    -0.0058     0.0954
  258.0000     8.2520     5.5764     6.0445   -27.2901     7.8784    94.2808     2.5308    -0.0084     0.0971
  258.5000     8.7305     5.7470     6.2058   -27.4743     7.8788    94.8719     2.5489     0.0072     0.0903
  259.0000     8.4851     5.9229     6.3714   -27.6521     7.8793    95.4307     2.5452     0.0078     0.0843
