~VERSION INFORMATION
 VERS.                2.0:   CWLS LOG ASCII STANDARD - VERSION 2.0
 WRAP.                 NO:   ONE LINE PER DEPTH STEP
~WELL INFORMATION
#MNEM.UNIT      DATA TYPE    INFORMATION
#----------   ------------   ------------------------------
 STRT.F          458.0000:   START DEPTH
 STOP.F         2155.0000:   STOP DEPTH
 STEP.F            0.5000:   STEP LENGTH
 NULL.          -999.2500:   NO VALUE
 COMP.   FLUOR DANIEL INC:   COMPANY
 WELL. NAVAL PETROLEUM RESERVE 3 SHX- 1 #33-29:   WELL
 FLD .             TEAPOT:   FIELD
 LOC .      S29 T39N R78W:   LOCATION
 CNTY.            NATRONA:   COUNTY
 STAT.            WYOMING:   STATE
 CTRY. UNITED STATES OF AMERICA:   COUNTRY
 SRVC.            Unknown:   SERVICE COMPANY
 DATE.        29-JUN-1995:   LOGDATE
 API .       490252272500:   API NUMBER
~CURVE INFORMATION
#MNEM.UNIT       API CODE    CURVE DESCRIPTION
#----------   ------------   ------------------------------
 DEPT.F                  :   
 C1  .VF     91 831 01 00:   METHANE
 C2  .VF     91 832 01 00:   ETHANE
 C3  .VF     91 833 01 00:   PROPANE
 C4  .VF     91 834 01 00:   BUTANE
 ROP .FT/HR  91 810 01 00:   RAT OF DRILLING PENETRATION
 TGAS.TC/CC  91 830 01 00:   TOTAL GAS UNIT
~PARAMETER INFORMATION
#MNEM.UNIT          VALUE    DESCRIPTION
#----------   ------------   ------------------------------
 EKB .F              5020:   KELLING BUSHING
 EGL .F              5010:   GROUND LEVEL
 DATE.        29-JUN-1995:   RUN DATE
 RUN .                  1:   RUN NUMBER
 BLI .F              2155:   BOTTOM LOG INTERVAL
 TLI .F               460:   TOP LOG INTERVAL
 ENGI.     C.TOWER/R.HUSK:   RECORDING ENGINEER
 CLNT.            A2DTECH:   CLIENT CODE
 ORIG.           5" PRINT:   ORIGIN OF DATA
 UWI .       490252272500:   UNIQUE WELL ID
 DICO. A2D Technologies, Inc.:   DIGITIZING COMPANY
~OTHER INFORMATION
~A   DEPT       C1         C2         C3         C4          ROP       TGAS 
# ...
 2122.0000    13.9803     8.2966     7.4196     8.5426     0.6591   317.6319
 2122.5000    13.7905     8.2945     7.4206     8.4491     0.6591   317.6551
 2123.0000    13.7887     8.2924     7.4217     8.3560     0.6591   317.6782
 2123.5000    13.7868     8.2898     7.4227     8.3574     0.6591   317.7013
 2124.0000    13.9725     8.2881     7.4238     8.3586     0.6579   317.7244
 2124.5000    13.9706     8.2860     7.4248     8.3597     0.6497   317.7479
 2125.0000    13.9688     8.2836     7.4259     8.3609     0.6497   317.7714
 2125.5000    13.9665     8.2815     7.4269     8.3620     0.6497   317.7996
 2126.0000    14.1525     8.2797     7.4280     8.2689     0.6497   317.8227
 2126.5000    14.1504     8.2775     7.4213     8.2700     0.6591   317.8458
 2127.0000    14.3365     8.2751     7.3453     8.3656     0.6591   317.8690
 2127.5000    14.3342     8.2957     7.3466     8.2723     0.6685   317.8921
 2128.0000    14.5203     8.3559     7.3476     8.3681     0.6874   318.8546
 2128.5000    14.7060     8.3538     7.3487     8.3693     0.7439   318.8778
 2129.0000    14.7038     8.3517     7.3497     8.2758     0.7439   318.9009
 2129.5000    14.7019     8.3496     7.3508     8.2773     0.7439   318.9240
 2130.0000    14.7000     8.2980     7.3518     8.2784     0.6026   318.9472
 2130.5000    14.6981     8.2363     7.3529     8.2796     0.5650   318.9703
 2131.0000    14.7193     8.1737     7.3539     8.2807     0.5650   318.9934
 2131.5000    14.8820     8.1716     7.3550     8.2819     0.5650   319.0165
 2132.0000    14.8797     8.1695     7.3560     8.2831     0.5838   319.0396
 2132.5000    14.6904     8.1671     7.3570     8.2842     0.6215   319.0631
 2133.0000    14.6886     8.1651     7.3581     8.2854     0.6309   319.0866
 2133.5000    14.6867     8.1631     7.3591     8.2866     0.6403   319.1148
 2134.0000    14.6849     8.0763     7.3602     8.2877     0.6497   319.1379
 2134.5000    14.6831     8.0741     7.3612     8.2891     0.6497   319.1611
 2135.0000    14.4937     8.0102     7.3623     8.2903     0.6497   319.1842
 2135.5000    14.3044     7.9852     7.3633     8.2915     0.6497   319.2073
 2136.0000    14.3025     7.8983     7.3646     8.2926     0.6497   319.2304
 2136.5000    14.3003     7.8478     7.3657     8.3881     0.6497   320.1930
 2137.0000    14.1109     7.8089     7.3667     8.3893     0.6497   320.2161
 2137.5000    14.1091     7.8072     7.3677     8.3904     0.6403   321.1787
 2138.0000    14.1073     7.8051     7.4535     8.3916     0.6403   321.2018
 2138.5000    13.9179     7.8030     7.4546     8.3927     0.6403   321.2250
 2139.0000    13.9161     7.8008     7.4556     8.3939     0.6403   321.2481
 2139.5000    13.9143     7.7985     7.4567     8.3951     0.6403   321.2712
 2140.0000    13.9124     7.8817     7.4577     8.3962     0.6403   321.2944
 2140.5000    13.9106     7.8792     7.5435     8.3974     0.6403   322.2573
 2141.0000    13.9087     7.8770     7.5445     8.3986     0.6403   322.2808
 2141.5000    13.9069     7.8749     7.5456     8.4000     0.6403   322.3090
 2142.0000    13.9046     7.8729     7.5466     8.4012     0.6403   322.3321
 2142.5000    13.9028     7.9555     7.5477     8.4023     0.6403   322.3552
 2143.0000    13.9010     7.9534     7.5487     8.4035     0.6403   322.3784
 2143.5000    13.8991     7.9513     7.5498     8.4046     0.6403   322.4015
 2144.0000    14.0853     7.9492     7.5508     8.5001     0.6497   322.4246
 2144.5000    14.0830     7.9470     7.5521     8.5956     0.6497   321.5025
 2145.0000    13.8936     7.9446     7.5532     8.5968     0.6497   321.5314
 2145.5000    14.0794     7.9428     7.5542     8.5979     0.6497   320.6093
 2146.0000    13.8900     7.9405     7.5553     8.5991     0.6403   319.6929
 2146.5000    13.8881     7.7689     7.5563     8.6003     0.6403   319.7219
 2147.0000    13.8863     7.7668     7.5573     8.6014     0.6403   319.7450
 2147.5000    13.8844     7.5952     7.5584     8.6026     0.6403   320.7076
 2148.0000    13.6758     7.5932     7.5594     8.6038     0.6497   320.7307
 2148.5000    13.5053     7.5911     7.5604     8.6995     0.6497   320.7542
 2149.0000    13.5038     7.5890     7.5615     8.7950     0.6497   320.7777
 2149.5000    13.5019     7.7795     7.5626     8.7962     0.6497   320.8058
 2150.0000    13.4998     7.8884     7.5636     8.7973     0.6497   319.8895
 2150.5000    13.6855     8.0641     7.5646     8.7985     0.6591   319.9126
 2151.0000    13.6838     8.2581     7.5657     8.7997     0.6591   319.9358
 2151.5000    13.6819     8.2560     7.4820     8.8008     0.6591   319.9589
 2152.0000    13.8675     8.3392     7.4831     8.7073     0.6591   319.0368
 2152.5000    13.8656     8.3366     7.4841     8.7088     0.6591   319.0657
 2153.0000    13.8634     8.2498     7.4852     8.7100     0.6591   319.0888
 2153.5000    13.8616     8.2477     7.4864     8.7111     0.6591   319.1119
 2154.0000    13.8597     8.1609     7.4875     8.7123     0.6591   319.1351
 2154.5000    13.8579     8.0741     7.4035     8.7134     0.6591   319.1582
 2155.0000    14.0440     8.0720     7.4047     8.7146     0.6591   319.1806
