~VERSION INFORMATION
 VERS.                2.0:   CWLS LOG ASCII STANDARD - VERSION 2.0
 WRAP.                 NO:   ONE LINE PER DEPTH STEP
~WELL INFORMATION
#MNEM.UNIT      DATA TYPE    INFORMATION
#----------   ------------   ------------------------------
 STRT.F            0.0000:   START DEPTH
 STOP.F         2182.0000:   STOP DEPTH
 STEP.F            0.1000:   STEP LENGTH
 NULL.          -999.2500:   NO VALUE
 COMP.       FLUOR DANIEL:   COMPANY
 WELL.   75-1 X 29 #75-29:   WELL
 FLD .             TEAPOT:   FIELD
 LOC .      S29 T39N R78W:   LOCATION
 CNTY.            NATRONA:   COUNTY
 STAT.            WYOMING:   STATE
 CTRY. UNITED STATES OF AMERICA:   COUNTRY
 SRVC.      Western Atlas:   SERVICE COMPANY
 DATE.        10-MAY-1996:   LOGDATE
 API .       490252279100:   API NUMBER
~CURVE INFORMATION
#MNEM.UNIT       API CODE    CURVE DESCRIPTION
#----------   ------------   ------------------------------
 DEPT.F                  :   
 GRR .GAPI   07 310 01 00:   GAMMA RAY
 RFOC.OHMM   07 220 04 00:   RESISTIVITY FOCUSED LOG
 RILD.OHMM   07 120 46 00:   INDUCTION LOG DEEP RESISTIVITY
 RILM.OHMM   07 120 44 00:   INDUCTION LOG MEDIUM RESISTIVITY
~PARAMETER INFORMATION
#MNEM.UNIT          VALUE    DESCRIPTION
#----------   ------------   ------------------------------
 PD  .                 GL:   PERMANENT DATUM
 EPD .F              5031:   ELEVATION PERMANENT DATUM
 LMF .                 KB:   LOG MEASURED FROM
 DAPD.F                10:   FEET ABOVE PERMANENT DATUM
 DMF .                 KB:   DRILLING MEASURED FROM
 EKB .F              5041:   KELLING BUSHING
 EDF .F              5040:   DRILLING FLOOR
 EGL .F              5031:   GROUND LEVEL
 DATE.        10-MAY-1996:   RUN DATE
 RUN .                  1:   RUN NUMBER
 DD  .F              2188:   DEPTH DRILLER
 DL  .F              2184:   DEPTH LOGGER
 BLI .F              2182:   BOTTOM LOG INTERVAL
 TLI .F               400:   TOP LOG INTERVAL
 CS  .IN                7:   CASING SIZE
 CBD .F               400:   CASING BOTTOM DRILLER
 CBL .F               400:   CASING BOTTOM LOGGER
 BS  .IN             6.25:   BIT SIZE
 BSD .F              2188:   BIT SIZE AT DEPTH
 DFT .                AIR:   DRILLING FLUID TYPE
 MRT .F                97:   MAXIMUM RECORDED TEMPERATURE
 LUN .            HL-6530:   LOGGING UNIT NUMBER
 LUL .             CASPER:   LOGGING UNIT LOCATION
 ENGI.           BROWNLOW:   RECORDING ENGINEER
 WITN.             LEBEAU:   WITNESSED BY
 CLNT.            A2DTECH:   CLIENT CODE
 ORIG.           5" PRINT:   ORIGIN OF DATA
 UWI .       490252279100:   UNIQUE WELL ID
 DICO. A2D Technologies, Inc.:   DIGITIZING COMPANY
~OTHER INFORMATION
~A    DEPT      GRR      RFOC       RILD       RILM   
# ...
  511.0000   130.8273  -999.2500     9.7716    10.4139
  511.1000   130.9572  -999.2500     9.8269    10.4380
  511.2000   130.9566  -999.2500     9.8501    10.4714
  511.3000   130.9561  -999.2500     9.8696    10.5088
  511.4000   130.9553  -999.2500     9.9174    10.5080
  511.5000   130.9548  -999.2500     9.9165    10.5070
  511.6000   130.8017  -999.2500     9.9159    10.5619
  511.7000   130.6524  -999.2500     9.9556    10.5784
  511.8000   130.5595  -999.2500     9.9835    10.5775
  511.9000   130.0488  -999.2500     9.9828    10.5766
  512.0000   129.5662  -999.2500     9.9859    10.5797
  512.1000   129.2575  -999.2500    10.0508    10.6483
  512.2000   128.7400  -999.2500    10.0502    10.6475
  512.3000   127.8326  -999.2500    10.0859    10.6466
  512.4000   126.4515  -999.2500    10.1187    10.6457
  512.5000   123.7198  -999.2500    10.1298    10.6448
  512.6000   123.4964  -999.2500    10.1877    10.6440
  512.7000   122.9083  -999.2500    10.1870    10.5834
  512.8000   122.5132  -999.2500    10.1863    10.5687
  512.9000   122.7024  -999.2500    10.1856    10.5678
  513.0000   123.4562  -999.2500    10.2048    10.5669
  513.1000   124.6198  -999.2500    10.2552    10.5661
  513.2000   125.4394  -999.2500    10.2543    10.5651
  513.3000   126.4300  -999.2500    10.2537    10.5643
  513.4000   127.6171  -999.2500    10.2530    10.5634
  513.5000   129.0598  -999.2500    10.2803    10.5626
  513.6000   130.3397  -999.2500    10.3229    10.5617
  513.7000   132.2592  -999.2500    10.3249    10.5608
  513.8000   134.2427  -999.2500    10.3932    10.5598
  513.9000   135.4241  -999.2500    10.3926    10.5590
  514.0000   135.8391  -999.2500    10.4285    10.5581
  514.1000   136.0866  -999.2500    10.4634    10.5573
  514.2000   136.3602  -999.2500    10.4628    10.5564
  514.3000   136.1377  -999.2500    10.4620    10.5555
  514.4000   135.7206  -999.2500    10.4613    10.5546
  514.5000   134.8778  -999.2500    10.4605    10.5538
  514.6000   133.6370  -999.2500    10.4920    10.5529
  514.7000   132.3882  -999.2500    10.5319    10.5715
  514.8000   130.6336  -999.2500    10.5311    10.6311
  514.9000   129.6140  -999.2500    10.5303    10.6974
  515.0000   128.5241  -999.2500    10.5297    10.6966
  515.1000   127.2394  -999.2500    10.5697    10.7371
  515.2000   125.5470  -999.2500    10.6015    10.7692
  515.3000   124.0042  -999.2500    10.6156    10.7834
  515.4000   123.5256  -999.2500    10.6738    10.8423
  515.5000   123.0291  -999.2500    10.6729    10.8412
  515.6000   122.6651  -999.2500    10.7220    10.9417
  515.7000   122.4165  -999.2500    10.7459    10.9909
  515.8000   122.1939  -999.2500    10.7451    11.0140
  515.9000   122.1933  -999.2500    10.7444    11.0656
  516.0000   122.1928  -999.2500    10.7436    11.0645
  516.1000   122.1922  -999.2500    10.7429    11.1238
  516.2000   122.1915  -999.2500    10.7422    11.1396
  516.3000   122.0686  -999.2500    10.7414    11.1719
  516.4000   121.5641  -999.2500    10.7594    11.2348
  516.5000   120.6836  -999.2500    10.8147    11.2981
  516.6000   120.0748  -999.2500    10.8138    11.3698
  516.7000   119.7789  -999.2500    10.8132    11.3689
  516.8000   119.8747  -999.2500    10.8124    11.3680
  516.9000   120.0790  -999.2500    10.8117    11.3671
  517.0000   120.0783  -999.2500    10.8109    11.3809
  517.1000   120.3157  -999.2500    10.8101    11.4442
  517.2000   121.6725  -999.2500    10.8720    11.4433
  517.3000   123.6710  -999.2500    10.8838    11.4423
  517.4000   125.6662  -999.2500    10.8831    11.4414
  517.5000   127.1779  -999.2500    10.9051    11.4404
  517.6000   129.1108  -999.2500    10.9574    11.4395
  517.7000   129.7700  -999.2500    10.9565    11.4384
  517.8000   130.0133  -999.2500    10.9558    11.4376
  517.9000   130.0126  -999.2500    10.9551    11.4836
  518.0000   130.0121  -999.2500    10.9543    11.5152
  518.1000   130.0115  -999.2500    10.9715    11.5142
  518.2000   130.0107  -999.2500    11.0291    11.5132
  518.3000   130.0102  -999.2500    11.0281    11.5122
  518.4000   129.8610  -999.2500    11.0275    11.5114
  518.5000   129.3260  -999.2500    11.0267    11.5104
  518.6000   128.4182  -999.2500    11.0260    11.5094
  518.7000   127.8994  -999.2500    11.0251    11.5085
  518.8000   127.1882  -999.2500    11.0244    11.5075
  518.9000   126.2598  -999.2500    11.0237    11.5066
  519.0000   125.5281  -999.2500    11.0229    11.5056
  519.1000   125.1861  -999.2500    11.0221    11.5046
  519.2000   125.2096  -999.2500    11.0213    11.5037
  519.3000   125.4861  -999.2500    11.0206    11.5028
  519.4000   125.9233  -999.2500    11.0198    11.5017
  519.5000   126.5844  -999.2500    11.0190    11.5008
  519.6000   127.4404  -999.2500    11.0183    11.5458
  519.7000   128.3132  -999.2500    11.0175    11.5789
  519.8000   128.8026  -999.2500    11.0168    11.5779
  519.9000   129.0969  -999.2500    11.0160    11.5769
  520.0000   129.0964  -999.2500    11.0151    11.5758
  520.1000   129.0957  -999.2500    11.0145    11.5750
  520.2000   129.0952  -999.2500    11.0137    11.5741
  520.3000   129.0946  -999.2500    11.0130    11.6000
  520.4000   129.0939  -999.2500    11.0122    11.6528
  520.5000   129.0934  -999.2500    11.0114    11.6516
  520.6000   128.9101  -999.2500    11.0107    11.6506
  520.7000   128.5321  -999.2500    11.0099    11.6497
  520.8000   128.1116  -999.2500    11.0091    11.6127
  520.9000   127.7706  -999.2500    11.0084    11.5673
  521.0000   126.3794  -999.2500    11.0076    11.5664
  521.1000   125.0715  -999.2500    11.0068    11.5653
  521.2000   124.0774  -999.2500    11.0061    11.5644
  521.3000   123.1102  -999.2500    11.0053    11.5635
  521.4000   121.6945  -999.2500    11.0046    11.5319
  521.5000   119.7200  -999.2500    11.0038    11.4818
  521.6000   117.9420  -999.2500    11.0030    11.4808
  521.7000   117.3421  -999.2500    11.0021    11.4796
  521.8000   116.5979  -999.2500    11.0015    11.4253
  521.9000   116.1332  -999.2500    11.0008    11.3986
  522.0000   116.1325  -999.2500    11.0000    11.3976
  522.1000   116.1319  -999.2500    10.9992    11.3967
  522.2000   116.1314  -999.2500    10.9984    11.3957
  522.3000   116.1307  -999.2500    10.9977    11.3328
  522.4000   116.2587  -999.2500    10.9970    11.3152
  522.5000   116.5809  -999.2500    10.9962    11.3143
  522.6000   117.0766  -999.2500    10.9954    11.3133
  522.7000   117.6343  -999.2500    10.9946    11.3124
  522.8000   117.8506  -999.2500    10.9938    11.3113
  522.9000   118.2616  -999.2500    10.9381    11.3105
  523.0000   118.6465  -999.2500    10.9164    11.3095
  523.1000   119.0085  -999.2500    10.9156    11.3086
  523.2000   119.7476  -999.2500    10.9148    11.3077
  523.3000   120.3414  -999.2500    10.9141    11.3067
  523.4000   120.9374  -999.2500    10.9132    11.3842
  523.5000   121.8267  -999.2500    10.9126    11.3835
  523.6000   122.8182  -999.2500    10.9119    11.3825
  523.7000   123.8090  -999.2500    10.9111    11.3816
  523.8000   124.8566  -999.2500    10.9103    11.3806
  523.9000   124.8561  -999.2500    10.9095    11.3796
  524.0000   124.8554  -999.2500    10.9088    11.3787
  524.1000   124.8548  -999.2500    10.9081    11.4249
  524.2000   124.8542  -999.2500    10.9073    11.4559
  524.3000   124.8323  -999.2500    10.9066    11.4742
  524.4000   124.5517  -999.2500    10.9057    11.5338
  524.5000   123.9038  -999.2500    10.9049    11.5326
  524.6000   123.6470  -999.2500    10.9043    11.5886
  524.7000   123.6464  -999.2500    10.9035    11.6110
  524.8000   123.6458  -999.2500    10.9028    11.6101
  524.9000   123.6452  -999.2500    10.9020    11.6091
  525.0000   123.6446  -999.2500    10.9012    11.6081
  525.1000   123.6440  -999.2500    10.9629    11.6736
  525.2000   123.6434  -999.2500    10.9756    11.6869
  525.3000   123.6428  -999.2500    10.9748    11.6859
  525.4000   123.6422  -999.2500    10.9740    11.6850
  525.5000   123.6415  -999.2500    10.9733    11.6931
