~VERSION INFORMATION
 VERS.                2.0:   CWLS LOG ASCII STANDARD - VERSION 2.0
 WRAP.                 NO:   ONE LINE PER DEPTH STEP
~WELL INFORMATION
#MNEM.UNIT      DATA TYPE    INFORMATION
#----------   ------------   ------------------------------
 STRT.F           30.0000:   START DEPTH
 STOP.F         2441.0000:   STOP DEPTH
 STEP.F            0.5000:   STEP LENGTH
 NULL.          -999.2500:   NO VALUE
 COMP. FENIX & SCISSON INC:   COMPANY
 WELL.      NPR 3 #81 S-4:   WELL
 FLD .             TEAPOT:   FIELD
 LOC .       S4 T38N R78W:   LOCATION
 CNTY.            NATRONA:   COUNTY
 STAT.            WYOMING:   STATE
 CTRY. UNITED STATES OF AMERICA:   COUNTRY
 SRVC.            Unknown:   SERVICE COMPANY
 DATE.        28-MAR-1978:   LOGDATE
 API .       490251060700:   API NUMBER
~CURVE INFORMATION
#MNEM.UNIT       API CODE    CURVE DESCRIPTION
#----------   ------------   ------------------------------
 DEPT.F                  :   
 CALD.IN     45 280 60 00:   CALIPER
 RHOB.G/C3   45 350 01 00:   BULK DENSITY
 DPHI.DEC    45 890 12 00:   DENSITY POROSITY SANDSTONE
 CORR.G/C3   45 356 01 00:   DENSITY CORRECTION
 GRD .GAPI   45 310 01 00:   GAMMA RAY FROM DENSITY LOG
~PARAMETER INFORMATION
#MNEM.UNIT          VALUE    DESCRIPTION
#----------   ------------   ------------------------------
 PD  .                 GL:   PERMANENT DATUM
 EPD .F              5169:   ELEVATION PERMANENT DATUM
 LMF .                 KB:   LOG MEASURED FROM
 DAPD.F                10:   FEET ABOVE PERMANENT DATUM
 DMF .                 KB:   DRILLING MEASURED FROM
 EKB .F              5179:   KELLING BUSHING
 EGL .F              5169:   GROUND LEVEL
 DATE.          3-28-1978:   RUN DATE
 RUN .                  1:   RUN NUMBER
 DD  .F              2454:   DEPTH DRILLER
 DL  .F              2443:   DEPTH LOGGER
 BLI .F              2441:   BOTTOM LOG INTERVAL
 TLI .F                40:   TOP LOG INTERVAL
 CS  .IN            9.625:   CASING SIZE
 CBD .F               660:   CASING BOTTOM DRILLER
 CBL .F               660:   CASING BOTTOM LOGGER
 BS  .IN             8.75:   BIT SIZE
 BSD .F              2454:   BIT SIZE AT DEPTH
 DFT .           AIR MIST:   DRILLING FLUID TYPE
 TCS .HRS               2:   TIME CURCULATED STOPPED
 LUN .               2958:   LOGGING UNIT NUMBER
 LUL .               CASP:   LOGGING UNIT LOCATION
 ENGI.             MILLER:   RECORDING ENGINEER
 CLNT.            A2DTECH:   CLIENT CODE
 ORIG.       2"  5" PRINT:   ORIGIN OF DATA
 UWI .       490251060700:   UNIQUE WELL ID
 DICO. A2D Technologies, Inc.:   DIGITIZING COMPANY
~OTHER INFORMATION
~A   DEPT     CALD       RHOB       DPHI       CORR        GRD   
# ...
 1799.0000     9.4591     2.5072     0.0847    -0.0105   176.5397
 1799.5000     9.4600     2.5210     0.0808     0.0238   178.4549
 1800.0000     9.4747     2.5281     0.0719     0.0277   179.7377
 1800.5000     9.4893     2.5345     0.0756     0.0250   177.5390
 1801.0000     9.5038     2.5204     0.0828     0.0222   175.0938
 1801.5000     9.5183     2.5157     0.0804     0.0209   172.5669
 1802.0000     9.5328     2.5273     0.0749     0.0287   169.1216
 1802.5000     9.5472     2.5419     0.0643     0.0373   168.9542
 1803.0000     9.5597     2.5538     0.0571     0.0539   170.1830
 1803.5000     9.5651     2.5636     0.0571     0.0826   171.6459
 1804.0000     9.5706     2.5399     0.0785     0.0987   173.0247
 1804.5000     9.5760     2.4921     0.0934     0.0785   170.7896
 1805.0000     9.5815     2.4574     0.1094     0.0353   168.2853
 1805.5000     9.5870     2.4802     0.1094     0.0055   165.7626
 1806.0000     9.5925     2.4899     0.0953     0.0117   164.6825
 1806.5000     9.5978     2.5133     0.0742     0.0219   163.9627
 1807.0000     9.5981     2.5223     0.0909     0.0258   163.0779
 1807.5000     9.5980     2.5216     0.0814     0.0244   162.1858
 1808.0000     9.5980     2.5224     0.0793     0.0234   162.0018
 1808.5000     9.5980     2.5290     0.0719     0.0311   162.5969
 1809.0000     9.5980     2.5417     0.0607     0.0386   162.3891
 1809.5000     9.5980     2.5522     0.0667     0.0461   161.9816
 1810.0000     9.5980     2.5337     0.0759     0.0410   161.5343
 1810.5000     9.5980     2.5194     0.0832     0.0195   164.3192
 1811.0000     9.5980     2.5099     0.0894     0.0009   167.3857
 1811.5000     9.5979     2.5015     0.0927    -0.0025   168.5979
 1812.0000     9.5985     2.4938     0.0990    -0.0059   168.9009
 1812.5000     9.6109     2.5006     0.0998    -0.0040   171.0674
 1813.0000     9.6237     2.5174     0.0822     0.0056   173.5457
 1813.5000     9.6363     2.5188     0.0810     0.0139   176.0027
 1814.0000     9.6490     2.5201     0.0855     0.0150   177.0676
 1814.5000     9.6616     2.5292     0.0747     0.0231   175.7489
 1815.0000     9.6741     2.5381     0.0711     0.0301   173.5788
 1815.5000     9.7055     2.5347     0.0699     0.0299   171.3916
 1816.0000     9.7426     2.5290     0.0802     0.0304   171.1219
 1816.5000     9.7564     2.5358     0.0695     0.0382   177.6156
 1817.0000     9.7566     2.5257     0.0801     0.0461   178.9608
 1817.5000     9.7567     2.5197     0.0836     0.0448   176.4007
 1818.0000     9.7564     2.5181     0.0803     0.0433   174.1754
 1818.5000     9.7937     2.5187     0.0731     0.0420   171.8929
 1819.0000     9.7610     2.5451     0.0591     0.0479   168.1424
 1819.5000     9.6876     2.5578     0.0555     0.0774   165.1791
 1820.0000    10.0159     2.5523     0.0603     0.1075   168.1066
 1820.5000     9.8553     2.5851     0.0357     0.1400   176.3239
 1821.0000    10.5737     2.5917     0.0412     0.1778   181.3434
 1821.5000    10.3208     2.5844     0.0406     0.2378   168.8273
 1822.0000    11.3058     2.5928     0.0391     0.3169   182.3505
 1822.5000    11.4922     2.5372     0.0656     0.4398   191.3110
 1823.0000    10.9028     2.4149     0.0986     0.3928   182.2293
 1823.5000    10.7166     2.2775     0.1992     0.2962   179.6640
 1824.0000    10.5064     2.2180     0.1702     0.0820   174.8232
 1824.5000    10.4136     2.4372     0.1023     0.0292   174.0099
 1825.0000    10.3550     2.4975     0.0878     0.1143   175.4841
 1825.5000    10.2265     2.5064     0.0937     0.1495   176.9233
 1826.0000    10.0568     2.4607     0.1266     0.1240   175.3534
 1826.5000     9.8867     2.4471     0.1175     0.1101   172.8766
 1827.0000     9.7868     2.4742     0.1036     0.1487   170.5164
 1827.5000     9.7385     2.4943     0.0970     0.1968   171.0049
 1828.0000     9.7152     2.4965     0.1011     0.2455   172.6481
 1828.5000     9.6938     2.4181     0.1177     0.3090   174.1838
 1829.0000     9.6721     2.3000     0.1511     0.2588   169.5295
 1829.5000     9.6506     2.1515     0.1844     0.1282   163.3633
 1830.0000     9.6375     2.0534     0.2559    -0.0511   162.4827
 1830.5000     9.6377     2.2778     0.1665    -0.1329   168.7608
 1831.0000     9.6376     2.4965     0.0875    -0.0264   170.5808
 1831.5000     9.6377     2.5324     0.0742     0.0378   170.2537
 1832.0000     9.6376     2.5324     0.0750     0.0358   169.8430
 1832.5000     9.6377     2.5221     0.0878     0.0325   169.4339
 1833.0000     9.6419     2.5152     0.0868     0.0287   169.0249
 1833.5000     9.6547     2.5093     0.0850     0.0279   168.5099
 1834.0000     9.6673     2.5174     0.0850     0.0304   168.6502
 1834.5000     9.6789     2.5301     0.0750     0.0335   173.1283
 1835.0000     9.6861     2.5273     0.0781     0.0360   177.7518
 1835.5000     9.6935     2.5224     0.0790     0.0359   179.2121
 1836.0000     9.7097     2.5178     0.0790     0.0359   179.0435
 1836.5000     9.7365     2.5161     0.0858     0.0359   178.8451
 1837.0000     9.7631     2.5223     0.0799     0.0359   178.6566
 1837.5000     9.7904     2.5088     0.0842     0.0342   178.8581
 1838.0000     9.8048     2.5218     0.0786     0.0368   179.8843
 1838.5000     9.8161     2.5304     0.0738     0.0386   180.8979
 1839.0000     9.8273     2.5357     0.0756     0.0392   181.9167
 1839.5000     9.8385     2.5285     0.0775     0.0353   182.9326
 1840.0000     9.8498     2.5158     0.0822     0.0314   182.8002
 1840.5000     9.8597     2.5148     0.0894     0.0280   180.5700
 1841.0000     9.8682     2.5094     0.0858     0.0280   178.4341
 1841.5000     9.8766     2.5169     0.0803     0.0335   176.8822
 1842.0000     9.8850     2.5191     0.0858     0.0397   178.1866
 1842.5000     9.8931     2.5103     0.0913     0.0410   178.0789
 1843.0000     9.9198     2.5075     0.0832     0.0434   176.8237
 1843.5000     9.9517     2.5213     0.0790     0.0606   180.7097
 1844.0000     9.9821     2.5319     0.0703     0.0816   185.5189
 1844.5000    10.0917     2.5309     0.0838     0.1026   180.4592
 1845.0000    10.2395     2.5101     0.0934     0.1120   176.5197
 1845.5000    10.3867     2.4791     0.1032     0.1038   178.0707
 1846.0000    10.4919     2.4412     0.1156     0.0957   177.3737
 1846.5000    10.4843     2.4551     0.1159     0.0938   175.8170
 1847.0000    10.4657     2.4670     0.1117     0.0896   176.1040
 1847.5000    10.4182     2.4553     0.1165     0.0774   178.5308
 1848.0000    10.2273     2.4341     0.1234     0.0650   180.9161
 1848.5000    10.1097     2.4101     0.1338     0.0529   182.2254
 1849.0000     9.9767     2.3713     0.1459     0.0502   183.2755
 1849.5000     9.7347     2.3371     0.1555    -0.0116   182.8086
 1850.0000     9.6496     2.4325     0.1122    -0.0455   182.0987
 1850.5000     9.6262     2.4941     0.0854     0.0160   181.3881
 1851.0000     9.6024     2.4948     0.0998     0.0146   180.6107
 1851.5000     9.5784     2.4956     0.0992     0.0077   179.7066
 1852.0000     9.5569     2.5034     0.0930     0.0209   178.8023
 1852.5000     9.5514     2.5157     0.0787     0.0354   177.8989
 1853.0000     9.5456     2.5282     0.0785     0.0495   176.9954
 1853.5000     9.5401     2.5298     0.0803     0.0481   176.0892
 1854.0000     9.5192     2.5204     0.0846     0.0515   175.7330
 1854.5000     9.4956     2.5111     0.0893     0.0542   177.3340
 1855.0000     9.4718     2.5027     0.0910     0.0461   179.7780
 1855.5000     9.4566     2.5015     0.0896     0.0448   180.1350
 1856.0000     9.4510     2.5016     0.0879     0.0514   181.2281
 1856.5000     9.4454     2.4978     0.0970     0.0671   183.5344
 1857.0000     9.4398     2.4888     0.1019     0.0710   185.9170
 1857.5000     9.4342     2.4852     0.1046     0.0869   186.4722
 1858.0000     9.4286     2.4473     0.1148     0.0985   185.7138
 1858.5000     9.4231     2.3915     0.1260     0.0141   184.4542
 1859.0000     9.4196     2.4427     0.1109    -0.0252   181.9212
 1859.5000     9.4196     2.4735     0.1007     0.0066   179.3587
