~VERSION INFORMATION
 VERS.                2.0:   CWLS LOG ASCII STANDARD - VERSION 2.0
 WRAP.                 NO:   ONE LINE PER DEPTH STEP
~WELL INFORMATION
#MNEM.UNIT      DATA TYPE    INFORMATION
#----------   ------------   ------------------------------
 STRT.F            0.0000:   START DEPTH
 STOP.F          790.0000:   STOP DEPTH
 STEP.F            0.1000:   STEP LENGTH
 NULL.          -999.2500:   NO VALUE
 COMP.   FLUOR DANIEL INC:   COMPANY
 WELL.   72-2 X-34 #72-34:   WELL
 FLD .          N.P.R. #3:   FIELD
 LOC .      S34 T39N R78W:   LOCATION
 CNTY.            NATRONA:   COUNTY
 STAT.            WYOMING:   STATE
 CTRY. UNITED STATES OF AMERICA:   COUNTRY
 SRVC.      Western Atlas:   SERVICE COMPANY
 DATE.        25-MAR-1995:   LOGDATE
 API .       490252269300:   API NUMBER
~CURVE INFORMATION
#MNEM.UNIT       API CODE    CURVE DESCRIPTION
#----------   ------------   ------------------------------
 DEPT.F                  :   
 GRR .GAPI   07 310 01 00:   GAMMA RAY
 RILD.OHMM   07 120 46 00:   INDUCTION LOG DEEP RESISTIVITY
 RILM.OHMM   07 120 44 00:   INDUCTION LOG MEDIUM RESISTIVITY
~PARAMETER INFORMATION
#MNEM.UNIT          VALUE    DESCRIPTION
#----------   ------------   ------------------------------
 PD  .                 GL:   PERMANENT DATUM
 EPD .F              5058:   ELEVATION PERMANENT DATUM
 LMF .                 KB:   LOG MEASURED FROM
 DAPD.F                10:   FEET ABOVE PERMANENT DATUM
 DMF .                 KB:   DRILLING MEASURED FROM
 EKB .F              5068:   KELLING BUSHING
 EDF .F              5067:   DRILLING FLOOR
 EGL .F              5058:   GROUND LEVEL
 DATE.        25-MAR-1995:   RUN DATE
 RUN .                  1:   RUN NUMBER
 DD  .F               796:   DEPTH DRILLER
 DL  .F               798:   DEPTH LOGGER
 BLI .F               790:   BOTTOM LOG INTERVAL
 TLI .F                96:   TOP LOG INTERVAL
 CS  .IN            9.625:   CASING SIZE
 CBD .F                95:   CASING BOTTOM DRILLER
 CBL .F                96:   CASING BOTTOM LOGGER
 BS  .IN             8.75:   BIT SIZE
 BSD .F               796:   BIT SIZE AT DEPTH
 DFT .                AIR:   DRILLING FLUID TYPE
 MRT .F                97:   MAXIMUM RECORDED TEMPERATURE
 LUN .            HL 6530:   LOGGING UNIT NUMBER
 LUL .             CASPER:   LOGGING UNIT LOCATION
 ENGI.             RAUTIO:   RECORDING ENGINEER
 WITN.             STRONG:   WITNESSED BY
 CLNT.            A2DTECH:   CLIENT CODE
 ORIG.       2", 5" PRINT:   ORIGIN OF DATA
 UWI .       490252269300:   UNIQUE WELL ID
 DICO. A2D Technologies, Inc.:   DIGITIZING COMPANY
~OTHER INFORMATION
~A    DEPT      GRR      RILD       RILM   
# ...
  546.0000   132.3175     4.2577     4.4253
  546.1000   131.9485     4.2800     4.4563
  546.2000   131.5957     4.2883     4.4980
  546.3000   131.1236     4.3007     4.5347
  546.4000   130.8592     4.3192     4.5718
  546.5000   130.6097     4.3238     4.6197
  546.6000   130.7533     4.3815     4.6466
  546.7000   131.1639     4.3815     4.7118
  546.8000   131.7823     4.3998     4.7558
  546.9000   132.5629     4.4262     4.8452
  547.0000   133.3624     4.4528     4.9588
  547.1000   134.1243     4.4795     5.0689
  547.2000   134.7036     4.5088     5.1577
  547.3000   135.3748     4.5584     5.2789
  547.4000   136.1555     4.6133     5.3528
  547.5000   136.8429     4.6689     5.4343
  547.6000   137.1098     4.7251     5.5296
  547.7000   137.8757     4.7893     5.6265
  547.8000   138.2508     4.9135     5.7250
  547.9000   138.6639     4.9686     5.8053
  548.0000   139.0856     5.0507     5.8596
  548.1000   139.3476     5.1422     5.9280
  548.2000   139.6131     5.2246     5.9832
  548.3000   139.6156     5.2875     6.0251
  548.4000   139.8221     5.3544     6.0954
  548.5000   140.0839     5.4157     6.1310
  548.6000   140.3458     5.5059     6.1667
  548.7000   140.5587     5.6057     6.2026
  548.8000   140.5611     5.7199     6.2388
  548.9000   140.8207     5.8466     6.2752
  549.0000   141.2878     5.9191     6.3118
  549.1000   141.6555     6.0232     6.3560
  549.2000   142.0196     6.1040     6.3857
  549.3000   142.5405     6.1410     6.4455
  549.4000   143.0644     6.1967     6.5055
  549.5000   143.0669     6.2333     6.5434
  549.6000   143.0694     6.2717     6.5815
  549.7000   144.3650     6.3589     6.6276
  549.8000   145.4576     6.3901     6.6278
  549.9000   146.4977     6.4230     6.6280
  550.0000   147.4338     6.4530     6.6351
  550.1000   148.1343     6.4830     6.6528
  550.2000   148.5160     6.5130     6.6704
  550.3000   148.8977     6.5430     6.6880
  550.4000   148.7900     6.5730     6.7056
  550.5000   148.5329     6.6030     6.7209
  550.6000   148.1883     6.6330     6.6743
  550.7000   147.6412     6.6630     6.6743
  550.8000   146.8068     6.6930     6.6743
  550.9000   146.1015     6.7230     6.6743
  551.0000   145.1515     6.7530     6.6743
  551.1000   144.1248     6.7830     6.6743
  551.2000   143.0977     6.8130     6.6743
  551.3000   142.1049     6.8295     6.7059
  551.4000   141.5153     6.8293     6.7209
  551.5000   140.8586     6.8292     6.7359
  551.6000   140.2526     6.8790     6.7744
  551.7000   139.7390     6.9276     6.8149
  551.8000   139.2254     6.9275     6.8521
  551.9000   138.7123     6.9274     6.8624
  552.0000   138.4554     6.9273     6.8624
  552.1000   138.4007     6.9272     6.8624
  552.2000   138.4000     6.9493     6.8657
  552.3000   138.4930     6.9768     6.9102
  552.4000   138.7487     6.9767     6.9102
  552.5000   139.0202     6.9766     6.9102
  552.6000   139.2606     6.9765     6.8933
  552.7000   139.5166     6.9764     6.8624
  552.8000   140.0367     6.9763     6.8624
  552.9000   140.7278     6.9762     6.8624
  553.0000   141.2401     6.9761     6.8624
  553.1000   141.8158     6.9760     6.8405
  553.2000   142.2649     6.9759     6.8149
  553.3000   142.7772     6.9757     6.8100
  553.4000   143.1739     6.9757     6.7677
  553.5000   143.5526     6.9756     6.7677
  553.6000   144.3077     6.9755     6.7677
  553.7000   144.6114     6.9754     6.7677
  553.8000   144.6109     6.9753     6.7677
  553.9000   144.6102     6.9752     6.7677
  554.0000   144.6096     6.9751     6.7677
  554.1000   144.5641     6.9705     6.7677
  554.2000   144.2973     6.9251     6.7677
  554.3000   144.0498     6.9250     6.7677
  554.4000   143.6002     6.9249     6.7677
  554.5000   143.2245     6.9059     6.7677
  554.6000   142.8007     6.8753     6.7677
  554.7000   142.0882     6.8737     6.7677
  554.8000   141.8052     6.8260     6.7677
  554.9000   141.1122     6.8259     6.7677
  555.0000   140.5186     6.8015     6.7677
  555.1000   140.0050     6.7770     6.7677
  555.2000   139.5583     6.7769     6.7677
  555.3000   139.2881     6.7768     6.7677
  555.4000   138.6910     6.7767     6.7677
  555.5000   138.6905     6.7766     6.7677
  555.6000   138.6899     6.7766     6.7677
  555.7000   138.6893     6.7637     6.7677
  555.8000   138.7902     6.7280     6.7677
  555.9000   139.3101     6.7279     6.7677
  556.0000   139.3095     6.7278     6.7677
  556.1000   139.5073     6.7277     6.7677
  556.2000   139.9069     6.7276     6.7677
  556.3000   140.4194     6.7275     6.7677
  556.4000   140.8971     6.7274     6.7412
  556.5000   141.1726     6.7273     6.7209
  556.6000   141.6453     6.7272     6.7306
  556.7000   142.1579     6.7272     6.7677
  556.8000   142.5426     6.7270     6.7677
  556.9000   142.8715     6.7269     6.7677
  557.0000   143.3655     6.7268     6.7677
  557.1000   143.6572     6.7267     6.7677
  557.2000   144.0977     6.7266     6.7677
  557.3000   144.4442     6.7266     6.7677
  557.4000   144.7001     6.7265     6.7677
  557.5000   144.9559     6.7304     6.7677
  557.6000   145.2093     6.7746     6.7677
  557.7000   144.9497     6.7745     6.7677
  557.8000   144.8971     6.7744     6.7647
  557.9000   144.7466     6.7743     6.7209
  558.0000   144.4893     6.7839     6.7209
  558.1000   144.1499     6.8228     6.7209
  558.2000   143.3393     6.8227     6.7209
  558.3000   142.6102     6.8226     6.7209
  558.4000   142.0283     6.8226     6.7209
  558.5000   141.3807     6.8224     6.7209
  558.6000   140.6108     6.8223     6.7209
  558.7000   139.8410     6.8222     6.7209
  558.8000   138.9810     6.7838     6.7080
  558.9000   138.3005     6.7439     6.6743
  559.0000   137.7022     6.7041     6.6743
  559.1000   137.1885     6.6645     6.6743
  559.2000   136.6752     6.6253     6.6298
  559.3000   136.1701     6.5817     6.5649
  559.4000   135.8668     6.5475     6.5000
  559.5000   135.6558     6.5089     6.4351
  559.6000   135.5546     6.4533     6.3702
  559.7000   135.5540     6.3955     6.3053
  559.8000   135.6004     6.3944     6.2404
  559.9000   135.8638     6.3496     6.1987
  560.0000   136.1121     6.2894     6.1634
  560.1000   136.7567     6.2373     6.1162
  560.2000   137.5253     6.2005     6.0513
  560.3000   138.2089     6.1639     6.0139
  560.4000   138.7515     6.1258     5.9826
  560.5000   139.5925     6.0575     5.9723
  560.6000   140.2896     6.0124     5.9723
  560.7000   140.8807     5.9587     5.9545
  560.8000   141.3932     5.8993     5.8884
  560.9000   141.9053     5.8645     5.8492
  561.0000   142.4179     5.8258     5.8216
  561.1000   143.0102     5.7956     5.7885
  561.2000   143.8755     5.7615     5.7685
  561.3000   144.9004     5.7275     5.7685
  561.4000   146.0331     5.7016     5.7685
  561.5000   147.4219     5.7008     5.7370
  561.6000   149.2280     5.6607     5.7285
  561.7000   151.2661     5.6606     5.7285
  561.8000   152.9166     5.6606     5.7285
  561.9000   154.3091     5.6480     5.7285
  562.0000   155.4087     5.6200     5.7285
  562.1000   156.1779     5.6200     5.7285
  562.2000   157.0003     5.5886     5.7285
  562.3000   157.2384     5.5797     5.7285
  562.4000   157.3101     5.5797     5.7285
  562.5000   157.1799     5.5796     5.7285
  562.6000   156.9227     5.5766     5.7613
  562.7000   156.6452     5.5395     5.7943
  562.8000   156.0634     5.5394     5.8087
  562.9000   155.6177     5.5394     5.8203
  563.0000   154.9360     5.5394     5.8535
  563.1000   153.9386     5.5393     5.8899
  563.2000   152.5966     5.5392     5.9207
  563.3000   151.0572     5.5391     5.9546
  563.4000   149.2167     5.5390     5.9886
  563.5000   148.3907     5.5582     6.0139
  563.6000   147.6674     5.5787     6.0139
  563.7000   147.1538     5.5786     6.0139
  563.8000   146.7260     5.5785     5.9857
  563.9000   146.7253     5.5475     5.9312
  564.0000   146.7247     5.5385     5.8640
  564.1000   146.7241     5.5217     5.7974
