~VERSION INFORMATION
 VERS.                2.0:   CWLS LOG ASCII STANDARD - VERSION 2.0
 WRAP.                 NO:   ONE LINE PER DEPTH STEP
~WELL INFORMATION
#MNEM.UNIT      DATA TYPE    INFORMATION
#----------   ------------   ------------------------------
 STRT.F          484.0000:   START DEPTH
 STOP.F         2291.5000:   STOP DEPTH
 STEP.F            0.5000:   STEP LENGTH
 NULL.          -999.2500:   NO VALUE
 COMP. FENIX & SCISSON INC:   COMPANY
 WELL.     45 SHX 3 #45-3:   WELL
 FLD .             TEAPOT:   FIELD
 LOC .       S3 T38N R78W:   LOCATION
 CNTY.            NATRONA:   COUNTY
 STAT.            WYOMING:   STATE
 CTRY. UNITED STATES OF AMERICA:   COUNTRY
 SRVC.              Welex:   SERVICE COMPANY
 DATE.        20-APR-1980:   LOGDATE
 API .       490251080400:   API NUMBER
~CURVE INFORMATION
#MNEM.UNIT       API CODE    CURVE DESCRIPTION
#----------   ------------   ------------------------------
 DEPT.F                  :   
 CALD.IN     45 280 60 00:   CALIPER
 GRD .GAPI   45 310 01 00:   GAMMA RAY FROM DENSITY LOG
 CORR.G/C3   45 356 01 00:   DENSITY CORRECTION
 RHOB.G/C3   45 350 01 00:   BULK DENSITY
 DPHI.DEC    45 890 12 00:   DENSITY POROSITY SANDSTONE
~PARAMETER INFORMATION
#MNEM.UNIT          VALUE    DESCRIPTION
#----------   ------------   ------------------------------
 PD  .                 GL:   PERMANENT DATUM
 EPD .F              5186:   ELEVATION PERMANENT DATUM
 LMF .                 KB:   LOG MEASURED FROM
 DAPD.F                10:   FEET ABOVE PERMANENT DATUM
 DMF .                 KB:   DRILLING MEASURED FROM
 EKB .F              5196:   KELLING BUSHING
 EGL .F              5186:   GROUND LEVEL
 DATE.            4-20-80:   RUN DATE
 RUN .                  1:   RUN NUMBER
 DD  .F              2341:   DEPTH DRILLER
 DL  .F              2293:   DEPTH LOGGER
 BLI .F              2291:   BOTTOM LOG INTERVAL
 TLI .F               500:   TOP LOG INTERVAL
 CS  .IN            9.625:   CASING SIZE
 BS  .IN             8.75:   BIT SIZE
 BSD .F              2341:   BIT SIZE AT DEPTH
 DFT .                OIL:   DRILLING FLUID TYPE
 TCS .HRS               2:   TIME CURCULATED STOPPED
 MRT .F               218:   MAXIMUM RECORDED TEMPERATURE
 ENGI.            TOTHILL:   RECORDING ENGINEER
 WITN.           DINSMORE:   WITNESSED BY
 CLNT.            A2DTECH:   CLIENT CODE
 ORIG.           5" PRINT:   ORIGIN OF DATA
 UWI .       490251080400:   UNIQUE WELL ID
 DICO. A2D Technologies, Inc.:   DIGITIZING COMPANY
~OTHER INFORMATION
~A   DEPT     CALD         GRD      CORR       RHOB       DPHI   
# ...
  972.0000     9.0456    64.9550     0.0163     2.5110     0.0765
  972.5000     9.0609    64.7642     0.0220     2.5173     0.0716
  973.0000     9.0228    65.1230     0.0275     2.5242     0.0667
  973.5000     8.9857    65.6180     0.0345     2.5334     0.0618
  974.0000     8.9529    66.1145     0.0369     2.5344     0.0599
  974.5000     8.9678    66.5404     0.0262     2.5228     0.0683
  975.0000     8.9829    66.3445     0.0167     2.5161     0.0709
  975.5000     8.9833    66.1563     0.0267     2.5240     0.0686
  976.0000     8.9373    65.9702     0.0251     2.5171     0.0703
  976.5000     8.9128    65.7854     0.0307     2.5217     0.0675
  977.0000     8.9122    65.6425     0.0314     2.5228     0.0691
  977.5000     8.9503    65.5705     0.0284     2.5197     0.0718
  978.0000     8.9929    65.4833     0.0254     2.5151     0.0736
  978.5000     9.0316    65.3996     0.0286     2.5215     0.0694
  979.0000     8.9860    65.5242     0.0348     2.5276     0.0656
  979.5000     8.9356    66.0245     0.0411     2.5364     0.0617
  980.0000     8.9233    66.5188     0.0381     2.5355     0.0534
  980.5000     8.9404    67.0144     0.0303     2.5247     0.0662
  981.0000     8.9579    67.5112     0.0248     2.5166     0.0714
  981.5000     8.9741    68.0029     0.0244     2.5160     0.0719
  982.0000     8.9508    68.0605     0.0265     2.5183     0.0703
  982.5000     8.9335    68.0552     0.0333     2.5261     0.0683
  983.0000     8.9336    68.3156     0.0382     2.5373     0.0618
  983.5000     8.9342    68.6987     0.0354     2.5225     0.0688
  984.0000     8.9057    69.0876     0.0420     2.5280     0.0692
  984.5000     8.9189    69.4812     0.0432     2.5281     0.0631
  985.0000     8.9598    69.8379     0.0402     2.5228     0.0688
  985.5000     8.9936    69.1460     0.0418     2.5220     0.0675
  986.0000     8.9410    68.3984     0.0394     2.5222     0.0664
  986.5000     8.8974    67.7734     0.0387     2.5233     0.0670
  987.0000     8.9137    68.0625     0.0410     2.5265     0.0669
  987.5000     8.9286    68.3465     0.0383     2.5267     0.0671
  988.0000     8.9172    67.8625     0.0353     2.5198     0.0724
  988.5000     8.8926    67.3057     0.0368     2.5172     0.0717
  989.0000     8.8927    66.7402     0.0300     2.5097     0.0741
  989.5000     8.9227    66.6391     0.0216     2.5077     0.0796
  990.0000     8.9673    66.7602     0.0224     2.5045     0.0772
  990.5000     9.0126    66.4454     0.0143     2.4993     0.0817
  991.0000     9.0576    66.0053     0.0120     2.4987     0.0804
  991.5000     9.0957    65.6392     0.0095     2.4981     0.0832
  992.0000     9.0950    65.8474     0.0069     2.4975     0.0805
  992.5000     9.0708    66.0618     0.0005     2.4950     0.0839
  993.0000     9.0275    66.2747    -0.0053     2.4918     0.0869
  993.5000     8.9843    66.5020    -0.0007     2.5056     0.0792
  994.0000     8.9528    66.2344     0.0072     2.5209     0.0741
  994.5000     8.9624    65.7918     0.0071     2.5200     0.0708
  995.0000     8.9723    65.3455     0.0082     2.5197     0.0695
  995.5000     8.9824    64.8951     0.0111     2.5239     0.0692
  996.0000     8.9928    64.7390     0.0079     2.5134     0.0742
  996.5000     8.9768    64.7937    -0.0025     2.5044     0.0787
  997.0000     8.9559    64.8617    -0.0057     2.4997     0.0868
  997.5000     8.9348    64.9299    -0.0146     2.4844     0.0948
  998.0000     8.9141    64.9977    -0.0266     2.4748     0.0963
  998.5000     8.9132    65.0655    -0.0255     2.4796     0.0936
  999.0000     8.9133    65.1332    -0.0236     2.4842     0.0933
  999.5000     8.9132    65.2005    -0.0207     2.4827     0.0926
 1000.0000     8.9134    65.2663    -0.0174     2.4873     0.0904
 1000.5000     8.9243    65.3445    -0.0142     2.4908     0.0880
 1001.0000     8.9614    65.9217    -0.0050     2.4965     0.0825
 1001.5000     8.9980    66.5552     0.0005     2.5146     0.0740
 1002.0000     9.0017    67.1887     0.0030     2.5235     0.0688
 1002.5000     8.9670    67.8216     0.0030     2.5241     0.0674
 1003.0000     8.9671    68.4565     0.0052     2.5262     0.0661
 1003.5000     8.9888    69.0915     0.0112     2.5290     0.0643
 1004.0000     9.0112    69.5461     0.0009     2.5139     0.0721
 1004.5000     9.0033    68.7666    -0.0024     2.5182     0.0720
 1005.0000     8.9905    68.0877    -0.0017     2.5195     0.0712
 1005.5000     8.9770    68.5072    -0.0006     2.5233     0.0668
 1006.0000     8.9833    68.9402     0.0010     2.5312     0.0629
 1006.5000     9.0019    68.8053     0.0005     2.5322     0.0636
 1007.0000     9.0160    68.2844    -0.0032     2.5278     0.0658
 1007.5000     8.9363    67.7708    -0.0069     2.5232     0.0682
 1008.0000     8.8331    67.2468    -0.0155     2.5189     0.0709
 1008.5000     8.8075    67.2554    -0.0181     2.5210     0.0707
 1009.0000     8.8880    67.4252    -0.0031     2.5315     0.0638
 1009.5000     8.9681    67.6018     0.0024     2.5341     0.0611
 1010.0000     9.0489    67.7225     0.0051     2.5312     0.0624
 1010.5000     9.0747    67.0126     0.0050     2.5312     0.0638
 1011.0000     9.0723    66.2944     0.0004     2.5278     0.0662
 1011.5000     9.0252    66.0477    -0.0022     2.5224     0.0687
 1012.0000     8.9792    66.8803     0.0006     2.5287     0.0647
 1012.5000     8.9322    67.7207    -0.0038     2.5239     0.0685
 1013.0000     8.9027    67.7627    -0.0100     2.5167     0.0728
 1013.5000     8.9440    67.7578    -0.0117     2.5110     0.0749
 1014.0000     8.9862    67.7556    -0.0125     2.5054     0.0796
 1014.5000     9.0287    67.7518    -0.0091     2.5016     0.0808
 1015.0000     8.9989    67.7821    -0.0029     2.5091     0.0776
 1015.5000     8.9559    68.4357    -0.0044     2.5027     0.0815
 1016.0000     8.9127    69.0989    -0.0090     2.4963     0.0855
 1016.5000     8.8696    69.7635    -0.0115     2.4941     0.0847
 1017.0000     8.8264    70.4387    -0.0124     2.4946     0.0844
 1017.5000     8.7818    70.6181    -0.0132     2.4917     0.0869
 1018.0000     8.7847    70.6890    -0.0103     2.4945     0.0845
 1018.5000     8.8738    70.0235    -0.0069     2.5050     0.0788
 1019.0000     8.9234    69.3616    -0.0023     2.5153     0.0731
 1019.5000     8.9467    68.7000     0.0009     2.5202     0.0712
 1020.0000     8.9711    68.0743    -0.0030     2.5104     0.0762
 1020.5000     8.9955    68.0542    -0.0069     2.5057     0.0773
 1021.0000     8.9077    68.0582    -0.0023     2.5149     0.0734
 1021.5000     8.9116    68.0541     0.0065     2.5241     0.0664
 1022.0000     8.9513    68.3236     0.0155     2.5320     0.0631
 1022.5000     8.9926    68.7200     0.0173     2.5287     0.0642
 1023.0000     8.9566    69.1477     0.0152     2.5248     0.0671
 1023.5000     8.9117    69.5872     0.0162     2.5268     0.0659
 1024.0000     8.9518    70.0286     0.0172     2.5295     0.0662
 1024.5000     9.0055    70.4680     0.0086     2.5196     0.0730
 1025.0000     8.9636    70.7308     0.0003     2.5044     0.0798
 1025.5000     8.8998    70.4208    -0.0051     2.5011     0.0821
 1026.0000     8.8354    70.1217    -0.0047     2.4996     0.0820
 1026.5000     8.8470    69.8242    -0.0022     2.5065     0.0781
 1027.0000     8.9241    69.5259     0.0048     2.5158     0.0726
 1027.5000     8.9929    69.2283     0.0135     2.5252     0.0666
 1028.0000     8.9702    68.9561     0.0196     2.5345     0.0606
 1028.5000     8.9213    69.0060     0.0227     2.5395     0.0595
 1029.0000     8.8729    69.0553     0.0126     2.5302     0.0654
 1029.5000     8.8326    69.1035     0.0059     2.5218     0.0688
 1030.0000     8.8850    69.1512     0.0054     2.5217     0.0704
 1030.5000     8.9404    69.2001     0.0076     2.5187     0.0713
 1031.0000     8.9926    69.2433     0.0050     2.5145     0.0744
 1031.5000     8.9882    69.6089     0.0050     2.5103     0.0752
 1032.0000     8.9573    70.1496     0.0049     2.5096     0.0769
 1032.5000     8.9272    70.6949     0.0106     2.5160     0.0730
