~VERSION INFORMATION
 VERS.                2.0:   CWLS LOG ASCII STANDARD - VERSION 2.0
 WRAP.                 NO:   ONE LINE PER DEPTH STEP
~WELL INFORMATION
#MNEM.UNIT      DATA TYPE    INFORMATION
#----------   ------------   ------------------------------
 STRT.F           19.0000:   START DEPTH
 STOP.F         1200.0000:   STOP DEPTH
 STEP.F            0.5000:   STEP LENGTH
 NULL.          -999.2500:   NO VALUE
 COMP.       INTEX OIL CO:   COMPANY
 WELL.     NPR 3 #73 S-14:   WELL
 FLD .             TEAPOT:   FIELD
 LOC .      S14 T38N R78W:   LOCATION
 CNTY.            NATRONA:   COUNTY
 STAT.            WYOMING:   STATE
 CTRY. UNITED STATES OF AMERICA:   COUNTRY
 SRVC.       Schlumberger:   SERVICE COMPANY
 DATE.        24-AUG-1966:   LOGDATE
 API .       490250970900:   API NUMBER
~CURVE INFORMATION
#MNEM.UNIT       API CODE    CURVE DESCRIPTION
#----------   ------------   ------------------------------
 DEPT.F                  :   
 SPR .MV     05 010 01 00:   SPONTANEOUS POTENTIAL FROM RES.
 ILD .OHMM   05 120 46 00:   INDUCTION LOG DEEP
 ASN .OHMM   05 041 16 00:   AMPLIFIED SHORT NORMAL 16"
 CILD.MMHO   05 110 46 00:   CONDUCTIVITY INDUCTION LOG DEEP
 CALD.IN     45 280 60 00:   CALIPER
 GRD .GAPI   45 310 01 00:   GAMMA RAY FROM DENSITY LOG
 CORR.G/C3   45 356 01 00:   DENSITY CORRECTION
 RHOB.G/C3   45 350 01 00:   BULK DENSITY
 DPHI.DEC    45 890 12 00:   DENSITY POROSITY SANDSTONE
~PARAMETER INFORMATION
#MNEM.UNIT          VALUE    DESCRIPTION
#----------   ------------   ------------------------------
 PD  .                 GL:   PERMANENT DATUM
 EPD .F              5274:   ELEVATION PERMANENT DATUM
 LMF .                 KB:   LOG MEASURED FROM
 DAPD.F                 5:   FEET ABOVE PERMANENT DATUM
 DMF .                 KB:   DRILLING MEASURED FROM
 EKB .F              5279:   KELLING BUSHING
 EGL .F              5274:   GROUND LEVEL
 DATE.            8-24-66:   RUN DATE
 RUN .                  1:   RUN NUMBER
 DD  .F              1200:   DEPTH DRILLER
 DL  .F              1200:   DEPTH LOGGER
 BLI .F              1199:   BOTTOM LOG INTERVAL
 TLI .F                86:   TOP LOG INTERVAL
 CS  .IN            8.625:   CASING SIZE
 CBD .F                10:   CASING BOTTOM DRILLER
 BS  .IN             6.75:   BIT SIZE
 BSD .F              1200:   BIT SIZE AT DEPTH
 DFT .                GEL:   DRILLING FLUID TYPE
 DFD .               10.1:   DRILLING FLUID DENSITY
 DFV .                 60:   DRILLING FLUID VISCOSITY
 MSS .          FLOW LINE:   MUD SAMPLE SOURCE
 RMS .OHMM            1.8:   RESISTIVITY MUD SAMPLE
 MST .F                67:   MUD SAMPLE TEMPERATURE
 RMF .OHMM            1.4:   RESISTIVITY MUD FILTRATE SAMPLE
 MFST.F                77:   MUD FILTRATE SAMPLE TEMPERATURE
 MFSS.                  M:   MUD FILTRATE SAMPLE SOURCE
 RMB .OHMM            1.1:   RESISTIVITY MUD AT BHT
 BHT .F               112:   BOTTOM HOLE TEMPERATURE
 TCS .HRS               1:   TIME CURCULATED STOPPED
 MRT .F               112:   MAXIMUM RECORDED TEMPERATURE
 LUN .               4507:   LOGGING UNIT NUMBER
 LUL .               CSPR:   LOGGING UNIT LOCATION
 ENGI.            MANGOLD:   RECORDING ENGINEER
 WITN.                MAY:   WITNESSED BY
 CLNT.            A2DTECH:   CLIENT CODE
 ORIG.           5" PRINT:   ORIGIN OF DATA
 UWI .       490250970900:   UNIQUE WELL ID
 DICO. A2D Technologies, Inc.:   DIGITIZING COMPANY
~OTHER INFORMATION
~A   DEPT      SPR        ILD        ASN       CILD       CALD         GRD        CORR     RHOB       DPHI   
# ...
  785.5000   -43.7620     7.5940     8.7030   125.2320     7.1770   101.4280     0.0210     2.4920     0.1010
  786.0000   -43.8530     7.5530     8.6600   125.1480     7.1580   101.2180     0.0410     2.4970     0.0940
  786.5000   -43.8410     7.5190     8.7080   125.0640     7.1680   100.7340     0.0380     2.5090     0.0830
  787.0000   -43.8720     7.4750     8.7490   124.9800     7.1750    98.7470     0.0350     2.5220     0.0770
  787.5000   -43.9040     7.4460     8.7910   124.8960     7.1840    97.1000     0.0290     2.5180     0.0790
  788.0000   -43.9190     7.4660     8.8370   124.8120     7.1910    95.0520     0.0310     2.5020     0.0890
  788.5000   -43.9400     7.4980     8.8170   124.7280     7.1980    95.0200     0.0420     2.5060     0.0870
  789.0000   -43.9840     7.5190     8.7640   124.6440     7.1990    96.8550     0.0500     2.5380     0.0690
  789.5000   -43.9680     7.5460     8.7820   124.5600     7.1990    98.7820     0.0310     2.5300     0.0740
  790.0000   -43.7740     7.5730     8.9080   124.4760     7.1990    99.8790     0.0210     2.5150     0.0810
  790.5000   -43.5410     7.5950     9.0240   124.3760     7.1990    99.5460     0.0230     2.5180     0.0730
  791.0000   -43.3640     7.6270     8.9650   124.7910     7.1880    99.3100     0.0310     2.5410     0.0640
  791.5000   -43.1850     7.6390     8.7800   125.3040     7.1500    99.9100     0.0400     2.5570     0.0580
  792.0000   -42.9430     7.6080     8.7770   125.8160     7.1550   101.5780     0.0380     2.5440     0.0670
  792.5000   -42.7940     7.5720     8.9300   126.3290     7.1970   103.1750     0.0320     2.5170     0.0890
  793.0000   -42.9590     7.5450     8.8820   126.8410     7.2300   104.2910     0.0280     2.4900     0.0930
  793.5000   -43.1420     7.5130     8.7010   127.3540     7.1780   103.6640     0.0230     2.4960     0.0990
  794.0000   -43.0530     7.4820     8.5690   127.8660     7.0890   101.3570     0.0260     2.5080     0.0930
  794.5000   -42.8830     7.4520     8.4720   128.3790     7.0730   100.5840     0.0370     2.5060     0.0860
  795.0000   -42.6990     7.4210     8.4170   128.8910     7.1170   100.2580     0.0410     2.5020     0.0870
  795.5000   -42.5690     7.3910     8.3880   129.4040     7.1510    99.6520     0.0360     2.5070     0.0870
  796.0000   -42.6050     7.3600     8.4410   129.9160     7.1890   100.6550     0.0340     2.5170     0.0840
  796.5000   -42.5520     7.3290     8.5190   130.4290     7.2020   103.2330     0.0460     2.5080     0.0890
  797.0000   -42.6130     7.2990     8.4940   130.9410     7.2090   100.2750     0.0330     2.4720     0.1010
  797.5000   -43.1460     7.2680     8.4500   131.4540     7.2110    97.5200     0.0180     2.5090     0.1060
  798.0000   -43.7290     7.2360     8.4250   131.9660     7.2220    99.0560     0.0200     2.4710     0.0990
  798.5000   -44.2440     7.2100     8.3780   132.4790     7.1790   102.6770     0.0250     2.4750     0.0910
  799.0000   -44.7950     7.1730     8.3040   132.9910     7.1080   106.2810     0.0230     2.5120     0.0820
  799.5000   -45.1880     7.1460     8.2080   133.3670     7.0460   109.1760     0.0310     2.5300     0.0740
  800.0000   -45.5630     7.1760     8.1630   132.0940     7.0400   108.7880     0.0540     2.5320     0.0680
  800.5000   -45.7750     7.2240     8.1930   131.0900     7.0460   107.5370     0.0770     2.5470     0.0600
  801.0000   -45.5910     7.2620     8.2310   130.0850     7.0520   109.3700     0.0740     2.5420     0.0610
  801.5000   -45.3420     7.3070     8.2480   129.0810     7.0530   112.2850     0.0690     2.5320     0.0730
  802.0000   -45.1730     7.3470     8.2880   128.0770     7.0890   111.3210     0.0670     2.5360     0.0720
  802.5000   -44.9650     7.3930     8.4060   127.0720     7.1720   110.0980     0.0740     2.5410     0.0650
  803.0000   -44.7370     7.4410     8.5450   126.0680     7.1890   107.4620     0.0640     2.5240     0.0790
  803.5000   -44.6300     7.4770     8.6500   125.0640     7.1980   103.8300     0.0510     2.5070     0.0860
  804.0000   -44.7540     7.5170     8.7930   124.0590     7.1920   105.0870     0.0380     2.5030     0.0870
  804.5000   -45.0390     7.5570     8.9320   123.0550     7.1860   107.9170     0.0310     2.5000     0.0910
  805.0000   -45.1510     7.6040     8.9570   122.4460     7.1790   108.7790     0.0280     2.4970     0.0940
  805.5000   -44.9490     7.6400     8.9530   122.6540     7.1730   107.7890     0.0240     2.4960     0.0870
  806.0000   -44.6410     7.6280     8.9710   122.8630     7.1670   105.7980     0.0280     2.5210     0.0780
  806.5000   -44.2940     7.6050     8.9770   123.0710     7.1610   103.9930     0.0380     2.5340     0.0700
  807.0000   -44.0450     7.5880     8.9850   123.2800     7.1700   103.6560     0.0430     2.5240     0.0750
  807.5000   -43.8400     7.5710     8.9900   123.8700     7.1880   104.1640     0.0330     2.5140     0.0830
  808.0000   -43.8250     7.5490     8.9930   124.7910     7.1940   104.4150     0.0220     2.5040     0.0880
  808.5000   -44.3940     7.4950     9.0010   125.7110     7.1550   104.9470     0.0150     2.4910     0.0960
  809.0000   -45.0280     7.4180     8.9960   126.6310     7.1220   104.0980     0.0160     2.5000     0.0890
  809.5000   -45.6660     7.3340     8.9230   127.5510     7.0870   102.4440     0.0160     2.5220     0.0800
  810.0000   -46.3050     7.2480     8.7660   128.4720     7.0510   101.3760     0.0220     2.5170     0.0750
  810.5000   -45.8860     7.1780     8.7030   129.3710     7.0270   103.7390     0.0340     2.5120     0.0860
  811.0000   -44.9130     7.1140     8.7200   132.1450     7.1030   106.6600     0.0360     2.5120     0.0850
  811.5000   -44.6490     7.0380     8.5870   134.8560     7.1910   108.8390     0.0310     2.5240     0.0750
  812.0000   -44.8390     6.9460     8.3780   137.5680     7.2140   107.9660     0.0360     2.5400     0.0610
  812.5000   -44.8870     6.8500     8.2230   140.2800     7.2190   107.4630     0.0480     2.5470     0.0640
  813.0000   -44.6370     6.7650     8.0790   142.3580     7.2200   110.9440     0.0550     2.5340     0.0710
  813.5000   -44.3930     6.6710     7.9450   143.4930     7.2120   113.1620     0.0480     2.5190     0.0760
  814.0000   -44.4730     6.5830     7.8330   144.4130     7.1480   111.8510     0.0400     2.4990     0.0880
  814.5000   -44.5690     6.5750     7.7310   145.3550     7.0880   110.5540     0.0330     2.4920     0.0930
  815.0000   -44.4100     6.6350     7.6560   143.7700     7.0470   109.2890     0.0250     2.5130     0.0840
  815.5000   -44.0850     6.6970     7.6950   142.1470     7.1230   107.8820     0.0350     2.5020     0.0930
  816.0000   -43.8180     6.7550     7.8330   140.5250     7.2270   105.5970     0.0510     2.5170     0.0820
  816.5000   -43.8040     6.8170     7.9930   138.9020     7.2040   102.4540     0.0530     2.5430     0.0680
  817.0000   -43.8780     6.8780     8.1340   137.2800     7.1570   102.1250     0.0560     2.5400     0.0670
  817.5000   -43.9260     6.9420     8.1240   135.6580     7.1050   100.4490     0.0500     2.5470     0.0660
  818.0000   -43.9750     7.0060     8.1060   134.0350     7.0930    97.4960     0.0440     2.5630     0.0540
  818.5000   -43.8770     7.0670     8.3130   132.4130     7.1670    98.5860     0.0440     2.5700     0.0490
  819.0000   -43.6920     7.1340     8.4620   130.9040     7.1870   102.5910     0.0520     2.5540     0.0590
  819.5000   -43.6030     7.1940     8.3640   130.0080     7.1370   102.4350     0.0580     2.5410     0.0670
  820.0000   -43.6690     7.2460     8.2880   129.3940     7.1280   102.5940     0.0520     2.5340     0.0710
  820.5000   -43.7220     7.3160     8.3580   128.7810     7.1590   102.8200     0.0460     2.5320     0.0670
  821.0000   -43.7730     7.3830     8.4590   128.1670     7.1840   102.3930     0.0400     2.5340     0.0720
  821.5000   -44.1260     7.4340     8.5470   127.5540     7.2150   103.2610     0.0390     2.5410     0.0670
