~VERSION INFORMATION
 VERS.                2.0:   CWLS LOG ASCII STANDARD - VERSION 2.0
 WRAP.                 NO:   ONE LINE PER DEPTH STEP
~WELL INFORMATION
#MNEM.UNIT      DATA TYPE    INFORMATION
#----------   ------------   ------------------------------
 STRT.F            0.0000:   START DEPTH
 STOP.F          523.0000:   STOP DEPTH
 STEP.F            0.1000:   STEP LENGTH
 NULL.          -999.2500:   NO VALUE
 COMP.       F D SERV INC:   COMPANY
 WELL. NAVAL PETROLEUM RESERVE 3 SX-3 #87-3:   WELL
 FLD .             TEAPOT:   FIELD
 LOC .       S3 T38N R78W:   LOCATION
 CNTY.            NATRONA:   COUNTY
 STAT.            WYOMING:   STATE
 CTRY. UNITED STATES OF AMERICA:   COUNTRY
 SRVC.      Western Atlas:   SERVICE COMPANY
 DATE.        22-NOV-1992:   LOGDATE
 API .       490252254300:   API NUMBER
~CURVE INFORMATION
#MNEM.UNIT       API CODE    CURVE DESCRIPTION
#----------   ------------   ------------------------------
 DEPT.F                  :   
 GRR .GAPI   07 310 01 00:   GAMMA RAY
 RILD.OHMM   07 120 46 00:   INDUCTION LOG DEEP RESISTIVITY
 RILM.OHMM   07 120 44 00:   INDUCTION LOG MEDIUM RESISTIVITY
~PARAMETER INFORMATION
#MNEM.UNIT          VALUE    DESCRIPTION
#----------   ------------   ------------------------------
 PD  .                 GL:   PERMANENT DATUM
 EPD .F              5129:   ELEVATION PERMANENT DATUM
 LMF .                 KB:   LOG MEASURED FROM
 DAPD.F                10:   FEET ABOVE PERMANENT DATUM
 DMF .                 KB:   DRILLING MEASURED FROM
 EKB .F              5139:   KELLING BUSHING
 EDF .F              5138:   DRILLING FLOOR
 EGL .F              5129:   GROUND LEVEL
 DATE.        22-NOV-1992:   RUN DATE
 RUN .                  1:   RUN NUMBER
 DD  .F               530:   DEPTH DRILLER
 DL  .F               531:   DEPTH LOGGER
 BLI .F               530:   BOTTOM LOG INTERVAL
 TLI .F                58:   TOP LOG INTERVAL
 CS  .IN            8.625:   CASING SIZE
 CBD .F                58:   CASING BOTTOM DRILLER
 CBL .F                58:   CASING BOTTOM LOGGER
 BS  .IN            7.875:   BIT SIZE
 BSD .F               530:   BIT SIZE AT DEPTH
 DFT .           AIR FOAM:   DRILLING FLUID TYPE
 MRT .F                73:   MAXIMUM RECORDED TEMPERATURE
 LUN .            HL-6274:   LOGGING UNIT NUMBER
 LUL .             CASPER:   LOGGING UNIT LOCATION
 ENGI.       P. RASMUSSEN:   RECORDING ENGINEER
 WITN.          G. STRONG:   WITNESSED BY
 CLNT.            A2DTECH:   CLIENT CODE
 ORIG.           5" PRINT:   ORIGIN OF DATA
 UWI .       490252254300:   UNIQUE WELL ID
 DICO. A2D Technologies, Inc.:   DIGITIZING COMPANY
~OTHER INFORMATION
~A    DEPT      GRR      RILD       RILM   
# ...
  382.2000   108.0497    14.2932    14.2180
  382.3000   108.8374    14.2922    14.2160
  382.4000   109.0647    14.1432    14.0619
  382.5000   109.3092    13.9534    13.7906
  382.6000   109.5537    13.7636    13.6279
  382.7000   109.7404    13.5738    13.6260
  382.8000   109.7392    13.5127    13.6241
  382.9000   109.7380    13.4773    13.6222
  383.0000   109.7368    13.4170    13.6203
  383.1000   109.7355    13.4161    13.6184
  383.2000   109.7343    13.4151    13.6165
  383.3000   109.7331    13.4142    13.6146
  383.4000   109.7317    13.4133    13.6124
  383.5000   109.7307    13.3897    13.6108
  383.6000   109.7295    13.3132    13.6089
  383.7000   109.6343    13.2248    13.6070
  383.8000   109.4245    13.1614    13.6051
  383.9000   109.4232    13.1313    13.6030
  384.0000   109.1962    13.1024    13.6013
  384.1000   109.1183    13.0383    13.5995
  384.2000   109.0050    13.0373    13.5976
  384.3000   108.8133    13.1043    13.5956
  384.4000   108.8121    13.1267    13.5937
  384.5000   108.5668    13.1258    13.5918
  384.6000   108.5071    13.1249    13.5899
  384.7000   108.3756    13.1240    13.5881
  384.8000   108.2021    13.1230    13.5862
  384.9000   108.1845    13.1221    13.5842
  385.0000   107.8969    13.0817    13.5824
  385.1000   107.8959    13.0070    13.5805
  385.2000   107.3381    12.9326    13.5358
  385.3000   106.4156    12.8470    13.4824
  385.4000   105.4930    12.7852    13.4735
  385.5000   104.5705    12.7562    13.3847
  385.6000   103.6480    12.7553    13.3186
  385.7000   102.5169    12.7544    13.2417
  385.8000   101.1774    12.7534    13.1941
  385.9000    99.8080    12.7526    13.1922
  386.0000    98.8078    12.7517    13.1902
  386.1000    98.3232    12.7508    13.1204
  386.2000    98.2003    12.7499    13.0951
  386.3000    98.1991    12.7490    13.0273
  386.4000    98.1978    12.7482    12.8946
  386.5000    98.2109    12.7473    12.8186
  386.6000    98.4978    12.7464    12.8169
  386.7000    98.6997    12.7455    12.8151
  386.8000    98.9442    12.7446    12.8133
  386.9000    99.2778    12.7436    12.8115
  387.0000    99.7678    12.6821    12.8097
  387.1000   100.3073    12.6535    12.8076
  387.2000   101.1905    12.6526    12.8062
  387.3000   103.1574    12.6518    12.7632
  387.4000   104.9691    12.6508    12.7136
  387.5000   106.0513    12.6500    12.7119
  387.6000   107.5631    12.6491    12.7099
  387.7000   108.9971    12.6482    12.7084
  387.8000   110.1056    12.6473    12.7066
  387.9000   111.0871    12.6464    12.7048
  388.0000   111.8628    12.6455    12.7030
  388.1000   112.1074    12.6447    12.7011
  388.2000   112.3968    12.6053    12.6994
  388.3000   112.5961    12.5551    12.6977
  388.4000   112.5536    12.5486    12.6959
  388.5000   112.3934    12.4661    12.6942
  388.6000   112.3922    12.4653    12.6924
  388.7000   112.3908    12.4645    12.6906
  388.8000   111.9523    12.4637    12.6347
  388.9000   111.6216    12.4628    12.5618
  389.0000   111.3746    12.4618    12.4893
  389.1000   111.0796    12.3959    12.4210
  389.2000   110.5694    12.3736    12.4190
  389.3000   110.3315    12.3728    12.4175
  389.4000   110.2644    12.3719    12.4158
  389.5000   110.1402    12.3711    12.4141
  389.6000   109.8933    12.3702    12.4123
  389.7000   109.6557    12.3693    12.4104
  389.8000   109.6542    12.4066    12.4089
  389.9000   109.8513    12.4540    12.4071
  390.0000   110.3782    12.4532    12.4054
  390.1000   111.1982    12.4522    12.4037
  390.2000   112.1251    12.4514    12.4019
  390.3000   112.6740    12.4506    12.4002
  390.4000   112.8890    12.4498    12.3985
  390.5000   112.9743    12.4602    12.4300
  390.6000   112.9731    12.5350    12.4818
  390.7000   112.9264    12.5342    12.4800
  390.8000   112.6680    12.5333    12.4783
  390.9000   112.1983    12.5324    12.5310
  391.0000   111.7056    12.5485    12.5621
  391.1000   110.9719    12.6183    12.5818
  391.2000   109.9244    12.6174    12.6466
  391.3000   108.7080    12.6165    12.6444
  391.4000   107.9700    12.6156    12.6429
  391.5000   107.2315    12.6147    12.6839
  391.6000   106.9095    12.6199    12.7279
  391.7000   106.9902    12.7010    12.7261
  391.8000   107.2598    12.7003    12.7241
  391.9000   107.8135    12.6994    12.7225
  392.0000   108.4539    12.7270    12.7207
  392.1000   108.8759    12.7866    12.7189
  392.2000   109.1203    12.7855    12.7308
  392.3000   109.3218    12.7847    12.8043
  392.4000   109.0178    12.8347    12.9416
  392.5000   108.7846    12.9067    12.9806
  392.6000   108.7128    12.9613    13.0145
  392.7000   108.4751    12.9604    13.0677
  392.8000   108.0439    13.0339    13.0659
  392.9000   107.7970    13.1070    13.2151
  393.0000   107.5501    13.1395    13.3043
  393.1000   107.1099    13.1386    13.3778
  393.2000   106.7538    13.1444    13.4279
  393.3000   106.5068    13.2285    13.4261
  393.4000   106.2600    13.2277    13.4239
  393.5000   105.9787    13.2739    13.4223
  393.6000   105.7661    13.3183    13.4205
  393.7000   105.5193    13.3048    13.4186
  393.8000   105.2725    13.2239    13.4062
  393.9000   105.0663    13.2231    13.3215
  394.0000   105.0650    13.2222    13.3198
  394.1000   105.0639    13.2212    13.2677
  394.2000   105.0626    13.2203    13.1911
  394.3000   105.0614    13.2184    13.1149
  394.4000   105.1191    13.1429    13.0367
  394.5000   105.3635    13.1258    13.0350
  394.6000   105.6081    13.0839    13.0331
  394.7000   105.8525    13.0328    13.0313
  394.8000   106.2307    13.0252    13.0295
  394.9000   106.7978    12.9404    13.0256
  395.0000   107.5139    12.9396    12.9505
  395.1000   108.0773    12.8470    12.9336
  395.2000   109.1212    12.7300    12.8910
  395.3000   110.3486    12.6693    12.8166
  395.4000   111.3854    12.6684    12.7427
  395.5000   112.0827    12.6005    12.6585
  395.6000   112.6099    12.4786    12.6570
  395.7000   112.3816    12.3704    12.6553
  395.8000   112.3050    12.3169    12.6260
  395.9000   111.9638    12.3148    12.5424
  396.0000   111.1688    12.2445    12.3880
  396.1000   110.1834    12.1745    12.3224
  396.2000   109.2009    12.1050    12.2986
  396.3000   108.2171    12.0358    12.2969
  396.4000   107.2331    11.9669    12.2952
  396.5000   106.3983    11.8893    12.2934
  396.6000   105.9059    11.8306    12.2240
  396.7000   105.3348    11.7630    12.1535
  396.8000   105.3338    11.6958    12.0834
  396.9000   105.3326    11.6289    12.0137
  397.0000   105.7956    11.5586    11.9470
  397.1000   107.0941    11.5578    11.9450
  397.2000   108.9597    11.4645    11.9437
  397.3000   110.0819    11.3963    11.9036
  397.4000   111.1412    11.3794    11.8349
  397.5000   112.5661    11.3156    11.7666
  397.6000   114.2067    11.3148    11.6897
  397.7000   114.7026    11.3140    11.6312
  397.8000   114.7014    11.2775    11.6055
  397.9000   114.7002    11.2131    11.5778
  398.0000   114.6990    11.1551    11.5109
  398.1000   114.6255    11.1543    11.4399
  398.2000   114.3634    11.0990    11.4384
  398.3000   113.7874    11.0754    11.3921
  398.4000   113.3782    11.0492    11.3558
  398.5000   113.0328    10.9970    11.3397
  398.6000   112.8763    10.9961    11.2737
  398.7000   112.8750    10.9954    11.2722
  398.8000   112.8737    10.9947    11.2706
  398.9000   112.8726    10.9939    11.2690
  399.0000   113.0368    10.9931    11.2492
  399.1000   113.2814    10.9924    11.1876
  399.2000   113.5258    10.9916    11.1857
  399.3000   113.7755    10.9416    11.1329
  399.4000   114.0147    10.9137    11.1052
  399.5000   114.4428    10.9130    11.1037
  399.6000   115.1865    10.9122    11.1021
  399.7000   116.0282    10.9114    11.1004
  399.8000   116.5055    10.9107    11.0990
  399.9000   116.7937    10.9099    11.0975
  400.0000   115.8850    10.9092    11.0959
  400.1000   115.8832    10.9085    11.0943
  400.2000   115.8814    10.9076    11.0927
  400.3000   115.8795    10.9069    11.0912
