~VERSION INFORMATION
 VERS.                2.0:   CWLS LOG ASCII STANDARD - VERSION 2.0
 WRAP.                 NO:   ONE LINE PER DEPTH STEP
~WELL INFORMATION
#MNEM.UNIT      DATA TYPE    INFORMATION
#----------   ------------   ------------------------------
 STRT.F            0.0000:   START DEPTH
 STOP.F          419.0000:   STOP DEPTH
 STEP.F            0.5000:   STEP LENGTH
 NULL.          -999.2500:   NO VALUE
 COMP.       F D SERV INC:   COMPANY
 WELL.   63-4 SX-1 #63-10:   WELL
 FLD .             TEAPOT:   FIELD
 LOC .      S10 T38N R78W:   LOCATION
 CNTY.            NATRONA:   COUNTY
 STAT.            WYOMING:   STATE
 CTRY. UNITED STATES OF AMERICA:   COUNTRY
 SRVC.            Unknown:   SERVICE COMPANY
 DATE.        05-JAN-1992:   LOGDATE
 API .       490252257000:   API NUMBER
~CURVE INFORMATION
#MNEM.UNIT       API CODE    CURVE DESCRIPTION
#----------   ------------   ------------------------------
 DEPT.F                  :   
 GR  .GAPI   35 310 01 00:   GAMMA RAY
 NEUT.NAPI   35 330 01 00:   NEUTRON
~PARAMETER INFORMATION
#MNEM.UNIT          VALUE    DESCRIPTION
#----------   ------------   ------------------------------
 PD  .                 GL:   PERMANENT DATUM
 EPD .F              5177:   ELEVATION PERMANENT DATUM
 LMF .                 KB:   LOG MEASURED FROM
 DAPD.F                10:   FEET ABOVE PERMANENT DATUM
 DMF .                 KB:   DRILLING MEASURED FROM
 EKB .F              5187:   KELLING BUSHING
 EGL .F              5177:   GROUND LEVEL
 DATE.        05-JAN-1992:   RUN DATE
 RUN .                  1:   RUN NUMBER
 DD  .F               490:   DEPTH DRILLER
 DL  .F               421:   DEPTH LOGGER
 BLI .F               421:   BOTTOM LOG INTERVAL
 BSD .F               490:   BIT SIZE AT DEPTH
 DFT .              WATER:   DRILLING FLUID TYPE
 TCS .HRS            0200:   TIME CURCULATED STOPPED
 TLAB.HRS            0300:   TIME LOGGER AT BOTTOM
 LUN .                509:   LOGGING UNIT NUMBER
 LUL .           GILLETTE:   LOGGING UNIT LOCATION
 ENGI.           L.GOERES:   RECORDING ENGINEER
 WITN.            B.SYLAR:   WITNESSED BY
 CLNT.            A2DTECH:   CLIENT CODE
 ORIG.           5" PRINT:   ORIGIN OF DATA
 UWI .       490252257000:   UNIQUE WELL ID
 DICO. A2D Technologies, Inc.:   DIGITIZING COMPANY
~OTHER INFORMATION
~A    DEPT       GR      NEUT   
# ...
  243.0000    46.0708     7.5027
  243.5000    46.5361     7.5141
  244.0000    46.8840     5.8615
  244.5000    47.5527     6.2556
  245.0000    46.5361    11.6671
  245.5000    45.7455    11.1312
  246.0000    44.3901     7.6721
  246.5000    43.3735     7.2124
  247.0000    43.0346     8.6771
  247.5000    43.4864     7.8335
  248.0000    42.5828     7.6821
  248.5000    41.0015     5.6769
  249.0000    39.8720     4.6871
  249.5000    37.0482    11.4595
  250.0000    32.9819    12.6152
  250.5000    30.5738     6.3106
  251.0000    29.4804     0.3125
  251.5000    31.7395     2.5464
  252.0000    33.5467     4.0873
  252.5000    33.7726     6.4744
  253.0000    34.2244     6.5615
  253.5000    34.9991     5.9410
  254.0000    33.3669     6.0205
  254.5000    33.4841     8.0235
  255.0000    32.4746     9.6408
  255.5000    29.3177     6.4901
  256.0000    28.4184     2.4156
  256.5000    28.9405     4.0335
  257.0000    30.5669     6.9310
  257.5000    32.5547     8.0920
  258.0000    33.6551     6.6215
  258.5000    33.8735     3.5969
  259.0000    34.1016     3.0337
  259.5000    34.8965     5.8347
  260.0000    35.2411    10.7385
  260.5000    35.8115    10.7600
  261.0000    35.2525     9.7508
  261.5000    31.6437    10.1417
  262.0000    29.5033    10.6864
  262.5000    28.9443    11.6156
  263.0000    29.6277    11.2372
  263.5000    30.3111    10.6281
  264.0000    30.5427     9.0958
  264.5000    31.2261    13.3328
  265.0000    32.3613    18.5697
  265.5000    34.5131    16.4990
  266.0000    35.3080    13.5822
  266.5000    34.8619    15.8961
  267.0000    34.8690    19.2869
  267.5000    34.5354    22.9854
  268.0000    34.2023    23.4516
  268.5000    33.9806    23.7670
  269.0000    35.1173    23.3886
  269.5000    36.0266    20.0871
  270.0000    38.0654    17.0164
  270.5000    37.6193    16.6365
  271.0000    37.1718    17.1827
  271.5000    39.7768    19.3427
  272.0000    40.9120    22.5015
  272.5000    40.8048    23.8539
  273.0000    39.7939    24.3598
  273.5000    37.9924    23.1046
  274.0000    36.3038    21.5159
  274.5000    36.4003    21.6092
  275.0000    38.4224    20.0769
  275.5000    39.7376    19.5446
  276.0000    40.0526    18.7713
  276.5000    40.1777    20.0186
  277.0000    40.6333    19.7171
  277.5000    39.7308    19.1080
  278.0000    37.9232    20.1911
  278.5000    39.6293    23.2742
  279.0000    40.7645    24.2035
  279.5000    40.9961    25.2866
  280.0000    41.3406    23.9082
  280.5000    42.2500    22.2221
  281.0000    42.9334    20.5360
  281.5000    41.0189    18.8499
  282.0000    40.3455    17.3946
  282.5000    41.0303    15.5546
  283.0000    41.8267    16.4054
  283.5000    42.0583    16.2578
  284.0000    42.5158    15.2655
  284.5000    42.2956    14.1164
  285.0000    41.5106    15.7395
  285.5000    40.4997    16.7457
  286.0000    39.6018    17.5211
  286.5000    38.3636    18.3735
  287.0000    42.4370    19.4092
  287.5000    44.1370    18.9997
  288.0000    42.1096    18.8727
  288.5000    40.2670    16.7814
  289.0000    39.4087    17.5877
  289.5000    40.0026    18.7297
  290.0000    41.0090    20.7231
  290.5000    41.1201    21.4985
  291.0000    41.6905    22.0432
  291.5000    42.4869    21.5878
  292.0000    43.0573    20.2094
  292.5000    41.9335    21.5233
  293.0000    41.2613    21.4526
  293.5000    42.1708    16.8434
  294.0000    43.5896    18.4650
  294.5000    44.7801    18.2405
  295.0000    43.5433    16.7851
  295.5000    41.9677    14.7144
  296.0000    40.1662    16.7206
  296.5000    39.8316    16.0345
  297.0000    39.9517    15.0392
  297.5000    40.1833    16.8931
  298.0000    40.5264    19.2070
  298.5000    39.7429    20.8286
  299.0000    38.0543    22.9117
  299.5000    35.9139    25.9937
  300.0000    34.3383    31.9236
  300.5000    34.0037    32.0821
  301.0000    36.8346    31.1668
  301.5000    37.4037    30.9407
  302.0000    36.3509    29.5638
  302.5000    37.1442    30.6454
  303.0000    37.3078    20.3762
  303.5000    37.7989    18.5333
  304.0000    37.9218    18.8475
  304.5000    38.1577    19.0847
  305.0000    38.2806    18.1459
  305.5000    38.2906    16.6314
  306.0000    38.3005    19.1043
  306.5000    38.7623    19.9563
  307.0000    39.3370    21.4276
  307.5000    39.7988    21.8959
  308.0000    40.0346    21.0530
  308.5000    40.2707    23.7570
  309.0000    40.2809    23.3008
  309.5000    40.2929    20.8415
  310.0000    40.1874    19.3785
  310.5000    40.3128    21.1669
  311.0000    40.3228    21.7841
  311.5000    40.4457    20.1562
  312.0000    42.1499    19.1013
  312.5000    42.0469    18.9517
  313.0000    41.0403    20.1149
  313.5000    41.2762    21.1995
  314.0000    41.9639    19.5107
  314.5000    40.8257    20.2871
  315.0000    40.1393    21.9881
  315.5000    39.9606    22.8416
  316.0000    41.3285    21.1527
  316.5000    42.6938    17.0755
  317.0000    43.8333    16.9275
  317.5000    43.5044    17.5706
  318.0000    40.5776    21.7177
  318.5000    37.3120    22.4941
  319.0000    38.1126    23.3461
  319.5000    39.0262    20.9654
  320.0000    40.9563    17.9668
  320.5000    42.3408    16.1238
  321.0000    43.1227    14.2023
  321.5000    42.4571    16.8293
  322.0000    41.6739    22.8446
  322.5000    42.3615    22.9430
  323.0000    41.9197    22.5475
  323.5000    41.7062    22.5547
  324.0000    41.4903    23.1536
  324.5000    41.0484    21.7207
  325.0000    40.7003    20.8022
  325.5000    41.2943    20.4986
  326.0000    42.2078    22.1996
  326.5000    42.4437    16.1208
  327.0000    41.7387    16.7432
  327.5000    40.5459    19.4457
  328.0000    38.4098    21.3778
  328.5000    38.7586    20.1512
  329.0000    39.7851    18.6164
  329.5000    37.8741    18.3142
  330.0000    34.9473    18.4078
  330.5000    34.3925    19.0983
  331.0000    36.0784    20.1058
  331.5000    37.2362    19.3415
  332.0000    34.5378    17.0363
  332.5000    33.5312    15.8096
  333.0000    32.6375    15.2749
  333.5000    32.5321    16.5151
  334.0000    33.3352    16.7508
  334.5000    34.0228    15.6027
  335.0000    34.1457    14.0679
  335.5000    35.6241    17.9323
  336.0000    37.3283    18.6254
  336.5000    36.7361    17.6405
  337.0000    35.1649    14.3247
  337.5000    34.7603    11.2491
  338.0000    34.9986    12.7960
  338.5000    35.2345    14.1102
  339.0000    35.8092    13.4229
  339.5000    36.6098    15.9728
  340.0000    36.2785    13.9757
  340.5000    36.7427    14.2129
  341.0000    37.3174    15.6990
  341.5000    38.4569    15.0725
  342.0000    39.8223    15.2409
  342.5000    41.4136    15.9066
  343.0000    39.3155    17.1707
  343.5000    38.1604    13.7884
  344.0000    37.3797    12.9455
  344.5000    36.9378    13.7220
  345.0000    36.4960    13.4198
  345.5000    37.0707    12.2718
  346.0000    37.5325    11.6600
  346.5000    36.9777    13.1313
  347.0000    35.0674    13.8531
  347.5000    36.2069    13.4515
  348.0000    37.4593    14.3862
  348.5000    37.9213    15.3488
  349.0000    37.9311    16.9902
  349.5000    37.6047    18.1768
  350.0000    37.3862    20.3400
  350.5000    38.4075    23.2688
  351.0000    38.8627    21.8069
  351.5000    39.5437    20.2680
  352.0000    39.9989    17.4964
  352.5000    38.7597    17.2667
  353.0000    39.7796    16.7297
  353.5000    41.7031    14.3434
  354.0000    43.6267    15.9631
  354.5000    44.3077    17.1977
  355.0000    43.5204    17.4307
  355.5000    42.5072    17.7408
  356.0000    41.0421    18.3642
  356.5000    43.3174    16.0482
  357.0000    42.9104    16.0572
  357.5000    41.6177    17.1032
  358.0000    40.7175    18.7023
  358.5000    38.3488    18.5231
  359.0000    38.8040    15.8285
  359.5000    39.5980    16.1386
  360.0000    40.1652    19.1451
  360.5000    38.3622    20.9190
  361.0000    38.0258    23.2317
  361.5000    38.4818    20.8457
  362.0000    39.0499    18.1512
  362.5000    38.8273    16.6888
  363.0000    38.4917    17.3846
  363.5000    38.6081    17.7717
  364.0000    39.0633    18.9292
