~VERSION INFORMATION
 VERS.                2.0:   CWLS LOG ASCII STANDARD - VERSION 2.0
 WRAP.                 NO:   ONE LINE PER DEPTH STEP
~WELL INFORMATION
#MNEM.UNIT      DATA TYPE    INFORMATION
#----------   ------------   ------------------------------
 STRT.F            0.0000:   START DEPTH
 STOP.F          497.0000:   STOP DEPTH
 STEP.F            0.1000:   STEP LENGTH
 NULL.          -999.2500:   NO VALUE
 COMP.       F D SERV INC:   COMPANY
 WELL. NAVAL PETROLEUM RESERVE 3 SX-1 #81-1-10:   WELL
 FLD .             NPR #3:   FIELD
 LOC .      S10 T38N R78W:   LOCATION
 CNTY.            NATRONA:   COUNTY
 STAT.            WYOMING:   STATE
 CTRY. UNITED STATES OF AMERICA:   COUNTRY
 SRVC.     Atlas Wireline:   SERVICE COMPANY
 DATE.        14-DEC-1997:   LOGDATE
 API .       490252257400:   API NUMBER
~CURVE INFORMATION
#MNEM.UNIT       API CODE    CURVE DESCRIPTION
#----------   ------------   ------------------------------
 DEPT.F                  :   
 GRR .GAPI   07 310 01 00:   GAMMA RAY
 RILD.OHMM   07 120 46 00:   INDUCTION LOG DEEP RESISTIVITY
 RILM.OHMM   07 120 44 00:   INDUCTION LOG MEDIUM RESISTIVITY
~PARAMETER INFORMATION
#MNEM.UNIT          VALUE    DESCRIPTION
#----------   ------------   ------------------------------
 PD  .                 GL:   PERMANENT DATUM
 EPD .F              5132:   ELEVATION PERMANENT DATUM
 LMF .                 KB:   LOG MEASURED FROM
 DAPD.F                10:   FEET ABOVE PERMANENT DATUM
 DMF .                 KB:   DRILLING MEASURED FROM
 EKB .F              5142:   KELLING BUSHING
 EDF .F              5141:   DRILLING FLOOR
 EGL .F              5132:   GROUND LEVEL
 DATE.        14-DEC-1992:   RUN DATE
 RUN .                  1:   RUN NUMBER
 DD  .F               513:   DEPTH DRILLER
 DL  .F               505:   DEPTH LOGGER
 BLI .F               497:   BOTTOM LOG INTERVAL
 CS  .IN            8.625:   CASING SIZE
 CBD .F                53:   CASING BOTTOM DRILLER
 CBL .F                54:   CASING BOTTOM LOGGER
 BS  .IN            7.875:   BIT SIZE
 BSD .F               513:   BIT SIZE AT DEPTH
 DFT .           AIR FOAM:   DRILLING FLUID TYPE
 BHT .F                68:   BOTTOM HOLE TEMPERATURE
 MRT .F                68:   MAXIMUM RECORDED TEMPERATURE
 LUN .           HL- 6274:   LOGGING UNIT NUMBER
 LUL .             CASPER:   LOGGING UNIT LOCATION
 ENGI.             RAUTIO:   RECORDING ENGINEER
 WITN.          G. STRONG:   WITNESSED BY
 CLNT.            A2DTECH:   CLIENT CODE
 ORIG.           5" PRINT:   ORIGIN OF DATA
 UWI .       490252257400:   UNIQUE WELL ID
 DICO. A2D Technologies, Inc.:   DIGITIZING COMPANY
~OTHER INFORMATION
~A    DEPT      GRR      RILD       RILM   
# ...
  364.0000    88.7349    19.2904    18.1784
  364.1000    88.7313    19.2907    18.1781
  364.2000    88.7289    19.2910    18.0999
  364.3000    88.8765    19.2120    18.0521
  364.4000    89.0241    19.1585    18.0518
  364.5000    89.0713    19.1240    18.0375
  364.6000    89.3193    19.0269    17.9266
  364.7000    89.5673    19.0272    17.7353
  364.8000    89.8153    19.0274    17.6055
  364.9000    89.9126    19.0277    17.5042
  365.0000    90.0101    18.9711    17.3716
  365.1000    90.2078    18.8970    17.1838
  365.2000    90.2048    18.8840    17.0763
  365.3000    90.4528    18.7672    16.8978
  365.4000    90.7008    18.7675    16.8408
  365.5000    90.9488    18.7677    16.7918
  365.6000    91.1968    18.7114    16.6951
  365.7000    91.3946    18.6388    16.6083
  365.8000    91.3916    18.6256    16.6081
  365.9000    91.3880    18.5108    16.6079
  366.0000    91.5864    18.4123    16.6739
  366.1000    91.6837    18.3067    16.7229
  366.2000    91.6807    18.2571    16.7227
  366.3000    91.6777    18.2574    16.7300
  366.4000    91.6747    18.2439    16.8385
  366.5000    91.4207    18.1320    16.8383
  366.6000    91.3675    18.0350    16.9033
  366.7000    91.3645    18.0075    16.9549
  366.8000    91.3614    17.9524    16.9804
  366.9000    91.3584    17.8838    17.0723
  367.0000    91.3554    17.8840    17.0721
  367.1000    91.6530    17.8843    17.1562
  367.2000    92.0523    17.8845    17.1903
  367.3000    92.4006    17.8848    17.2346
  367.4000    92.5482    17.9408    17.3338
  367.5000    92.5954    18.0094    17.4336
  367.6000    92.8434    18.0097    17.5505
  367.7000    93.0914    18.0100    17.5503
  367.8000    93.1386    18.1084    17.5500
  367.9000    93.1355    18.1355    17.5932
  368.0000    93.0321    18.1358    17.6716
  368.1000    92.7781    18.1722    17.6735
  368.2000    92.5240    18.2622    17.7939
  368.3000    92.2193    18.2625    17.8777
  368.4000    92.0161    18.2627    17.9807
  368.5000    91.6115    18.2630    18.0416
  368.6000    91.2068    18.2632    18.0201
  368.7000    90.9528    18.2635    17.9165
  368.8000    90.6988    18.2637    17.9162
  368.9000    90.1938    18.2640    17.9160
  369.0000    89.8896    18.3648    17.9157
  369.1000    89.7861    18.3913    17.9155
  369.2000    89.6827    18.3915    17.9152
  369.3000    89.4789    18.3918    17.9150
  369.4000    89.4759    18.3921    17.9147
  369.5000    89.4729    18.3923    17.9145
  369.6000    89.4699    18.3926    17.9142
  369.7000    89.6174    18.4735    17.9140
  369.8000    89.7651    18.5208    17.9137
  369.9000    89.8122    18.5210    17.9135
  370.0000    90.0602    18.5213    17.9133
  370.1000    90.0566    18.5216    17.9916
  370.2000    89.8534    18.5218    18.0373
  370.3000    89.5994    18.5221    18.0371
  370.4000    89.2449    18.5223    18.0368
  370.5000    88.8404    18.4838    18.0366
  370.6000    88.8373    18.3951    18.0363
  370.7000    88.8343    18.3954    17.9595
  370.8000    89.0321    18.3956    17.9667
  370.9000    89.4307    18.3959    18.0012
  371.0000    89.8293    18.3361    17.9108
  371.1000    90.1276    18.2695    17.9105
  371.2000    90.6266    18.2698    17.9103
  371.3000    91.2253    18.2700    17.8360
  371.4000    91.8253    18.2703    17.7861
  371.5000    92.4246    18.1895    17.7539
  371.6000    93.0239    18.1448    17.6628
  371.7000    93.6736    18.1061    17.6625
  371.8000    93.9217    18.0201    17.5705
  371.9000    94.4206    18.0204    17.5400
  372.0000    94.7188    18.0207    17.4897
  372.1000    94.6657    17.9405    17.3599
  372.2000    94.4117    17.8969    17.1696
  372.3000    94.1074    17.8582    17.0595
  372.4000    93.6024    17.7739    17.0593
  372.5000    92.6952    17.7742    16.9923
  372.6000    92.0904    17.7745    16.8945
  372.7000    91.3344    17.7747    16.7710
  372.8000    90.5784    17.7154    16.5920
  372.9000    89.8725    17.6137    16.5917
  373.0000    89.3675    17.5311    16.5915
  373.1000    88.4602    17.5314    16.5282
  373.2000    88.0562    17.4323    16.4765
  373.3000    87.7018    17.3323    16.4521
  373.4000    87.5482    17.2911    16.3574
  373.5000    87.5452    17.2528    16.2490
  373.6000    87.5422    17.1723    16.1698
  373.7000    87.5392    17.1726    16.1363
  373.8000    87.7370    17.0751    16.0954
  373.9000    88.1356    17.0547    16.0028
  374.0000    88.5341    16.9969    15.9136
  374.1000    88.8824    16.9375    15.9133
  374.2000    89.6325    16.9189    15.8375
  374.3000    89.8805    16.8212    15.8030
  374.4000    90.3293    16.8214    15.8028
  374.5000    90.5271    16.8216    15.8026
  374.6000    90.4237    16.8219    15.8023
  374.7000    90.1697    16.8221    15.8021
  374.8000    89.9157    16.8223    15.8019
  374.9000    89.9127    16.8226    15.8017
  375.0000    89.7089    16.8229    15.8015
  375.1000    89.6054    16.7456    15.8193
  375.2000    89.4016    16.7073    15.9109
  375.3000    88.9468    16.7075    15.9107
  375.4000    88.6928    16.7077    15.9105
  375.5000    88.3879    16.7080    15.9103
  375.6000    88.1847    16.7082    15.9100
  375.7000    87.9307    16.7084    15.9098
  375.8000    87.6767    16.7087    15.9096
  375.9000    87.4729    16.7089    15.9094
  376.0000    87.4699    16.6891    15.8388
  376.1000    87.1651    16.5941    15.7991
  376.2000    87.1627    16.5944    15.7659
  376.3000    87.1596    16.5946    15.6895
  376.4000    87.0562    16.5948    15.6893
  376.5000    86.8022    16.5950    15.6891
  376.6000    86.5482    16.5953    15.6889
  376.7000    86.5452    16.5942    15.6394
  376.8000    86.5422    16.4813    15.5801
  376.9000    86.5392    16.4815    15.5674
  377.0000    86.6365    16.4234    15.4720
  377.1000    86.8845    16.3683    15.4718
  377.2000    87.1325    16.3685    15.4066
  377.3000    87.3805    16.3670    15.3180
  377.4000    87.4277    16.2561    15.2582
  377.5000    87.5753    16.2563    15.2475
  377.6000    87.9237    16.1986    15.1524
  377.7000    88.3725    16.1056    15.0726
  377.8000    88.6205    16.0336    14.9859
  377.9000    88.8684    16.0317    14.8996
  378.0000    89.5180    15.9235    14.8398
  378.1000    90.4186    15.9237    14.8310
  378.2000    91.2189    15.9239    14.7369
  378.3000    91.6677    15.8851    14.6609
  378.4000    91.9157    15.7938    14.6347
  378.5000    91.9120    15.7057    14.5934
  378.6000    91.7088    15.7059    14.5095
  378.7000    91.3041    15.6312    14.4327
  378.8000    90.5982    15.5415    14.4325
  378.9000    89.5911    15.4907    14.4323
  379.0000    88.5843    15.4909    14.4883
  379.1000    87.3759    15.4882    14.5717
  379.2000    86.5702    15.3845    14.6331
  379.3000    85.5633    15.3847    14.6382
  379.4000    84.5564    15.3287    14.7344
  379.5000    83.6497    15.2790    14.7343
  379.6000    83.1446    15.2584    14.7898
  379.7000    82.8906    15.1708    14.7980
  379.8000    82.8373    15.0697    14.7128
  379.9000    83.1355    15.0698    14.6244
  380.0000    83.5341    15.0701    14.4301
  380.1000    83.9326    15.0321    14.4299
  380.2000    84.9337    14.9665    14.3771
  380.3000    86.4366    14.9631    14.2943
  380.4000    87.3373    14.8638    14.2121
  380.5000    88.0873    14.7919    14.1302
  380.6000    88.5361    14.7070    14.0344
  380.7000    88.5331    14.6601    14.0342
  380.8000    88.5301    14.6395    14.0340
  380.9000    88.5265    14.5554    14.0338
  381.0000    88.5241    14.4592    14.0168
  381.1000    88.5211    14.4594    13.9365
  381.2000    88.5181    14.4056    14.0332
  381.3000    88.5151    14.3601    14.0330
  381.4000    88.5120    14.3395    14.0329
  381.5000    88.5090    14.2614    14.0327
  381.6000    88.5060    14.2617    14.0325
  381.7000    88.5030    14.2618    14.0323
  381.8000    88.5000    14.2620    14.0321
  381.9000    88.4970    14.2622    14.0319
  382.0000    88.4940    14.2624    14.0317
  382.1000    88.4910    14.2626    14.0315
