~VERSION INFORMATION
 VERS.                2.0:   CWLS LOG ASCII STANDARD - VERSION 2.0
 WRAP.                 NO:   ONE LINE PER DEPTH STEP
~WELL INFORMATION
#MNEM.UNIT      DATA TYPE    INFORMATION
#----------   ------------   ------------------------------
 STRT.F            7.0000:   START DEPTH
 STOP.F          480.0000:   STOP DEPTH
 STEP.F            0.1000:   STEP LENGTH
 NULL.          -999.2500:   NO VALUE
 COMP.       F D SERV INC:   COMPANY
 WELL.    67-2 SX-3 #67-3:   WELL
 FLD .          N.P.R. #3:   FIELD
 LOC .       S3 T38N R78W:   LOCATION
 CNTY.            NATRONA:   COUNTY
 STAT.            WYOMING:   STATE
 CTRY. UNITED STATES OF AMERICA:   COUNTRY
 SRVC.     Atlas Wireline:   SERVICE COMPANY
 DATE.        12-FEB-1992:   LOGDATE
 API .       490252250400:   API NUMBER
~CURVE INFORMATION
#MNEM.UNIT       API CODE    CURVE DESCRIPTION
#----------   ------------   ------------------------------
 DEPT.F                  :   
 SPR .MV     07 010 01 00:   SPONTANEOUS POTENTIAL
 GRR .GAPI   07 310 01 00:   GAMMA RAY
 RILD.OHMM   07 120 46 00:   INDUCTION LOG DEEP RESISTIVITY
 RILM.OHMM   07 120 44 00:   INDUCTION LOG MEDIUM RESISTIVITY
 RFOC.OHMM   07 220 04 00:   RESISTIVITY FOCUSED LOG
~PARAMETER INFORMATION
#MNEM.UNIT          VALUE    DESCRIPTION
#----------   ------------   ------------------------------
 PD  .                 GL:   PERMANENT DATUM
 EPD .F              5165:   ELEVATION PERMANENT DATUM
 LMF .                 KB:   LOG MEASURED FROM
 DAPD.F                10:   FEET ABOVE PERMANENT DATUM
 DMF .                 KB:   DRILLING MEASURED FROM
 EKB .F              5175:   KELLING BUSHING
 EDF .F              5174:   DRILLING FLOOR
 EGL .F              5165:   GROUND LEVEL
 DATE.        12-FEB-1992:   RUN DATE
 RUN .                  1:   RUN NUMBER
 DD  .F               487:   DEPTH DRILLER
 DL  .F               485:   DEPTH LOGGER
 BLI .F               482:   BOTTOM LOG INTERVAL
 CS  .IN            8.625:   CASING SIZE
 CBD .F               183:   CASING BOTTOM DRILLER
 CBL .F               186:   CASING BOTTOM LOGGER
 BS  .IN            7.875:   BIT SIZE
 BSD .F               487:   BIT SIZE AT DEPTH
 DFT .           CHEM GEL:   DRILLING FLUID TYPE
 DFD .               16.1:   DRILLING FLUID DENSITY
 DFV .                 43:   DRILLING FLUID VISCOSITY
 DFPH.                9.5:   DRILLING FLUID PH
 DFL .               11.8:   DRILLING FLUID LOSS
 MSS .           MUD TANK:   MUD SAMPLE SOURCE
 RMS .OHMM           2.36:   RESISTIVITY MUD SAMPLE
 MST .F                65:   MUD SAMPLE TEMPERATURE
 RMF .OHMM           1.17:   RESISTIVITY MUD FILTRATE SAMPLE
 MFST.F                65:   MUD FILTRATE SAMPLE TEMPERATURE
 RMC .OHMM           5.18:   RESISTIVITY MUD CAKE
 MCST.F                65:   MUD CAKE SAMPLE TEMPERATURE
 MFSS.               MEAS:   MUD FILTRATE SAMPLE SOURCE
 MCSS.               CALC:   MUD CAKE SAMPLE SOURCE
 RMB .OHMM           1.67:   RESISTIVITY MUD AT BHT
 BHT .F                92:   BOTTOM HOLE TEMPERATURE
 TCS .HRS               2:   TIME CURCULATED STOPPED
 MRT .F                92:   MAXIMUM RECORDED TEMPERATURE
 LUN .           HL- 6224:   LOGGING UNIT NUMBER
 LUL .             CASPER:   LOGGING UNIT LOCATION
 ENGI.        VERN RAUTIO:   RECORDING ENGINEER
 WITN.        GARY STRONG:   WITNESSED BY
 CLNT.            A2DTECH:   CLIENT CODE
 ORIG.           5" PRINT:   ORIGIN OF DATA
 UWI .       490252250400:   UNIQUE WELL ID
 DICO. A2D Technologies, Inc.:   DIGITIZING COMPANY
~OTHER INFORMATION
~A    DEPT     SPR        GRR       RILD       RILM       RFOC   
# ...
  409.6000   -28.6287    84.6612    13.7487    13.3492    12.9333
  409.7000   -28.5369    84.4390    13.8268    13.5800    13.0641
  409.8000   -28.4105    84.0280    13.9053    13.7311    13.1727
  409.9000   -28.2587    83.6586    13.9921    13.8100    13.2476
  410.0000   -28.1750    83.2985    13.9920    13.8894    13.3292
  410.1000   -28.1617    82.5645    14.0454    13.9807    13.5040
  410.2000   -28.0235    81.5908    14.0895    14.0498    13.5696
  410.3000   -27.9139    80.8108    14.0893    14.0795    13.6468
  410.4000   -27.7901    80.2199    14.0891    14.0801    13.7557
  410.5000   -27.7210    79.8181    14.0889    14.0657    13.8861
  410.6000   -27.7206    79.6049    14.0888    13.9836    13.8858
  410.7000   -27.7204    79.6101    14.0886    13.8316    13.8856
  410.8000   -27.7201    79.6138    14.0643    13.7332    13.8854
  410.9000   -27.7197    79.4567    13.9902    13.6159    13.8096
  411.0000   -27.7195    79.3223    13.9900    13.4846    13.6726
  411.1000   -27.7192    79.3265    13.9230    13.4032    13.5929
  411.2000   -27.7189    79.3308    13.7959    13.2289    13.4391
  411.3000   -27.7185    79.3349    13.6696    13.1027    13.2870
  411.4000   -27.8294    79.3391    13.6042    12.9094    13.1788
  411.5000   -27.9527    79.3433    13.6040    12.7485    13.1039
  411.6000   -28.1326    79.3475    13.5322    12.6766    13.0293
  411.7000   -28.3795    79.3700    13.4021    12.6018    12.9466
  411.8000   -28.6265    79.6564    13.2859    12.5342    12.9464
  411.9000   -28.8732    79.6600    13.2288    12.5153    12.8982
  412.0000   -29.1201    79.9680    13.2274    12.5520    12.8559
  412.1000   -29.2957    80.2681    13.1523    12.6039    12.8557
  412.2000   -29.4190    80.3547    13.0777    12.6044    12.8555
  412.3000   -29.5255    80.8764    13.0035    12.6050    12.8554
  412.4000   -29.5252    81.3409    12.9538    12.6656    12.8552
  412.5000   -29.6380    82.0090    12.9537    12.6941    12.8550
  412.6000   -29.6754    82.7467    12.9535    12.6946    12.8342
  412.7000   -29.7337    83.4843    12.9534    12.6952    12.7651
  412.8000   -29.8570    84.2218    12.9531    12.6957    12.7649
  412.9000   -29.9762    85.1001    12.9529    12.6962    12.7648
  413.0000   -29.9758    85.4993    12.9528    12.6968    12.7646
  413.1000   -29.9755    85.9925    12.9526    12.6973    12.7644
  413.2000   -30.0484    86.4856    12.9524    12.6978    12.7642
  413.3000   -30.1258    86.9469    12.9523    12.6983    12.7641
  413.4000   -30.1255    87.2196    12.9521    12.6990    12.7639
  413.5000   -30.1252    87.4443    12.9519    12.6994    12.7637
  413.6000   -30.1249    87.3619    12.9517    12.6999    12.7635
  413.7000   -30.1246    87.1216    12.9515    12.7005    12.7634
  413.8000   -30.1848    86.7719    12.9514    12.7010    12.7632
  413.9000   -30.2748    86.0408    12.9512    12.7016    12.7630
  414.0000   -30.2745    85.5572    12.9509    12.6350    12.7628
  414.1000   -30.2742    85.0724    12.9508    12.6144    12.7626
  414.2000   -30.2739    84.7208    12.9506    12.5804    12.7625
  414.3000   -30.2736    84.5583    12.9505    12.5279    12.7623
  414.4000   -30.2733    84.6073    12.9503    12.5258    12.7621
  414.5000   -30.2730    85.1670    12.9501    12.4420    12.7619
  414.6000   -30.2727    85.5935    12.9499    12.4425    12.7617
  414.7000   -30.2724    86.0867    12.9497    12.4014    12.7616
  414.8000   -30.1824    86.3784    12.9495    12.3571    12.7614
  414.9000   -30.1210    86.4280    12.8935    12.3576    12.7612
  415.0000   -30.1207    86.6868    12.8591    12.3582    12.7610
  415.1000   -30.1125    86.6909    12.8590    12.2942    12.7609
  415.2000   -29.9692    86.5159    12.8588    12.2734    12.7607
  415.3000   -29.9689    86.2757    12.8586    12.2410    12.7605
  415.4000   -29.9686    85.9670    12.8585    12.1892    12.7603
  415.5000   -29.9683    85.4823    12.8582    12.1897    12.7601
  415.6000   -29.9680    84.9135    12.8580    12.1903    12.7600
  415.7000   -29.9677    84.5128    12.8579    12.1907    12.7185
  415.8000   -29.9674    84.1747    12.8577    12.1513    12.6462
  415.9000   -29.9671    84.0258    12.8575    12.1071    12.5742
  416.0000   -29.9668    84.0300    12.8061    12.1076    12.4945
  416.1000   -29.9665    84.0345    12.7677    12.1081    12.4317
  416.2000   -29.9662    84.0384    12.7676    12.0463    12.3610
  416.3000   -29.9659    84.0426    12.7674    12.0250    12.2907
  416.4000   -29.8594    84.1612    12.7672    12.0255    12.2346
  416.5000   -29.8145    84.5278    12.7099    12.0260    12.2345
  416.6000   -29.8142    85.2581    12.6781    12.0265    12.1669
  416.7000   -29.8139    85.5068    12.6540    12.0270    12.0978
  416.8000   -29.8136    85.9482    12.5821    11.9736    12.0642
  416.9000   -29.6925    86.3041    12.5019    11.9445    12.0640
  417.0000   -29.6622    86.5527    12.5017    11.9450    12.0599
  417.1000   -29.5956    86.7744    12.5015    11.9375    11.9796
  417.2000   -29.5107    86.4797    12.4717    11.8631    11.9232
  417.3000   -29.5104    86.4834    12.4143    11.8636    11.8959
  417.4000   -29.5101    86.3272    12.4141    11.8188    11.8707
  417.5000   -29.4018    86.0870    12.3463    11.7822    11.8127
  417.6000   -29.2778    85.7972    12.2762    11.7676    11.8125
  417.7000   -29.1539    85.3008    12.2415    11.7014    11.8124
  417.8000   -29.0564    85.3049    12.2222    11.7019    11.8122
  417.9000   -29.0561    85.1259    12.1528    11.6507    11.7814
  418.0000   -28.9331    84.8856    12.0714    11.5850    11.7296
  418.1000   -28.8092    84.7178    12.0713    11.5197    11.7295
  418.2000   -28.7535    84.7393    12.0711    11.4547    11.7293
  418.3000   -28.7123    85.0267    12.0461    11.3827    11.7292
  418.4000   -28.6021    85.0303    11.9868    11.3831    11.7290
  418.5000   -28.6018    85.0345    11.9866    11.2985    11.7079
  418.6000   -28.4915    85.0387    11.9865    11.2266    11.6470
  418.7000   -28.3676    85.0429    11.9863    11.2134    11.6468
  418.8000   -28.2438    85.0473    11.9861    11.1495    11.5900
  418.9000   -28.1481    85.0513    11.9710    11.1500    11.5654
  419.0000   -28.1468    85.0555    11.9024    11.1505    11.5389
  419.1000   -28.0229    84.9411    11.9022    11.1509    11.4845
  419.2000   -27.9964    84.7640    11.9021    11.1514    11.4844
  419.3000   -27.9961    84.7681    11.9019    11.1519    11.4227
  419.4000   -27.9529    84.4734    11.9018    11.1524    11.4041
  419.5000   -27.8447    84.2799    11.9016    11.2084    11.3724
  419.6000   -27.8443    84.0396    11.9014    11.2312    11.3244
  419.7000   -27.8440    83.8855    11.8441    11.2317    11.3223
  419.8000   -27.8437    83.9205    11.8184    11.2193    11.2451
  419.9000   -27.9009    84.1941    11.8182    11.1547    11.1939
  420.0000   -28.0241    84.1979    11.8071    11.1551    11.1666
  420.1000   -28.1445    84.3666    11.7357    11.1556    11.1446
  420.2000   -28.1441    84.6153    11.7355    11.1561    11.0885
  420.3000   -28.2432    84.9178    11.6884    11.1565    11.0883
  420.4000   -28.2944    85.4141    11.6221    11.1570    11.0324
  420.5000   -28.3389    85.9040    11.5725    11.1575    10.9697
  420.6000   -28.4447    86.5848    11.5709    11.1034    10.9073
  420.7000   -28.4443    87.1903    11.5052    11.0809    10.8452
  420.8000   -28.5578    87.6834    11.4399    11.0553    10.7819
  420.9000   -28.5946    88.1551    11.3750    11.0048    10.7223
  421.0000   -28.5942    88.4384    11.3104    11.0054    10.6613
  421.1000   -28.5939    88.8630    11.2462    10.9454    10.6007
  421.2000   -28.5937    89.2010    11.1745    10.9299    10.5576
  421.3000   -28.5933    89.5494    11.1188    10.8981    10.5539
  421.4000   -28.5930    89.9982    11.0557    10.8549    10.4838
  421.5000   -28.5188    90.2581    10.9929    10.8508    10.4837
  421.6000   -28.3950    90.0286    10.9305    10.7805    10.4477
  421.7000   -28.2710    89.7883    10.8662    10.7289    10.3883
