~VERSION INFORMATION
 VERS.                2.0:   CWLS LOG ASCII STANDARD - VERSION 2.0
 WRAP.                 NO:   ONE LINE PER DEPTH STEP
~WELL INFORMATION
#MNEM.UNIT      DATA TYPE    INFORMATION
#----------   ------------   ------------------------------
 STRT.F            0.0000:   START DEPTH
 STOP.F          774.0000:   STOP DEPTH
 STEP.F            0.5000:   STEP LENGTH
 NULL.          -999.2500:   NO VALUE
 COMP. LAWRENCE/ALLISON INC:   COMPANY
 WELL. SX 11 WP #37-53-11:   WELL
 FLD .             TEAPOT:   FIELD
 LOC .      S11 T38N R78W:   LOCATION
 CNTY.            NATRONA:   COUNTY
 STAT.            WYOMING:   STATE
 CTRY. UNITED STATES OF AMERICA:   COUNTRY
 SRVC.            Unknown:   SERVICE COMPANY
 DATE.        19-SEP-1984:   LOGDATE
 API .       490251098900:   API NUMBER
~CURVE INFORMATION
#MNEM.UNIT       API CODE    CURVE DESCRIPTION
#----------   ------------   ------------------------------
 DEPT.F                  :   
 GRR .GAPI   07 310 01 00:   GAMMA RAY FROM RES. LOG.
 SPR .MV     07 010 01 00:   SPONTANEOUS POTENTIAL
 RFOC.OHMM   07 220 04 00:   RESISTIVITY FOCUSED LOG
 ILD .OHMM   07 120 46 00:   INDUCTION LOG DEEP RESISTIVITY
 RILM.OHMM   07 120 44 00:   INDUCTION LOG MEDIUM RESISTIVITY
 CALD.IN     45 280 60 00:   CALIPER
 DEN .G/C3   45 350 01 00:   COMPENSATED BULK DENSTIY
 CORR.G/C3   45 356 01 00:   DENSITY CORRECTION
 PORD.DEC    45 890 12 00:   POROSITY DENSITY SANDSTONE
 AC  .US/F   60 520 00 00:   ACOUSTIC SONIC
 CNC .DEC    42 890 03 00:   NEUTRON POROSITY SANDSTONE
~PARAMETER INFORMATION
#MNEM.UNIT          VALUE    DESCRIPTION
#----------   ------------   ------------------------------
 PD  .                 GL:   PERMANENT DATUM
 EPD .F              5153:   ELEVATION PERMANENT DATUM
 LMF .                 GL:   LOG MEASURED FROM
 DMF .                 GL:   DRILLING MEASURED FROM
 EGL .F              5153:   GROUND LEVEL
 DATE.       19-SEPT-1984:   RUN DATE
 RUN .                  1:   RUN NUMBER
 DD  .F               785:   DEPTH DRILLER
 DL  .F               774:   DEPTH LOGGER
 BLI .F               772:   BOTTOM LOG INTERVAL
 CS  .IN            8.625:   CASING SIZE
 CBD .F                42:   CASING BOTTOM DRILLER
 CBL .F                41:   CASING BOTTOM LOGGER
 BS  .IN            7.875:   BIT SIZE
 BSD .F               785:   BIT SIZE AT DEPTH
 DFT .          KCL WATER:   DRILLING FLUID TYPE
 MSS .           FLOWLINE:   MUD SAMPLE SOURCE
 RMS .OHMM            .27:   RESISTIVITY MUD SAMPLE
 MST .F                82:   MUD SAMPLE TEMPERATURE
 TCS .HRS               2:   TIME CURCULATED STOPPED
 MRT .F               100:   MAXIMUM RECORDED TEMPERATURE
 LUN .               6274:   LOGGING UNIT NUMBER
 LUL .               GLTE:   LOGGING UNIT LOCATION
 ENGI.         HINDS/MACK:   RECORDING ENGINEER
 WITN.             STRONG:   WITNESSED BY
 CLNT.            A2DTECH:   CLIENT CODE
 ORIG.   1", 2", 5" PRINT:   ORIGIN OF DATA
 UWI .       490251098900:   UNIQUE WELL ID
 DICO. A2D Technologies, Inc.:   DIGITIZING COMPANY
~OTHER INFORMATION
~A    DEPT      GRR       SPR       RFOC        ILD       RILM       CALD        DEN       CORR       PORD         AC        CNC   
# ...
  213.5000    99.2844   -40.5378     7.8436     7.0796     7.5113     8.1752     2.4564     0.0123     0.1315    99.1970     0.3146
  214.0000    95.0890   -40.3501     8.2096     7.1712     7.6517     8.1752     2.4712     0.0245     0.1258    97.4924     0.2996
  214.5000    91.6049   -40.1630     9.0025     7.2640     7.7952     8.1752     2.4879     0.0350     0.1141    97.1074     0.2851
  215.0000    92.4391   -39.9736    10.0583     7.3580     7.9975     8.1752     2.5045     0.0223     0.1045    98.4701     0.2762
  215.5000    94.8785   -39.9239     9.6267     7.4448     7.9275     8.1752     2.5059     0.0095     0.1008   100.1519     0.2616
  216.0000    97.3631   -39.9581     8.8384     7.5006     7.9050     8.1752     2.4889    -0.0016     0.1092   101.7058     0.2576
  216.5000    98.8244   -39.9938     8.1146     7.5568     7.8849     8.1752     2.4708    -0.0066     0.1235   104.3995     0.2796
  217.0000    98.7986   -40.0305     7.9257     7.6134     7.8646     8.1752     2.4528    -0.0079     0.1337   104.8179     0.2956
  217.5000    98.7670   -40.0690     8.1841     7.6705     7.8534     8.1752     2.4386    -0.0080     0.1431   104.7457     0.2994
  218.0000   100.6998   -40.0778     8.5020     7.7279     7.9012     8.1752     2.4381    -0.0072     0.1441   104.5765     0.2994
  218.5000   103.7807   -39.6086     8.8323     7.7818     7.9346     8.1757     2.4399    -0.0063     0.1424   104.4975     0.2903
  219.0000   106.7914   -39.1384     9.0108     7.8001     7.9681     8.1763     2.4429    -0.0029     0.1407   104.6047     0.2874
  219.5000   106.4173   -38.6712     8.8655     7.8174     8.0017     8.1769     2.4459     0.0014     0.1400   104.7118     0.2868
  220.0000   105.6169   -38.2020     8.7683     7.8346     8.0354     8.1775     2.4496     0.0057     0.1372   104.4930     0.2842
  220.5000   107.5444   -37.7324     8.6722     7.8534     8.0723     8.1781     2.4548     0.0100     0.1336   104.0449     0.2807
  221.0000   109.4146   -37.3633     8.6072     7.7474     8.0554     8.1786     2.4631     0.0143     0.1290   103.9020     0.2815
  221.5000   107.9571   -37.5539     8.7031     7.6326     8.0367     8.1792     2.4719     0.0186     0.1240   103.9662     0.2846
  222.0000   105.5452   -37.8567     8.7664     7.5195     8.0182     8.1798     2.4763     0.0232     0.1195   104.4632     0.2879
  222.5000   103.3754   -38.1510     8.6138     7.4080     7.9996     8.1804     2.4776     0.0135     0.1193   105.2266     0.2886
  223.0000   101.7219   -38.4450     8.4819     7.2983     7.9811     8.1810     2.4793     0.0169     0.1182   106.0182     0.2890
  223.5000   100.2392   -38.7393     8.3516     7.1901     7.9628     8.1816     2.4831     0.0353     0.1152   106.3519     0.3031
  224.0000    98.7002   -39.0335     8.2221     7.1598     7.9443     8.1821     2.4794     0.0534     0.1182   106.3519     0.3186
  224.5000    98.9587   -39.3264     8.1918     7.1516     7.9257     8.1827     2.4707     0.0336     0.1242   105.8907     0.3351
  225.0000    99.8748   -39.5146     8.1623     7.1438     8.0539     8.1833     2.4619     0.0179     0.1301   105.4324     0.3271
  225.5000   100.8074   -39.2093     8.1326     7.1360     8.1854     8.1839     2.4546     0.0222     0.1335   105.1590     0.3084
  226.0000   102.4998   -38.8411     8.1030     7.1281     8.3191     8.1845     2.4545     0.0202     0.1331   105.1590     0.2949
  226.5000   104.8132   -38.4690     8.0734     7.1203     8.4508     8.1851     2.4543     0.0114     0.1327   105.4843     0.2850
  227.0000   104.2525   -38.1367     8.0440     7.1124     8.3761     8.1856     2.4541     0.0081     0.1335   105.8057     0.2811
  227.5000   102.0163   -38.3983     8.0146     7.1049     8.2871     8.1862     2.4527     0.0194     0.1355   105.9965     0.2821
  228.0000   101.1165   -38.6745     7.9987     7.1013     8.2217     8.1868     2.4465     0.0192     0.1398   105.7465     0.2839
  228.5000   102.6365   -38.9476     8.0725     7.1355     8.2931     8.1874     2.4415     0.0035     0.1417   105.4965     0.2796
  229.0000   101.1612   -39.2262     8.1236     7.1596     8.3611     8.1880     2.4419    -0.0120     0.1408   105.2465     0.2752
  229.5000    99.3030   -39.1813     8.1751     7.1839     8.4297     8.1885     2.4435    -0.0278     0.1400   105.1590     0.2824
  230.0000    98.1854   -39.0055     8.2217     7.2083     8.5018     8.1891     2.4399    -0.0216     0.1419   105.1590     0.2935
  230.5000   101.8436   -38.8256     8.2636     7.2327     8.5759     8.1897     2.4340    -0.0094     0.1454   105.4962     0.3066
  231.0000   105.4628   -38.6459     8.2974     7.2573     8.6507     8.1903     2.4324     0.0029     0.1466   105.8144     0.2980
  231.5000   107.1431   -38.4664     8.2831     7.2819     8.7160     8.1909     2.4327     0.0120     0.1464   105.8276     0.2901
  232.0000   106.7395   -38.2869     8.2702     7.2981     8.7727     8.1915     2.4300     0.0156     0.1474   105.7963     0.2863
  232.5000   106.3796   -38.1074     8.2576     7.2701     8.8297     8.1920     2.4236     0.0117     0.1520   105.7651     0.2871
  233.0000   106.0385   -37.9232     8.2449     7.2492     8.8871     8.1926     2.4184    -0.0012     0.1554   105.6813     0.2896
  233.5000   104.6796   -37.6911     8.2321     7.2317     8.9448     8.1932     2.4211    -0.0140     0.1537   105.5742     0.2936
  234.0000   104.6457   -37.4521     8.2217     7.3073     9.0030     8.1938     2.4241    -0.0271     0.1521   105.4573     0.2962
  234.5000   105.4582   -37.2129     8.4489     7.3726     9.0615     8.1944     2.4209    -0.0234     0.1530   105.0679     0.2944
  235.0000   104.9700   -36.9737     8.6477     7.4385     9.1204     8.1948     2.4173    -0.0183     0.1554   104.8867     0.2925
  235.5000   100.0485   -36.7346     8.7678     7.5050     9.1797     8.1944     2.4176    -0.0131     0.1550   104.9367     0.2897
  236.0000    96.9104   -36.4955     8.7662     7.5708     9.2394     8.1940     2.4220    -0.0104     0.1534   104.9867     0.2862
  236.5000    98.6691   -36.2562     8.7663     7.6853     9.3468     8.1936     2.4279    -0.0082     0.1493   105.0367     0.2865
  237.0000   102.8979   -36.0163     8.7650     7.7993     9.4844     8.1931     2.4342    -0.0060     0.1453   104.9438     0.2914
  237.5000   103.9772   -35.7755     8.7647     7.9150     9.6240     8.1927     2.4419    -0.0046     0.1412   104.7167     0.2962
  238.0000   104.7168   -35.7715     8.9895     8.0723     9.7568     8.1923     2.4495    -0.0032     0.1372   104.3314     0.2958
  238.5000   107.1533   -35.8058     9.1720     7.9987     9.6163     8.1918     2.4540    -0.0018     0.1331   103.4814     0.2904
  239.0000   113.0447   -35.8409     9.3587     8.1119     9.7300     8.1914     2.4585    -0.0003     0.1303   102.6740     0.2859
  239.5000   115.5192   -35.8762     9.5486     8.1433     9.7967     8.1910     2.4629     0.0012     0.1275   102.7400     0.2859
  240.0000   110.6275   -35.9111     9.6078     8.1747     9.8636     8.1906     2.4674     0.0089     0.1253   102.8082     0.2937
  240.5000   104.9646   -35.8993     9.3472     8.2063     9.9310     8.1902     2.4719     0.0281     0.1235   102.8763     0.2978
  241.0000   106.4318   -35.5217     9.3472     8.2380     9.9988     8.1897     2.4764     0.0353     0.1205   102.9443     0.2918
  241.5000   109.5937   -35.1409     9.3472     8.2698    10.0678     8.1893     2.4809     0.0345     0.1178   102.9461     0.2787
  242.0000   110.5236   -34.7611     9.3472     8.3017    10.1427     8.1889     2.4820     0.0311     0.1177   102.9017     0.2941
  242.5000   109.1964   -34.3817     9.3419     8.3338    10.2180     8.1884     2.4783     0.0162     0.1194   102.7709     0.3053
  243.0000   108.3232   -34.0057     9.3059     8.3655    10.2938     8.1880     2.4748     0.0025     0.1211   102.4290     0.3169
  243.5000   109.4385   -33.7492     9.2624     8.4962    10.3705     8.1876     2.4755     0.0006     0.1208   101.8706     0.3072
