~VERSION INFORMATION
 VERS.                2.0:   CWLS LOG ASCII STANDARD - VERSION 2.0
 WRAP.                 NO:   ONE LINE PER DEPTH STEP
~WELL INFORMATION
#MNEM.UNIT      DATA TYPE    INFORMATION
#----------   ------------   ------------------------------
 STRT.F           25.0000:   START DEPTH
 STOP.F          681.0000:   STOP DEPTH
 STEP.F            0.5000:   STEP LENGTH
 NULL.          -999.2500:   NO VALUE
 COMP. FENIX & SCISSON INC:   COMPANY
 WELL.    56-SX-34 #56-34:   WELL
 FLD .             TEAPOT:   FIELD
 LOC .      S34 T39N R78W:   LOCATION
 CNTY.            NATRONA:   COUNTY
 STAT.            WYOMING:   STATE
 CTRY. UNITED STATES OF AMERICA:   COUNTRY
 SRVC.            Unknown:   SERVICE COMPANY
 DATE.        28-JAN-1979:   LOGDATE
 API .       490251077200:   API NUMBER
~CURVE INFORMATION
#MNEM.UNIT       API CODE    CURVE DESCRIPTION
#----------   ------------   ------------------------------
 DEPT.F                  :   
 SPR .MV     05 010 01 00:   SPONTANEOUS POTENTIAL FROM RES.
 DRHO.G/C3   45 356 01 00:   DENSITY CORRECTION
 RHOB.G/C3   45 350 01 00:   BULK DENSITY
 DPHI.DEC    45 890 12 00:   DENSITY POROSITY SANDSTONE
 CALD.IN     45 280 60 00:   CALIPER
 GRD .GAPI   45 310 01 00:   GAMMA RAY FROM DENSITY LOG
 SN  .OHMM   05 040 16 00:   SHORT NORMAL 16'
 ILD .OHMM   05 120 46 00:   INDUCTION LOG DEEP RESISTIVITY
~PARAMETER INFORMATION
#MNEM.UNIT          VALUE    DESCRIPTION
#----------   ------------   ------------------------------
 PD  .                 GL:   PERMANENT DATUM
 EPD .F              5088:   ELEVATION PERMANENT DATUM
 LMF .                 KB:   LOG MEASURED FROM
 DAPD.F                 4:   FEET ABOVE PERMANENT DATUM
 DMF .                 KB:   DRILLING MEASURED FROM
 EKB .F              5092:   KELLING BUSHING
 EGL .F              5088:   GROUND LEVEL
 DATE.            1-28-79:   RUN DATE
 RUN .                  1:   RUN NUMBER
 DD  .F               680:   DEPTH DRILLER
 DL  .F               681:   DEPTH LOGGER
 BLI .F               679:   BOTTOM LOG INTERVAL
 TLI .F                40:   TOP LOG INTERVAL
 CS  .IN            8.625:   CASING SIZE
 CBD .F                40:   CASING BOTTOM DRILLER
 CBL .F                40:   CASING BOTTOM LOGGER
 BS  .IN            7.875:   BIT SIZE
 BSD .F               680:   BIT SIZE AT DEPTH
 DFT .                KCL:   DRILLING FLUID TYPE
 DFD .                8.9:   DRILLING FLUID DENSITY
 DFV .                 43:   DRILLING FLUID VISCOSITY
 DFPH.                8.5:   DRILLING FLUID PH
 DFL .                9.8:   DRILLING FLUID LOSS
 MSS .           FLOWLINE:   MUD SAMPLE SOURCE
 RMS .OHMM            1.5:   RESISTIVITY MUD SAMPLE
 MST .F                66:   MUD SAMPLE TEMPERATURE
 RMF .OHMM            1.3:   RESISTIVITY MUD FILTRATE SAMPLE
 MFST.F                76:   MUD FILTRATE SAMPLE TEMPERATURE
 RMC .OHMM            1.3:   RESISTIVITY MUD CAKE
 MCST.F                78:   MUD CAKE SAMPLE TEMPERATURE
 MFSS.           MEASURED:   MUD FILTRATE SAMPLE SOURCE
 MCSS.           MEASURED:   MUD CAKE SAMPLE SOURCE
 RMB .OHMM            1.3:   RESISTIVITY MUD AT BHT
 BHT .F                76:   BOTTOM HOLE TEMPERATURE
 TCS .HRS               3:   TIME CURCULATED STOPPED
 MRT .F                76:   MAXIMUM RECORDED TEMPERATURE
 LUN .               3006:   LOGGING UNIT NUMBER
 LUL .             CASPER:   LOGGING UNIT LOCATION
 ENGI.            ROLLINS:   RECORDING ENGINEER
 WITN.              AMEND:   WITNESSED BY
 CLNT.            A2DTECH:   CLIENT CODE
 ORIG.       2", 5" PRINT:   ORIGIN OF DATA
 UWI .       490251077200:   UNIQUE WELL ID
 DICO. A2D Technologies, Inc.:   DIGITIZING COMPANY
~OTHER INFORMATION
~A   DEPT      SPR       DRHO       RHOB       DPHI       CALD         GRD        SN        ILD   
# ...
  349.0000   -43.0693     0.0548     2.4630     0.1255     8.0485    89.5375     7.6484     9.2713
  349.5000   -43.0693     0.0575     2.4703     0.1203     8.0841    87.5887     7.6099     9.3039
  350.0000   -43.0693     0.0601     2.4777     0.1152     8.1142    88.7647     7.7014     9.3366
  350.5000   -43.0693     0.0630     2.4851     0.1156     7.8334    92.6057     7.7725     9.3695
  351.0000   -43.0693     0.0612     2.4889     0.1191     8.0404    96.4887     7.8442     9.4024
  351.5000   -43.0693     0.0577     2.4865     0.1223     8.0356    96.9128     7.9160     9.4355
  352.0000   -43.0693     0.0560     2.4728     0.1256     8.0344    92.9274     7.9695     9.4687
  352.5000   -43.0693     0.0566     2.4642     0.1265     8.0347    91.2732     7.9695     9.5003
  353.0000   -43.0693     0.0573     2.4637     0.1253     8.0349    95.9097     7.9695     9.6063
  353.5000   -43.0693     0.0573     2.4690     0.1235     8.0336    94.8065     7.9488     9.7083
  354.0000   -43.0693     0.0562     2.4753     0.1221     7.9920    93.4422     7.9012     9.8115
  354.5000   -43.0693     0.0529     2.4766     0.1238     7.9484    92.8020     7.8539     9.9160
  355.0000   -43.0693     0.0454     2.4685     0.1274     7.9064    95.3316     7.8069    10.0215
  355.5000   -43.0693     0.0379     2.4591     0.1311     7.9082    99.4837     7.7602    10.0429
  356.0000   -43.0693     0.0376     2.4508     0.1349     8.0389    99.3349     7.7137     9.9892
  356.5000   -43.0693     0.0376     2.4500     0.1361     8.1524   100.1645     7.6675     9.8508
  357.0000   -43.0693     0.0385     2.4494     0.1355     8.1483   100.8349     7.6217     9.7142
  357.5000   -43.0693     0.0401     2.4488     0.1348     8.1364    99.5172     7.5760     9.5794
  358.0000   -43.0693     0.0418     2.4489     0.1341     8.1249    99.2182     7.5307     9.4473
  358.5000   -43.0693     0.0463     2.4513     0.1320     8.1139   101.5645     7.4856     9.4049
  359.0000   -43.0693     0.0506     2.4568     0.1288     8.1206   103.7940     7.4408     9.3810
  359.5000   -43.0693     0.0549     2.4656     0.1254     8.1285   100.4381     7.4074     9.3572
  360.0000   -43.0693     0.0559     2.4743     0.1219     8.1263    93.9329     7.5687     9.3334
  360.5000   -43.0693     0.0562     2.4827     0.1185     8.0833    93.0967     7.7227     9.3097
  361.0000   -43.0693     0.0565     2.4830     0.1189     8.0403    95.6318     7.8798     9.2860
  361.5000   -43.0693     0.0568     2.4818     0.1208     7.9957    98.4940     8.0401     9.2625
  362.0000   -43.0693     0.0571     2.4749     0.1233     8.0449    96.3914     8.1937     9.2389
  362.5000   -43.0693     0.0574     2.4720     0.1237     8.0795    97.2235     7.7763     9.2155
  363.0000   -43.0693     0.0575     2.4737     0.1232     8.0216    98.0257     7.4023     9.1921
  363.5000   -43.0693     0.0566     2.4756     0.1226     8.0213    97.6488     7.1789     9.1687
  364.0000   -43.0693     0.0557     2.4769     0.1225     8.0289    94.5006     7.1334     9.1553
  364.5000   -43.0693     0.0548     2.4770     0.1233     8.0353    91.0110     7.0882     9.1225
  365.0000   -43.0693     0.0539     2.4735     0.1254     8.0318    87.8245     7.0432     9.0439
  365.5000   -43.0694     0.0530     2.4690     0.1263     7.9446    90.3576     6.9986     8.9659
  366.0000   -43.0778     0.0520     2.4703     0.1255     7.8561   100.2851     6.9542     8.8886
  366.5000   -43.1005     0.0511     2.4720     0.1255     7.8813   103.2150     6.9102     8.8119
  367.0000   -43.1230     0.0502     2.4729     0.1264     8.1213   104.2388     6.8608     8.7360
  367.5000   -43.1455     0.0493     2.4680     0.1273     8.1022   100.9480     6.7827     8.6608
  368.0000   -43.1681     0.0484     2.4620     0.1321     8.0793    97.4430     6.7055     8.5818
  368.5000   -43.1906     0.0481     2.4557     0.1369     8.0704    95.3713     6.6292     8.4805
  369.0000   -43.2132     0.0508     2.4419     0.1421     8.0649    94.6062     6.5538     8.3739
  369.5000   -43.2357     0.0533     2.4258     0.1506     8.0596    96.7654     6.4792     8.2688
  370.0000   -43.2582     0.0655     2.4060     0.1662     8.0546    95.9880     6.4055     8.1650
  370.5000   -43.2808     0.0785     2.3862     0.1762     8.0661    95.4175     6.3326     8.0625
  371.0000   -43.3033     0.1851     2.3725     0.1721     8.0982    97.4643     6.2663     7.9614
  371.5000   -43.3258     0.3705     2.4025     0.1585     8.2236    97.0494     6.2251     7.8615
  372.0000   -43.3484     0.3592     2.4451     0.1358     7.9082    96.5053     6.1873     7.7628
  372.5000   -43.3709     0.2774     2.4787     0.1197     8.1148    94.7329     6.1515     7.6654
  373.0000   -43.3934     0.1231     2.4526     0.1486     8.4074    93.9770     6.2382     7.5692
  373.5000   -43.4158     0.0607     2.4218     0.1369     8.0571    94.2482     6.4376     7.4743
  374.0000   -43.4386     0.0496     2.4505     0.1374     8.0616    94.5344     6.6434     7.3797
  374.5000   -43.4642     0.0510     2.4487     0.1381     8.0665    93.8179     6.8350     7.2656
  375.0000   -43.3732     0.0522     2.4453     0.1374     8.0716    95.5040     6.9534     7.2858
  375.5000   -43.2612     0.0536     2.4438     0.1355     8.0768    98.3528     7.0264     7.3192
  376.0000   -43.1479     0.0551     2.4520     0.1301     8.0819    99.4488     7.0681     7.3528
  376.5000   -43.0349     0.0553     2.4642     0.1286     8.0870    97.7110     7.1099     7.3865
  377.0000   -42.9215     0.0546     2.4664     0.1281     8.0922    95.8657     7.1521     7.4209
  377.5000   -42.8719     0.0539     2.4659     0.1277     8.0919    94.9051     7.1944     7.4557
  378.0000   -42.8715     0.0531     2.4662     0.1280     8.0868    93.2933     7.2370     7.6221
  378.5000   -42.8712     0.0524     2.4668     0.1302     8.0817    92.0865     7.2656     7.9049
  379.0000   -42.8716     0.0517     2.4606     0.1357     8.0764    91.5894     7.1987     8.3448
  379.5000   -42.8950     0.0531     2.4476     0.1393     8.0643    91.4277     7.1406     8.2036
  380.0000   -42.9208     0.0547     2.4429     0.1408     7.9992    93.3137     6.9583     7.9372
  380.5000   -42.9466     0.0571     2.4428     0.1429     7.9314    95.3456     6.7807     7.6792
  381.0000   -42.9724     0.0594     2.4369     0.1452     7.9003    96.2346     6.6069     7.4286
  381.5000   -42.9982     0.0615     2.4288     0.1465     7.8954    95.5474     6.4377     7.1864
  382.0000   -43.0240     0.0676     2.4288     0.1468     7.8956    95.6636     6.2339     6.9521
  382.5000   -43.0498     0.0830     2.4288     0.1470     7.8975    95.6981     6.0179     6.7236
  383.0000   -43.0756     0.1121     2.4288     0.1473     7.9400    93.0556     5.8087     6.5017
  383.5000   -43.1013     0.1411     2.4279     0.1475     7.9870    90.5464     5.6069     6.2870
  384.0000   -43.1272     0.1565     2.4269     0.1477     8.2431    89.7325     5.3971     6.1865
  384.5000   -43.1529     0.1437     2.4297     0.1444     8.2641    89.2459     5.1454     6.1515
  385.0000   -43.1787     0.0920     2.4362     0.1398     8.4538    90.1826     4.9054     6.1837
  385.5000   -43.2045     0.0693     2.4413     0.1352     8.5482    89.8492     4.6766     6.2244
  386.0000   -43.2304     0.0630     2.4529     0.1319     8.0671    89.9068     4.3719     6.2654
  386.5000   -43.2563     0.0592     2.4657     0.1274     7.8563    94.5753     4.6512     6.3063
  387.0000   -43.2795     0.0557     2.4651     0.1277     7.8463    98.2860     5.1778     6.4486
  387.5000   -43.3007     0.0560     2.4639     0.1268     7.8336    97.0648     5.7638     6.9475
  388.0000   -43.3220     0.0563     2.4677     0.1259     7.7782    95.7432     6.4177     7.5820
  388.5000   -43.3433     0.0566     2.4722     0.1252     7.7712    94.3960     6.8051     8.0024
  389.0000   -43.3646     0.0569     2.4715     0.1273     7.7658    93.0285     6.9160     8.2047
