~VERSION INFORMATION
 VERS.                2.0:   CWLS LOG ASCII STANDARD - VERSION 2.0
 WRAP.                 NO:   ONE LINE PER DEPTH STEP
~WELL INFORMATION
#MNEM.UNIT      DATA TYPE    INFORMATION
#----------   ------------   ------------------------------
 STRT.F           16.5000:   START DEPTH
 STOP.F          640.0000:   STOP DEPTH
 STEP.F            0.5000:   STEP LENGTH
 NULL.          -999.2500:   NO VALUE
 COMP. FENIX & SCISSON INC:   COMPANY
 WELL.     11 SX 14 #3-14:   WELL
 FLD .             TEAPOT:   FIELD
 LOC .      S14 T38N R78W:   LOCATION
 CNTY.            NATRONA:   COUNTY
 STAT.            WYOMING:   STATE
 CTRY. UNITED STATES OF AMERICA:   COUNTRY
 SRVC.            Unknown:   SERVICE COMPANY
 DATE.        18-DEC-1978:   LOGDATE
 API .       490251075700:   API NUMBER
~CURVE INFORMATION
#MNEM.UNIT       API CODE    CURVE DESCRIPTION
#----------   ------------   ------------------------------
 DEPT.F                  :   
 SPR .MV     05 010 01 00:   SPONTANEOUS POTENTIAL FROM RES.
 SN  .OHMM   05 040 16 00:   SHORT NORMAL 16"
 IL  .OHMM   05 120 00 00:   INDUCTION LOG
 GRD .GAPI   45 310 01 00:   GAMMA RAY FROM DENSITY LOG
 CALD.IN     45 280 60 00:   CALIPER
 RHOB.G/C3   45 350 01 00:   BULK DENSITY
 DPHI.DEC    45 890 12 00:   DENSITY POROSITY SANDSTONE
 CORR.G/C3   45 356 01 00:   DENSITY CORRECTION
~PARAMETER INFORMATION
#MNEM.UNIT          VALUE    DESCRIPTION
#----------   ------------   ------------------------------
 PD  .                 GL:   PERMANENT DATUM
 EPD .F              5217:   ELEVATION PERMANENT DATUM
 LMF .                 KB:   LOG MEASURED FROM
 DAPD.F                 4:   FEET ABOVE PERMANENT DATUM
 DMF .                 KB:   DRILLING MEASURED FROM
 EKB .F              5221:   KELLING BUSHING
 EGL .F              5217:   GROUND LEVEL
 DATE.           12-18-78:   RUN DATE
 RUN .                  1:   RUN NUMBER
 DD  .F               653:   DEPTH DRILLER
 DL  .F               640:   DEPTH LOGGER
 BLI .F               634:   BOTTOM LOG INTERVAL
 TLI .F                32:   TOP LOG INTERVAL
 CS  .IN            8.625:   CASING SIZE
 CBD .F                40:   CASING BOTTOM DRILLER
 CBL .F                30:   CASING BOTTOM LOGGER
 BS  .IN            7.875:   BIT SIZE
 BSD .F               653:   BIT SIZE AT DEPTH
 DFT .                KCL:   DRILLING FLUID TYPE
 DFD .                8.3:   DRILLING FLUID DENSITY
 DFV .                 36:   DRILLING FLUID VISCOSITY
 DFPH.               12.5:   DRILLING FLUID PH
 DFL .               12.3:   DRILLING FLUID LOSS
 MSS .           FLOWLINE:   MUD SAMPLE SOURCE
 MST .F                56:   MUD SAMPLE TEMPERATURE
 RMF .OHMM            .44:   RESISTIVITY MUD FILTRATE SAMPLE
 MFST.F                58:   MUD FILTRATE SAMPLE TEMPERATURE
 RMC .OHMM            .58:   RESISTIVITY MUD CAKE
 MCST.F                66:   MUD CAKE SAMPLE TEMPERATURE
 MFSS.           MEASURED:   MUD FILTRATE SAMPLE SOURCE
 MCSS.           MEASURED:   MUD CAKE SAMPLE SOURCE
 BHT .F                58:   BOTTOM HOLE TEMPERATURE
 TCS .HRS               4:   TIME CURCULATED STOPPED
 MRT .F                58:   MAXIMUM RECORDED TEMPERATURE
 LUL .             CASPER:   LOGGING UNIT LOCATION
 ENGI.         B. ROLLINS:   RECORDING ENGINEER
 WITN.              AMEND:   WITNESSED BY
 CLNT.            A2DTECH:   CLIENT CODE
 ORIG.           5" PRINT:   ORIGIN OF DATA
 UWI .       490251075700:   UNIQUE WELL ID
 DICO. A2D Technologies, Inc.:   DIGITIZING COMPANY
~OTHER INFORMATION
~A   DEPT      SPR         SN         IL         GRD      CALD       RHOB       DPHI       CORR   
# ...
  502.5000   -79.0920    15.2860    14.5990    76.9960     8.0760     2.3840     0.1780     0.0230
  503.0000   -79.0860    15.2500    14.5210    77.0500     8.2730     2.3880     0.1750     0.0230
  503.5000   -79.0780    15.2130    14.4430    76.9570     8.2330     2.3930     0.1720     0.0230
  504.0000   -79.0700    15.1770    14.3510    76.8670     8.0610     2.3990     0.1700     0.0230
  504.5000   -79.0620    15.1410    14.3700    76.7760     7.9780     2.4020     0.1680     0.0200
  505.0000   -79.0550    15.1050    14.3920    76.6880     7.9720     2.4030     0.1680     0.0180
  505.5000   -79.0470    15.0690    14.4150    76.7740     7.9650     2.4040     0.1670     0.0160
  506.0000   -79.0400    15.0290    14.4370    77.4100     7.9680     2.4040     0.1660     0.0140
  506.5000   -79.0320    14.9950    14.4600    78.0490     8.2300     2.4050     0.1700     0.0120
  507.0000   -79.0240    14.9580    14.4840    78.4490     7.8610     2.4040     0.1790     0.0110
  507.5000   -79.0170    14.9210    14.3990    78.3550     7.9620     2.3920     0.1900     0.0100
  508.0000   -79.0090    14.8830    14.3070    78.2560     7.9580     2.3740     0.1910     0.0120
  508.5000   -79.0020    14.8460    14.2150    77.7340     8.0980     2.3660     0.1880     0.0150
  509.0000   -78.9940    14.8090    14.1230    77.0410     8.2720     2.3680     0.1830     0.0190
  509.5000   -78.9870    14.7720    14.0310    75.7270     8.3360     2.3760     0.1800     0.0210
  510.0000   -78.9790    14.7350    13.9380    74.8340     8.3920     2.3830     0.1770     0.0250
  510.5000   -78.9710    14.6970    13.8460    74.7140     8.3320     2.3880     0.1680     0.0320
  511.0000   -78.9640    14.6600    13.7570    74.5840     8.3050     2.4010     0.1630     0.0350
  511.5000   -78.9560    14.6230    13.6680    74.6500     8.3970     2.4140     0.1560     0.0350
  512.0000   -78.9490    14.9210    13.5790    75.5020     8.3460     2.4260     0.1560     0.0360
  512.5000   -78.9410    15.2680    13.4910    77.0960     8.2340     2.4260     0.1520     0.0380
  513.0000   -78.9330    15.6160    13.4020    78.1000     8.0500     2.4260     0.1380     0.0470
  513.5000   -78.9260    15.9630    13.3130    78.1940     8.1430     2.4560     0.1240     0.0570
  514.0000   -78.9170    16.3280    13.2240    78.3320     8.4060     2.4880     0.1070     0.0670
  514.5000   -78.9070    16.5740    13.1350    76.3870     7.8930     2.5130     0.1090     0.0680
  515.0000   -78.9010    16.7860    13.0470    72.6940     8.0200     2.5150     0.1180     0.0660
  515.5000   -78.5440    16.1400    12.9580    70.8790     7.9890     2.4930     0.1300     0.0780
  516.0000   -77.9550    15.5070    12.8690    69.8080     7.8160     2.4750     0.1390     0.0960
  516.5000   -77.3660    14.8530    12.7300    67.4090     7.7700     2.4570     0.1430     0.1010
  517.0000   -76.7740    14.1990    12.7330    65.3860     7.7690     2.4510     0.1350     0.0920
  517.5000   -76.1840    13.5440    12.7390    65.1300     7.7770     2.4560     0.1320     0.0690
  518.0000   -75.8900    13.2560    12.7450    65.9710     7.7840     2.4630     0.1320     0.0450
  518.5000   -75.6440    13.0260    12.7510    67.0820     7.7920     2.4640     0.1390     0.0210
  519.0000   -75.3980    12.7960    12.7570    69.9130     7.7980     2.4570     0.1480     0.0090
  519.5000   -75.1530    12.6640    12.7630    72.8560     7.8270     2.4420     0.1590     0.0030
  520.0000   -74.9110    12.5710    12.7690    73.3380     8.0370     2.4290     0.1610     0.0010
  520.5000   -74.6960    12.4780    12.7750    73.4150     8.1840     2.4170     0.1580     0.0000
  521.0000   -74.7200    12.3830    12.7810    73.4820     8.1640     2.4180     0.1520     0.0050
  521.5000   -74.7390    12.3860    12.7870    73.5490     8.1020     2.4270     0.1450     0.0110
  522.0000   -74.7560    12.3900    12.7930    73.6130     7.7710     2.4400     0.1380     0.0100
  522.5000   -74.7740    12.3930    12.7990    73.6760     7.8110     2.4520     0.1410     0.0090
  523.0000   -74.7920    12.3970    12.8050    73.8890     8.0750     2.4510     0.1420     0.0070
  523.5000   -74.8100    12.4000    12.8110    74.1620     8.0470     2.4490     0.1420     0.0060
  524.0000   -74.8280    12.4030    12.8170    74.4360     8.0030     2.4490     0.1390     0.0060
  524.5000   -74.8450    12.4070    12.8240    74.8120     8.0080     2.4520     0.1390     0.0060
  525.0000   -74.8630    12.4100    12.8300    77.0750     8.0650     2.4530     0.1410     0.0060
  525.5000   -74.8820    12.4140    12.8360    79.3480     8.1140     2.4490     0.1420     0.0070
  526.0000   -74.8870    12.4170    12.8420    80.2310     7.9170     2.4450     0.1440     0.0070
  526.5000   -74.3580    12.4210    12.8480    80.5630     7.7980     2.4460     0.1330     0.0070
  527.0000   -73.7780    12.4240    12.8540    77.9570     7.7810     2.4580     0.1280     0.0070
  527.5000   -73.1970    12.4280    12.8600    76.7970     7.7270     2.4700     0.1260     0.0050
  528.0000   -72.6120    12.4310    12.8660    77.6090     7.6680     2.4740     0.1260     0.0020
  528.5000   -72.5050    12.4350    12.8720    78.4310     7.6070     2.4740     0.1260     0.0010
  529.0000   -72.5010    12.4380    12.8780    78.3550     7.6050     2.4750     0.1260     0.0010
  529.5000   -72.5000    12.4410    12.8840    78.2300     7.6500     2.4750     0.1290     0.0010
  530.0000   -72.5000    12.4450    12.8900    78.1140     7.7000     2.4690     0.1330     0.0010
  530.5000   -72.4990    12.4480    12.8960    77.6250     7.7500     2.4630     0.1360     0.0010
  531.0000   -72.4990    12.4520    12.9020    77.0030     7.7990     2.4570     0.1360     0.0010
  531.5000   -72.4970    12.4550    12.9080    77.6670     7.8000     2.4560     0.1360     0.0010
  532.0000   -72.3850    12.4590    12.9140    78.9170     7.7650     2.4610     0.1360     0.0010
  532.5000   -71.4960    12.4620    12.9200    81.6430     7.6420     2.4600     0.1360     0.0010
  533.0000   -70.9100    12.4660    12.9260    82.5760     7.5260     2.4580     0.1320     0.0010
  533.5000   -70.9820    12.4690    12.9320    80.7440     7.4390     2.4590     0.1280     0.0010
  534.0000   -71.0430    12.4720    12.9380    78.5890     7.5420     2.4670     0.1290     0.0010
  534.5000   -71.0850    12.4760    12.9440    76.4040     7.6350     2.4670     0.1320     0.0010
  535.0000   -70.7190    12.4790    12.9510    75.3410     7.7210     2.4630     0.1350     0.0000
  535.5000   -70.3360    12.4830    12.9570    75.8610     7.8070     2.4590     0.1370     0.0000
  536.0000   -69.9580    12.4860    12.9630    77.1610     7.9450     2.4560     0.1320     0.0000
  536.5000   -69.8650    12.4910    13.0100    78.9520     8.1110     2.4610     0.1280     0.0000
  537.0000   -69.8210    12.4960    13.1740    80.7440     8.0420     2.4660     0.1290     0.0000
  537.5000   -69.7770    12.4970    13.3370    81.9890     7.8220     2.4660     0.1300     0.0000
  538.0000   -69.7280    12.7140    13.5010    81.0400     7.6240     2.4650     0.1310     0.0000
  538.5000   -69.4390    13.1390    14.1610    80.0410     7.7900     2.4640     0.1340     0.0000
  539.0000   -67.5370    13.5650    15.2720    79.8990     7.8160     2.4630     0.1350     0.0000
  539.5000   -65.7710    13.9900    16.3830    79.9310     7.8120     2.4560     0.1360     0.0000
  540.0000   -64.3440    14.9270    17.4940    79.9660     7.8070     2.4550     0.1390     0.0000
  540.5000   -63.9090    16.0180    18.6050    80.0010     7.8010     2.4510     0.1510     0.0000
  541.0000   -63.5130    17.1090    19.7160    80.0470     7.7960     2.4340     0.1790     0.0000
  541.5000   -63.1180    18.1430    20.8270    79.2960     7.7910     2.3890     0.2050     0.0000
  542.0000   -62.7200    19.0980    22.5470    77.6080     7.7860     2.3450     0.2280     0.0020
  542.5000   -62.4220    20.0540    22.4670    74.1990     7.7990     2.3000     0.2370     0.0030
