~VERSION INFORMATION
 VERS.                2.0:   CWLS LOG ASCII STANDARD - VERSION 2.0
 WRAP.                 NO:   ONE LINE PER DEPTH STEP
~WELL INFORMATION
#MNEM.UNIT      DATA TYPE    INFORMATION
#----------   ------------   ------------------------------
 STRT.F           67.0000:   START DEPTH
 STOP.F          510.0000:   STOP DEPTH
 STEP.F            0.5000:   STEP LENGTH
 NULL.          -999.2500:   NO VALUE
 COMP.       F D SERV INC:   COMPANY
 WELL.    77-5 SX 3 #77-3:   WELL
 FLD .             TEAPOT:   FIELD
 LOC .       S3 T38N R78W:   LOCATION
 CNTY.            NATRONA:   COUNTY
 STAT.            WYOMING:   STATE
 CTRY. UNITED STATES OF AMERICA:   COUNTRY
 SRVC.     Atlas Wireline:   SERVICE COMPANY
 DATE.        24-NOV-1992:   LOGDATE
 API .       490252254400:   API NUMBER
~CURVE INFORMATION
#MNEM.UNIT       API CODE    CURVE DESCRIPTION
#----------   ------------   ------------------------------
 DEPT.F                  :   
 PORZ.DEC    45 890 12 00:   DENSITY POROSITY
 NPOR.DEC    42 890 03 00:   NEUTRON POROSITY SANDSTONE
 C13 .IN     45 280 13 00:   CALIPER 1 - 3
 GRD .GAPI   45 310 01 00:   GAMMA RAY FROM DENSITY LOG
 ZCOR.G/C3   45 356 01 00:   DENSITY CORRECTION
 ZDEN.G/C3   45 350 01 00:   BULK DENSITY
~PARAMETER INFORMATION
#MNEM.UNIT          VALUE    DESCRIPTION
#----------   ------------   ------------------------------
 PD  .                 GL:   PERMANENT DATUM
 EPD .F              5137:   ELEVATION PERMANENT DATUM
 LMF .                 KB:   LOG MEASURED FROM
 DAPD.F                10:   FEET ABOVE PERMANENT DATUM
 DMF .                 KB:   DRILLING MEASURED FROM
 EKB .F              5147:   KELLING BUSHING
 EDF .F              5146:   DRILLING FLOOR
 EGL .F              5137:   GROUND LEVEL
 DATE.        24-NOV-1992:   RUN DATE
 RUN .                  1:   RUN NUMBER
 DD  .F               510:   DEPTH DRILLER
 DL  .F               512:   DEPTH LOGGER
 BLI .F               510:   BOTTOM LOG INTERVAL
 TLI .F                99:   TOP LOG INTERVAL
 CS  .IN            8.625:   CASING SIZE
 CBD .F                97:   CASING BOTTOM DRILLER
 CBL .F                99:   CASING BOTTOM LOGGER
 BS  .IN            7.875:   BIT SIZE
 BSD .F               510:   BIT SIZE AT DEPTH
 DFT .           AIR FOAM:   DRILLING FLUID TYPE
 MRT .F                70:   MAXIMUM RECORDED TEMPERATURE
 LUN .            HL-6274:   LOGGING UNIT NUMBER
 LUL .             CASPER:   LOGGING UNIT LOCATION
 WITN.           G.STRONG:   WITNESSED BY
 CLNT.            A2DTECH:   CLIENT CODE
 ORIG.           5" PRINT:   ORIGIN OF DATA
 UWI .       490252254400:   UNIQUE WELL ID
 DICO. A2D Technologies, Inc.:   DIGITIZING COMPANY
~OTHER INFORMATION
~A   DEPT     PORZ       NPOR        C13        GRD       ZCOR       ZDEN   
# ...
  119.0000     0.0906     0.2886     7.9453   148.9884     0.0190     2.5016
  119.5000     0.0891     0.2862     7.9453   148.9782     0.0205     2.5023
  120.0000     0.0882     0.2856     7.9453   147.7542     0.0219     2.5038
  120.5000     0.0891     0.2856     7.9453   145.9163     0.0248     2.5045
  121.0000     0.0894     0.2844     7.9453   144.6856     0.0217     2.5030
  121.5000     0.0897     0.2838     7.9453   143.1512     0.0170     2.5006
  122.0000     0.0914     0.2860     7.9453   140.7335     0.0169     2.4983
  122.5000     0.0937     0.2890     7.9453   141.0605     0.0214     2.4975
  123.0000     0.0925     0.2908     7.9453   140.7132     0.0243     2.4983
  123.5000     0.0910     0.2896     7.9453   139.3949     0.0287     2.4982
  124.0000     0.0916     0.2884     7.9453   138.5690     0.0316     2.4959
  124.5000     0.0941     0.2894     7.9453   144.3227     0.0330     2.4920
  125.0000     0.0968     0.2912     7.9453   145.8326     0.0314     2.4880
  125.5000     0.0996     0.2918     7.9453   143.6956     0.0283     2.4843
  126.0000     0.1020     0.2918     7.9453   142.7751     0.0267     2.4806
  126.5000     0.1002     0.2899     7.9453   143.0710     0.0221     2.4843
  127.0000     0.0951     0.2867     7.9453   142.4515     0.0189     2.4911
  127.5000     0.0914     0.2864     7.9453   141.2274     0.0188     2.4987
  128.0000     0.0908     0.2888     7.9605   139.7000     0.0233     2.4994
  128.5000     0.0927     0.2889     7.9605   144.5457     0.0277     2.4971
  129.0000     0.0945     0.2874     7.9605   145.4487     0.0336     2.4940
  129.5000     0.0957     0.2828     7.9605   142.4012     0.0320     2.4917
  130.0000     0.0951     0.2816     7.9605   138.7492     0.0289     2.4924
  130.5000     0.0930     0.2828     7.9605   137.5277     0.0303     2.4954
  131.0000     0.0918     0.2825     7.9605   139.9431     0.0332     2.4984
  131.5000     0.0934     0.2829     7.9605   143.2714     0.0286     2.4969
  132.0000     0.0988     0.2874     7.9605   144.4778     0.0234     2.4908
  132.5000     0.1040     0.2984     7.9606   143.2513     0.0179     2.4809
  133.0000     0.1086     0.2990     7.9612   142.3307     0.0181     2.4755
  133.5000     0.1110     0.2968     7.9617   141.7137     0.0240     2.4702
  134.0000     0.1126     0.2951     7.9622   141.0967     0.0311     2.4664
  134.5000     0.1138     0.2945     7.9628   140.4796     0.0307     2.4640
  135.0000     0.1141     0.2969     7.9633   140.7731     0.0244     2.4625
  135.5000     0.1138     0.2987     7.9639   144.1014     0.0167     2.4617
  136.0000     0.1126     0.2994     7.9644   148.3402     0.0126     2.4647
  136.5000     0.1120     0.2982     7.9649   149.8501     0.0110     2.4669
  137.0000     0.1136     0.2979     7.9655   144.9817     0.0109     2.4646
  137.5000     0.1155     0.2982     7.9660   142.8472     0.0108     2.4615
  138.0000     0.1172     0.2970     7.9666   142.8371     0.0122     2.4577
  138.5000     0.1188     0.2958     7.9671   142.8271     0.0138     2.4554
  139.0000     0.1185     0.2946     7.9676   141.6030     0.0150     2.4554
  139.5000     0.1185     0.2940     7.9682   139.1651     0.0117     2.4546
  140.0000     0.1203     0.2940     7.9687   140.3690     0.0058     2.4523
  140.5000     0.1222     0.2943     7.9693   139.1449     0.0042     2.4492
  141.0000     0.1225     0.2934     7.9698   139.4384     0.0072     2.4461
  141.5000     0.1186     0.2907     7.9703   139.7319     0.0130     2.4605
  142.0000     0.1104     0.2868     7.9709   140.3288     0.0174     2.4703
  142.5000     0.1061     0.2840     7.9714   139.1047     0.0219     2.4748
  143.0000     0.1056     0.2862     7.9719   136.3426     0.0249     2.4763
  143.5000     0.1095     0.2907     7.9725   133.9251     0.0292     2.4702
  144.0000     0.1138     0.2950     7.9730   134.2793     0.0306     2.4603
  144.5000     0.1135     0.2971     7.9736   137.9577     0.0305     2.4618
  145.0000     0.1123     0.2978     7.9741   141.8529     0.0289     2.4655
  145.5000     0.1108     0.2975     7.9746   143.9002     0.0271     2.4670
  146.0000     0.1105     0.2974     7.9752   143.8897     0.0211     2.4677
  146.5000     0.1142     0.3001     7.9759   143.2727     0.0149     2.4647
  147.0000     0.1175     0.3022     7.9800   142.6535     0.0088     2.4608
  147.5000     0.1203     0.3048     7.9842   143.2505     0.0043     2.4547
  148.0000     0.1230     0.3097     7.9883   145.9718     0.0058     2.4502
  148.5000     0.1239     0.3125     7.9925   149.3001     0.0147     2.4456
  149.0000     0.1230     0.3142     7.9966   150.9408     0.0236     2.4463
  149.5000     0.1200     0.3133     8.0007   148.3695     0.0310     2.4531
  150.0000     0.1153     0.3115     8.0049   142.5932     0.0302     2.4636
  150.5000     0.1106     0.3122     8.0059   143.6023     0.0143     2.4681
  151.0000     0.1116     0.3140     8.0059   148.9134     0.0098     2.4658
  151.5000     0.1122     0.3155     8.0059   151.3604     0.0098     2.4635
  152.0000     0.1082     0.3167     8.0059   149.8281     0.0129     2.4718
  152.5000     0.1061     0.3161     8.0059   146.7814     0.0176     2.4733
  153.0000     0.1067     0.3137     8.0059   144.0381     0.0234     2.4725
  153.5000     0.1073     0.3104     8.0059   146.1507     0.0279     2.4709
  154.0000     0.1082     0.3071     8.0059   151.6016     0.0324     2.4679
  154.5000     0.1045     0.3074     8.0060   155.8386     0.0354     2.4749
  155.0000     0.1010     0.3083     8.0060   157.0410     0.0324     2.4814
  155.5000     0.1010     0.3089     8.0060   157.0288     0.0309     2.4852
  156.0000     0.1034     0.3062     8.0060   156.0820     0.0324     2.4836
  156.5000     0.1030     0.3041     8.0060   153.8665     0.0339     2.4813
  157.0000     0.0986     0.3032     8.0060   150.9204     0.0339     2.4836
  157.5000     0.0968     0.3047     8.0060   149.3941     0.0277     2.4873
  158.0000     0.0974     0.3041     8.0060   153.6281     0.0173     2.4880
  158.5000     0.0980     0.3023     8.0060   153.0092     0.0158     2.4872
  159.0000     0.0986     0.3014     8.0060   151.4799     0.0158     2.4857
  159.5000     0.0990     0.3024     8.0060   150.2541     0.0204     2.4849
  160.0000     0.0990     0.3027     8.0060   149.6352     0.0234     2.4848
  160.5000     0.0990     0.3024     8.0060   149.6233     0.0249     2.4848
  161.0000     0.1005     0.3024     8.0060   150.5219     0.0219     2.4810
  161.5000     0.1052     0.3024     8.0060   151.4205     0.0189     2.4749
  162.0000     0.1081     0.3031     8.0060   151.0563     0.0158     2.4711
  162.5000     0.1102     0.3049     8.0061   148.6624     0.0158     2.4687
  163.0000     0.1112     0.3061     8.0061   146.5261     0.0158     2.4687
  163.5000     0.1109     0.3073     8.0061   144.9968     0.0189     2.4687
  164.0000     0.1081     0.3076     8.0061   144.3779     0.0219     2.4686
  164.5000     0.1060     0.3079     8.0061   144.3661     0.0173     2.4777
  165.0000     0.1051     0.3101     8.0061   144.0507     0.0143     2.4686
  165.5000     0.1121     0.3122     8.0061   144.0388     0.0128     2.4594
  166.0000     0.1152     0.3134     8.0061   149.1863     0.0158     2.4596
  166.5000     0.1118     0.3135     8.0061   150.6919     0.0173     2.4700
  167.0000     0.1088     0.3116     8.0061   150.3582     0.0219     2.4737
  167.5000     0.1067     0.3098     8.0061   152.3669     0.0234     2.4737
  168.0000     0.1058     0.3092     8.0061   155.2086     0.0219     2.4744
  168.5000     0.1052     0.3109     8.0061   153.9798     0.0204     2.4751
  169.0000     0.1061     0.3129     8.0061   152.1470     0.0219     2.4751
  169.5000     0.1064     0.3132     8.0061   150.6177     0.0234     2.4750
  170.0000     0.1055     0.3105     8.0061   149.0883     0.0204     2.4750
  170.5000     0.1043     0.3087     8.0061   147.5590     0.0158     2.4765
