~VERSION INFORMATION
 VERS.                2.0:   CWLS LOG ASCII STANDARD - VERSION 2.0
 WRAP.                 NO:   ONE LINE PER DEPTH STEP
~WELL INFORMATION
#MNEM.UNIT      DATA TYPE    INFORMATION
#----------   ------------   ------------------------------
 STRT.F           22.0000:   START DEPTH
 STOP.F          654.0000:   STOP DEPTH
 STEP.F            0.5000:   STEP LENGTH
 NULL.          -999.2500:   NO VALUE
 COMP. FENIX & SCISSON INC:   COMPANY
 WELL.     54 S 34 #54-34:   WELL
 FLD .             TEAPOT:   FIELD
 LOC .      S34 T39N R78W:   LOCATION
 CNTY.            NATRONA:   COUNTY
 STAT.            WYOMING:   STATE
 CTRY. UNITED STATES OF AMERICA:   COUNTRY
 SRVC.           BIRDWELL:   SERVICE COMPANY
 DATE.        22-AUG-1978:   LOGDATE
 API .       490251070100:   API NUMBER
~CURVE INFORMATION
#MNEM.UNIT       API CODE    CURVE DESCRIPTION
#----------   ------------   ------------------------------
 DEPT.F                  :   
 SPR .MV     05 010 01 00:   SPONTANEOUS POTENTIAL FROM RES.
 SN  .OHMM   05 040 16 00:   SHORT NORMAL 16"
 ILD .OHMM   05 120 46 00:   INDUCTION LOG DEEP
 CALD.IN     45 280 60 00:   CALIPER
 GRD .GAPI   45 310 01 00:   GAMMA RAY FROM DENSITY LOG
 DPHI.DEC    45 890 12 00:   DENSITY POROSITY SANDSTONE
 RHOB.G/C3   45 350 01 00:   BULK DENSITY
 CORR.G/C3   45 356 01 00:   DENSITY CORRECTION
~PARAMETER INFORMATION
#MNEM.UNIT          VALUE    DESCRIPTION
#----------   ------------   ------------------------------
 PD  .                 GL:   PERMANENT DATUM
 EPD .F              5085:   ELEVATION PERMANENT DATUM
 LMF .                 KB:   LOG MEASURED FROM
 DAPD.F                 4:   FEET ABOVE PERMANENT DATUM
 DMF .                 KB:   DRILLING MEASURED FROM
 EKB .F              5089:   KELLING BUSHING
 EGL .F              5085:   GROUND LEVEL
 DATE.            8-22-78:   RUN DATE
 RUN .                  1:   RUN NUMBER
 DD  .F               685:   DEPTH DRILLER
 DL  .F               653:   DEPTH LOGGER
 BLI .F               646:   BOTTOM LOG INTERVAL
 TLI .F                30:   TOP LOG INTERVAL
 CS  .IN            8.625:   CASING SIZE
 CBD .F                46:   CASING BOTTOM DRILLER
 CBL .F                46:   CASING BOTTOM LOGGER
 BS  .IN            7.875:   BIT SIZE
 BSD .F               685:   BIT SIZE AT DEPTH
 DFT .                KCL:   DRILLING FLUID TYPE
 DFD .                8.7:   DRILLING FLUID DENSITY
 DFV .                 33:   DRILLING FLUID VISCOSITY
 DFPH.                  9:   DRILLING FLUID PH
 MSS .           FLOWLINE:   MUD SAMPLE SOURCE
 RMS .OHMM            .18:   RESISTIVITY MUD SAMPLE
 MST .F                86:   MUD SAMPLE TEMPERATURE
 RMF .OHMM            .16:   RESISTIVITY MUD FILTRATE SAMPLE
 MFST.F                86:   MUD FILTRATE SAMPLE TEMPERATURE
 RMC .OHMM            .52:   RESISTIVITY MUD CAKE
 MCST.F                86:   MUD CAKE SAMPLE TEMPERATURE
 MFSS.               MEAS:   MUD FILTRATE SAMPLE SOURCE
 MCSS.               MEAS:   MUD CAKE SAMPLE SOURCE
 BHT .F                70:   BOTTOM HOLE TEMPERATURE
 TCS .HRS               2:   TIME CURCULATED STOPPED
 MRT .F                70:   MAXIMUM RECORDED TEMPERATURE
 LUN .               2958:   LOGGING UNIT NUMBER
 LUL .               CASP:   LOGGING UNIT LOCATION
 ENGI.           REYNOLDS:   RECORDING ENGINEER
 WITN.              AMEND:   WITNESSED BY
 CLNT.            A2DTECH:   CLIENT CODE
 ORIG.           5" PRINT:   ORIGIN OF DATA
 UWI .       490251070100:   UNIQUE WELL ID
 DICO. A2D Technologies, Inc.:   DIGITIZING COMPANY
~OTHER INFORMATION
~A   DEPT      SPR         SN        ILD       CALD         GRD      DPHI       RHOB       CORR   
# ...
  427.0000   -46.0883     3.4303     2.4421     7.5750    96.5413     0.2411     2.2865     0.0551
  427.5000   -46.0304     3.4619     2.4874     7.5764    92.1020     0.2629     2.2512     0.0500
  428.0000   -45.6667     3.4938     2.5569     7.5777    89.3159     0.2774     2.2119     0.0478
  428.5000   -45.1942     3.6246     2.8417     7.5790    87.9276     0.2839     2.2191     0.0439
  429.0000   -44.7151     3.7602     3.1624     7.5803    89.1351     0.2419     2.2716     0.0442
  429.5000   -44.2335     4.1018     3.5193     7.5817    90.9928     0.2299     2.3073     0.0942
  430.0000   -43.7381     4.4808     3.9164     7.5830    98.5706     0.2289     2.3056     0.0474
  430.5000   -43.4003     4.8947     4.3584     7.5843   102.3034     0.1752     2.3826     0.0131
  431.0000   -43.4497     5.3470     4.8525     7.5856   100.6023     0.1680     2.4106     0.0133
  431.5000   -43.4956     5.8410     5.2919     7.5869    98.2639     0.1580     2.4144     0.0135
  432.0000   -43.5397     6.2310     5.5927     7.5883    96.2640     0.1418     2.4479     0.0141
  432.5000   -43.5812     6.3866     5.9088     7.5897    99.2006     0.1283     2.4758     0.0146
  433.0000   -43.5569     6.5462     6.1175     7.5895   104.9021     0.1224     2.4777     0.0151
  433.5000   -43.3247     6.5838     6.1020     7.5888   105.3845     0.1262     2.4725     0.0156
  434.0000   -43.1021     6.5838     6.0095     7.5881   105.4888     0.1288     2.4672     0.0162
  434.5000   -42.8735     6.5838     5.9513     7.5874   106.9045     0.1263     2.4702     0.0167
  435.0000   -42.6796     6.5838     5.9513     7.5867   109.7644     0.1236     2.4767     0.0172
  435.5000   -42.4907     6.5838     5.9513     7.5860   110.2550     0.1230     2.4781     0.0177
  436.0000   -42.3017     6.5843     5.9513     7.5853   108.7031     0.1224     2.4780     0.0182
  436.5000   -42.1108     6.5828     5.8383     7.5846   107.2142     0.1122     2.4882     0.0187
  437.0000   -42.0186     6.5825     5.6343     7.5839   105.6838     0.1084     2.4999     0.0192
  437.5000   -42.0101     6.5245     5.4209     7.5832   105.2856     0.1116     2.5008     0.0197
  438.0000   -42.3210     6.1861     5.2165     7.5825   105.7938     0.1146     2.4934     0.0204
  438.5000   -42.7467     5.9760     5.0201     7.5818   109.9970     0.1173     2.4864     0.0222
  439.0000   -43.1913     5.7742     4.8310     7.5811   113.9790     0.1317     2.4692     0.0259
  439.5000   -43.2073     5.5791     4.6490     7.5803   118.0606     0.1448     2.4416     0.0443
  440.0000   -43.0208     5.3795     4.4739     7.5796   118.9680     0.1645     2.4133     0.0592
  440.5000   -42.8411     5.4291     4.3955     7.5789   117.2788     0.1590     2.4130     0.0177
  441.0000   -42.6635     5.4792     4.4360     7.5782   112.0009     0.1469     2.4400     0.0123
  441.5000   -42.4861     5.5808     4.5143     7.5775   107.1157     0.1542     2.4280     0.0125
  442.0000   -42.3087     5.6842     4.6691     7.5768   102.2977     0.1554     2.4190     0.0125
  442.5000   -42.1313     5.7895     4.8728     7.5761    98.8130     0.1538     2.4276     0.0125
  443.0000   -41.9543     5.9051     5.0862     7.5754   100.0754     0.1524     2.4400     0.0125
  443.5000   -41.7803     6.0984     5.3092     7.5747   102.9593     0.1444     2.4432     0.0125
  444.0000   -41.5823     6.2979     5.5419     7.5740   105.7711     0.1372     2.4480     0.0125
  444.5000   -41.0223     6.5040     5.7849     7.5733   108.4069     0.1300     2.4634     0.0125
  445.0000   -40.4740     6.7168     6.0384     7.5726   109.4042     0.1220     2.4758     0.0125
  445.5000   -39.9297     6.9366     6.3033     7.5719   110.6235     0.1206     2.4810     0.0125
  446.0000   -39.3533     7.1636     6.5793     7.5712   110.8724     0.1192     2.4834     0.0125
  446.5000   -39.5792     7.4186     6.8931     7.5705   109.2345     0.1177     2.4856     0.0125
  447.0000   -40.0908     7.4186     6.8436     7.5703   107.5494     0.1163     2.4877     0.0125
  447.5000   -40.1778     7.4109     6.7897     7.5717   104.4653     0.1148     2.4899     0.0125
  448.0000   -40.1264     7.3413     6.7363     7.5731   100.9968     0.1157     2.4892     0.0125
  448.5000   -40.0690     7.2723     6.6833     7.5744   100.0434     0.1176     2.4860     0.0125
  449.0000   -40.0255     7.2040     6.6307     7.5757   104.2663     0.1172     2.4871     0.0125
  449.5000   -40.1608     7.1363     6.5838     7.5770   109.0897     0.1198     2.4862     0.0125
  450.0000   -40.2916     7.0693     6.5838     7.5784   109.5999     0.1220     2.4788     0.0131
  450.5000   -40.4211     7.0016     6.4049     7.5797   106.5482     0.1218     2.4785     0.0136
  451.0000   -40.5504     6.9175     6.2095     7.5810   105.6827     0.1219     2.4795     0.0142
  451.5000   -40.6798     6.7790     5.9993     7.5824   111.1096     0.1243     2.4757     0.0147
  452.0000   -40.8092     6.6462     5.7962     7.5837   110.6715     0.1268     2.4718     0.0152
  452.5000   -40.9386     6.5155     5.6000     7.5850   109.5073     0.1279     2.4700     0.0157
  453.0000   -41.0680     6.3875     5.4104     7.5863   111.5814     0.1261     2.4713     0.0163
  453.5000   -41.1974     6.2619     5.2273     7.5877   113.9097     0.1264     2.4730     0.0166
  454.0000   -41.3268     6.1388     5.1381     7.5890   114.1194     0.1320     2.4704     0.0168
  454.5000   -41.4562     6.0062     5.1381     7.5903   114.3037     0.1376     2.4590     0.0170
  455.0000   -41.5855     6.0616     5.1381     7.5917   115.0090     0.1433     2.4475     0.0172
  455.5000   -41.7151     6.1175     5.2093     7.5930   116.9738     0.1489     2.4359     0.0174
  456.0000   -41.8453     6.2318     5.4541     7.5943   118.6911     0.1549     2.4228     0.0176
  456.5000   -41.9745     6.4287     5.7104     7.5956   115.8773     0.1512     2.4289     0.0178
  457.0000   -41.9377     6.6317     5.9787     7.5970   110.4488     0.1407     2.4470     0.0180
  457.5000   -41.5940     6.8414     6.2596     7.5983   107.9986     0.1302     2.4650     0.0182
  458.0000   -41.2609     7.0577     6.5537     7.5996   112.5456     0.1198     2.4831     0.0184
  458.5000   -40.9286     7.2804     6.8616     7.6010   117.3731     0.1144     2.4891     0.0185
  459.0000   -40.6269     7.4870     7.0209     7.6023   117.6339     0.1184     2.4852     0.0187
  459.5000   -40.4883     7.4870     6.9422     7.6036   114.1751     0.1236     2.4786     0.0189
  460.0000   -40.3403     7.4756     6.8286     7.6049   112.7850     0.1260     2.4723     0.0191
  460.5000   -40.1901     7.4527     6.8551     7.6063   114.5554     0.1217     2.4776     0.0193
  461.0000   -40.0408     7.4300     6.9029     7.6076   116.8221     0.1172     2.4834     0.0195
  461.5000   -40.0484     7.4182     6.9573     7.6089   116.5172     0.1168     2.4883     0.0197
  462.0000   -40.1824     7.4186     6.9564     7.6099   112.6171     0.1177     2.4884     0.0199
  462.5000   -40.3129     7.4186     6.9568     7.6089   109.3393     0.1187     2.4867     0.0201
  463.0000   -40.4426     7.4186     6.9567     7.6079   106.0921     0.1160     2.4909     0.0203
  463.5000   -40.5747     7.4186     6.9567     7.6069   103.4329     0.1100     2.4950     0.0205
  464.0000   -40.5677     7.4186     6.9567     7.6059   104.2821     0.1080     2.4992     0.0193
  464.5000   -40.4925     7.4186     6.9567     7.6050   105.0893     0.1064     2.5034     0.0179
  465.0000   -40.4223     7.4186     6.9567     7.6040   106.2417     0.1064     2.5023     0.0165
  465.5000   -40.5054     7.4186     6.9567     7.6031   108.6845     0.1083     2.5002     0.0150
  466.0000   -40.7061     7.4186     6.9567     7.6021   109.1116     0.1103     2.4980     0.0136
  466.5000   -40.9041     7.4186     6.9568     7.6011   109.6845     0.1122     2.4959     0.0122
  467.0000   -41.0189     7.4190     6.9570     7.6002   111.0460     0.1141     2.4937     0.0108
