~VERSION INFORMATION
 VERS.                2.0:   CWLS LOG ASCII STANDARD - VERSION 2.0
 WRAP.                 NO:   ONE LINE PER DEPTH STEP
~WELL INFORMATION
#MNEM.UNIT      DATA TYPE    INFORMATION
#----------   ------------   ------------------------------
 STRT.F           33.5000:   START DEPTH
 STOP.F          692.0000:   STOP DEPTH
 STEP.F            0.5000:   STEP LENGTH
 NULL.          -999.2500:   NO VALUE
 COMP. FENIX & SCISSON INC:   COMPANY
 WELL.       NPR-3 #65-34:   WELL
 FLD .  TEAPOT DOME NPR-3:   FIELD
 LOC .      S34 T39N R78W:   LOCATION
 CNTY.            NATRONA:   COUNTY
 STAT.            WYOMING:   STATE
 CTRY. UNITED STATES OF AMERICA:   COUNTRY
 SRVC.           BIRDWELL:   SERVICE COMPANY
 DATE.        14-AUG-1978:   LOGDATE
 API .       490251070400:   API NUMBER
~CURVE INFORMATION
#MNEM.UNIT       API CODE    CURVE DESCRIPTION
#----------   ------------   ------------------------------
 DEPT.F                  :   
 CALD.IN     45 280 60 00:   CALIPER
 GRD .GAPI   45 310 01 00:   GAMMA RAY FROM DENSITY LOG
 RHOB.G/C3   45 350 01 00:   BULK DENSITY
 CORR.G/C3   45 356 01 00:   DENSITY CORRECTION
 DPHI.DEC    45 890 12 00:   DENSITY POROSITY SANDSTONE
 SPR .MV     05 010 01 00:   SPONTANEOUS POTENTIAL
 SN  .OHMM   05 040 16 00:   SHORT NORMAL 16'
 ILD .OHMM   05 120 46 00:   INDUCTION LOG DEEP RESISTIVITY
~PARAMETER INFORMATION
#MNEM.UNIT          VALUE    DESCRIPTION
#----------   ------------   ------------------------------
 PD  .                 GL:   PERMANENT DATUM
 EPD .F              5083:   ELEVATION PERMANENT DATUM
 LMF .                 KB:   LOG MEASURED FROM
 DAPD.F                 4:   FEET ABOVE PERMANENT DATUM
 DMF .                 KB:   DRILLING MEASURED FROM
 EKB .F              5087:   KELLING BUSHING
 EGL .F              5083:   GROUND LEVEL
 DATE.            8-14-78:   RUN DATE
 RUN .                  1:   RUN NUMBER
 DD  .F               675:   DEPTH DRILLER
 DL  .F               682:   DEPTH LOGGER
 BLI .F               676:   BOTTOM LOG INTERVAL
 TLI .F                50:   TOP LOG INTERVAL
 CS  .IN            8.625:   CASING SIZE
 CBD .F                40:   CASING BOTTOM DRILLER
 BS  .IN            7.875:   BIT SIZE
 BSD .F               675:   BIT SIZE AT DEPTH
 DFT .                KCL:   DRILLING FLUID TYPE
 DFD .                8.7:   DRILLING FLUID DENSITY
 DFV .                 31:   DRILLING FLUID VISCOSITY
 DFPH.                  9:   DRILLING FLUID PH
 TCS .HRS               2:   TIME CURCULATED STOPPED
 LUN .               3006:   LOGGING UNIT NUMBER
 LUL .               CASP:   LOGGING UNIT LOCATION
 ENGI.             MILLER:   RECORDING ENGINEER
 WITN.           MCGINLEY:   WITNESSED BY
 CLNT.            A2DTECH:   CLIENT CODE
 ORIG.           5" PRINT:   ORIGIN OF DATA
 UWI .       490251070400:   UNIQUE WELL ID
 DICO. A2D Technologies, Inc.:   DIGITIZING COMPANY
~OTHER INFORMATION
~A   DEPT     CALD         GRD      RHOB       CORR       DPHI        SPR         SN        ILD   
# ...
  438.5000     7.9335    97.1178     2.4111     0.0407     0.1601   -24.0483     4.3366     4.4914
  439.0000     7.9267    91.0373     2.4139     0.0398     0.1539   -24.0431     4.3288     4.5394
  439.5000     7.9200    84.9284     2.4337     0.0465     0.1473   -24.0378     4.4167     4.6051
  440.0000     7.9134    83.2027     2.4380     0.0532     0.1343   -24.0325     4.4825     4.7547
  440.5000     7.9067    85.9902     2.4603     0.0541     0.1206   -24.0273     4.6197     4.9159
  441.0000     7.9001    88.6553     2.4839     0.0512     0.1101   -24.0220     4.7725     5.0843
  441.5000     7.8935    91.3204     2.4899     0.0483     0.1127   -24.0168     4.9303     5.2597
  442.0000     7.8868    93.9711     2.4867     0.0423     0.1153   -24.0115     5.0934     5.4411
  442.5000     7.8802    95.7042     2.4850     0.0344     0.1141   -24.0062     5.2619     5.6287
  443.0000     7.8735    93.5359     2.4881     0.0278     0.1138   -24.0010     5.4509     5.8239
  443.5000     7.8669    90.8275     2.4823     0.0292     0.1214   -23.9957     5.5653     6.0318
  444.0000     7.8601    88.6041     2.4757     0.0325     0.1199   -23.9905     5.6037     6.0457
  444.5000     7.8541    86.7635     2.4765     0.0358     0.1190   -23.9852     5.6037     6.0574
  445.0000     7.8623    86.3020     2.4763     0.0368     0.1214   -23.9799     5.6037     6.0700
  445.5000     7.8710    89.8246     2.4760     0.0376     0.1226   -23.9747     5.6037     6.0827
  446.0000     7.8795    88.7426     2.4755     0.0445     0.1210   -23.9694     5.6041     6.0885
  446.5000     7.8881    87.6576     2.4818     0.0529     0.1148   -23.9641     5.5586     6.0045
  447.0000     7.8967    89.8621     2.4916     0.0615     0.1098   -23.9589     5.5010     5.9328
  447.5000     7.9053    94.2967     2.4951     0.0595     0.1102   -23.9536     5.4438     5.8620
  448.0000     7.9138    95.0587     2.4901     0.0536     0.1131   -23.9484     5.3872     5.7920
  448.5000     7.9224    93.5480     2.4853     0.0474     0.1174   -23.9431     5.3465     5.7229
  449.0000     7.9310    92.0581     2.4806     0.0413     0.1183   -23.9379     5.3180     5.6556
  449.5000     7.9396    91.6529     2.4784     0.0367     0.1194   -23.9326     5.2900     5.6679
  450.0000     7.9480    92.7080     2.4760     0.0339     0.1250   -23.9273     5.2615     5.6873
  450.5000     7.9513    93.5812     2.4689     0.0311     0.1310   -23.9221     5.2022     5.7084
  451.0000     7.9425    93.1620     2.4573     0.0296     0.1370   -23.9168     5.1042     5.6579
  451.5000     7.9338    92.7508     2.4457     0.0286     0.1409   -23.9115     5.0080     5.5491
  452.0000     7.9252    93.2037     2.4408     0.0315     0.1445   -23.9063     4.9136     5.2621
  452.5000     7.9163    94.1397     2.4396     0.0396     0.1430   -23.9017     4.8209     5.0447
  453.0000     7.9251    94.5363     2.4396     0.0476     0.1417   -23.8972     4.7301     4.9044
  453.5000     7.9413    93.1173     2.4397     0.0557     0.1424   -23.8467     4.6837     4.8335
  454.0000     7.9578    86.7503     2.4326     0.0638     0.1487   -23.4757     4.6559     4.8381
  454.5000     7.9738    87.0723     2.4212     0.0750     0.1565   -23.1055     4.6283     4.8573
  455.0000     7.9726    89.3685     2.4217     0.0982     0.1481   -22.8785     4.6174     4.8766
  455.5000     7.9767    88.4544     2.4696     0.1150     0.1384   -22.8746     4.6873     4.9106
  456.0000     7.9349    87.0851     2.4966     0.0805     0.1271   -22.8679     4.7908     5.0380
  456.5000     7.8947    85.7151     2.4576     0.0591     0.1144   -22.8620     4.9793     5.1687
  457.0000     7.8551    84.3376     2.4847     0.0582     0.1108   -22.8558     5.1601     5.4145
  457.5000     7.8580    84.1718     2.4987     0.0586     0.1094   -22.8496     5.3755     5.7171
  458.0000     7.8630    84.7796     2.5023     0.0591     0.1078   -22.8434     5.6095     6.0327
  458.5000     7.8677    85.5735     2.4998     0.0595     0.1066   -22.8372     5.8535     6.1631
  459.0000     7.8726    89.1497     2.4975     0.0598     0.1034   -22.8310     6.0890     6.2593
  459.5000     7.8738    89.3869     2.5008     0.0567     0.1055   -22.8248     6.1232     6.2551
  460.0000     7.8738    88.6596     2.4973     0.0534     0.1113   -22.8186     6.1449     6.2519
  460.5000     7.8738    88.0693     2.4896     0.0522     0.1118   -22.8124     6.1191     6.2485
  461.0000     7.8738    89.8184     2.4973     0.0529     0.1007   -22.8062     6.0997     6.2452
  461.5000     7.8738    91.6672     2.5070     0.0536     0.0974   -22.8000     6.0804     6.2419
  462.0000     7.8738    92.3915     2.5055     0.0511     0.1079   -22.7938     6.0611     6.2386
  462.5000     7.8738    92.2499     2.5008     0.0469     0.1126   -22.7877     6.0420     6.2353
  463.0000     7.8738    92.0051     2.4979     0.0440     0.1110   -22.7815     6.0228     6.2320
  463.5000     7.8738    92.2391     2.4950     0.0452     0.1118   -22.7753     6.0037     6.2287
  464.0000     7.8738    92.4699     2.4961     0.0464     0.1093   -22.7691     5.9847     6.2254
  464.5000     7.8738    92.2457     2.4981     0.0475     0.1070   -22.7629     5.9658     6.2221
  465.0000     7.8738    91.5114     2.4996     0.0463     0.1066   -22.7567     5.9469     6.2188
  465.5000     7.8738    91.6425     2.4994     0.0430     0.1096   -22.7505     5.9281     6.2155
  466.0000     7.8737    93.6534     2.4931     0.0397     0.1131   -22.7443     5.9093     6.2123
  466.5000     7.8736    94.2197     2.4859     0.0364     0.1166   -22.7381     5.8906     6.2091
  467.0000     7.8721    94.3240     2.4787     0.0337     0.1198   -22.7319     5.8724     6.2056
  467.5000     7.9280    94.3348     2.4729     0.0330     0.1226   -22.7257     5.7945     6.2024
  468.0000     7.9916    96.6842     2.4707     0.0322     0.1238   -22.7195     5.7042     6.1356
  468.5000     8.0543    99.3218     2.4685     0.0314     0.1266   -22.7134     5.6012     6.0323
  469.0000     8.0869   100.3502     2.4663     0.0306     0.1266   -22.7072     5.4888     5.9225
  469.5000     8.0654    98.2558     2.4621     0.0300     0.1293   -22.7010     5.3780     5.6899
  470.0000     8.0455    95.7646     2.4464     0.0310     0.1447   -22.6948     5.2695     5.4471
  470.5000     8.0638    94.6942     2.4253     0.0320     0.1593   -22.6885     5.1702     5.3499
  471.0000     8.1261    96.3279     2.4034     0.0330     0.1738   -22.6815     5.0833     5.3503
  471.5000     8.1884    95.3564     2.3698     0.0355     0.1887   -22.7098     4.9963     5.3514
  472.0000     8.2029    94.4313     2.3625     0.0508     0.1908   -22.7434     4.8728     5.3365
  472.5000     8.1376    94.2611     2.3817     0.0893     0.1354   -22.7771     4.7316     5.1973
  473.0000     8.0726    93.6867     2.4496     0.0794     0.1176   -22.8106     4.6160     5.0617
  473.5000     8.0139    92.8948     2.4774     0.0698     0.1226   -22.8443     4.6161     4.8802
  474.0000     7.9985    92.2568     2.4757     0.0607     0.1265   -22.8781     4.6682     4.8911
  474.5000     7.9934    92.9061     2.4533     0.0488     0.1431   -22.8832     4.7203     4.9112
  475.0000     7.9939    93.7152     2.4281     0.0364     0.1609   -22.8831     4.7590     4.9308
  475.5000     7.9974    95.8438     2.4083     0.0380     0.1653   -22.8831     4.8011     4.9504
  476.0000     8.0153    97.5454     2.4076     0.0575     0.1426   -22.8831     4.8436     4.9701
  476.5000     8.0337    95.1717     2.4637     0.0774     0.1230   -22.8831     4.8865     4.9898
  477.0000     8.0114    93.5310     2.4849     0.0625     0.1264   -22.8831     4.9297     5.0097
  477.5000     7.9795    93.1223     2.4667     0.0379     0.1288   -22.8830     4.9708     5.1135
  478.0000     7.9532    91.8963     2.4647     0.0319     0.1258   -22.8829     5.0267     5.3372
  478.5000     7.9539    90.7636     2.4670     0.0319     0.1253   -22.8870     5.1399     5.5707
