~VERSION INFORMATION
 VERS.                2.0:   CWLS LOG ASCII STANDARD - VERSION 2.0
 WRAP.                 NO:   ONE LINE PER DEPTH STEP
~WELL INFORMATION
#MNEM.UNIT      DATA TYPE    INFORMATION
#----------   ------------   ------------------------------
 STRT.F            0.0000:   START DEPTH
 STOP.F         4535.0000:   STOP DEPTH
 STEP.F            0.5000:   STEP LENGTH
 NULL.          -999.2500:   NO VALUE
 COMP.   FLUOR DANIEL INC:   COMPANY
 WELL.     56 X 15 #56-15:   WELL
 FLD .             TEAPOT:   FIELD
 LOC .      S15 T38N R78W:   LOCATION
 CNTY.            NATRONA:   COUNTY
 STAT.            WYOMING:   STATE
 CTRY. UNITED STATES OF AMERICA:   COUNTRY
 SRVC.      Dresser Atlas:   SERVICE COMPANY
 DATE.        03-MAY-1984:   LOGDATE
 API .       490252268500:   API NUMBER
~CURVE INFORMATION
#MNEM.UNIT       API CODE    CURVE DESCRIPTION
#----------   ------------   ------------------------------
 DEPT.F                  :   
 CNC .DEC    42 890 03 00:   NEUTRON POROSITY SANDSTONE
 PORD.DEC    45 890 12 00:   POROSITY DENSITY SANDSTONE
 RHOB.G/C3   45 350 01 00:   BULK DENSITY
 CORR.G/C3   45 356 01 00:   DENSITY CORRECTION
 DT  .US/F   60 520 00 00:   INTERVAL TRANSIT TIME
 RILD.OHMM   07 120 46 00:   INDUCTION LOG DEEP RESISTIVITY
 RILM.OHMM   07 120 44 00:   INDUCTION LOG MEDIUM RESISTIVITY
 CALR.IN     07 280 01 00:   CALIPER FROM RESISTIVITY
 GRR .GAPI   07 310 01 00:   GAMMA RAY FROM RESISTIVITY LOG
 SPR .MV     07 010 01 00:   SPONTANEOUS POTENTIAL
 RFOC.OHMM   07 220 04 00:   RESISTIVITY FOCUSED LOG
~PARAMETER INFORMATION
#MNEM.UNIT          VALUE    DESCRIPTION
#----------   ------------   ------------------------------
 PD  .                 GL:   PERMANENT DATUM
 EPD .F              5326:   ELEVATION PERMANENT DATUM
 LMF .                 KB:   LOG MEASURED FROM
 DAPD.F                12:   FEET ABOVE PERMANENT DATUM
 DMF .                 KB:   DRILLING MEASURED FROM
 EKB .F              5338:   KELLING BUSHING
 EDF .F              5337:   DRILLING FLOOR
 EGL .F              5326:   GROUND LEVEL
 DATE.        03-MAY-1984:   RUN DATE
 RUN .                  1:   RUN NUMBER
 DD  .F              4547:   DEPTH DRILLER
 DL  .F              4539:   DEPTH LOGGER
 BLI .F              4536:   BOTTOM LOG INTERVAL
 TLI .F              1021:   TOP LOG INTERVAL
 CS  .IN            8.625:   CASING SIZE
 CBD .F              1027:   CASING BOTTOM DRILLER
 CBL .F              1021:   CASING BOTTOM LOGGER
 BS  .IN            7.875:   BIT SIZE
 BSD .F              4547:   BIT SIZE AT DEPTH
 DFT .            KCL GEL:   DRILLING FLUID TYPE
 DFD .                9.1:   DRILLING FLUID DENSITY
 DFV .                 44:   DRILLING FLUID VISCOSITY
 DFPH.                  8:   DRILLING FLUID PH
 DFL .               14.5:   DRILLING FLUID LOSS
 MSS .            MUDTANK:   MUD SAMPLE SOURCE
 RMS .OHMM           0.56:   RESISTIVITY MUD SAMPLE
 MST .F                73:   MUD SAMPLE TEMPERATURE
 RMF .OHMM           0.42:   RESISTIVITY MUD FILTRATE SAMPLE
 MFST.F                73:   MUD FILTRATE SAMPLE TEMPERATURE
 RMC .OHMM           0.71:   RESISTIVITY MUD CAKE
 MCST.F                73:   MUD CAKE SAMPLE TEMPERATURE
 MFSS.               MEAS:   MUD FILTRATE SAMPLE SOURCE
 MCSS.               CALC:   MUD CAKE SAMPLE SOURCE
 RMB .OHMM           0.29:   RESISTIVITY MUD AT BHT
 BHT .F               141:   BOTTOM HOLE TEMPERATURE
 TCS .HRS             3.5:   TIME CURCULATED STOPPED
 MRT .F               125:   MAXIMUM RECORDED TEMPERATURE
 LUN .               6302:   LOGGING UNIT NUMBER
 LUL .               CODY:   LOGGING UNIT LOCATION
 ENGI.              GETTY:   RECORDING ENGINEER
 WITN.           JENNINGS:   WITNESSED BY
 CLNT.            A2DTECH:   CLIENT CODE
 ORIG.           5" PRINT:   ORIGIN OF DATA
 UWI .       490252268500:   UNIQUE WELL ID
 DICO. A2D Technologies, Inc.:   DIGITIZING COMPANY
~OTHER INFORMATION
~A    DEPT     CNC       PORD       RHOB       CORR         DT       RILD       RILM       CALR         GRR       SPR       RFOC   
# ...
 4056.5000     0.2387     0.1541     2.3959    -0.0187    88.3894    11.9318    12.9553     7.8754   121.0599   -43.8690    12.6426
 4057.0000     0.2393     0.1593     2.3891    -0.0217    87.4555    10.3174    12.4262     7.8760   117.1589   -42.3654    13.2743
 4057.5000     0.2505     0.1710     2.3808    -0.0292    86.5835     8.2661    11.2409     7.8766   118.6773   -40.5619    13.8461
 4058.0000     0.2610     0.1928     2.3522    -0.0639    85.9787     6.5314     9.2930     7.9073   121.9972   -38.7585    14.3421
 4058.5000     0.2381     0.2347     2.2912    -0.0880    85.3739     5.6870     7.2916     7.9530   127.5194   -37.2549    14.7527
 4059.0000     0.2375     0.3175     2.1684    -0.0668    85.6741     5.7282     5.7610     8.0289   141.4999   -35.7210    13.6682
 4059.5000     0.2508     0.3250     2.1149     0.0704    88.2367     5.8101     5.6825     8.0898   154.8172   -34.0966    11.4857
 4060.0000     0.2475     0.2839     2.1209     0.0478   101.9608     5.9339     6.3510     8.0432   158.7357   -33.0427     3.9538
 4060.5000     0.2182     0.1858     2.2444     0.0267   105.2964     6.1024     7.0978     7.9706   143.1112   -32.2887     3.8464
 4061.0000     0.2004     0.1454     2.3777     0.0629   104.0691     6.6338     7.7154     7.9260   120.8672   -32.7342     4.3322
 4061.5000     0.2097     0.1429     2.4133     0.0660    98.6378     7.8374     8.6451     7.9114   105.2398   -33.6293     6.7710
 4062.0000     0.2164     0.1420     2.4161     0.0449    89.4040     9.0059     9.6369     7.9121    96.8304   -34.5245    13.6970
 4062.5000     0.2248     0.1445     2.4145     0.0072    81.1385    10.0655    10.3311     7.9127   111.2782   -34.9699    16.6555
 4063.0000     0.2321     0.1454     2.4108     0.0025    80.9866    10.9792    10.9227     7.9133   122.9362   -35.4255    17.6168
 4063.5000     0.2487     0.1411     2.4077     0.0042    83.2472    11.8957    11.5482     7.9139   130.5526   -36.8280    17.0190
 4064.0000     0.2580     0.1380     2.4190     0.0025    87.6198    11.9817    11.8755     7.9145   131.7644   -39.7533    13.4887
 4064.5000     0.2526     0.1396     2.4250    -0.0063    89.2774    11.9849    11.8779     7.9152   126.6662   -42.8974    11.7701
 4065.0000     0.2447     0.1444     2.4167    -0.0124    89.7285    11.8222    11.8803     7.9005   121.5651   -45.5917    11.8564
 4065.5000     0.2429     0.1481     2.4045    -0.0048    89.5716    11.6625    11.5576     7.9163   119.4686   -46.7867    12.5408
 4066.0000     0.2519     0.1523     2.3986     0.0224    89.1222    11.5057    11.3084     7.9169   125.1975   -47.5319    12.9901
 4066.5000     0.2658     0.1517     2.4001     0.0556    89.5729    11.3503    11.2459     7.9175   139.0437   -46.9279    12.9944
 4067.0000     0.2734     0.1520     2.3971     0.0601    90.5518    11.0366    11.4058     7.9332   148.7523   -45.5742    12.6413
 4067.5000     0.2740     0.1538     2.3910     0.0571    91.3799    10.5230    11.3287     7.9488   149.8941   -44.3577    11.8764
 4068.0000     0.2736     0.1581     2.3858     0.0244    91.8310    10.0968    10.9454     7.9494   144.7960   -43.6153    12.2394
 4068.5000     0.2739     0.1562     2.3903    -0.0032    91.6787     9.6878    10.4288     7.9501   143.9054   -43.4610    12.5672
 4069.0000     0.2736     0.1514     2.4000     0.0013    91.2247     9.1674     9.8679     7.9355   144.2178   -43.1568    12.4841
 4069.5000     0.2715     0.1477     2.4076     0.0134    90.9216     8.7961     9.4004     7.9362   145.1318   -42.7027    12.0605
 4070.0000     0.2655     0.1453     2.4105     0.0330    91.0706     8.5578     9.0041     7.9216   147.2487   -42.2485    11.2520
 4070.5000     0.2610     0.1438     2.4120     0.0421    92.2758     8.3838     8.6548     7.9073   151.7717   -41.7944    10.2091
 4071.0000     0.2456     0.1429     2.4128     0.0406    93.3301     8.3281     8.5968     7.8928   155.4040   -41.3402     9.1984
 4071.5000     0.2374     0.1408     2.4143     0.0406    94.0828     8.3398     8.7797     7.8934   155.7048   -41.1859     8.8863
 4072.0000     0.2371     0.1335     2.4240     0.0375    93.9305     8.5084     9.0285     7.8789   141.2833   -41.1814     9.2698
 4072.5000     0.2456     0.1239     2.4466     0.0316    93.0241     8.6896     9.1565     7.8796   138.8890   -41.3271    10.4398
 4073.0000     0.2489     0.1236     2.4467     0.0331    91.0618     8.9364     9.2863     7.8953   138.5970   -41.7714    11.0424
 4073.5000     0.2410     0.1248     2.4436     0.0392    89.3437     9.0637     9.4179     7.8959   139.8146   -42.3668    11.3585
 4074.0000     0.2398     0.1254     2.4428     0.0422    88.2682     9.1928     9.4915     7.8964   144.6383   -42.8132    11.5219
 4074.5000     0.2471     0.1257     2.4435     0.0362    88.5684     9.3237     9.6872     7.8970   155.4771   -43.4615    10.6749
 4075.0000     0.2489     0.1238     2.4480     0.0302    89.0948     9.3911     9.8245     7.8976   160.3008   -44.0028    10.0290
 4075.5000     0.2486     0.1235     2.4488     0.0241    89.4705     9.3937     9.8265     7.8982   159.6388   -44.5981     9.9627
 4076.0000     0.2470     0.1260     2.4435     0.0225    89.3936     9.3968     9.8969     7.8988   151.6052   -45.1935    10.2487
 4076.5000     0.2389     0.1250     2.4427     0.0121    88.6380     9.2699     9.8989     7.8995   142.8951   -45.6378    10.6902
 4077.0000     0.2344     0.1232     2.4480     0.0061    87.4268     9.0187     9.9009     7.9001   136.8917   -45.7844    11.3863
 4077.5000     0.2383     0.1193     2.4547     0.0061    86.6514     8.7743     9.6989     7.9007   138.7079   -45.6290    11.9599
 4078.0000     0.2492     0.1175     2.4555     0.0122    85.9937     8.4775     9.2343     7.9013   143.2309   -45.1749    12.3023
 4078.5000     0.2470     0.1250     2.4483     0.0438    85.9168     8.1341     8.6733     7.9169   145.6486   -44.4209    11.6388
 4079.0000     0.2449     0.1341     2.4178     0.0846    86.5187     7.9137     8.2743     7.9326   148.3670   -43.8168    10.3947
 4079.5000     0.2440     0.1453     2.4072     0.1087    88.3272     7.7529     8.1052     7.9181   151.4831   -43.3627     8.7516
 4080.0000     0.2374     0.1471     2.4110     0.1118    89.8340     7.9185     8.1636     7.8876   155.0099   -43.3583     7.9960
 4080.5000     0.2328     0.1359     2.4245     0.1042    90.4359     8.2001     8.3370     7.8741   149.6080   -43.8211     7.8872
 4081.0000     0.2347     0.1286     2.4418     0.0545    89.8037     8.7306     8.7535     7.8899   136.6873   -44.3980     8.8218
 4081.5000     0.2334     0.1238     2.4524     0.0409    87.5668     9.2312     9.3191     7.9055   136.9998   -44.8434    11.1078
 4082.0000     0.2304     0.1205     2.4561     0.0319    85.5292     9.8285     9.9231     7.9061   138.2145   -44.9900    11.9973
 4082.5000     0.2265     0.1193     2.4545     0.0168    85.1506    10.4643    10.5091     7.9067   135.8201   -45.1356    11.6712
 4083.0000     0.2217     0.1214     2.4501     0.0349    85.3004    11.2188    11.1680     7.9073   133.4256   -45.4310    12.1124
 4083.5000     0.2183     0.1235     2.4455     0.0787    85.4494    11.8688    11.4844     7.9078   138.5866   -45.8754    12.4365
 4084.0000     0.2180     0.1241     2.4455     0.0802    85.3725    12.4695    11.8921     7.8783   143.5661   -46.6206    12.1832
 4084.5000     0.2162     0.1178     2.4508     0.0440    85.2956    12.8994    12.3142     7.8638   145.4909   -47.2309    12.1016
 4085.0000     0.2118     0.1102     2.4711     0.0456    85.0604    13.1741    12.7513     7.8646   140.6935   -47.9861    12.8012
 4085.5000     0.2048     0.1002     2.4861     0.0516    84.6890    13.4547    13.2039     7.8651   134.0886   -48.7054    14.0204
 4086.0000     0.1966     0.0963     2.4936     0.0546    83.4055    13.5520    13.5781     7.8808   128.0853   -49.0019    14.9334
 4086.5000     0.1942     0.0942     2.4967     0.0577    82.5745    13.6500    13.7706     7.8814   122.0819   -48.8465    15.3682
