~VERSION INFORMATION
 VERS.                2.0:   CWLS LOG ASCII STANDARD - VERSION 2.0
 WRAP.                 NO:   ONE LINE PER DEPTH STEP
~WELL INFORMATION
#MNEM.UNIT      DATA TYPE    INFORMATION
#----------   ------------   ------------------------------
 STRT.F           10.5000:   START DEPTH
 STOP.F          604.0000:   STOP DEPTH
 STEP.F            0.5000:   STEP LENGTH
 NULL.          -999.2500:   NO VALUE
 COMP. FENIX & SCISSON INC:   COMPANY
 WELL.  NPR 3 #87 S 10-10:   WELL
 FLD .             TEAPOT:   FIELD
 LOC .      S10 T38N R78W:   LOCATION
 CNTY.            NATRONA:   COUNTY
 STAT.            WYOMING:   STATE
 CTRY. UNITED STATES OF AMERICA:   COUNTRY
 SRVC.           BIRDWELL:   SERVICE COMPANY
 DATE.        11-DEC-1978:   LOGDATE
 API .       490251075400:   API NUMBER
~CURVE INFORMATION
#MNEM.UNIT       API CODE    CURVE DESCRIPTION
#----------   ------------   ------------------------------
 DEPT.F                  :   
 SPR .MV     05 010 01 00:   SPONTANEOUS POTENTIAL FROM RES.
 SN  .OHMM   05 040 16 00:   SHORT NORMAL 16"
 IL  .OHMM   05 120 00 00:   INDUCTION LOG
 CALD.IN     45 280 60 00:   CALIPER
 GRD .GAPI   45 310 01 00:   GAMMA RAY FROM DENSITY LOG
 RHOB.G/C3   45 350 01 00:   BULK DENSITY
 DPHI.DEC    45 890 12 00:   DENSITY POROSITY SANDSTONE
 CORR.G/C3   45 356 01 00:   DENSITY CORRECTION
~PARAMETER INFORMATION
#MNEM.UNIT          VALUE    DESCRIPTION
#----------   ------------   ------------------------------
 PD  .                 GL:   PERMANENT DATUM
 LMF .                 KB:   LOG MEASURED FROM
 DAPD.F                 4:   FEET ABOVE PERMANENT DATUM
 DMF .                 KB:   DRILLING MEASURED FROM
 DATE.           12-11-78:   RUN DATE
 RUN .                  1:   RUN NUMBER
 DD  .F               600:   DEPTH DRILLER
 DL  .F               602:   DEPTH LOGGER
 BLI .F               596:   BOTTOM LOG INTERVAL
 TLI .F                60:   TOP LOG INTERVAL
 CBD .F                40:   CASING BOTTOM DRILLER
 CBL .F                35:   CASING BOTTOM LOGGER
 BS  .IN            7.875:   BIT SIZE
 BSD .F               600:   BIT SIZE AT DEPTH
 DFT .                KCC:   DRILLING FLUID TYPE
 DFD .                8.7:   DRILLING FLUID DENSITY
 DFV .                 39:   DRILLING FLUID VISCOSITY
 DFPH.               10.5:   DRILLING FLUID PH
 DFL .                 10:   DRILLING FLUID LOSS
 MSS .           FLOWLINE:   MUD SAMPLE SOURCE
 RMS .OHMM              1:   RESISTIVITY MUD SAMPLE
 MST .F                62:   MUD SAMPLE TEMPERATURE
 RMF .OHMM            .85:   RESISTIVITY MUD FILTRATE SAMPLE
 MFST.F                58:   MUD FILTRATE SAMPLE TEMPERATURE
 RMC .OHMM             .8:   RESISTIVITY MUD CAKE
 MCST.F                66:   MUD CAKE SAMPLE TEMPERATURE
 MFSS.           MEASURED:   MUD FILTRATE SAMPLE SOURCE
 MCSS.           MEASURED:   MUD CAKE SAMPLE SOURCE
 BHT .F                72:   BOTTOM HOLE TEMPERATURE
 TCS .HRS               3:   TIME CURCULATED STOPPED
 MRT .F                72:   MAXIMUM RECORDED TEMPERATURE
 LUN .               2958:   LOGGING UNIT NUMBER
 LUL .             CASPER:   LOGGING UNIT LOCATION
 ENGI.            ROLLINS:   RECORDING ENGINEER
 WITN.           DINSMORE:   WITNESSED BY
 CLNT.            A2DTECH:   CLIENT CODE
 ORIG.       2", 5" PRINT:   ORIGIN OF DATA
 UWI .       490251075400:   UNIQUE WELL ID
 DICO. A2D Technologies, Inc.:   DIGITIZING COMPANY
~OTHER INFORMATION
~A   DEPT      SPR         SN         IL       CALD        GRD       RHOB       DPHI       CORR   
# ...
  334.5000   -19.6050     5.0670     5.4140     8.5740   116.6600     2.4650     0.1350     0.0090
  335.0000   -19.2160     5.5480     5.7820     8.5740   119.3870     2.4660     0.1340     0.0040
  335.5000   -18.9940     6.0300     6.0530     8.5740   122.5380     2.4640     0.1340    -0.0010
  336.0000   -18.9210     6.7620     5.9050     8.5730   124.2670     2.4580     0.1360    -0.0020
  336.5000   -18.9600     6.7460     5.7870     8.5730   123.6520     2.4460     0.1460    -0.0020
  337.0000   -18.9990     6.7110     5.6400     8.5720   124.4570     2.4220     0.1620     0.0000
  337.5000   -19.0380     6.6770     5.4620     8.5720   125.9200     2.3980     0.1790     0.0050
  338.0000   -19.0790     6.6420     5.2840     8.5720   127.1390     2.3740     0.1930     0.0090
  338.5000   -18.9120     6.6080     5.1280     8.5710   125.8570     2.3700     0.1920     0.0110
  339.0000   -18.5490     6.5440     5.1360     8.5710   123.8050     2.3910     0.1820     0.0130
  339.5000   -18.3380     6.2730     5.1450     8.5700   121.2770     2.4090     0.1710     0.0120
  340.0000   -18.6320     6.0030     5.1530     8.5700   118.7500     2.4260     0.1610     0.0100
  340.5000   -18.9490     5.7320     5.1620     8.5700   116.3650     2.4420     0.1510     0.0090
  341.0000   -19.4060     5.4610     5.1710     8.5690   117.0540     2.4470     0.1480     0.0080
  341.5000   -19.7020     5.0800     5.2960     8.5690   119.7830     2.4510     0.1460     0.0080
  342.0000   -19.6810     5.1700     5.5150     8.5680   123.6430     2.4580     0.1400     0.0070
  342.5000   -19.6660     5.4210     5.7330     8.5680   125.8310     2.4670     0.1320     0.0060
  343.0000   -19.6510     5.6720     5.9800     8.5680   123.4380     2.4760     0.1280     0.0050
  343.5000   -19.6350     5.9230     6.2350     8.5670   120.1970     2.4750     0.1280     0.0050
  344.0000   -19.6200     6.1740     6.4900     8.5670   118.6280     2.4720     0.1300     0.0040
  344.5000   -19.6040     6.5360     6.7450     8.5660   127.1770     2.4710     0.1300     0.0030
  345.0000   -19.5890     6.9250     7.0000     8.5660   125.9150     2.4720     0.1300     0.0020
  345.5000   -19.5730     7.3140     7.1470     8.5660   122.3510     2.4730     0.1300     0.0020
  346.0000   -19.5580     7.7030     7.1470     8.5650   121.0540     2.4730     0.1300     0.0040
  346.5000   -19.5420     8.0320     7.1470     8.5650   122.7500     2.4710     0.1280     0.0090
  347.0000   -19.5260     8.3500     7.1470     8.5640   122.7600     2.4700     0.1280     0.0080
  347.5000   -19.5090     8.8370     7.1470     8.5640   123.0080     2.4730     0.1290     0.0070
  348.0000   -19.4460     8.7990     7.1470     8.5640   123.9860     2.4750     0.1290     0.0050
  348.5000   -19.2220     8.7400     7.1210     8.5630   124.9360     2.4730     0.1300     0.0040
  349.0000   -19.0010     8.7050     7.0910     8.5630   125.8820     2.4680     0.1320     0.0040
  349.5000   -18.7820     8.6700     7.0610     8.5620   126.8650     2.4560     0.1380     0.0050
  350.0000   -18.5620     8.6350     7.0310     8.5620   126.4510     2.4510     0.1440     0.0060
  350.5000   -18.3410     8.5960     6.9950     8.5620   123.2940     2.4480     0.1480     0.0060
  351.0000   -18.1130     8.4630     6.9530     8.5610   119.2960     2.4480     0.1480     0.0070
  351.5000   -18.1000     8.3150     6.9100     8.5650   115.1550     2.4510     0.1430     0.0080
  352.0000   -18.1000     8.1670     6.7710     8.5730   115.1880     2.4510     0.1420     0.0090
  352.5000   -18.1010     8.0200     6.5340     8.5810   119.5150     2.4430     0.1440     0.0090
  353.0000   -18.1060     7.8720     6.2970     8.5890   122.7460     2.4270     0.1520     0.0090
  353.5000   -18.2130     7.6890     5.9650     8.5960   124.7750     2.4120     0.1640     0.0090
  354.0000   -18.6910     7.4180     5.5890     8.6040   124.9570     2.3970     0.1760     0.0040
  354.5000   -19.4010     7.1470     5.3200     8.6130   122.8670     2.3840     0.1860    -0.0040
  355.0000   -20.1150     6.8820     5.3330     8.6190   119.2360     2.3900     0.1880    -0.0090
  355.5000   -20.2280     6.6300     5.3430     8.5420   118.0670     2.4040     0.1750    -0.0080
  356.0000   -20.1460     6.3980     5.3530     8.5210   118.3790     2.4200     0.1620    -0.0080
  356.5000   -20.0590     5.9350     5.3640     8.5190   120.8500     2.4430     0.1490    -0.0020
  357.0000   -19.9710     5.6220     5.4240     8.5170   122.5140     2.4530     0.1440     0.0040
  357.5000   -19.8820     5.7350     5.5420     8.5150   123.5940     2.4580     0.1400     0.0090
  358.0000   -19.7930     5.9740     5.6590     8.5130   127.2300     2.4640     0.1380     0.0100
  358.5000   -19.7040     6.4200     6.1190     8.5110   126.1050     2.4660     0.1360     0.0100
  359.0000   -19.6150     6.9690     6.6310     8.5100   123.3890     2.4690     0.1340     0.0100
  359.5000   -19.5250     7.4850     7.1430     8.5080   122.0170     2.4760     0.1310     0.0100
  360.0000   -19.4430     7.9110     7.3480     8.5060   121.3230     2.4830     0.1250     0.0110
  360.5000   -19.3610     8.2500     7.3520     8.5050   121.5720     2.4870     0.1210     0.0110
  361.0000   -19.2790     8.4100     7.3570     8.5030   124.1180     2.4840     0.1230     0.0110
  361.5000   -19.1970     8.5690     7.3610     8.5010   125.2740     2.4810     0.1250     0.0110
  362.0000   -19.1150     8.7290     7.3660     8.4990   123.4110     2.4820     0.1240     0.0110
  362.5000   -19.0330     8.8890     7.3700     8.4980   122.0020     2.4820     0.1240     0.0080
  363.0000   -18.9510     9.0490     7.3740     8.4960   124.9480     2.4830     0.1230     0.0050
  363.5000   -18.8690     9.1740     7.3790     8.4940   124.6600     2.4790     0.1260     0.0030
  364.0000   -18.7870     9.1920     7.3830     8.4920   124.3990     2.4750     0.1290     0.0000
  364.5000   -18.7060     9.2090     7.3870     8.4910   126.0430     2.4720     0.1300     0.0000
  365.0000   -18.6250     9.2270     7.3920     8.4890   125.9250     2.4710     0.1300     0.0010
  365.5000   -18.5420     9.2550     7.3960     8.4870   125.7070     2.4700     0.1320     0.0020
  366.0000   -18.6230     9.2330     7.4000     8.4860   125.3160     2.4690     0.1330     0.0030
  366.5000   -18.8650     9.1830     7.4050     8.4840   123.9240     2.4710     0.1340     0.0040
  367.0000   -19.1070     9.1340     7.4090     8.4820   121.6250     2.4720     0.1320     0.0050
  367.5000   -19.3480     9.0850     7.4130     8.4800   121.1320     2.4730     0.1310     0.0060
  368.0000   -19.5910     9.0850     7.4160     8.4770   122.9690     2.4750     0.1290     0.0070
  368.5000   -19.8350     9.0850     7.4160     8.4750   127.5640     2.4770     0.1290     0.0070
  369.0000   -20.0810     9.0850     7.4160     8.4720   129.1620     2.4790     0.1260     0.0060
  369.5000   -19.7490     9.1180     7.4160     8.4690   130.1070     2.4790     0.1250     0.0030
  370.0000   -19.3630     9.1950     7.4160     8.4670   131.9460     2.4800     0.1250     0.0010
  370.5000   -18.9770     9.2550     7.4160     8.4640   135.3150     2.4810     0.1260    -0.0010
  371.0000   -18.7220     9.1980     7.4160     8.4610   136.6270     2.4780     0.1260    -0.0020
  371.5000   -18.8300     9.1510     7.4160     8.4590   134.6240     2.4730     0.1290    -0.0020
  372.0000   -18.9310     9.1040     7.3370     8.4560   129.8540     2.4640     0.1380    -0.0010
  372.5000   -19.0300     9.0580     7.2080     8.4530   126.4830     2.4550     0.1450     0.0000
  373.0000   -19.1300     9.0110     7.0800     8.4510   126.2680     2.4490     0.1450     0.0010
  373.5000   -19.2300     8.8850     6.9520     8.4480   129.5440     2.4530     0.1440     0.0010
  374.0000   -19.3300     8.7400     6.9520     8.4450   133.3670     2.4570     0.1440     0.0010
  374.5000   -19.4290     8.5960     6.9520     8.4430   131.9770     2.4600     0.1370     0.0000
