~VERSION INFORMATION
 VERS.                2.0:   CWLS LOG ASCII STANDARD - VERSION 2.0
 WRAP.                 NO:   ONE LINE PER DEPTH STEP
~WELL INFORMATION
#MNEM.UNIT      DATA TYPE    INFORMATION
#----------   ------------   ------------------------------
 STRT.F           10.0000:   START DEPTH
 STOP.F          580.0000:   STOP DEPTH
 STEP.F            0.5000:   STEP LENGTH
 NULL.          -999.2500:   NO VALUE
 COMP. FENIX & SCISSON INC:   COMPANY
 WELL.     NPR 3 #28-S-34:   WELL
 FLD .        TEAPOT DOME:   FIELD
 LOC .      S34 T39N R78W:   LOCATION
 CNTY.            NATRONA:   COUNTY
 STAT.            WYOMING:   STATE
 CTRY. UNITED STATES OF AMERICA:   COUNTRY
 SRVC.           BIRDWELL:   SERVICE COMPANY
 DATE.        05-AUG-1978:   LOGDATE
 API .       490251068200:   API NUMBER
~CURVE INFORMATION
#MNEM.UNIT       API CODE    CURVE DESCRIPTION
#----------   ------------   ------------------------------
 DEPT.F                  :   
 SPR .MV     05 010 01 00:   SPONTANEOUS POTENTIAL FROM RES.
 IL  .OHMM   05 120 00 00:   INDUCTION LOG
 SN  .OHMM   05 040 16 00:   SHORT NORMAL 16"
 GRD .GAPI   45 310 01 00:   GAMMA RAY FROM DENSITY LOG
 CALD.IN     45 280 60 00:   CALIPER
 RHOB.G/C3   45 350 01 00:   BULK DENSITY
 DPHI.DEC    45 890 12 00:   DENSITY POROSITY SANDSTONE
 CORR.G/C3   45 356 01 00:   DENSITY CORRECTION
~PARAMETER INFORMATION
#MNEM.UNIT          VALUE    DESCRIPTION
#----------   ------------   ------------------------------
 PD  .                 GL:   PERMANENT DATUM
 EPD .F              5191:   ELEVATION PERMANENT DATUM
 LMF .                 KB:   LOG MEASURED FROM
 DAPD.F                 4:   FEET ABOVE PERMANENT DATUM
 DMF .                 KB:   DRILLING MEASURED FROM
 EKB .F              5195:   KELLING BUSHING
 EGL .F              5191:   GROUND LEVEL
 DATE.             8-5-78:   RUN DATE
 RUN .                  1:   RUN NUMBER
 DD  .F               570:   DEPTH DRILLER
 DL  .F               586:   DEPTH LOGGER
 BLI .F               580:   BOTTOM LOG INTERVAL
 TLI .F                30:   TOP LOG INTERVAL
 CS  .IN            8.625:   CASING SIZE
 BS  .IN            7.875:   BIT SIZE
 BSD .F               570:   BIT SIZE AT DEPTH
 DFT .                KCL:   DRILLING FLUID TYPE
 DFD .                8.6:   DRILLING FLUID DENSITY
 DFV .                 32:   DRILLING FLUID VISCOSITY
 DFPH.                9.5:   DRILLING FLUID PH
 MSS .          FLOW LINE:   MUD SAMPLE SOURCE
 RMS .OHMM             .9:   RESISTIVITY MUD SAMPLE
 MST .F                74:   MUD SAMPLE TEMPERATURE
 RMF .OHMM            .17:   RESISTIVITY MUD FILTRATE SAMPLE
 MFST.F                79:   MUD FILTRATE SAMPLE TEMPERATURE
 RMC .OHMM            .42:   RESISTIVITY MUD CAKE
 MCST.F                80:   MUD CAKE SAMPLE TEMPERATURE
 MFSS.               MEAS:   MUD FILTRATE SAMPLE SOURCE
 TCS .HRS               3:   TIME CURCULATED STOPPED
 LUN .               3006:   LOGGING UNIT NUMBER
 LUL .               CASP:   LOGGING UNIT LOCATION
 ENGI.             MILLER:   RECORDING ENGINEER
 WITN.           MCGINLEY:   WITNESSED BY
 CLNT.            A2DTECH:   CLIENT CODE
 ORIG.           5" PRINT:   ORIGIN OF DATA
 UWI .       490251068200:   UNIQUE WELL ID
 DICO. A2D Technologies, Inc.:   DIGITIZING COMPANY
~OTHER INFORMATION
~A   DEPT      SPR         IL         SN         GRD      CALD       RHOB       DPHI       CORR   
# ...
   50.5000   -16.8860     5.4130     4.8300    96.0770     8.1310     2.4340     0.1530     0.0230
   51.0000   -16.6110     5.2640     4.7710    94.8910     8.1040     2.4240     0.1570     0.0200
   51.5000   -16.3480     5.1150     4.7120    93.3470     8.0780     2.4140     0.1530     0.0250
   52.0000   -16.0870     5.0150     4.6540    93.0540     8.0510     2.4180     0.1480     0.0330
   52.5000   -15.8250     5.0560     4.5950    93.9180     8.0490     2.4280     0.1420     0.0370
   53.0000   -15.5590     5.1340     4.5320    91.3670     8.0570     2.4380     0.1360     0.0310
   53.5000   -15.5950     5.1640     4.5620    88.4760     8.0640     2.4480     0.1310     0.0330
   54.0000   -15.7530     5.1760     4.6020    86.1280     8.0710     2.4580     0.1300     0.0380
   54.5000   -15.9130     5.1880     4.6410    86.7020     8.0780     2.4610     0.1300     0.0440
   55.0000   -16.0730     5.1990     4.7270    88.2020     8.0820     2.4590     0.1330     0.0470
   55.5000   -16.2330     5.3330     4.9160    89.7400     8.0410     2.4560     0.1360     0.0460
   56.0000   -16.3940     5.6920     5.1050    90.5580     7.9990     2.4520     0.1370     0.0450
   56.5000   -16.5550     6.0510     5.2990    91.4250     7.8140     2.4510     0.1320     0.0490
   57.0000   -16.7160     6.4860     5.2390    92.3750     7.5930     2.4580     0.1280     0.0540
   57.5000   -16.8760     6.4260     5.1550    93.5720     7.3720     2.4650     0.1250     0.0550
   58.0000   -16.8710     6.3490     5.2600    94.7760     7.1510     2.4700     0.1250     0.0510
   58.5000   -16.8400     6.2720     5.3670    96.0120     6.9310     2.4630     0.1300     0.0480
   59.0000   -16.8080     6.1950     5.4730    96.4320     6.7450     2.4540     0.1390     0.0470
   59.5000   -16.7760     6.2180     5.5800    91.7800     6.7090     2.4440     0.1390     0.0540
   60.0000   -16.7440     6.2720     5.6200    87.8610     6.6900     2.4430     0.1420     0.0590
   60.5000   -16.7110     6.3260     5.6520    87.7770     6.7680     2.4430     0.1450     0.0500
   61.0000   -16.6790     6.3680     5.6850    87.6200     6.8590     2.4370     0.1480     0.0420
   61.5000   -16.6470     6.3040     5.7180    87.0340     6.9470     2.4320     0.1500     0.0340
   62.0000   -16.6150     6.2280     5.7560    85.8420     7.0350     2.4260     0.1510     0.0270
   62.5000   -16.5820     6.1510     5.7120    85.1630     7.1230     2.4210     0.1520     0.0190
   63.0000   -16.5500     6.0740     5.6590    86.4380     7.2110     2.4160     0.1530     0.0120
   63.5000   -16.5180     5.9710     5.6070    87.6270     7.2990     2.4250     0.1520     0.0110
   64.0000   -16.4860     5.9890     5.5550    84.5870     7.3870     2.4360     0.1500     0.0140
   64.5000   -16.4540     6.0150     5.5030    83.2060     7.4750     2.4450     0.1480     0.0130
   65.0000   -16.4210     6.0410     5.4510    82.5210     7.5620     2.4340     0.1470     0.0080
   65.5000   -16.3890     6.0670     5.3980    85.0450     7.6480     2.4300     0.1450     0.0030
   66.0000   -16.3570     6.0930     5.3460    87.9010     7.7490     2.4300     0.1450     0.0010
   66.5000   -16.3250     6.1200     5.2990    88.0140     7.8470     2.4350     0.1450     0.0010
   67.0000   -16.3020     6.1460     5.2990    87.5040     7.9460     2.4430     0.1420     0.0030
   67.5000   -16.3130     6.1720     5.3260    89.8080     7.9760     2.4510     0.1370     0.0100
   68.0000   -16.3240     6.1950     5.3460    91.9500     7.9080     2.4580     0.1320     0.0170
   68.5000   -16.3350     6.2370     5.3670    90.5390     7.8450     2.4660     0.1270     0.0250
   69.0000   -16.3460     6.2820     5.3880    88.7640     7.9420     2.4740     0.1230     0.0250
   69.5000   -16.3560     6.3270     5.4020    87.4420     8.0640     2.4750     0.1280     0.0200
   70.0000   -16.3670     6.3730     5.4180    90.4780     7.9520     2.4600     0.1300     0.0170
   70.5000   -16.3780     6.4180     5.4330    92.8080     7.9420     2.4610     0.1290     0.0230
   71.0000   -16.3890     6.4630     5.4490    91.2850     8.1010     2.4640     0.1300     0.0290
   71.5000   -16.3990     6.5080     5.4640    89.8180     8.0470     2.4650     0.1340     0.0340
   72.0000   -16.4100     6.5460     5.4790    89.3430     7.9950     2.4530     0.1370     0.0400
   72.5000   -16.4210     6.5050     5.4950    88.8700     7.9360     2.4470     0.1380     0.0600
   73.0000   -16.4310     6.4610     5.5100    87.6550     7.8700     2.4510     0.1370     0.0800
   73.5000   -16.4420     6.4180     5.5260    86.4350     7.7390     2.4550     0.1320     0.1000
   74.0000   -16.4530     6.3750     5.5410    86.0200     7.5700     2.4590     0.1270     0.1190
   74.5000   -16.4640     6.3320     5.5560    87.3240     7.4010     2.4650     0.1220     0.1370
   75.0000   -16.4740     6.2880     5.5720    88.6920     7.2300     2.4750     0.1170     0.1410
   75.5000   -16.4850     6.2450     5.5870    89.2560     7.0590     2.4840     0.1140     0.1370
   76.0000   -16.4960     6.2020     5.5990    85.8740     7.0260     2.4940     0.1130     0.1070
   76.5000   -16.5000     6.1580     5.6310    82.1490     7.0860     2.4970     0.1180     0.0750
   77.0000   -16.5000     6.1150     5.6630    81.7990     7.1580     2.4780     0.1270     0.0440
   77.5000   -16.4990     6.0720     5.6940    83.5360     7.2320     2.4620     0.1350     0.0120
   78.0000   -16.4970     6.0290     5.7260    89.5160     7.3050     2.4460     0.1430     0.0030
   78.5000   -16.5040     5.9850     5.7560    94.7030     7.3720     2.4380     0.1460     0.0030
   79.0000   -16.2420     5.9420     5.6730    91.6400     7.3980     2.4340     0.1450     0.0030
   79.5000   -16.0970     5.8990     5.5940    87.4550     7.4250     2.4350     0.1430     0.0030
   80.0000   -15.9450     5.8550     5.5150    89.7530     7.4520     2.4360     0.1440     0.0030
   80.5000   -15.7910     5.8120     5.4360    94.0890     7.4800     2.4370     0.1450     0.0030
   81.0000   -15.6360     5.7690     5.3560    92.4940     7.5070     2.4380     0.1450     0.0020
   81.5000   -15.5000     5.7030     5.2990    88.0780     7.5350     2.4360     0.1450     0.0000
   82.0000   -15.4860     5.7070     5.2990    87.7670     7.5620     2.4350     0.1450    -0.0030
   82.5000   -15.4740     5.7160     5.2990    88.1600     7.5920     2.4330     0.1450    -0.0050
   83.0000   -15.4610     5.7250     5.2990    88.5750     7.6320     2.4320     0.1470    -0.0070
   83.5000   -15.4490     5.7340     5.2990    88.9760     7.6730     2.4300     0.1480    -0.0060
   84.0000   -15.4360     5.7420     5.2990    89.3790     7.7140     2.4290     0.1490    -0.0050
   84.5000   -15.4240     5.7510     5.2940    89.1420     7.7560     2.4290     0.1460    -0.0050
   85.0000   -15.4110     5.7600     5.2740    88.7510     7.7420     2.4340     0.1430    -0.0030
   85.5000   -15.3990     5.7680     5.2560    88.3610     7.7140     2.4380     0.1430    -0.0020
   86.0000   -15.3860     5.7770     5.2370    91.7690     7.6860     2.4370     0.1430    -0.0010
   86.5000   -15.3740     5.7860     5.2180    97.7610     7.6570     2.4400     0.1370    -0.0010
   87.0000   -15.3610     5.7950     5.2020   102.4820     7.6510     2.4440     0.1370    -0.0020
   87.5000   -15.3490     5.8030     5.2590    98.8110     7.6610     2.4480     0.1370    -0.0030
   88.0000   -15.3360     5.8390     5.3210    92.5750     7.6710     2.4520     0.1320    -0.0030
   88.5000   -15.3240     5.9240     5.3820    86.7900     7.6820     2.4610     0.1260     0.0020
   89.0000   -15.3110     6.0100     5.4430    87.7930     7.6920     2.4710     0.1230     0.0070
   89.5000   -15.3010     6.0950     5.5040    88.3950     7.7020     2.4730     0.1240     0.0080
   90.0000   -15.3200     6.1800     5.5650    87.0000     7.7130     2.4680     0.1270     0.0060
   90.5000   -15.3380     6.2650     5.6510    86.8020     7.7230     2.4610     0.1300     0.0030
