~VERSION INFORMATION
 VERS.                2.0:   CWLS LOG ASCII STANDARD - VERSION 2.0
 WRAP.                 NO:   ONE LINE PER DEPTH STEP
~WELL INFORMATION
#MNEM.UNIT      DATA TYPE    INFORMATION
#----------   ------------   ------------------------------
 STRT.F           30.5000:   START DEPTH
 STOP.F          674.0000:   STOP DEPTH
 STEP.F            0.5000:   STEP LENGTH
 NULL.          -999.2500:   NO VALUE
 COMP. FENIX & SCISSON INC:   COMPANY
 WELL. NPR 3 #37 SX 34-34:   WELL
 FLD .        TEAPOT DOME:   FIELD
 LOC .      S34 T39N R78W:   LOCATION
 CNTY.            NATRONA:   COUNTY
 STAT.            WYOMING:   STATE
 CTRY. UNITED STATES OF AMERICA:   COUNTRY
 SRVC.           BIRDWELL:   SERVICE COMPANY
 DATE.        21-JAN-1979:   LOGDATE
 API .       490251074400:   API NUMBER
~CURVE INFORMATION
#MNEM.UNIT       API CODE    CURVE DESCRIPTION
#----------   ------------   ------------------------------
 DEPT.F                  :   
 SPR .MV     05 010 01 00:   SPONTANEOUS POTENTIAL FROM RES.
 SN  .OHMM   05 040 16 00:   SHORT NORMAL 16"
 IL  .OHMM   05 120 00 00:   INDUCTION LOG
 CALD.IN     45 280 60 00:   CALIPER
 GRD .GAPI   45 310 01 00:   GAMMA RAY FROM DENSITY LOG
 RHOB.G/C3   45 350 01 00:   BULK DENSITY
 DPHI.DEC    45 890 12 00:   DENSITY POROSITY SANDSTONE
 CORR.G/C3   45 356 01 00:   DENSITY CORRECTION
~PARAMETER INFORMATION
#MNEM.UNIT          VALUE    DESCRIPTION
#----------   ------------   ------------------------------
 PD  .                 GL:   PERMANENT DATUM
 EPD .F              5175:   ELEVATION PERMANENT DATUM
 LMF .                 KB:   LOG MEASURED FROM
 DAPD.F                 4:   FEET ABOVE PERMANENT DATUM
 DMF .                 KB:   DRILLING MEASURED FROM
 EKB .F              5179:   KELLING BUSHING
 EGL .F              5175:   GROUND LEVEL
 DATE.            1-21-79:   RUN DATE
 RUN .                  1:   RUN NUMBER
 DD  .F               674:   DEPTH DRILLER
 DL  .F               673:   DEPTH LOGGER
 BLI .F               666:   BOTTOM LOG INTERVAL
 TLI .F                40:   TOP LOG INTERVAL
 CS  .IN            8.625:   CASING SIZE
 CBD .F                40:   CASING BOTTOM DRILLER
 CBL .F                30:   CASING BOTTOM LOGGER
 BS  .IN            7.875:   BIT SIZE
 BSD .F               674:   BIT SIZE AT DEPTH
 DFT .                KCL:   DRILLING FLUID TYPE
 DFD .                8.8:   DRILLING FLUID DENSITY
 DFV .                 60:   DRILLING FLUID VISCOSITY
 DFPH.                9.5:   DRILLING FLUID PH
 DFL .                  8:   DRILLING FLUID LOSS
 MSS .           FLOWLINE:   MUD SAMPLE SOURCE
 RMS .OHMM            .23:   RESISTIVITY MUD SAMPLE
 MST .F                56:   MUD SAMPLE TEMPERATURE
 MFSS.           MEASURED:   MUD FILTRATE SAMPLE SOURCE
 MCSS.           MEASURED:   MUD CAKE SAMPLE SOURCE
 RMB .OHMM            .22:   RESISTIVITY MUD AT BHT
 BHT .F                60:   BOTTOM HOLE TEMPERATURE
 TCS .HRS               4:   TIME CURCULATED STOPPED
 MRT .F                60:   MAXIMUM RECORDED TEMPERATURE
 LUN .               3006:   LOGGING UNIT NUMBER
 LUL .             CASPER:   LOGGING UNIT LOCATION
 ENGI.            ROLLINS:   RECORDING ENGINEER
 WITN.           DINSMORE:   WITNESSED BY
 CLNT.            A2DTECH:   CLIENT CODE
 ORIG.       2", 5" PRINT:   ORIGIN OF DATA
 UWI .       490251074400:   UNIQUE WELL ID
 DICO. A2D Technologies, Inc.:   DIGITIZING COMPANY
~OTHER INFORMATION
~A   DEPT      SPR         SN         IL       CALD        GRD       RHOB       DPHI       CORR   
# ...
  557.0000   -34.9580    12.6180    18.6700     7.7090    82.1270     2.3170     0.2090     0.0220
  557.5000   -35.0050    12.5900    18.6360     7.6980    82.6050     2.3170     0.1990     0.0240
  558.0000   -35.0510    12.5620    18.6030     7.6870    80.8250     2.3330     0.1830     0.0260
  558.5000   -35.0980    12.5340    18.4390     7.6760    79.6300     2.3640     0.1670     0.0280
  559.0000   -35.1440    12.5050    17.9220     7.6640    83.3490     2.3940     0.1690     0.0300
  559.5000   -35.1910    12.4020    17.4060     7.6510    84.7540     2.3970     0.1770     0.0330
  560.0000   -35.2370    12.2700    16.8890     7.6220    83.2360     2.3890     0.1880     0.0350
  560.5000   -35.2840    12.1370    16.4800     7.5930    80.7850     2.3760     0.1940     0.0330
  561.0000   -35.3300    12.0050    16.4800     7.5650    79.1640     2.3620     0.1930     0.0270
  561.5000   -35.3980    11.8630    16.4800     7.5360    80.7730     2.3560     0.1920     0.0180
  562.0000   -35.6040    11.7080    16.1970     7.5070    81.3330     2.3550     0.1900     0.0080
  562.5000   -35.8120    11.5540    15.6320     7.4780    82.1730     2.3580     0.1930     0.0040
  563.0000   -36.0180    11.3970    15.1600     7.4500    85.0080     2.3540     0.1950     0.0060
  563.5000   -36.1860    11.3970    15.1200     7.4560    83.9790     2.3500     0.1960     0.0080
  564.0000   -36.2260    11.3970    15.0790     7.5440    83.0760     2.3470     0.1970     0.0110
  564.5000   -36.2680    11.3970    15.0390     7.6310    85.9020     2.3460     0.1980     0.0130
  565.0000   -36.3100    11.3660    14.9990     7.7140    88.4890     2.3450     0.1990     0.0150
  565.5000   -36.3530    11.0990    14.9580     7.7580    85.4530     2.3440     0.2000     0.0170
  566.0000   -36.3950    10.9690    14.9180     7.7950    80.5590     2.3430     0.2010     0.0190
  566.5000   -36.4380    10.9430    14.8780     7.7800    79.4560     2.3410     0.2030     0.0210
  567.0000   -36.4810    10.9170    14.8370     7.7650    79.3320     2.3380     0.2050     0.0240
  567.5000   -36.5220    10.8910    14.7970     7.8180    79.1680     2.3350     0.2070     0.0280
  568.0000   -36.5550    10.8000    14.7540     7.9550    78.9730     2.3320     0.2020     0.0320
  568.5000   -36.9110    10.6800    14.7100     7.9560    79.3800     2.3340     0.1970     0.0340
  569.0000   -37.3240    10.4890    14.6630     7.9490    80.0050     2.3440     0.1900     0.0330
  569.5000   -37.7590    10.4940    14.6170     7.9430    80.3940     2.3530     0.1860     0.0320
  570.0000   -38.0980    10.5070    14.5700     7.9370    80.7210     2.3620     0.1850     0.0310
  570.5000   -38.4490    10.5190    14.5230     7.9310    81.0670     2.3660     0.1830     0.0300
  571.0000   -38.8020    10.5310    14.4760     7.9250    81.0230     2.3660     0.1850     0.0300
  571.5000   -39.1550    10.5430    14.4290     7.9190    79.8710     2.3650     0.1870     0.0290
  572.0000   -39.5080    10.5560    14.3830     7.9130    76.6520     2.3640     0.1860     0.0280
  572.5000   -39.8610    10.5680    14.3360     7.9070    76.2780     2.3640     0.1810     0.0300
  573.0000   -40.2130    10.5870    14.2890     7.9020    76.9410     2.3680     0.1780     0.0330
  573.5000   -40.5660    10.5360    14.2420     7.9050    79.5340     2.3730     0.1790     0.0350
  574.0000   -40.9180    10.4310    14.1510     7.9570    82.3400     2.3770     0.1800     0.0340
  574.5000   -41.2300    10.3250    14.0190     8.0100    84.2540     2.3760     0.1790     0.0280
  575.0000   -41.4030    10.2200    13.8860     8.0570    84.9750     2.3750     0.1700     0.0200
  575.5000   -41.5790    10.1150    13.7540     8.0600    85.0760     2.3870     0.1580     0.0120
  576.0000   -41.7550    10.0100    13.6210     8.0620    84.9690     2.4060     0.1570     0.0130
  576.5000   -41.9310     9.9050    13.3280     8.0640    84.8300     2.4150     0.1560     0.0160
  577.0000   -42.1070     9.7990    12.9580     8.0660    84.1120     2.4160     0.1560     0.0200
  577.5000   -42.2830     9.6940    12.5890     8.0690    81.3630     2.4160     0.1580     0.0260
  578.0000   -42.4590     9.5890    12.2190     8.0710    78.6940     2.4160     0.1550     0.0310
  578.5000   -42.6350     9.4840    11.9350     8.0740    76.4000     2.4180     0.1500     0.0320
  579.0000   -42.8110     9.3790    11.9090     8.0770    76.1650     2.4230     0.1450     0.0280
  579.5000   -42.9870     9.3050    11.8840     8.1130    76.2630     2.4300     0.1410     0.0140
  580.0000   -43.1630     9.3050    11.8590     8.2410    77.8400     2.4380     0.1360     0.0120
  580.5000   -43.3390     9.3050    11.8340     8.2600    81.4950     2.4470     0.1340     0.0150
  581.0000   -43.5140     9.3050    11.8100     8.2530    83.9830     2.4520     0.1420     0.0180
  581.5000   -43.6900     9.3050    11.7850     8.2470    84.1770     2.4440     0.1480     0.0220
  582.0000   -43.8660     9.3050    11.7600     8.2400    83.4760     2.4350     0.1500     0.0260
  582.5000   -44.0420     9.3050    11.7350     8.2340    83.9160     2.4300     0.1420     0.0270
  583.0000   -44.2180     9.3050    11.7100     8.2270    84.7840     2.4340     0.1350     0.0260
  583.5000   -44.3940     9.3050    11.6850     8.2210    84.7570     2.4430     0.1320     0.0240
  584.0000   -44.5700     9.3050    11.6610     8.2140    84.8640     2.4530     0.1290     0.0200
  584.5000   -44.7460     9.3050    11.6360     8.2070    86.9440     2.4600     0.1290     0.0150
  585.0000   -44.9220     9.3050    11.6110     8.2010    88.9900     2.4620     0.1290     0.0100
  585.5000   -45.0980     9.3050    11.5860     8.1910    89.6890     2.4620     0.1290     0.0110
  586.0000   -45.2740     9.3050    11.5610     8.1800    89.6420     2.4620     0.1310     0.0120
  586.5000   -45.4500     9.3050    11.5370     8.1690    90.9790     2.4600     0.1360     0.0130
  587.0000   -45.6260     9.3050    11.5120     8.1580    91.8710     2.4550     0.1390     0.0140
  587.5000   -45.8020     9.3050    11.4530     8.1470    91.4420     2.4490     0.1390     0.0140
  588.0000   -45.9780     9.3050    11.3740     8.1360    90.1840     2.4490     0.1380     0.0140
  588.5000   -46.1540     9.3050    11.2950     8.1250    91.2910     2.4490     0.1310     0.0140
  589.0000   -46.3300     9.3050    11.2170     8.1140    92.9600     2.4530     0.1280     0.0140
  589.5000   -46.5060     9.3060    11.1380     8.1030    91.7190     2.4590     0.1280     0.0140
  590.0000   -46.6810     9.2720    11.0590     8.0920    89.0840     2.4620     0.1280     0.0140
  590.5000   -46.8570     9.2310    10.9840     8.0810    87.1050     2.4620     0.1280     0.0140
  591.0000   -47.0330     9.1900    10.8490     8.0820    87.4130     2.4630     0.1280     0.0140
  591.5000   -47.2090     9.1500    10.7210     8.0890    90.1170     2.4630     0.1270     0.0140
  592.0000   -47.3850     9.1090    10.5870     8.0960    91.2330     2.4660     0.1240     0.0140
  592.5000   -47.5610     9.0680    10.5640     8.1030    91.3260     2.4690     0.1220     0.0140
  593.0000   -47.7370     9.0270    10.5400     8.1100    89.2200     2.4720     0.1210     0.0140
  593.5000   -47.9130     8.9860    10.5160     8.1180    87.0720     2.4750     0.1210     0.0140
  594.0000   -48.0890     8.9450    10.4920     8.1500    87.6390     2.4750     0.1220     0.0140
  594.5000   -48.2650     8.9040    10.4680     8.1850    89.0680     2.4750     0.1230     0.0140
  595.0000   -48.4410     8.8800    10.4440     8.2200    90.6310     2.4750     0.1240     0.0140
  595.5000   -48.6170     8.8640    10.4200     8.2560    91.3340     2.4740     0.1230     0.0140
  596.0000   -48.7920     8.8480    10.3970     8.2930    94.8120     2.4740     0.1220     0.0150
  596.5000   -48.9690     8.8320    10.3730     8.3380    99.0030     2.4740     0.1220     0.0160
  597.0000   -49.1490     8.8160    10.3490     8.3390    98.1230     2.4740     0.1210     0.0180
