~VERSION INFORMATION
 VERS.                2.0:   CWLS LOG ASCII STANDARD - VERSION 2.0
 WRAP.                 NO:   ONE LINE PER DEPTH STEP
~WELL INFORMATION
#MNEM.UNIT      DATA TYPE    INFORMATION
#----------   ------------   ------------------------------
 STRT.F           24.0000:   START DEPTH
 STOP.F          690.0000:   STOP DEPTH
 STEP.F            0.5000:   STEP LENGTH
 NULL.          -999.2500:   NO VALUE
 COMP. DEPARTMENT OF ENERGY:   COMPANY
 WELL.     STX 2 #24-15-2:   WELL
 FLD .             TEAPOT:   FIELD
 LOC .       S2 T38N R78W:   LOCATION
 CNTY.            NATRONA:   COUNTY
 STAT.            WYOMING:   STATE
 CTRY. UNITED STATES OF AMERICA:   COUNTRY
 SRVC.           Gearhart:   SERVICE COMPANY
 DATE.        23-DEC-1987:   LOGDATE
 API .       490251116800:   API NUMBER
~CURVE INFORMATION
#MNEM.UNIT       API CODE    CURVE DESCRIPTION
#----------   ------------   ------------------------------
 DEPT.F                  :   
 GRR .GAPI   07 310 01 00:   GAMMA RAY
 RILD.OHMM   07 120 46 00:   INDUCTION LOG DEEP
 RILM.OHMM   07 120 44 00:   INDUCTION LOG MEDIUM
 RLL .OHMM   07 220 01 00:   LATEROLOG-1 RES.
~PARAMETER INFORMATION
#MNEM.UNIT          VALUE    DESCRIPTION
#----------   ------------   ------------------------------
 PD  .                 GL:   PERMANENT DATUM
 LMF .                 KB:   LOG MEASURED FROM
 DMF .                 KB:   DRILLING MEASURED FROM
 DATE.        03-SEP-1987:   RUN DATE
 RUN .                  1:   RUN NUMBER
 DL  .F               692:   DEPTH LOGGER
 BLI .F               690:   BOTTOM LOG INTERVAL
 CS  .IN            8.625:   CASING SIZE
 CBD .F                48:   CASING BOTTOM DRILLER
 CBL .F                48:   CASING BOTTOM LOGGER
 BS  .IN            7.875:   BIT SIZE
 DFT .                MUD:   DRILLING FLUID TYPE
 TCS .HRS            0600:   TIME CURCULATED STOPPED
 TLAB.HRS            0751:   TIME LOGGER AT BOTTOM
 MRT .F                80:   MAXIMUM RECORDED TEMPERATURE
 LUN .               7597:   LOGGING UNIT NUMBER
 LUL .           GILLETTE:   LOGGING UNIT LOCATION
 ENGI.         WEATHERMON:   RECORDING ENGINEER
 WITN.             STRONG:   WITNESSED BY
 CLNT.            A2DTECH:   CLIENT CODE
 ORIG.           5" PRINT:   ORIGIN OF DATA
 UWI .       490251116800:   UNIQUE WELL ID
 DICO. A2D Technologies, Inc.:   DIGITIZING COMPANY
~OTHER INFORMATION
~A   DEPT       GRR      RILD       RILM        RLL   
# ...
  389.0000    96.8829     4.5908     4.7976     6.0345
  389.5000    94.1728     3.9413     4.1184     5.7096
  390.0000    93.3324     3.5523     3.2979     5.1745
  390.5000    93.9569     3.0924     2.9493     4.6541
  391.0000    93.9718     2.8459     2.6844     4.0369
  391.5000    93.0775     2.7875     2.4142     3.4414
  392.0000    90.6681     2.7694     2.3486     3.2788
  392.5000    86.7435     2.7896     2.3493     3.2342
  393.0000    83.7281     2.8294     2.3663     3.3966
  393.5000    81.3186     2.9919     2.4677     3.7189
  394.0000    82.8486     3.4387     2.7974     4.2747
  394.5000    88.1000     4.0076     3.3759     5.1229
  395.0000    97.3634     4.4181     3.9348     5.6914
  395.5000   101.3817     4.8034     4.4076     6.1952
  396.0000    99.8814     5.2223     4.9357     6.7241
  396.5000    99.2901     5.5995     5.5364     6.9156
  397.0000    98.9982     5.8837     5.9365     6.9657
  397.5000    99.3198     6.0899     5.8557     6.9193
  398.0000    99.6376     6.2632     5.8577     6.8585
  398.5000    99.9555     6.3968     5.8593     6.7797
  399.0000   100.2734     6.4432     5.9018     6.6884
  399.5000   100.5912     6.3999     5.9860     6.6438
  400.0000    99.7005     6.3573     6.1138     6.7387
  400.5000   100.9335     6.2821     6.2011     6.8873
  401.0000   102.7727     6.1441     6.2032     7.1284
  401.5000   105.5209     5.9773     5.9102     7.2302
  402.0000   107.6631     5.6910     5.6310     7.1323
  402.5000   106.7750     5.4529     5.3650     6.7016
  403.0000   104.6695     5.2429     5.1116     6.2099
  403.5000   106.5139     5.1006     5.0075     5.7544
  404.0000   108.3531     4.9968     4.9055     5.4446
  404.5000   108.9748     4.9632     4.8391     5.4080
  405.0000   107.1829     4.9302     4.8068     5.4476
  405.5000   104.4766     4.9663     4.8895     5.6028
  406.0000   103.8909     5.0022     5.5657     5.9248
  406.5000   105.1246     5.0736     6.0515     6.2653
  407.0000   106.0546     5.4054     6.2672     6.4437
  407.5000   105.4695     5.9704     6.4010     6.6735
  408.0000   104.8844     6.6119     6.5377     7.0597
  408.5000   103.6933     6.9433     6.7708     7.5221
  409.0000   102.4505     7.1906     6.9153     7.7888
  409.5000   101.3110     7.3440     7.0629     7.9024
  410.0000   101.6402     7.5007     7.1638     8.0065
  410.5000   102.5703     7.4508     7.2158     8.0092
  411.0000   102.5912     7.4528     7.1788     8.0114
  411.5000   100.7940     7.3013     7.1812     8.0136
  412.0000    98.6938     7.3033     7.1837     7.9046
  412.5000    99.3208     7.2543     7.1862     7.7441
  413.0000   100.5539     7.2060     7.1887     7.5864
  413.5000   102.0900     7.1586     7.1413     7.3804
  414.0000   103.3231     7.0618     7.0943     7.2805
  414.5000   104.2532     6.8702     6.9509     7.2320
  415.0000   104.5772     6.6375     6.7626     7.2340
  415.5000   104.9012     6.2370     6.4886     7.2360
  416.0000   104.6182     5.8606     6.0972     7.1879
  416.5000   104.3370     5.6229     5.7693     7.0906
  417.0000   104.0550     5.2471     5.3465     6.7089
  417.5000   104.0759     5.0694     4.8524     6.0463
  418.0000   103.4908     5.0008     4.4346     5.6027
  418.5000   103.8151     5.0022     4.2255     5.4128
  419.0000   104.4747     5.0073     4.1973     5.3761
  419.5000   105.3727     5.2292     4.3476     5.4545
  420.0000   106.0042     5.5951     4.7604     5.8238
  420.5000   106.6312     5.9165     5.1763     6.7375
  421.0000   105.7431     6.1700     5.6285     7.3243
  421.5000   104.8497     6.5243     5.9940     7.7292
  422.0000   104.5677     6.9471     6.2514     7.7313
  422.5000   105.5030     7.2952     6.6573     7.6793
  423.0000   106.4330     7.3481     6.9432     7.6282
  423.5000   107.9691     7.3501     7.1931     7.6841
  424.0000   107.6871     7.3007     7.3453     7.7938
  424.5000   106.7937     7.2522     7.3479     7.8500
  425.0000   106.2086     7.2045     7.2994     7.9073
  425.5000   108.0530     7.2567     7.1518     7.9094
  426.0000   107.4679     7.3092     7.1041     7.8563
  426.5000   106.8776     7.3622     7.0573     7.7505
  427.0000   105.9947     7.3642     7.0600     7.7526
  427.5000   105.1066     7.3663     7.0628     7.7546
  428.0000   104.5212     7.3683     7.1145     7.8316
  428.5000   104.2394     7.3703     7.1780     7.9225
  429.0000   103.9454     7.3723     7.2191     7.9800
  429.5000   103.3723     7.3233     7.2216     7.9822
  430.0000   102.7872     7.3254     7.2241     7.9843
  430.5000   102.8091     7.3274     7.2265     7.9865
  431.0000   103.1374     7.2791     7.1788     7.9899
  431.5000   103.4614     7.2302     7.1722     8.1028
  432.0000   103.7854     7.1324     7.1335     8.1616
  432.5000   103.8064     7.0360     7.0380     8.1639
  433.0000   103.5191     6.8932     6.9916     8.1096
  433.5000   104.1513     6.7995     6.8975     7.9997
  434.0000   104.4753     6.7076     6.8046     7.7291
  434.5000   105.7084     6.5715     6.6665     7.4672
  435.0000   106.6385     6.4822     6.4830     7.1641
  435.5000   108.1746     6.3945     6.1735     6.8257
  436.0000   109.1046     6.3085     6.0077     6.6867
  436.5000   109.7317     6.3102     5.9730     6.5962
  437.0000   110.9648     6.2678     5.9756     6.5980
  437.5000   107.9554     6.2266     5.9776     6.6922
  438.0000   105.8545     6.1423     5.9383     6.8351
  438.5000   106.1792     5.8119     5.8177     6.9811
  439.0000   107.4123     5.4234     5.5049     7.0808
  439.5000   108.0455     5.1667     5.0310     6.9849
  440.0000   107.4141     5.0600     4.6623     6.6089
  440.5000   104.9829     5.0286     4.2906     5.9977
  441.0000   102.5515     5.0651     4.1168     5.5192
  441.5000    99.6435     5.1377     4.0893     5.4419
  442.0000    99.0532     5.1749     4.6363     5.7176
  442.5000   101.8067     5.3222     5.1835     6.3934
  443.0000   103.3428     5.5118     5.3687     6.8151
  443.5000   105.1820     5.8283     5.5605     7.2029
  444.0000   106.4151     6.1630     5.7993     7.3005
  444.5000   107.0421     6.3826     6.0906     7.2016
  445.0000   107.0630     6.6100     6.4860     7.0554
  445.5000   104.6598     6.7981     6.8117     6.9117
  446.0000    99.8323     6.7999     6.8616     6.9619
  446.5000    98.6359     6.7547     6.7692     7.1105
  447.0000    98.6621     6.5714     6.5792     7.3130
  447.5000    99.8952     5.9228     5.9075     7.3661
  448.0000   102.9464     5.3383     5.2587     6.7315
  448.5000   105.3916     5.0161     4.9239     6.3250
  449.0000   108.7459     4.8127     4.7573     6.0262
  449.5000   109.6899     4.8476     4.7256     5.9035
  450.0000   106.6667     5.1617     4.7938     5.9878
  450.5000   104.4778     5.6156     5.1765     6.5559
  451.0000   100.9508     5.9834     5.6680     6.9810
  451.5000    99.7647     6.4774     6.1205     7.2804
  452.0000    98.8764     7.1314     6.5633     7.5399
  452.5000    97.9881     7.5217     7.0382     7.7009
  453.0000    96.7969     7.7358     7.4432     7.8654
  453.5000    93.4844     7.8461     7.7091     8.0333
  454.0000    92.8939     7.8483     7.7656     8.2049
  454.5000    95.0412     8.0157     7.7138     8.3220
  455.0000    98.0923     8.0823     7.7709     8.3302
  455.5000    99.9313     8.1890     7.8824     8.3266
  456.0000    99.9521     8.2481     7.8850     8.3875
  456.5000    99.9730     8.2504     7.8878     8.5073
  457.0000   100.3051     8.1958     7.8907     8.5793
  457.5000   101.8333     8.1980     7.8934     8.6311
  458.0000   103.4747     8.2003     7.8961     8.6334
  458.5000   107.0312     8.2327     7.8988     8.5585
  459.0000   108.2641     8.3195     7.9592     8.4593
  459.5000   105.8607     8.3798     8.0149     8.4622
  460.0000    98.9119     8.4406     8.1305     8.5236
  460.5000    95.9024     8.4429     8.2471     8.5259
  461.0000    94.7111     8.3867     8.4238     8.5282
  461.5000    92.9137     8.2650     8.5446     8.5306
