~VERSION INFORMATION
 VERS.                2.0:   CWLS LOG ASCII STANDARD - VERSION 2.0
 WRAP.                 NO:   ONE LINE PER DEPTH STEP
~WELL INFORMATION
#MNEM.UNIT      DATA TYPE    INFORMATION
#----------   ------------   ------------------------------
 STRT.F            0.0000:   START DEPTH
 STOP.F          596.0000:   STOP DEPTH
 STEP.F            0.1000:   STEP LENGTH
 NULL.          -999.2500:   NO VALUE
 COMP. BROWN JOHN E&C INC:   COMPANY
 WELL.    72-5 SX-3 #72-3:   WELL
 FLD .             TEAPOT:   FIELD
 LOC .       S3 T38N R78W:   LOCATION
 CNTY.            NATRONA:   COUNTY
 STAT.            WYOMING:   STATE
 CTRY. UNITED STATES OF AMERICA:   COUNTRY
 SRVC.      Western Atlas:   SERVICE COMPANY
 DATE.        15-APR-1992:   LOGDATE
 API .       490252250900:   API NUMBER
~CURVE INFORMATION
#MNEM.UNIT       API CODE    CURVE DESCRIPTION
#----------   ------------   ------------------------------
 DEPT.F                  :   
 GRR .GAPI   07 310 01 00:   GAMMA RAY
 RILD.OHMM   07 120 46 00:   INDUCTION LOG DEEP RESISTIVITY
 RILM.OHMM   07 120 44 00:   INDUCTION LOG MEDIUM RESISTIVITY
~PARAMETER INFORMATION
#MNEM.UNIT          VALUE    DESCRIPTION
#----------   ------------   ------------------------------
 PD  .                 GL:   PERMANENT DATUM
 EPD .F              5132:   ELEVATION PERMANENT DATUM
 LMF .                 KB:   LOG MEASURED FROM
 DAPD.F                 5:   FEET ABOVE PERMANENT DATUM
 DMF .                 KB:   DRILLING MEASURED FROM
 EKB .F              5137:   KELLING BUSHING
 EDF .F              5136:   DRILLING FLOOR
 EGL .F              5132:   GROUND LEVEL
 DATE.        15-APR-1992:   RUN DATE
 RUN .                  1:   RUN NUMBER
 DD  .F               605:   DEPTH DRILLER
 DL  .F               599:   DEPTH LOGGER
 BLI .F               596:   BOTTOM LOG INTERVAL
 TLI .F                46:   TOP LOG INTERVAL
 CS  .IN            8.625:   CASING SIZE
 CBD .F                48:   CASING BOTTOM DRILLER
 CBL .F                46:   CASING BOTTOM LOGGER
 BS  .IN            7.875:   BIT SIZE
 BSD .F               605:   BIT SIZE AT DEPTH
 DFT .                AIR:   DRILLING FLUID TYPE
 LUN .            HL-6321:   LOGGING UNIT NUMBER
 LUL .        RK. SPRINGS:   LOGGING UNIT LOCATION
 ENGI.            TRIBBLE:   RECORDING ENGINEER
 WITN.             STRONG:   WITNESSED BY
 CLNT.            A2DTECH:   CLIENT CODE
 ORIG.           5" PRINT:   ORIGIN OF DATA
 UWI .       490252250900:   UNIQUE WELL ID
 DICO. A2D Technologies, Inc.:   DIGITIZING COMPANY
~OTHER INFORMATION
~A    DEPT     GRR       RILD       RILM   
# ...
  145.6000   111.0036     7.1247     6.9967
  145.7000   110.4729     7.0841     6.9966
  145.8000   110.7180     7.0438     6.9965
  145.9000   110.9835     7.0153     6.9963
  146.0000   111.8869     7.0152     6.9963
  146.1000   112.7025     7.0150     6.9962
  146.2000   113.5552     6.9815     6.9961
  146.3000   114.4253     6.9660     6.9960
  146.4000   114.9156     6.9507     6.9959
  146.5000   115.1606     6.9111     6.9958
  146.6000   115.4056     6.8690     6.9670
  146.7000   115.5145     6.8690     6.9469
  146.8000   115.4327     6.8689     6.9468
  146.9000   115.2079     6.8500     6.9467
  147.0000   115.2058     6.8208     6.9466
  147.1000   114.9897     6.8207     6.9465
  147.2000   114.5826     6.8206     6.9464
  147.3000   114.1893     6.8205     6.9318
  147.4000   113.8485     6.7982     6.8979
  147.5000   113.0757     6.7729     6.8978
  147.6000   112.8372     6.7681     6.8617
  147.7000   112.2273     6.7255     6.8227
  147.8000   111.2360     6.7254     6.7838
  147.9000   109.9316     6.6998     6.7544
  148.0000   108.4970     6.6784     6.7543
  148.1000   107.9130     6.6701     6.7542
  148.2000   107.9115     6.6317     6.7238
  148.3000   107.9097     6.6316     6.6855
  148.4000   108.0889     6.6315     6.6603
  148.5000   108.6152     6.6314     6.6559
  148.6000   109.4192     6.6313     6.6137
  148.7000   110.0927     6.6281     6.6137
  148.8000   111.0004     6.5850     6.6136
  148.9000   111.9861     6.5849     6.5970
  149.0000   113.0283     6.5848     6.5674
  149.1000   114.2612     6.5847     6.5673
  149.2000   115.7407     6.5780     6.5672
  149.3000   116.8378     6.5386     6.5671
  149.4000   117.6885     6.5386     6.5670
  149.5000   118.4273     6.5385     6.5669
  149.6000   119.1434     6.5384     6.5636
  149.7000   119.7022     6.5383     6.5210
  149.8000   120.1273     6.5382     6.5209
  149.9000   120.3048     6.5381     6.5208
  150.0000   120.2841     6.5179     6.5107
  150.1000   120.2359     6.4933     6.4862
  150.2000   120.1877     6.4686     6.4616
  150.3000   120.1395     6.4473     6.4370
  150.4000   120.0914     6.4473     6.4037
  150.5000   120.0432     6.4473     6.3856
  150.6000   119.9889     6.4473     6.3856
  150.7000   120.2030     6.4473     6.3838
  150.8000   120.9285     6.4473     6.3411
  150.9000   121.7073     6.4473     6.3411
  151.0000   122.1515     6.4473     6.3411
  151.1000   122.4042     6.4473     6.3278
  151.2000   122.4024     6.4473     6.2919
  151.3000   122.4006     6.4473     6.2532
  151.4000   122.3988     6.4473     6.2206
  151.5000   122.3242     6.4473     6.2097
  151.6000   122.0921     6.4473     6.2097
  151.7000   122.0900     6.4473     6.2097
  151.8000   122.0885     6.4473     6.2101
  151.9000   122.2394     6.4473     6.2456
  152.0000   122.3879     6.4473     6.2812
  152.1000   122.4273     6.4473     6.2970
  152.2000   122.6872     6.4473     6.3090
  152.3000   122.6855     6.4473     6.3411
  152.4000   122.8606     6.4473     6.3411
  152.5000   123.2273     6.4473     6.3411
  152.6000   123.6545     6.4473     6.3411
  152.7000   123.9000     6.4473     6.3411
  152.8000   124.1912     6.4473     6.3411
  152.9000   124.7933     6.4473     6.3411
  153.0000   125.6788     6.4473     6.3411
  153.1000   126.3970     6.4473     6.3411
  153.2000   126.6424     6.4473     6.3600
  153.3000   126.9095     6.4473     6.3856
  153.4000   127.1333     6.4473     6.3856
  153.5000   127.0394     6.4473     6.3856
  153.6000   126.6764     6.4473     6.3856
  153.7000   126.2382     6.4473     6.3856
  153.8000   125.9843     6.4473     6.3997
  153.9000   125.2406     6.4473     6.4303
  154.0000   124.1091     6.4473     6.4303
  154.1000   122.7327     6.4473     6.4303
  154.2000   121.5770     6.4473     6.4563
  154.3000   121.0806     6.4473     6.4754
  154.4000   120.5843     6.4473     6.4754
  154.5000   120.0879     6.4620     6.4764
  154.6000   119.9164     6.4925     6.5208
  154.7000   119.8079     6.4925     6.5506
  154.8000   119.5588     6.5276     6.5664
  154.9000   119.3048     6.5380     6.5664
  155.0000   119.0606     6.5564     6.5757
  155.1000   118.8115     6.5938     6.6588
  155.2000   118.4315     6.6300     6.6588
  155.3000   117.9352     6.6300     6.6843
  155.4000   117.4195     6.6607     6.7224
  155.5000   116.5664     6.6765     6.7524
  155.6000   115.9321     6.6765     6.7524
  155.7000   115.3436     6.6813     6.7906
  155.8000   115.0461     6.7233     6.7998
  155.9000   115.0879     6.7233     6.7998
  156.0000   115.3454     6.7233     6.7998
  156.1000   115.8139     6.7233     6.7998
  156.2000   116.3066     6.7233     6.7998
  156.3000   117.2940     6.7233     6.7998
  156.4000   118.7759     6.7613     6.7998
  156.5000   120.2577     6.7705     6.7998
  156.6000   122.0009     6.7705     6.7998
  156.7000   123.0176     6.7705     6.7998
  156.8000   124.2522     6.7705     6.7998
  156.9000   125.3945     6.7705     6.7998
  157.0000   126.3818     6.7705     6.7998
  157.1000   127.4465     6.7705     6.7998
  157.2000   127.6727     6.7705     6.7998
  157.3000   127.7461     6.7705     6.7998
  157.4000   127.6279     6.7705     6.7998
  157.5000   127.3788     6.7705     6.7998
  157.6000   127.1200     6.7705     6.7998
  157.7000   126.3764     6.7705     6.7998
  157.8000   125.8291     6.7705     6.7998
  157.9000   125.3328     6.7705     6.7998
  158.0000   124.8364     6.7705     6.7998
  158.1000   124.3400     6.7705     6.7998
  158.2000   123.7901     6.7705     6.7998
  158.3000   123.5679     6.7705     6.7998
  158.4000   123.1539     6.7705     6.7998
  158.5000   122.7667     6.7705     6.7998
  158.6000   122.4642     6.7705     6.7998
  158.7000   121.9630     6.7963     6.7998
  158.8000   121.4715     6.8180     6.7998
  158.9000   121.1642     6.8180     6.7998
  159.0000   120.6484     6.8180     6.7998
  159.1000   119.9048     6.8180     6.7998
  159.2000   119.1394     6.8180     6.7998
  159.3000   118.0125     6.8180     6.7998
  159.4000   116.9443     6.8180     6.7998
  159.5000   115.5485     6.8180     6.7998
  159.6000   114.0631     6.8180     6.7998
  159.7000   112.5777     6.8180     6.7998
  159.8000   111.0339     6.8421     6.7998
  159.9000   110.5569     6.8658     6.7998
  160.0000   110.4242     6.8658     6.7998
  160.1000   110.5485     6.8658     6.7998
  160.2000   110.7939     6.8658     6.7998
  160.3000   111.0540     6.8936     6.7998
  160.4000   111.6288     6.9139     6.8059
  160.5000   111.8333     6.9239     6.8474
  160.6000   112.0788     6.9624     6.8474
  160.7000   112.3242     6.9624     6.8474
  160.8000   112.5697     6.9942     6.8474
  160.9000   112.8320     7.0112     6.8572
  161.0000   112.8303     7.0112     6.8954
  161.1000   113.0030     7.0159     6.8954
  161.2000   113.2485     7.0604     6.8954
  161.3000   113.4939     7.0604     6.9179
  161.4000   113.7394     7.0871     6.9437
  161.5000   114.0330     7.1275     6.9437
  161.6000   114.2303     7.1682     6.9437
  161.7000   114.6188     7.2100     6.9437
  161.8000   115.1115     7.2100     6.9701
  161.9000   115.6358     7.2100     7.0099
  162.0000   116.4483     7.2316     7.0414
  162.1000   116.8927     7.2728     7.0414
  162.2000   117.3854     7.3143     7.0810
  162.3000   117.9897     7.3627     7.1215
  162.4000   118.7855     7.3627     7.1404
  162.5000   119.7727     7.3885     7.1529
  162.6000   121.0073     7.4144     7.1937
  162.7000   121.8588     7.4211     7.2408
  162.8000   122.8703     7.4664     7.2761
  162.9000   123.8648     7.4664     7.3177
  163.0000   124.3093     7.4964     7.3426
  163.1000   123.7010     7.5187     7.3426
  163.2000   123.4836     7.5294     7.3426
  163.3000   123.0745     7.5714     7.3426
  163.4000   122.6824     7.5714     7.3426
  163.5000   122.4333     7.5714     7.3426
  163.6000   122.1769     7.5959     7.3539
  163.7000   122.4151     7.6245     7.3941
