~VERSION INFORMATION
 VERS.                2.0:   CWLS LOG ASCII STANDARD - VERSION 2.0
 WRAP.                 NO:   ONE LINE PER DEPTH STEP
~WELL INFORMATION
#MNEM.UNIT      DATA TYPE    INFORMATION
#----------   ------------   ------------------------------
 STRT.F           16.0000:   START DEPTH
 STOP.F          484.5000:   STOP DEPTH
 STEP.F            0.5000:   STEP LENGTH
 NULL.          -999.2500:   NO VALUE
 COMP. FENIX & SCISSON INC:   COMPANY
 WELL. NPR 3 #83 SX 10-10:   WELL
 FLD .             TEAPOT:   FIELD
 LOC .      S10 T38N R78W:   LOCATION
 CNTY.            NATRONA:   COUNTY
 STAT.            WYOMING:   STATE
 CTRY. UNITED STATES OF AMERICA:   COUNTRY
 SRVC.           BIRDWELL:   SERVICE COMPANY
 DATE.        25-NOV-1978:   LOGDATE
 API .       490251075200:   API NUMBER
~CURVE INFORMATION
#MNEM.UNIT       API CODE    CURVE DESCRIPTION
#----------   ------------   ------------------------------
 DEPT.F                  :   
 SPR .MV     05 010 01 00:   SPONTANEOUS POTENTIAL FROM RES.
 SN  .OHMM   05 040 16 00:   SHORT NORMAL 16"
 IL  .OHMM   05 120 00 00:   INDUCTION LOG
 CALD.IN     45 280 60 00:   CALIPER
 GRD .GAPI   45 310 01 00:   GAMMA RAY FROM DENSITY LOG
 CORR.G/C3   45 356 01 00:   DENSITY CORRECTION
 DPHI.DEC    45 890 12 00:   DENSITY POROSITY SANDSTONE
 RHOB.G/C3   45 350 01 00:   BULK DENSITY
~PARAMETER INFORMATION
#MNEM.UNIT          VALUE    DESCRIPTION
#----------   ------------   ------------------------------
 PD  .                 GL:   PERMANENT DATUM
 EPD .F              5145:   ELEVATION PERMANENT DATUM
 LMF .                 KB:   LOG MEASURED FROM
 DAPD.F                 4:   FEET ABOVE PERMANENT DATUM
 DMF .                 KB:   DRILLING MEASURED FROM
 EKB .F              5149:   KELLING BUSHING
 EGL .F              5145:   GROUND LEVEL
 DATE.           11-25-78:   RUN DATE
 RUN .                  1:   RUN NUMBER
 DD  .F               490:   DEPTH DRILLER
 DL  .F               487:   DEPTH LOGGER
 BLI .F               481:   BOTTOM LOG INTERVAL
 TLI .F                30:   TOP LOG INTERVAL
 CS  .IN            8.625:   CASING SIZE
 CBD .F                40:   CASING BOTTOM DRILLER
 CBL .F                35:   CASING BOTTOM LOGGER
 BS  .IN            7.875:   BIT SIZE
 BSD .F               490:   BIT SIZE AT DEPTH
 DFT .             SEAMUD:   DRILLING FLUID TYPE
 DFD .                8.8:   DRILLING FLUID DENSITY
 DFV .                 38:   DRILLING FLUID VISCOSITY
 DFPH.               11.1:   DRILLING FLUID PH
 DFL .                9.6:   DRILLING FLUID LOSS
 MSS .           FLOWLINE:   MUD SAMPLE SOURCE
 RMS .OHMM            .28:   RESISTIVITY MUD SAMPLE
 MST .F                58:   MUD SAMPLE TEMPERATURE
 RMF .OHMM            .25:   RESISTIVITY MUD FILTRATE SAMPLE
 MFST.F                70:   MUD FILTRATE SAMPLE TEMPERATURE
 RMC .OHMM             .3:   RESISTIVITY MUD CAKE
 MCST.F                70:   MUD CAKE SAMPLE TEMPERATURE
 MFSS.           MEASURED:   MUD FILTRATE SAMPLE SOURCE
 MCSS.           MEASURED:   MUD CAKE SAMPLE SOURCE
 BHT .F                58:   BOTTOM HOLE TEMPERATURE
 TCS .HRS               3:   TIME CURCULATED STOPPED
 MRT .F                58:   MAXIMUM RECORDED TEMPERATURE
 LUN .               3029:   LOGGING UNIT NUMBER
 LUL .               CASP:   LOGGING UNIT LOCATION
 ENGI.           REYNOLDS:   RECORDING ENGINEER
 WITN.           DINSMORE:   WITNESSED BY
 CLNT.            A2DTECH:   CLIENT CODE
 ORIG.     1", 2.5" PRINT:   ORIGIN OF DATA
 UWI .       490251075200:   UNIQUE WELL ID
 DICO. A2D Technologies, Inc.:   DIGITIZING COMPANY
~OTHER INFORMATION
~A   DEPT      SPR         SN         IL       CALD         GRD      CORR       DPHI       RHOB   
# ...
   97.0000   -43.1010     8.4540     7.6870     7.6520   118.7050     0.0650     0.1310     2.4740
   97.5000   -42.9080     8.4760     7.6860     7.6580   120.1570     0.0520     0.1380     2.4630
   98.0000   -42.7470     8.4980     7.6860     7.6640   118.6250     0.0400     0.1460     2.4500
   98.5000   -42.6550     8.5210     7.6860     7.6700   116.5400     0.0330     0.1500     2.4380
   99.0000   -42.5610     8.5430     7.6860     7.6760   113.8960     0.0340     0.1480     2.4410
   99.5000   -42.4700     8.5650     7.7820     7.6820   111.2860     0.0390     0.1470     2.4440
  100.0000   -42.3770     8.5920     7.8620     7.6880   108.6050     0.0440     0.1450     2.4430
  100.5000   -42.2850     8.5920     7.9410     7.6720   105.8730     0.0480     0.1480     2.4410
  101.0000   -42.1920     8.7610     8.0830     7.6500   104.1950     0.0440     0.1510     2.4390
  101.5000   -42.1000     8.9360     8.2770     7.6280   106.7160     0.0400     0.1450     2.4440
  102.0000   -42.0080     9.1110     8.4710     7.6060   109.1720     0.0360     0.1500     2.4370
  102.5000   -41.9160     9.2860     8.6650     7.5840   109.7370     0.0310     0.1540     2.4290
  103.0000   -41.8230     9.4610     8.8590     7.5620   109.7660     0.0300     0.1570     2.4240
  103.5000   -41.7310     9.6370     9.0530     7.5400   109.4830     0.0360     0.1540     2.4300
  104.0000   -41.6390     9.8120     9.2470     7.5190   109.0430     0.0430     0.1500     2.4360
  104.5000   -41.5460     9.9870     9.4410     7.4950   108.9740     0.0500     0.1470     2.4420
  105.0000   -41.4540    10.1620     9.6350     7.4920   106.5700     0.0560     0.1430     2.4490
  105.5000   -41.3620    10.3380     9.8290     7.5020   102.4740     0.0640     0.1400     2.4570
  106.0000   -41.2690    10.5130    10.0230     7.5090    99.3030     0.0670     0.1390     2.4630
  106.5000   -41.1770    10.6880    10.2170     7.5170    96.9770     0.0610     0.1460     2.4510
  107.0000   -41.0850    10.8630    10.4110     7.5260    94.8030     0.0550     0.1520     2.4310
  107.5000   -40.9930    11.0380    10.6050     7.5340    92.4310     0.0540     0.1540     2.4370
  108.0000   -40.9000    11.2140    10.7990     7.5420    92.6760     0.0590     0.1420     2.4530
  108.5000   -40.8080    11.3890    10.9930     7.5500    94.9540     0.0620     0.1310     2.4680
  109.0000   -40.7150    11.5640    11.1870     7.5580    94.4520     0.0730     0.1180     2.4820
  109.5000   -40.6230    11.7390    11.3810     7.5660    92.6350     0.0880     0.1080     2.5010
  110.0000   -40.5310    11.9140    11.5750     7.5740    92.2340     0.0920     0.1120     2.4960
  110.5000   -40.4380    12.0900    11.7690     7.5820    94.8140     0.0820     0.1330     2.4800
  111.0000   -40.3620    12.2270    12.0020     7.5900    97.8150     0.0700     0.1300     2.4740
  111.5000   -40.3830    12.1130    11.8810     7.5980   100.9040     0.0780     0.1260     2.4860
  112.0000   -40.4460    12.0190    11.7300     7.6060   103.9260     0.0840     0.1220     2.4810
  112.5000   -40.5080    11.9250    11.5800     7.6140   106.3470     0.0810     0.1290     2.4710
  113.0000   -40.5710    11.8310    11.4290     7.6230   104.7300     0.0770     0.1370     2.4620
  113.5000   -40.6330    11.7370    11.2780     7.6310   102.9240     0.0840     0.1430     2.4530
  114.0000   -40.6950    11.6430    11.1270     7.6390   101.3140     0.1000     0.1400     2.4600
  114.5000   -40.7580    11.5640    10.9510     7.6470   100.3270     0.1160     0.1320     2.4740
  115.0000   -40.8200    11.5640    10.9790     7.6490    99.1060     0.1210     0.1270     2.4780
  115.5000   -40.8830    11.5640    11.0340     7.6450    97.9450     0.1200     0.1250     2.4800
  116.0000   -40.9450    11.5640    11.0890     7.6410    96.7940     0.1200     0.1240     2.4820
  116.5000   -41.0080    11.5640    11.1430     7.6360    95.8300     0.1040     0.1230     2.4820
  117.0000   -41.0700    11.5630    11.0880     7.6320    96.9590     0.0870     0.1290     2.4760
  117.5000   -41.1330    11.5630    11.0330     7.6280    98.6650     0.0700     0.1350     2.4670
  118.0000   -41.1950    11.4890    10.9790     7.6230   100.2490     0.0520     0.1410     2.4530
  118.5000   -41.2580    11.4100    10.9250     7.6190   102.1270     0.0440     0.1450     2.4440
  119.0000   -41.3200    11.3310    10.8700     7.6140   102.2280     0.0460     0.1440     2.4490
  119.5000   -41.3830    11.2520    10.8160     7.6100    98.7270     0.0470     0.1420     2.4530
  120.0000   -41.4450    11.1720    10.7610     7.6060    99.6530     0.0480     0.1410     2.4550
  120.5000   -41.5080    11.0930    10.7170     7.6010   102.9290     0.0490     0.1390     2.4550
  121.0000   -41.5700    11.0130    10.6810     7.5970   106.0480     0.0500     0.1400     2.4550
  121.5000   -41.6330    10.9380    10.6440     7.5920   108.1840     0.0510     0.1460     2.4480
  122.0000   -41.6950    10.9020    10.6080     7.5880   107.1030     0.0510     0.1500     2.4410
  122.5000   -41.7580    10.8670    10.5720     7.5840   105.1180     0.0610     0.1500     2.4360
  123.0000   -41.8180    10.8330    10.5360     7.5790   103.0010     0.0780     0.1380     2.4480
  123.5000   -41.8860    10.7990    10.4990     7.5750   102.1720     0.0960     0.1240     2.4650
  124.0000   -41.9350    10.7640    10.4630     7.5700   102.8990     0.1000     0.1260     2.4860
  124.5000   -42.0750    10.7300    10.4270     7.5660   103.7440     0.0850     0.1280     2.4870
  125.0000   -42.2810    10.6960    10.3900     7.5620   104.6120     0.0710     0.1360     2.4730
  125.5000   -42.4640    10.6620    10.3540     7.5570   105.4550     0.0610     0.1450     2.4600
  126.0000   -42.6560    10.6270    10.2990     7.5530   106.3290     0.0640     0.1370     2.4570
  126.5000   -42.8440    10.5920    10.2370     7.5480   106.6640     0.0670     0.1400     2.4550
  127.0000   -43.0330    10.5570    10.1760     7.5440   106.1760     0.0660     0.1430     2.4530
  127.5000   -43.2230    10.5400    10.1140     7.5390   105.6030     0.0590     0.1470     2.4460
  128.0000   -43.4120    10.5130    10.0530     7.5360   105.0230     0.0530     0.1450     2.4460
  128.5000   -43.6020    10.4650     9.9910     7.5300   104.4480     0.0600     0.1410     2.4550
  129.0000   -43.7910    10.4180     9.9290     7.5360   103.8740     0.0660     0.1360     2.4640
  129.5000   -43.9660    10.3720     9.8680     7.5580   103.2910     0.0660     0.1290     2.4690
  130.0000   -44.0070    10.3260     9.8060     7.5770   102.7280     0.0570     0.1320     2.4650
  130.5000   -44.0370    10.2800     9.7450     7.5980   102.1170     0.0550     0.1360     2.4590
  131.0000   -44.0650    10.2330     9.6830     7.6180   101.7580     0.0530     0.1360     2.4570
  131.5000   -44.0960    10.1870     9.6220     7.6380   102.2040     0.0530     0.1380     2.4600
  132.0000   -44.1250    10.1550     9.5170     7.6580   103.5350     0.0570     0.1390     2.4590
  132.5000   -44.1560    10.0860     9.3950     7.6800   104.9420     0.0620     0.1400     2.4560
  133.0000   -44.1850     9.9430     9.2730     7.6900   106.2820     0.0690     0.1420     2.4520
  133.5000   -44.2150     9.8000     9.1500     7.6810   107.6660     0.0750     0.1390     2.4550
  134.0000   -44.2450     9.6560     9.0280     7.6750   106.3100     0.0700     0.1350     2.4630
  134.5000   -44.2750     9.5130     8.9060     7.6670   105.1140     0.0620     0.1360     2.4610
  135.0000   -44.3050     9.3700     8.7840     7.6600   106.0860     0.0550     0.1390     2.4590
  135.5000   -44.3340     9.2260     8.5920     7.6520   107.3300     0.0520     0.1410     2.4570
  136.0000   -44.3640     9.0840     8.6090     7.6450   108.5210     0.0520     0.1430     2.4560
  136.5000   -44.3860     9.1380     8.6500     7.6380   109.7600     0.0520     0.1410     2.4530
  137.0000   -44.4010     9.1910     8.6910     7.6300   109.8060     0.0520     0.1370     2.4550
