~VERSION INFORMATION
 VERS.                2.0:   CWLS LOG ASCII STANDARD - VERSION 2.0
 WRAP.                 NO:   ONE LINE PER DEPTH STEP
~WELL INFORMATION
#MNEM.UNIT      DATA TYPE    INFORMATION
#----------   ------------   ------------------------------
 STRT.F           14.5000:   START DEPTH
 STOP.F          750.0000:   STOP DEPTH
 STEP.F            0.5000:   STEP LENGTH
 NULL.          -999.2500:   NO VALUE
 COMP. FENIX & SCISSON INC:   COMPANY
 WELL.       NPR 3 #24-14:   WELL
 FLD .             TEAPOT:   FIELD
 LOC .      S14 T38N R78W:   LOCATION
 CNTY.            NATRONA:   COUNTY
 STAT.            WYOMING:   STATE
 CTRY. UNITED STATES OF AMERICA:   COUNTRY
 SRVC.           BIRDWELL:   SERVICE COMPANY
 DATE.        27-DEC-1978:   LOGDATE
 API .       490251075900:   API NUMBER
~CURVE INFORMATION
#MNEM.UNIT       API CODE    CURVE DESCRIPTION
#----------   ------------   ------------------------------
 DEPT.F                  :   
 SPR .MV     05 010 01 00:   SPONTANEOUS POTENTIAL FROM RES.
 SN  .OHMM   05 040 16 00:   SHORT NORMAL 16"
 IL  .OHMM   05 120 00 00:   INDUCTION LOG
 GRD .GAPI   45 310 01 00:   GAMMA RAY FROM DENSITY LOG
 CALD.IN     45 280 60 00:   CALIPER
 RHOB.G/C3   45 350 01 00:   BULK DENSITY
 DPHI.DEC    45 890 12 00:   DENSITY POROSITY SANDSTONE
 CORR.G/C3   45 356 01 00:   DENSITY CORRECTION
~PARAMETER INFORMATION
#MNEM.UNIT          VALUE    DESCRIPTION
#----------   ------------   ------------------------------
 PD  .                 GL:   PERMANENT DATUM
 EPD .F              5209:   ELEVATION PERMANENT DATUM
 LMF .                 KB:   LOG MEASURED FROM
 DAPD.F                 4:   FEET ABOVE PERMANENT DATUM
 DMF .                 KB:   DRILLING MEASURED FROM
 EKB .F              5212:   KELLING BUSHING
 EGL .F              5209:   GROUND LEVEL
 DATE.           12-27-78:   RUN DATE
 RUN .                  1:   RUN NUMBER
 DD  .F               750:   DEPTH DRILLER
 DL  .F               742:   DEPTH LOGGER
 BLI .F               735:   BOTTOM LOG INTERVAL
 TLI .F                35:   TOP LOG INTERVAL
 CS  .IN            8.625:   CASING SIZE
 CBD .F                40:   CASING BOTTOM DRILLER
 CBL .F                32:   CASING BOTTOM LOGGER
 BS  .IN            7.875:   BIT SIZE
 BSD .F               750:   BIT SIZE AT DEPTH
 DFT .                KCL:   DRILLING FLUID TYPE
 DFD .                8.6:   DRILLING FLUID DENSITY
 DFV .                 35:   DRILLING FLUID VISCOSITY
 DFPH.                9.4:   DRILLING FLUID PH
 DFL .               12.4:   DRILLING FLUID LOSS
 MSS .           FLOWLINE:   MUD SAMPLE SOURCE
 RMS .OHMM            .38:   RESISTIVITY MUD SAMPLE
 MST .F                58:   MUD SAMPLE TEMPERATURE
 RMF .OHMM            .38:   RESISTIVITY MUD FILTRATE SAMPLE
 MFST.F                58:   MUD FILTRATE SAMPLE TEMPERATURE
 RMC .OHMM            .36:   RESISTIVITY MUD CAKE
 MCST.F                60:   MUD CAKE SAMPLE TEMPERATURE
 MFSS.           MEASURED:   MUD FILTRATE SAMPLE SOURCE
 MCSS.           MEASURED:   MUD CAKE SAMPLE SOURCE
 RMB .OHMM            .37:   RESISTIVITY MUD AT BHT
 BHT .F                59:   BOTTOM HOLE TEMPERATURE
 TCS .HRS               2:   TIME CURCULATED STOPPED
 MRT .F                59:   MAXIMUM RECORDED TEMPERATURE
 LUN .               2958:   LOGGING UNIT NUMBER
 LUL .             CASPER:   LOGGING UNIT LOCATION
 ENGI.         B. ROLLINS:   RECORDING ENGINEER
 WITN.           DINSMORE:   WITNESSED BY
 CLNT.            A2DTECH:   CLIENT CODE
 ORIG.           5" PRINT:   ORIGIN OF DATA
 UWI .       490251075900:   UNIQUE WELL ID
 DICO. A2D Technologies, Inc.:   DIGITIZING COMPANY
~OTHER INFORMATION
~A   DEPT      SPR         SN         IL         GRD      CALD       RHOB       DPHI       CORR   
# ...
  622.0000   -57.1160    11.9950     9.8490    83.8980     8.0130     2.4650     0.1490     0.0240
  622.5000   -57.3890    12.0870     9.8470    84.0150     8.0060     2.4340     0.1740     0.0300
  623.0000   -57.4980    12.1790     9.9040    83.1380     8.0060     2.4010     0.2010     0.0400
  623.5000   -57.4990    12.2710     9.9540    80.3580     8.0060     2.3690     0.2160     0.0510
  624.0000   -57.5000    12.3910    10.0050    79.6460     8.0060     2.3380     0.2250     0.0570
  624.5000   -57.5000    12.5140    10.2940    76.0040     8.0040     2.3080     0.2240     0.0640
  625.0000   -57.4990    12.6250    10.8280    71.6120     7.9570     2.3050     0.2200     0.0800
  625.5000   -57.4980    13.1400    11.3610    66.7060     7.9080     2.3090     0.2140     0.0990
  626.0000   -57.4570    13.6870    11.8370    66.5820     7.8830     2.3220     0.1960     0.1170
  626.5000   -57.3540    14.4110    13.1800    66.3750     7.9830     2.3460     0.1630     0.1520
  627.0000   -57.0050    15.3320    14.4930    65.4440     8.0210     2.3690     0.1340     0.2030
  627.5000   -56.2700    16.4410    15.3900    64.3320     8.0130     2.4350     0.0880     0.2510
  628.0000   -55.3650    17.5490    16.6380    65.2050     8.0070     2.5070     0.0860     0.2510
  628.5000   -53.7850    18.5370    16.5480    67.0190     8.0570     2.5380     0.1140     0.2020
  629.0000   -53.5110    19.4150    16.4220    68.7790     8.1050     2.5090     0.1350     0.1560
  629.5000   -53.5020    20.0520    16.2970    68.7620     8.1050     2.4660     0.1460     0.1110
  630.0000   -53.5010    20.2070    16.1720    67.7790     8.1050     2.4370     0.1690     0.0840
  630.5000   -53.5000    20.3710    16.0470    65.8370     8.1050     2.4000     0.1620     0.0990
  631.0000   -53.5000    20.3030    15.9220    65.7540     8.1050     2.4010     0.1390     0.1270
  631.5000   -53.5000    20.2310    15.6970    67.4470     8.1050     2.4430     0.1190     0.1590
  632.0000   -53.5000    20.0260    15.4400    69.1320     8.0970     2.4760     0.1050     0.2070
  632.5000   -53.5000    19.5760    15.1830    69.8460     8.0900     2.5070     0.1190     0.2350
  633.0000   -53.5000    19.1270    14.9260    68.4970     8.0830     2.5160     0.1340     0.2320
  633.5000   -53.5000    18.7080    14.7480    68.4520     8.0760     2.4820     0.1340     0.2320
  634.0000   -53.5020    18.4410    14.7080    69.4170     8.0680     2.4560     0.1320     0.2300
  634.5000   -53.5480    18.1730    14.6680    71.1880     8.0590     2.4820     0.1300     0.2130
  635.0000   -53.7660    17.9060    14.6270    73.5280     8.0490     2.4910     0.1440     0.1710
  635.5000   -53.9810    17.6390    14.2850    75.3980     8.0390     2.4590     0.1580     0.1340
  636.0000   -54.1950    17.3720    13.9360    75.7320     8.0300     2.4300     0.1650     0.1170
  636.5000   -54.4100    17.0180    13.5880    75.5650     7.9690     2.4030     0.1640     0.1190
  637.0000   -54.6330    16.6050    13.0980    73.8360     7.9160     2.4060     0.1730     0.1010
  637.5000   -54.6970    16.1920    13.1120    72.0830     7.9480     2.3970     0.1850     0.0860
  638.0000   -54.7000    15.7780    13.1360    72.9060     7.9850     2.3710     0.1820     0.0760
  638.5000   -54.7010    15.3650    13.1590    74.4350     8.0450     2.3750     0.1850     0.0710
  639.0000   -54.6960    14.9520    13.1820    75.8740     8.1040     2.3760     0.1900     0.0690
  639.5000   -55.0080    14.6270    13.2190    76.4610     8.1620     2.3650     0.1870     0.0710
  640.0000   -55.4670    14.6270    13.2030    76.6020     8.1870     2.3620     0.1820     0.0800
  640.5000   -55.8980    14.6270    13.1650    76.5130     8.1280     2.3780     0.1660     0.0910
  641.0000   -56.0770    14.6270    13.1270    74.7640     8.1730     2.3970     0.1490     0.1030
  641.5000   -56.2440    14.6270    13.0990    73.0540     8.2180     2.4170     0.1460     0.1150
  642.0000   -56.4110    14.6270    13.1270    71.7220     8.2270     2.4360     0.1430     0.1140
  642.5000   -56.5780    14.6270    13.1500    72.5540     8.2310     2.4390     0.1490     0.1040
  643.0000   -56.7450    14.6270    13.1740    74.2340     8.2350     2.4360     0.1500     0.0880
  643.5000   -56.9120    14.6270    13.1970    74.8130     8.2380     2.4310     0.1470     0.0730
  644.0000   -57.0800    14.6270    13.2190    74.8440     8.2420     2.4340     0.1430     0.0630
  644.5000   -57.2490    14.6270    12.9780    75.4710     8.2310     2.4440     0.1390     0.0570
  645.0000   -57.4150    14.6270    12.7490    77.1280     8.2010     2.4470     0.1350     0.0520
  645.5000   -57.7890    14.6270    12.5200    80.6410     8.1700     2.4510     0.1330     0.0470
  646.0000   -58.3900    14.6270    12.2900    84.1860     8.1460     2.4580     0.1320     0.0450
  646.5000   -58.8450    14.6270    12.0670    85.4530     8.1550     2.4590     0.1390     0.0430
  647.0000   -59.1460    14.6270    11.8500    85.9290     8.1630     2.4540     0.1460     0.0420
  647.5000   -59.4490    14.4580    11.6330    85.9090     8.1270     2.4390     0.1510     0.0430
  648.0000   -59.7500    14.3010    11.4170    83.8100     8.0870     2.4320     0.1470     0.0450
  648.5000   -60.3050    14.1440    11.2520    80.8420     8.0870     2.4310     0.1400     0.0530
  649.0000   -61.1210    13.9700    11.1410    80.5150     8.0880     2.4390     0.1260     0.0640
  649.5000   -61.7730    13.6570    11.0310    80.3940     8.0900     2.4610     0.1180     0.0850
  650.0000   -61.9990    13.3420    10.9900    80.2820     8.0920     2.4840     0.1200     0.1070
  650.5000   -62.2390    13.3120    10.9800    80.1420     8.0930     2.4860     0.1230     0.1270
  651.0000   -62.1940    13.2850    10.9700    79.3640     8.0950     2.4800     0.1310     0.1360
  651.5000   -62.0550    13.2590    10.9590    78.7130     8.0970     2.4720     0.1380     0.1360
  652.0000   -61.9130    13.2320    10.9490    78.9380     8.0980     2.4550     0.1450     0.1280
  652.5000   -61.7700    13.2200    10.9380    79.9130     8.1000     2.4400     0.1510     0.1100
  653.0000   -61.7830    13.2190    10.9280    82.8390     8.1020     2.4320     0.1500     0.0980
  653.5000   -61.9370    13.2190    10.9180    82.9150     8.1030     2.4310     0.1460     0.0940
  654.0000   -62.0900    13.2190    10.9070    80.9500     8.1050     2.4350     0.1480     0.0900
  654.5000   -62.2440    13.2190    10.8970    77.7570     8.0990     2.4360     0.1520     0.0920
  655.0000   -62.3980    13.2110    10.9180    77.3900     8.0910     2.4280     0.1540     0.0950
  655.5000   -62.5420    13.1570    10.9400    81.5440     8.0830     2.4270     0.1570     0.0970
  656.0000   -62.8140    13.1040    10.9620    82.9460     8.0760     2.4190     0.1580     0.1050
  656.5000   -63.0880    13.0500    10.9840    79.5240     8.0680     2.4180     0.1560     0.1150
  657.0000   -63.1010    12.9960    11.0060    78.1510     8.0600     2.4210     0.1520     0.1240
  657.5000   -63.1000    12.9430    11.0280    77.8690     8.0520     2.4280     0.1460     0.1320
  658.0000   -63.1000    12.8890    11.0510    77.9360     8.0380     2.4370     0.1460     0.1330
  658.5000   -63.1000    12.8350    11.0730    78.4250     7.9730     2.4390     0.1470     0.1340
  659.0000   -63.1000    12.7820    11.0990    78.5670     7.9050     2.4360     0.1390     0.1350
  659.5000   -63.1000    12.7280    11.0590    77.6460     7.9260     2.4400     0.1460     0.1360
  660.0000   -63.1010    12.6750    11.0080    76.2480     7.9810     2.4480     0.1600     0.1370
  660.5000   -63.1350    12.6210    10.9570    74.0060     8.0370     2.4300     0.1680     0.1450
  661.0000   -63.1710    12.5670    10.9060    73.5430     8.0510     2.4100     0.1640     0.1930
  661.5000   -63.2070    12.5140    10.8550    74.2210     8.0580     2.3950     0.1420     0.2500
  662.0000   -63.2430    12.4600    10.8050    75.8120     8.0650     2.4210     0.1120     0.2760
