~VERSION INFORMATION
 VERS.                2.0:   CWLS LOG ASCII STANDARD - VERSION 2.0
 WRAP.                 NO:   ONE LINE PER DEPTH STEP
~WELL INFORMATION
#MNEM.UNIT      DATA TYPE    INFORMATION
#----------   ------------   ------------------------------
 STRT.F           27.0000:   START DEPTH
 STOP.F          992.0000:   STOP DEPTH
 STEP.F            0.5000:   STEP LENGTH
 NULL.          -999.2500:   NO VALUE
 COMP. FENIX & SCISSON INC:   COMPANY
 WELL. NPR 3  77- S -27 #77-27:   WELL
 FLD .             TEAPOT:   FIELD
 LOC .      S27 T39N R78W:   LOCATION
 CNTY.            NATRONA:   COUNTY
 STAT.            WYOMING:   STATE
 CTRY. UNITED STATES OF AMERICA:   COUNTRY
 SRVC.            Unknown:   SERVICE COMPANY
 DATE.        09-SEP-1978:   LOGDATE
 API .       490251069700:   API NUMBER
~CURVE INFORMATION
#MNEM.UNIT       API CODE    CURVE DESCRIPTION
#----------   ------------   ------------------------------
 DEPT.F                  :   
 SPR .MV     05 010 01 00:   SPONTANEOUS POTENTIAL FROM RES.
 SN  .OHMM   05 040 16 00:   SHORT NORMAL 16"
 ILD .OHMM   05 120 46 00:   INDUCTION LOG DEEP
 CALD.IN     45 280 60 00:   CALIPER
 GRD .GAPI   45 310 01 00:   GAMMA RAY FROM DENSITY LOG
 RHOB.G/C3   45 350 01 00:   BULK DENSITY
 CORR.G/C3   45 356 01 00:   DENSITY CORRECTION
 DPHI.DEC    45 890 12 00:   DENSITY POROSITY SANDSTONE
~PARAMETER INFORMATION
#MNEM.UNIT          VALUE    DESCRIPTION
#----------   ------------   ------------------------------
 PD  .                 GL:   PERMANENT DATUM
 EPD .F              5069:   ELEVATION PERMANENT DATUM
 LMF .                 KB:   LOG MEASURED FROM
 DAPD.F                 4:   FEET ABOVE PERMANENT DATUM
 DMF .                 KB:   DRILLING MEASURED FROM
 EKB .F              5073:   KELLING BUSHING
 EGL .F              5069:   GROUND LEVEL
 DATE.           9-9-1978:   RUN DATE
 RUN .                  1:   RUN NUMBER
 DD  .F               990:   DEPTH DRILLER
 DL  .F               998:   DEPTH LOGGER
 BLI .F               992:   BOTTOM LOG INTERVAL
 TLI .F                50:   TOP LOG INTERVAL
 CS  .IN            8.625:   CASING SIZE
 CBD .F                40:   CASING BOTTOM DRILLER
 BS  .IN            7.875:   BIT SIZE
 BSD .F               990:   BIT SIZE AT DEPTH
 DFT .                KCL:   DRILLING FLUID TYPE
 DFD .                8.7:   DRILLING FLUID DENSITY
 DFV .                 34:   DRILLING FLUID VISCOSITY
 DFPH.                  9:   DRILLING FLUID PH
 DFL .                  8:   DRILLING FLUID LOSS
 MSS .          FLOW LINE:   MUD SAMPLE SOURCE
 RMS .OHMM             .4:   RESISTIVITY MUD SAMPLE
 MST .F                79:   MUD SAMPLE TEMPERATURE
 RMF .OHMM            .12:   RESISTIVITY MUD FILTRATE SAMPLE
 MFST.F                84:   MUD FILTRATE SAMPLE TEMPERATURE
 RMC .OHMM            .34:   RESISTIVITY MUD CAKE
 MCST.F                84:   MUD CAKE SAMPLE TEMPERATURE
 MFSS.               MEAS:   MUD FILTRATE SAMPLE SOURCE
 MCSS.               MEAS:   MUD CAKE SAMPLE SOURCE
 TCS .HRS               3:   TIME CURCULATED STOPPED
 LUN .               2958:   LOGGING UNIT NUMBER
 LUL .               CASP:   LOGGING UNIT LOCATION
 ENGI.             MILLER:   RECORDING ENGINEER
 WITN.              AMEND:   WITNESSED BY
 CLNT.            A2DTECH:   CLIENT CODE
 ORIG.           5" PRINT:   ORIGIN OF DATA
 UWI .       490251069700:   UNIQUE WELL ID
 DICO. A2D Technologies, Inc.:   DIGITIZING COMPANY
~OTHER INFORMATION
~A   DEPT      SPR         SN        ILD       CALD        GRD       RHOB       CORR       DPHI   
# ...
  472.5000   -78.2977     6.2282     6.3943     7.7559   133.2670     2.4986     0.0059     0.1065
  473.0000   -78.3152     6.2074     6.3743     7.7688   133.3593     2.4967     0.0064     0.1072
  473.5000   -78.3328     6.1867     6.3544     7.7852   132.8143     2.4950     0.0069     0.1076
  474.0000   -78.3503     6.1805     6.3345     7.7848   132.2796     2.4950     0.0073     0.1056
  474.5000   -78.3679     6.1806     6.3146     7.7563   131.7503     2.4962     0.0060     0.1034
  475.0000   -78.3854     6.1806     6.2948     7.7283   132.3265     2.5010     0.0029     0.1028
  475.5000   -78.4030     6.1806     6.2751     7.7002   134.0735     2.5041    -0.0002     0.1105
  476.0000   -78.4206     6.1806     6.2554     7.6722   135.6250     2.4950    -0.0033     0.1175
  476.5000   -78.4381     6.1805     6.2377     7.6294   135.8338     2.4859    -0.0063     0.1252
  477.0000   -78.4557     6.1805     6.2378     7.4807   135.2944     2.4767    -0.0085     0.1257
  477.5000   -78.4732     6.1895     6.2378     7.2879   134.9234     2.4675    -0.0070     0.1235
  478.0000   -78.4908     6.2196     6.3019     7.3755   135.3847     2.4681    -0.0038     0.1220
  478.5000   -78.5083     6.2499     6.3668     7.4762   135.6544     2.4722    -0.0010     0.1241
  479.0000   -78.5259     6.2803     6.4323     7.5759   135.6493     2.4693     0.0019     0.1270
  479.5000   -78.5435     6.3108     6.4984     7.6347   135.6621     2.4643     0.0046     0.1280
  480.0000   -78.5610     6.3414     6.5653     7.6546   134.8480     2.4595     0.0146     0.1247
  480.5000   -78.5786     6.3723     6.6328     7.6529   133.5753     2.4638     0.0270     0.1188
  481.0000   -78.5962     6.4032     6.7010     7.6409   132.2868     2.4728     0.0394     0.1100
  481.5000   -78.6137     6.4343     6.7699     7.6290   131.0148     2.4803     0.0562     0.0991
  482.0000  -999.2500     6.4656     6.8396     7.6169   130.6340     2.4843     0.0815     0.0882
  482.5000  -999.2500     6.4970     6.9005     7.6164   131.0515     2.5057     0.1063     0.0769
  483.0000  -999.2500     6.5300     6.8770     7.6462   132.0787     2.5283     0.1037     0.0815
  483.5000  -999.2500     6.5163     6.8536     7.6745   133.0817     2.5420     0.0651     0.0900
  484.0000  -999.2500     6.4992     6.8303     7.6666   134.0710     2.5298     0.0322     0.0956
  484.5000  -999.2500     6.4821     6.8070     7.6457   133.8715     2.5202     0.0076     0.0964
  485.0000  -999.2500     6.4651     6.7838     7.6250   132.9987     2.5106     0.0073     0.0964
  485.5000  -999.2500     6.4481     6.7607     7.6043   132.1286     2.5009     0.0068     0.0964
  486.0000  -999.2500     6.4311     6.7377     7.5837   131.2572     2.4960     0.0063     0.0968
  486.5000  -999.2500     6.4136     6.7147     7.5630   130.3874     2.4971     0.0058     0.0982
  487.0000  -999.2500     6.4223     6.6919     7.5422   129.5173     2.5002     0.0052     0.1001
  487.5000  -999.2500     6.4333     6.6691     7.5393   129.0228     2.5032     0.0047     0.1030
  488.0000  -999.2500     6.4443     6.6532     7.5589   129.1108     2.5048     0.0042     0.1067
  488.5000  -999.2500     6.4553     6.6535     7.5781   130.7864     2.4994     0.0037     0.1103
  489.0000  -999.2500     6.4664     6.6539     7.5973   132.4749     2.4937     0.0040     0.1140
  489.5000  -999.2500     6.4854     6.6532     7.6149   133.2566     2.4880     0.0075     0.1177
  490.0000  -999.2500     6.5126     6.7147     7.6154   133.2634     2.4824     0.0130     0.1188
  490.5000  -999.2500     6.5399     6.7879     7.6159   132.7800     2.4780     0.0263     0.0992
  491.0000  -999.2500     6.5674     6.8991     7.5911   131.4541     2.4817     0.0472     0.0712
  491.5000  -999.2500     6.6006     7.0122     7.5630   130.1232     2.5091     0.0680     0.0433
  492.0000  -999.2500     6.6856     7.1271     7.5347   128.7949     2.5614     0.0734     0.0271
  492.5000  -999.2500     6.7717     7.2439     7.5065   128.6736     2.6139     0.0712     0.0377
  493.0000  -999.2500     6.8589     7.3626     7.4785   132.8766     2.6350     0.0528     0.0614
  493.5000  -999.2500     6.9029     7.4832     7.4776   137.4847     2.6054     0.0304     0.0852
  494.0000  -999.2500     6.8807     7.6389     7.4834   137.9945     2.5712     0.0117     0.0937
  494.5000  -999.2500     6.8074     7.5704     7.4891   132.8264     2.5375     0.0094     0.0974
  495.0000  -999.2500     6.7349     7.4352     7.4949   128.4540     2.5169     0.0100     0.0985
  495.5000  -999.2500     6.6632     7.3024     7.5006   124.1236     2.5136     0.0103     0.0998
  496.0000  -999.2500     6.5922     7.1720     7.5064   121.1878     2.5107     0.0107     0.1010
  496.5000  -999.2500     6.5220     7.0439     7.5121   123.9955     2.5078     0.0110     0.1022
  497.0000  -999.2500     6.4524     6.9181     7.5150   127.3689     2.5050     0.0113     0.1034
  497.5000  -999.2500     6.3837     6.7945     7.5150   130.4352     2.5022     0.0117     0.1046
  498.0000  -999.2500     6.3156     6.6731     7.5150   129.2543     2.4995     0.0120     0.1044
  498.5000  -999.2500     6.2955     6.5540     7.5150   128.0230     2.4931     0.0124     0.1029
  499.0000  -999.2500     6.2955     6.4719     7.5150   128.2404     2.4864     0.0127     0.1013
  499.5000  -999.2500     6.2955     6.4719     7.5150   127.7437     2.4797     0.0130     0.1013
  500.0000  -999.2500     6.2955     6.4719     7.5150   126.7374     2.4830     0.0134     0.1020
  500.5000  -999.2500     6.3250     6.4719     7.5148   125.7413     2.4890     0.0120     0.1027
  501.0000   -78.2237     6.3840     6.4830     7.5139   124.7158     2.4951     0.0100     0.1033
  501.5000   -78.2312     6.4436     6.5808     7.5547   124.3401     2.5012     0.0079     0.1040
  502.0000   -78.2306     6.5037     6.6801     7.5995   127.7042     2.5022     0.0059     0.1053
  502.5000   -78.2306     6.5643     6.7809     7.6446   130.7487     2.4990     0.0038     0.1072
  503.0000   -78.2306     6.6255     6.8832     7.6895   131.8406     2.4959     0.0019     0.1091
  503.5000   -78.2306     6.6873     6.9871     7.6954   134.0832     2.4928    -0.0006     0.1108
  504.0000   -78.2306     6.7497     7.0963     7.6879   136.0856     2.4897     0.0012     0.1103
  504.5000   -78.2306     6.9029     7.1165     7.6522   136.3071     2.4880     0.0094     0.1093
  505.0000   -78.2306     6.9029     7.1430     7.6177   136.3732     2.4887     0.0183     0.1061
  505.5000   -78.2306     6.9668     7.1695     7.5833   136.4327     2.4932     0.0273     0.0956
  506.0000   -78.2306     6.9429     7.1962     7.5492   136.2528     2.5051     0.0363     0.0912
  506.5000   -78.2306     6.9127     7.2229     7.5118   132.2301     2.5166     0.0335     0.0939
  507.0000   -78.2306     6.8827     7.2553     7.4012   127.6028     2.5233     0.0276     0.1006
  507.5000   -78.2306     6.8528     7.2891     7.3305   124.1060     2.5135     0.0216     0.1074
  508.0000   -78.2306     6.8230     7.3231     7.4723   123.2654     2.5022     0.0195     0.1116
  508.5000   -78.2306     6.7934     7.3626     7.6447   124.8729     2.4907     0.0219     0.1049
  509.0000   -78.2306     6.7639     7.3327     7.6967   126.7623     2.4910     0.0340     0.0970
  509.5000   -78.2306     6.7345     7.2852     7.6944   129.6267     2.5057     0.0451     0.0892
  510.0000   -78.2307     6.7053     7.2384     7.6915   132.4559     2.5161     0.0496     0.0899
  510.5000   -78.2309     6.6762     7.1919     7.6893   134.4269     2.5185     0.0500     0.0931
  511.0000   -78.2304     6.6472     7.1456     7.6871   133.6279     2.5113     0.0512     0.0964
  511.5000   -78.2038     6.6183     7.0997     7.6849   132.4142     2.5089     0.0525     0.0996
  512.0000   -78.0880     6.5922     7.0541     7.6827   132.4572     2.5090     0.0534     0.1029
  512.5000   -77.9766     6.5974     7.0273     7.6805   132.2464     2.5063     0.0476     0.1052
