~VERSION INFORMATION
 VERS.                2.0:   CWLS LOG ASCII STANDARD - VERSION 2.0
 WRAP.                 NO:   ONE LINE PER DEPTH STEP
~WELL INFORMATION
#MNEM.UNIT      DATA TYPE    INFORMATION
#----------   ------------   ------------------------------
 STRT.F           10.0000:   START DEPTH
 STOP.F          833.5000:   STOP DEPTH
 STEP.F            0.5000:   STEP LENGTH
 NULL.          -999.2500:   NO VALUE
 COMP. FENIX & SCISSON INC:   COMPANY
 WELL.       NPR 3 #46-11:   WELL
 FLD .             TEAPOT:   FIELD
 LOC .      S11 T38N R78W:   LOCATION
 CNTY.            NATRONA:   COUNTY
 STAT.            WYOMING:   STATE
 CTRY. UNITED STATES OF AMERICA:   COUNTRY
 SRVC.           BIRDWELL:   SERVICE COMPANY
 DATE.        17-DEC-1978:   LOGDATE
 API .       490251075600:   API NUMBER
~CURVE INFORMATION
#MNEM.UNIT       API CODE    CURVE DESCRIPTION
#----------   ------------   ------------------------------
 DEPT.F                  :   
 GRD .GAPI   45 310 01 00:   GAMMA RAY FROM DENSITY LOG
 CALD.IN     45 280 60 00:   CALIPER
 CORR.G/C3   45 356 01 00:   DENSITY CORRECTION
 DPHI.DEC    45 890 12 00:   DENSITY POROSITY SANDSTONE
 RHOB.G/C3   45 350 01 00:   BULK DENSITY
 SPR .MV     05 010 01 00:   SPONTANEOUS POTENTIAL FROM RES.
 SN  .OHMM   05 040 16 00:   SHORT NORMAL 16"
 IL  .OHMM   05 120 00 00:   INDUCTION LOG
~PARAMETER INFORMATION
#MNEM.UNIT          VALUE    DESCRIPTION
#----------   ------------   ------------------------------
 PD  .                 GL:   PERMANENT DATUM
 EPD .F              5193:   ELEVATION PERMANENT DATUM
 LMF .                 KB:   LOG MEASURED FROM
 DAPD.F                 4:   FEET ABOVE PERMANENT DATUM
 DMF .                 KB:   DRILLING MEASURED FROM
 EKB .F              5197:   KELLING BUSHING
 EGL .F              5193:   GROUND LEVEL
 DATE.           12-17-78:   RUN DATE
 RUN .                  1:   RUN NUMBER
 DD  .F               845:   DEPTH DRILLER
 DL  .F               834:   DEPTH LOGGER
 BLI .F               827:   BOTTOM LOG INTERVAL
 TLI .F                60:   TOP LOG INTERVAL
 CS  .IN            8.625:   CASING SIZE
 CBD .F                40:   CASING BOTTOM DRILLER
 CBL .F                42:   CASING BOTTOM LOGGER
 BS  .IN            7.875:   BIT SIZE
 BSD .F               845:   BIT SIZE AT DEPTH
 DFT .                KCL:   DRILLING FLUID TYPE
 DFD .                8.8:   DRILLING FLUID DENSITY
 DFV .                 36:   DRILLING FLUID VISCOSITY
 DFPH.               10.5:   DRILLING FLUID PH
 MSS .          FLOW LINE:   MUD SAMPLE SOURCE
 RMS .OHMM            .34:   RESISTIVITY MUD SAMPLE
 MST .F                62:   MUD SAMPLE TEMPERATURE
 RMF .OHMM            .26:   RESISTIVITY MUD FILTRATE SAMPLE
 MFST.F                66:   MUD FILTRATE SAMPLE TEMPERATURE
 RMC .OHMM            .42:   RESISTIVITY MUD CAKE
 MCST.F                68:   MUD CAKE SAMPLE TEMPERATURE
 MFSS.           MEASURED:   MUD FILTRATE SAMPLE SOURCE
 MCSS.           MEASURED:   MUD CAKE SAMPLE SOURCE
 RMB .OHMM           .288:   RESISTIVITY MUD AT BHT
 BHT .F                73:   BOTTOM HOLE TEMPERATURE
 TCS .HRS               4:   TIME CURCULATED STOPPED
 MRT .F                73:   MAXIMUM RECORDED TEMPERATURE
 LUN .               3006:   LOGGING UNIT NUMBER
 LUL .             CASPER:   LOGGING UNIT LOCATION
 ENGI.         B. ROLLINS:   RECORDING ENGINEER
 WITN.         RICHARDSON:   WITNESSED BY
 CLNT.            A2DTECH:   CLIENT CODE
 ORIG.           5" PRINT:   ORIGIN OF DATA
 UWI .       490251075600:   UNIQUE WELL ID
 DICO. A2D Technologies, Inc.:   DIGITIZING COMPANY
~OTHER INFORMATION
~A   DEPT      GRD       CALD       CORR       DPHI       RHOB        SPR         SN         IL   
# ...
  253.0000    88.4360     8.1200     0.0060     0.1820     2.3660   -16.3710    12.2760    13.0550
  253.5000    89.1410     8.1350     0.0040     0.1820     2.3670   -17.9560    12.0580    12.8740
  254.0000    89.8490     8.1500     0.0030     0.1820     2.3670   -19.3350    11.9170    12.6940
  254.5000    90.4860     8.1660     0.0090     0.1760     2.3690   -20.8460    11.8410    12.5680
  255.0000    90.4970     8.1570     0.0150     0.1630     2.3750   -21.7320    11.7650    12.4610
  255.5000    90.4950     8.1390     0.0200     0.1510     2.3970   -22.0930    11.6890    12.3550
  256.0000    90.1500     8.1210     0.0200     0.1380     2.4190   -22.3870    11.6130    12.2480
  256.5000    89.4250     8.1030     0.0160     0.1290     2.4410   -22.5430    11.5370    12.1410
  257.0000    88.7050     8.0850     0.0120     0.1350     2.4450   -22.6830    11.4610    12.0350
  257.5000    88.2990     8.0670     0.0070     0.1410     2.4430   -22.6710    11.3850    11.7920
  258.0000    89.8360     8.0500     0.0030     0.1360     2.4410   -22.6530    11.3080    11.2020
  258.5000    92.7080     8.0650     0.0020     0.1290     2.4490   -22.6310    11.2320    10.6130
  259.0000    98.2590     8.0830     0.0020     0.1220     2.4600   -22.6110    11.1560    10.0230
  259.5000   103.7220     8.1000     0.0020     0.1150     2.4720   -22.5920    10.9700     9.4340
  260.0000   109.9730     8.1110     0.0020     0.1100     2.4830   -22.5720    10.4540     8.8440
  260.5000   108.3110     8.1120     0.0020     0.1150     2.4840   -22.5520     9.9370     8.3260
  261.0000   105.5430     8.1140     0.0020     0.1190     2.4810   -22.5330     9.4210     8.0430
  261.5000   102.7150     8.1150     0.0020     0.1230     2.4760   -22.5130     8.9050     7.8860
  262.0000    99.8740     8.1170     0.0020     0.1200     2.4710   -22.4940     8.3920     7.8060
  262.5000    97.4440     8.1180     0.0020     0.1180     2.4690   -22.4740     8.1360     7.7260
  263.0000   104.8270     8.1190     0.0020     0.1190     2.4690   -22.4550     8.0870     7.6460
  263.5000   106.3620     8.1210     0.0020     0.1210     2.4680   -22.4350     8.0900     7.6470
  264.0000   106.1230     8.1220     0.0020     0.1230     2.4630   -22.4160     8.0930     7.6490
  264.5000   105.8560     8.1240     0.0020     0.1240     2.4590   -22.3960     8.0950     7.6510
  265.0000   105.5950     8.1250     0.0020     0.1260     2.4580   -22.3770     8.0980     7.6520
  265.5000   105.9340     8.1270     0.0020     0.1280     2.4570   -22.3570     8.1000     7.6540
  266.0000   106.9580     8.1280     0.0020     0.1290     2.4550   -22.3370     8.1030     7.6560
  266.5000   106.4540     8.1300     0.0020     0.1300     2.4530   -22.3190     8.1060     7.6570
  267.0000   105.1590     8.1250     0.0020     0.1270     2.4540   -22.2950     8.1080     7.6590
  267.5000   103.9220     8.1200     0.0020     0.1240     2.4560   -22.3130     8.1110     7.6610
  268.0000   103.5570     8.1140     0.0020     0.1250     2.4570   -22.3680     8.1130     7.6620
  268.5000   103.2150     8.1080     0.0020     0.1270     2.4590   -22.4190     8.1160     7.6640
  269.0000   103.4130     8.1030     0.0020     0.1260     2.4590   -22.4700     8.1190     7.6660
  269.5000   103.9330     8.0970     0.0020     0.1250     2.4570   -22.5220     8.1210     7.6670
  270.0000   102.7870     8.0920     0.0020     0.1240     2.4560   -22.5740     8.1240     7.6690
  270.5000   100.6930     8.0860     0.0020     0.1270     2.4550   -22.6250     8.1260     7.6710
  271.0000   100.1850     8.0800     0.0020     0.1350     2.4530   -22.6770     8.1290     7.6730
  271.5000   101.5280     8.0750     0.0020     0.1320     2.4520   -22.7280     8.1320     7.6740
  272.0000   102.8630     8.0690     0.0020     0.1270     2.4530   -22.7800     8.1340     7.6760
  272.5000   103.1720     8.0640     0.0020     0.1270     2.4570   -22.8310     8.1370     7.6780
  273.0000   103.2330     8.0580     0.0020     0.1270     2.4610   -22.8830     8.1390     7.6790
  273.5000   104.8750     8.0520     0.0020     0.1270     2.4600   -22.9340     8.1420     7.6810
  274.0000   106.7900     8.0670     0.0020     0.1250     2.4600   -22.9860     8.1450     7.6830
  274.5000   108.7310     8.0930     0.0020     0.1210     2.4630   -23.0370     8.1470     7.6840
  275.0000   109.0850     8.1200     0.0020     0.1170     2.4680   -23.0890     8.1500     7.6860
  275.5000   109.0970     8.1470     0.0020     0.1130     2.4730   -23.1400     8.1530     7.6880
  276.0000   109.0980     8.1730     0.0020     0.1130     2.4780   -23.1920     8.1550     7.6890
  276.5000   109.0950     8.1900     0.0020     0.1170     2.4810   -23.2440     8.1580     7.6910
  277.0000   109.0440     8.1890     0.0020     0.1210     2.4750   -23.2950     8.1600     7.6930
  277.5000   108.7800     8.1560     0.0020     0.1230     2.4700   -23.3460     8.1630     7.6940
  278.0000   107.9390     8.1210     0.0020     0.1200     2.4680   -23.3990     8.1660     7.6960
  278.5000   105.9860     8.0870     0.0020     0.1170     2.4710   -23.4500     8.1680     7.6980
  279.0000   103.8460     8.0520     0.0020     0.1140     2.4740   -23.4910     8.1710     7.6990
  279.5000   101.6940     8.0170     0.0020     0.1100     2.4770   -23.4700     8.1730     7.7010
  280.0000    99.5360     8.0220     0.0020     0.1120     2.4800   -23.4520     8.1760     7.7030
  280.5000    97.3680     8.0410     0.0020     0.1140     2.4830   -23.4310     8.1790     7.7050
  281.0000    96.3980     8.0600     0.0020     0.1170     2.4790   -23.4120     8.1810     7.7060
  281.5000    95.7260     8.0790     0.0020     0.1200     2.4740   -23.3920     8.1840     7.7080
  282.0000    95.2450     8.0980     0.0020     0.1230     2.4690   -23.3720     8.1860     7.7100
  282.5000    95.3020     8.1170     0.0020     0.1200     2.4670   -23.3520     8.1890     7.7110
  283.0000    96.9150     8.1370     0.0020     0.1170     2.4690   -23.3320     8.1920     7.7130
  283.5000    98.5800     8.1560     0.0020     0.1150     2.4710   -23.3120     8.1940     7.7150
  284.0000   100.2410     8.1750     0.0020     0.1150     2.4740   -23.2920     8.1970     7.7160
  284.5000   101.9010     8.1950     0.0020     0.1170     2.4740   -23.2720     8.1990     7.7180
  285.0000   103.5600     8.2130     0.0030     0.1170     2.4730   -23.2520     8.2020     7.7200
  285.5000   105.2100     8.2290     0.0030     0.1180     2.4710   -23.2320     8.2050     7.7210
  286.0000   106.1650     8.2160     0.0040     0.1180     2.4700   -23.2120     8.2070     7.7230
  286.5000   105.2190     8.2040     0.0050     0.1200     2.4690   -23.1920     8.2100     7.7250
  287.0000   104.2990     8.1910     0.0050     0.1220     2.4670   -23.1730     8.2120     7.7260
  287.5000   103.4800     8.1790     0.0060     0.1240     2.4630   -23.1530     8.2150     7.7280
  288.0000   103.6450     8.1670     0.0060     0.1260     2.4600   -23.1330     8.2180     7.7300
  288.5000   104.1380     8.1550     0.0050     0.1270     2.4570   -23.1130     8.2200     7.7310
  289.0000   104.6090     8.1430     0.0050     0.1290     2.4540   -23.0930     8.2230     7.7330
  289.5000   105.0740     8.1300     0.0050     0.1300     2.4530   -23.0730     8.2250     7.7350
  290.0000   105.0440     8.1180     0.0040     0.1290     2.4550   -23.0530     8.2280     7.7370
  290.5000   103.3060     8.1100     0.0040     0.1270     2.4570   -23.0330     8.2310     7.7380
  291.0000   101.5500     8.1100     0.0030     0.1260     2.4590   -23.0130     8.2330     7.7400
  291.5000    99.7850     8.1100     0.0030     0.1240     2.4610   -22.9930     8.2360     7.7420
  292.0000    99.8350     8.1100     0.0030     0.1230     2.4640   -22.9730     8.2390     7.7430
  292.5000    99.9880     8.1100     0.0020     0.1210     2.4660   -22.9530     8.2410     7.7450
  293.0000   100.1420     8.1100     0.0020     0.1200     2.4680   -22.9330     8.2440     7.7470
