~VERSION INFORMATION
 VERS.                2.0:   CWLS LOG ASCII STANDARD - VERSION 2.0
 WRAP.                 NO:   ONE LINE PER DEPTH STEP
~WELL INFORMATION
#MNEM.UNIT      DATA TYPE    INFORMATION
#----------   ------------   ------------------------------
 STRT.F           44.0000:   START DEPTH
 STOP.F          462.0000:   STOP DEPTH
 STEP.F            0.5000:   STEP LENGTH
 NULL.          -999.2500:   NO VALUE
 COMP. FENIX & SCISSON INC:   COMPANY
 WELL.    35-SX-3F0 #55-3:   WELL
 FLD .             TEAPOT:   FIELD
 LOC .       S3 T38N R78W:   LOCATION
 CNTY.            NATRONA:   COUNTY
 STAT.            WYOMING:   STATE
 CTRY. UNITED STATES OF AMERICA:   COUNTRY
 SRVC.              Welex:   SERVICE COMPANY
 DATE.        11-JUL-1980:   LOGDATE
 API .       490251083300:   API NUMBER
~CURVE INFORMATION
#MNEM.UNIT       API CODE    CURVE DESCRIPTION
#----------   ------------   ------------------------------
 DEPT.F                  :   
 GRD .GAPI   45 310 01 00:   GAMMA RAY FROM DENSITY LOG
 CALD.IN     45 280 60 00:   CALIPER
 RHOB.G/C3   45 350 01 00:   BULK DENSITY
 CORR.G/C3   45 356 01 00:   DENSITY CORRECTION
 DPHI.DEC    45 890 12 00:   DENSITY POROSITY SANDSTONE
~PARAMETER INFORMATION
#MNEM.UNIT          VALUE    DESCRIPTION
#----------   ------------   ------------------------------
 PD  .                 GL:   PERMANENT DATUM
 EPD .F              5171:   ELEVATION PERMANENT DATUM
 LMF .                 KB:   LOG MEASURED FROM
 DAPD.F                 5:   FEET ABOVE PERMANENT DATUM
 DMF .                 KB:   DRILLING MEASURED FROM
 EKB .F              5176:   KELLING BUSHING
 EGL .F              5171:   GROUND LEVEL
 DATE.            7-11-80:   RUN DATE
 RUN .                  1:   RUN NUMBER
 DD  .F               470:   DEPTH DRILLER
 DL  .F               470:   DEPTH LOGGER
 BLI .F               462:   BOTTOM LOG INTERVAL
 TLI .F                48:   TOP LOG INTERVAL
 CS  .IN                7:   CASING SIZE
 CBD .F                48:   CASING BOTTOM DRILLER
 BS  .IN             6.25:   BIT SIZE
 BSD .F               470:   BIT SIZE AT DEPTH
 DFT .        AIR DRILLED:   DRILLING FLUID TYPE
 BHT .F                75:   BOTTOM HOLE TEMPERATURE
 TCS .HRS               2:   TIME CURCULATED STOPPED
 MRT .F                75:   MAXIMUM RECORDED TEMPERATURE
 ENGI.           PFRIMMER:   RECORDING ENGINEER
 WITN.              AMEND:   WITNESSED BY
 CLNT.            A2DTECH:   CLIENT CODE
 ORIG.           5" PRINT:   ORIGIN OF DATA
 UWI .       490251083300:   UNIQUE WELL ID
 DICO. A2D Technologies, Inc.:   DIGITIZING COMPANY
~OTHER INFORMATION
~A   DEPT       GRD        CALD     RHOB       CORR       DPHI   
# ...
  288.0000    66.5343     6.6820     2.3383     0.1365     0.2017
  288.5000    66.7454     6.7049     2.3560     0.1470     0.1945
  289.0000    66.3790     6.7307     2.3594     0.1574     0.1932
  289.5000    66.0190     6.7577     2.3502     0.1684     0.1989
  290.0000    65.6584     6.7521     2.3412     0.1690     0.2055
  290.5000    65.3119     6.7378     2.3324     0.1663     0.2105
  291.0000    65.6018     6.7233     2.3293     0.1635     0.2107
  291.5000    66.7210     6.7089     2.3347     0.1611     0.2090
  292.0000    68.5955     6.6945     2.3353     0.1626     0.2085
  292.5000    70.5075     6.6801     2.3514     0.1642     0.1981
  293.0000    72.4191     6.6657     2.3802     0.1717     0.1792
  293.5000    74.2302     6.6516     2.3983     0.1874     0.1717
  294.0000    75.7101     6.6554     2.3960     0.1878     0.1766
  294.5000    77.1938     6.6823     2.3784     0.1872     0.1836
  295.0000    77.7283     6.7090     2.3725     0.1941     0.1860
  295.5000    77.4190     6.7361     2.3753     0.2011     0.1851
  296.0000    76.6684     6.7626     2.3667     0.1933     0.1901
  296.5000    75.0299     6.7660     2.3624     0.1695     0.1901
  297.0000    73.4095     6.6803     2.3750     0.1456     0.1839
  297.5000    71.7845     6.5990     2.3914     0.1385     0.1729
  298.0000    70.1522     6.5654     2.4018     0.1407     0.1732
  298.5000    68.5217     6.6341     2.3734     0.1428     0.1885
  299.0000    67.7318     6.7010     2.3569     0.1394     0.1907
  299.5000    70.2051     6.7677     2.3610     0.1357     0.1929
  300.0000    72.7138     6.7835     2.3574     0.1325     0.1937
  300.5000    72.7700     6.7431     2.3589     0.1306     0.1909
  301.0000    72.0246     6.7030     2.3681     0.1286     0.1884
  301.5000    72.4933     6.6625     2.3709     0.1219     0.1867
  302.0000    73.8704     6.6217     2.3656     0.1150     0.1857
  302.5000    74.0617     6.5863     2.3807     0.1082     0.1804
  303.0000    74.0139     6.6362     2.3835     0.1014     0.1793
  303.5000    73.9623     6.6880     2.3790     0.0949     0.1811
  304.0000    73.9089     6.7393     2.3893     0.1030     0.1785
  304.5000    74.4181     6.7924     2.3999     0.1147     0.1718
  305.0000    75.3769     6.7879     2.4084     0.1265     0.1651
  305.5000    76.3390     6.7684     2.4118     0.1272     0.1627
  306.0000    77.3028     6.7485     2.4051     0.1247     0.1668
  306.5000    78.2673     6.7288     2.4023     0.1181     0.1686
  307.0000    79.2358     6.7091     2.3930     0.1028     0.1728
  307.5000    79.3416     6.6894     2.3841     0.0879     0.1777
  308.0000    76.3479     6.6697     2.3913     0.0763     0.1793
  308.5000    73.4200     6.6500     2.3996     0.0672     0.1713
  309.0000    74.0205     6.6304     2.4080     0.0671     0.1651
  309.5000    74.3156     6.6102     2.4163     0.0740     0.1588
  310.0000    73.8747     6.6231     2.4247     0.0808     0.1525
  310.5000    73.4199     6.6525     2.4244     0.0843     0.1521
  311.0000    73.8346     6.6825     2.4186     0.0821     0.1576
  311.5000    74.5771     6.7126     2.4148     0.0801     0.1597
  312.0000    75.3553     6.7419     2.4189     0.0792     0.1581
  312.5000    75.3599     6.7366     2.4171     0.0832     0.1600
  313.0000    75.1789     6.7296     2.4130     0.0871     0.1621
  313.5000    74.9921     6.7227     2.4178     0.0975     0.1577
  314.0000    74.9038     6.7159     2.4291     0.1134     0.1512
  314.5000    75.4656     6.7091     2.4403     0.1292     0.1446
  315.0000    77.4310     6.7023     2.4499     0.1453     0.1403
  315.5000    78.1979     6.6954     2.4511     0.1486     0.1389
  316.0000    78.9381     6.6886     2.4465     0.1445     0.1397
  316.5000    76.4440     6.6818     2.4398     0.1305     0.1446
  317.0000    74.0022     6.6749     2.4329     0.1167     0.1494
  317.5000    74.5559     6.6681     2.4267     0.1047     0.1539
  318.0000    75.4984     6.6655     2.4253     0.1057     0.1550
  318.5000    76.4520     6.6736     2.4225     0.1064     0.1562
  319.0000    76.0240     6.6814     2.4129     0.1072     0.1622
  319.5000    75.5035     6.6893     2.4034     0.1079     0.1683
  320.0000    75.2972     6.6972     2.3991     0.1086     0.1697
  320.5000    76.4267     6.7051     2.3976     0.1069     0.1701
  321.0000    77.5243     6.7130     2.3903     0.1025     0.1752
  321.5000    78.4151     6.7212     2.3819     0.0982     0.1806
  322.0000    77.7488     6.7231     2.3836     0.0889     0.1776
  322.5000    78.5619     6.7231     2.3939     0.0780     0.1727
  323.0000    79.4766     6.7231     2.4041     0.0668     0.1677
  323.5000    79.2355     6.7231     2.4144     0.0679     0.1620
  324.0000    78.9314     6.7231     2.4246     0.0715     0.1550
  324.5000    78.0842     6.7231     2.4350     0.0751     0.1469
  325.0000    77.1210     6.7231     2.4349     0.0737     0.1489
  325.5000    76.1225     6.7231     2.4306     0.0668     0.1519
  326.0000    75.8197     6.7231     2.4260     0.0600     0.1549
  326.5000    75.6813     6.7231     2.4248     0.0570     0.1552
  327.0000    74.8319     6.7231     2.4259     0.0567     0.1545
  327.5000    74.4954     6.7231     2.4272     0.0564     0.1534
  328.0000    73.9851     6.7231     2.4314     0.0562     0.1517
  328.5000    72.8627     6.7231     2.4357     0.0560     0.1501
  329.0000    72.1041     6.7231     2.4372     0.0557     0.1484
  329.5000    72.6455     6.7231     2.4374     0.0555     0.1473
  330.0000    72.4453     6.7231     2.4376     0.0552     0.1472
  330.5000    71.7462     6.7231     2.4378     0.0549     0.1472
  331.0000    72.5440     6.7231     2.4382     0.0593     0.1447
  331.5000    73.3987     6.7231     2.4437     0.0648     0.1420
  332.0000    74.2576     6.7231     2.4494     0.0704     0.1393
  332.5000    74.4052     6.7253     2.4551     0.0759     0.1366
  333.0000    74.4042     6.7329     2.4578     0.0809     0.1352
  333.5000    75.1816     6.7404     2.4535     0.0810     0.1400
  334.0000    75.9633     6.7479     2.4500     0.0808     0.1390
  334.5000    76.6558     6.7554     2.4592     0.0922     0.1328
  335.0000    75.8546     6.7630     2.4613     0.0973     0.1382
  335.5000    75.0149     6.7701     2.4433     0.0869     0.1451
  336.0000    74.1825     6.7754     2.4312     0.0766     0.1521
  336.5000    73.3459     6.7502     2.4262     0.0763     0.1535
  337.0000    72.5227     6.7622     2.4214     0.0778     0.1566
  337.5000    72.4374     6.7385     2.4136     0.0775     0.1617
  338.0000    74.6641     6.7125     2.4024     0.0710     0.1692
  338.5000    77.3503     6.6865     2.3913     0.0650     0.1764
  339.0000    79.5322     6.6948     2.3841     0.0612     0.1799
  339.5000    78.9439     6.7114     2.3844     0.0627     0.1801
  340.0000    76.2730     6.7203     2.3846     0.0642     0.1804
  340.5000    75.7742     6.7107     2.3849     0.0656     0.1801
  341.0000    76.7223     6.7014     2.3852     0.0671     0.1797
  341.5000    76.6812     6.6921     2.3802     0.0686     0.1825
  342.0000    78.1394     6.6828     2.3728     0.0690     0.1883
  342.5000    80.3739     6.6735     2.3615     0.0690     0.1942
  343.0000    82.1810     6.6642     2.3503     0.0690     0.2000
  343.5000    83.5901     6.6548     2.3392     0.0690     0.2069
  344.0000    83.8048     6.6447     2.3280     0.0686     0.2147
  344.5000    81.8490     6.6678     2.3168     0.0706     0.2221
  345.0000    79.8935     6.6991     2.3056     0.0791     0.2272
  345.5000    77.9466     6.7213     2.2945     0.0875     0.2321
  346.0000    76.8708     6.7091     2.2920     0.0952     0.2342
  346.5000    77.7156     6.6977     2.2945     0.0946     0.2308
  347.0000    78.6532     6.6872     2.3043     0.0941     0.2273
  347.5000    78.7155     6.6148     2.3142     0.0937     0.2219
  348.0000    79.1672     6.5289     2.3241     0.0933     0.2159
  348.5000    80.4329     6.6075     2.3339     0.0935     0.2098
