~VERSION INFORMATION
 VERS.                2.0:   CWLS LOG ASCII STANDARD - VERSION 2.0
 WRAP.                 NO:   ONE LINE PER DEPTH STEP
~WELL INFORMATION
#MNEM.UNIT      DATA TYPE    INFORMATION
#----------   ------------   ------------------------------
 STRT.F           17.0000:   START DEPTH
 STOP.F          634.0000:   STOP DEPTH
 STEP.F            0.5000:   STEP LENGTH
 NULL.          -999.2500:   NO VALUE
 COMP. FENIX & SCISSON INC:   COMPANY
 WELL.        NPR 3 #72-3:   WELL
 FLD .             TEAPOT:   FIELD
 LOC .       S3 T38N R78W:   LOCATION
 CNTY.            NATRONA:   COUNTY
 STAT.            WYOMING:   STATE
 CTRY. UNITED STATES OF AMERICA:   COUNTRY
 SRVC.           BIRDWELL:   SERVICE COMPANY
 DATE.        24-SEP-1978:   LOGDATE
 API .       490251069100:   API NUMBER
~CURVE INFORMATION
#MNEM.UNIT       API CODE    CURVE DESCRIPTION
#----------   ------------   ------------------------------
 DEPT.F                  :   
 SPR .MV     05 010 01 00:   SPONTANEOUS POTENTIAL FROM RES.
 SN  .OHMM   05 040 16 00:   SHORT NORMAL 16"
 ILD .OHMM   05 120 46 00:   INDUCTION LOG DEEP
 GRD .GAPI   45 310 01 00:   GAMMA RAY FROM DENSITY LOG
 CALD.IN     45 280 60 00:   CALIPER
 DEN .G/C3   45 350 01 00:   COMPENSATED BULK DENSTIY
 DPHI.DEC    45 890 12 00:   DENSITY POROSITY SANDSTONE
 CORR.G/C3   45 356 01 00:   DENSITY CORRECTION
~PARAMETER INFORMATION
#MNEM.UNIT          VALUE    DESCRIPTION
#----------   ------------   ------------------------------
 PD  .                 GL:   PERMANENT DATUM
 EPD .F              5155:   ELEVATION PERMANENT DATUM
 LMF .                 KB:   LOG MEASURED FROM
 DAPD.F                 4:   FEET ABOVE PERMANENT DATUM
 DMF .                 KB:   DRILLING MEASURED FROM
 EKB .F              5159:   KELLING BUSHING
 EGL .F              5155:   GROUND LEVEL
 DATE.            9-24-78:   RUN DATE
 RUN .                  1:   RUN NUMBER
 DD  .F               635:   DEPTH DRILLER
 DL  .F               634:   DEPTH LOGGER
 BLI .F               627:   BOTTOM LOG INTERVAL
 TLI .F                30:   TOP LOG INTERVAL
 CS  .IN            8.625:   CASING SIZE
 CBD .F                34:   CASING BOTTOM DRILLER
 CBL .F                34:   CASING BOTTOM LOGGER
 BS  .IN            7.875:   BIT SIZE
 BSD .F               635:   BIT SIZE AT DEPTH
 DFT .                KCL:   DRILLING FLUID TYPE
 DFD .                8.7:   DRILLING FLUID DENSITY
 DFV .                 36:   DRILLING FLUID VISCOSITY
 DFPH.                9.5:   DRILLING FLUID PH
 DFL .                8.2:   DRILLING FLUID LOSS
 MSS .          FLOW LINE:   MUD SAMPLE SOURCE
 RMS .OHMM             .2:   RESISTIVITY MUD SAMPLE
 MST .F                68:   MUD SAMPLE TEMPERATURE
 RMF .OHMM            .18:   RESISTIVITY MUD FILTRATE SAMPLE
 MFST.F                76:   MUD FILTRATE SAMPLE TEMPERATURE
 RMC .OHMM            .32:   RESISTIVITY MUD CAKE
 MCST.F                76:   MUD CAKE SAMPLE TEMPERATURE
 MFSS.               MEAS:   MUD FILTRATE SAMPLE SOURCE
 RMB .OHMM             .2:   RESISTIVITY MUD AT BHT
 BHT .F                70:   BOTTOM HOLE TEMPERATURE
 TCS .HRS               3:   TIME CURCULATED STOPPED
 MRT .F                70:   MAXIMUM RECORDED TEMPERATURE
 LUN .               2958:   LOGGING UNIT NUMBER
 LUL .               CASP:   LOGGING UNIT LOCATION
 ENGI.           REYNOLDS:   RECORDING ENGINEER
 WITN.              AMEND:   WITNESSED BY
 CLNT.            A2DTECH:   CLIENT CODE
 ORIG.           5" PRINT:   ORIGIN OF DATA
 UWI .       490251069100:   UNIQUE WELL ID
 DICO. A2D Technologies, Inc.:   DIGITIZING COMPANY
~OTHER INFORMATION
~A   DEPT      SPR         SN        ILD         GRD      CALD        DEN       DPHI       CORR   
# ...
  422.0000   -51.4541     9.6631    11.1832   128.2761     7.7175     2.5152     0.1000     0.0381
  422.5000   -50.5659     9.9141    11.9330   123.2062     7.7397     2.5007     0.1051     0.0443
  423.0000   -50.0864    10.2480    12.7330   117.3172     7.7593     2.4891     0.1165     0.0567
  423.5000   -49.6447    10.7174    13.5866   111.1708     7.7263     2.4725     0.1337     0.0782
  424.0000   -48.6272    11.2083    14.6903   102.7514     7.6881     2.4443     0.1565     0.0823
  424.5000   -47.3998    11.7217    14.5556    89.2187     7.6542     2.3985     0.1793     0.0590
  425.0000   -46.2915    12.2586    19.0121    78.9719     7.5668     2.3710     0.1889     0.0388
  425.5000   -46.1984    12.8201    19.9099    72.0990     7.4806     2.3792     0.1823     0.0402
  426.0000   -46.1041    13.4073    20.8502    68.6485     7.4181     2.3879     0.1734     0.0492
  426.5000   -45.8850    13.8561    21.6287    65.6468     7.4717     2.3719     0.1821     0.0525
  427.0000   -45.1994    14.2093    21.6287    62.6781     7.6072     2.3442     0.2060     0.0512
  427.5000   -44.6694    14.5715    21.9094    61.6237     7.7372     2.3173     0.2201     0.0498
  428.0000   -44.2970    14.9422    23.2825    67.3710     7.6841     2.3084     0.2236     0.0485
  428.5000   -42.6688    15.2444    22.4404    67.8581     7.5782     2.2999     0.2269     0.0500
  429.0000   -41.4458    15.3270    22.4404    69.3747     7.6050     2.2814     0.2394     0.0753
  429.5000   -41.3052    15.4125    23.6438    72.9251     7.6491     2.2675     0.2470     0.1022
  430.0000   -41.1231    15.4981    24.5330    73.7647     7.7138     2.2811     0.2430     0.1026
  430.5000   -40.6872    15.5841    26.4816    76.8968     7.7785     2.3037     0.2237     0.0812
  431.0000   -40.2531    15.6686    29.3110    81.0821     7.8388     2.3251     0.2200     0.0600
  431.5000   -40.0550    15.9461    29.0157    82.4872     7.8139     2.3249     0.2134     0.0546
  432.0000   -40.0260    16.2894    28.7302    81.4657     7.8000     2.2929     0.2267     0.0571
  432.5000   -40.0007    16.5826    28.5023    77.2502     7.7867     2.2712     0.2482     0.0705
  433.0000   -39.9758    16.6863    29.2965    65.6705     7.7737     2.2708     0.2477     0.0838
  433.5000   -39.9506    16.7907    30.2633    63.3182     7.7606     2.2992     0.2357     0.1118
  434.0000   -39.9251    16.8957    31.2705    67.4007     7.7476     2.3171     0.2199     0.1398
  434.5000   -39.8998    17.0014    31.8442    73.5160     7.7345     2.3207     0.2195     0.1393
  435.0000   -39.8771    17.1078    31.5522    79.3384     7.7215     2.3267     0.2149     0.0991
  435.5000   -39.9924    17.2147    32.4362    79.7556     7.7090     2.3562     0.1924     0.0939
  436.0000   -40.3517    17.3392    30.5967    79.5797     7.6966     2.3600     0.1925     0.1103
  436.5000   -40.7078    17.2995    29.2981    75.8457     7.6842     2.3288     0.2105     0.1341
  437.0000   -41.0597    17.2526    30.0356    72.0117     7.6719     2.3063     0.2229     0.1585
  437.5000   -41.2812    17.2059    30.6923    69.5375     7.6611     2.2997     0.2277     0.1667
  438.0000   -41.4956    17.1593    29.8708    70.3405     7.5998     2.3177     0.2141     0.1661
  438.5000   -41.6477    17.1127    29.2291    72.4510     7.5351     2.3345     0.2127     0.1494
  439.0000   -41.5152    17.0664    28.6013    73.2611     7.5157     2.3351     0.2050     0.1208
  439.5000   -41.3877    17.0228    27.0846    75.1316     7.4871     2.3490     0.1961     0.0617
  440.0000   -41.2665    16.8218    25.5076    77.4556     7.3812     2.3755     0.1872     0.0422
  440.5000   -41.3234    16.6341    24.5041    78.8011     7.2533     2.3760     0.1829     0.0330
  441.0000   -41.3962    16.4484    23.6160    80.6488     7.1174     2.3759     0.1838     0.0237
  441.5000   -41.4643    16.2648    22.7601    82.6204     6.8810     2.3748     0.1829     0.0225
  442.0000   -41.4652    16.0833    21.8201    83.9359     6.6521     2.3742     0.1849     0.0226
  442.5000   -41.4611    15.9038    22.0961    83.1331     6.6636     2.3588     0.2029     0.0173
  443.0000   -41.4929    15.7263    22.6650    82.1459     6.8105     2.3332     0.2227     0.0097
  443.5000   -42.1632    15.5874    22.9478    81.2722     6.9574     2.2923     0.2426     0.0029
  444.0000   -42.8415    15.4171    23.0833    81.9757     7.0418     2.2553     0.2558    -0.0003
  444.5000   -43.4617    15.2486    23.2593    83.2021     7.1057     2.2350     0.2661    -0.0265
  445.0000   -43.5455    15.0820    23.3074    84.1804     7.1677     2.2349     0.2698    -0.0824
  445.5000   -43.6221    14.9172    20.3434    84.6992     7.2304     2.2281     0.2766    -0.0649
  446.0000   -43.7012    14.7542    19.7339    85.7676     7.2885     2.2847     0.2622    -0.0106
  446.5000   -43.7808    14.5930    19.0807    87.7694     7.3619     2.3411     0.2918     0.0169
  447.0000   -43.8604    14.4335    18.1155    89.4179     7.5177     2.3369     0.2544     0.0180
  447.5000   -43.9401    14.2899    17.6372    89.3568     7.6814     2.3623     0.1871     0.0195
  448.0000   -44.0197    14.0421    17.3824    88.8452     7.7138     2.3738     0.1811     0.0215
  448.5000   -44.0798    13.8186    16.9860    88.3410     7.6722     2.3717     0.1846     0.0235
  449.0000   -43.9987    13.5985    16.5985    87.8445     7.6297     2.3699     0.1889     0.0245
  449.5000   -43.9107    13.3828    16.1076    87.3196     7.5991     2.3713     0.1893     0.0245
  450.0000   -43.8222    13.2123    16.1366    87.7023     7.6107     2.3829     0.1759     0.0245
  450.5000   -43.7355    13.0916    16.1782    88.0746     7.6238     2.4031     0.1616     0.0245
  451.0000   -43.7000    12.9706    16.2199    88.4418     7.6632     2.4100     0.1655     0.0240
  451.5000   -43.9222    12.8509    16.2558    88.7503     7.7032     2.3977     0.1713     0.0236
  452.0000   -44.0659    12.7586    16.2265    88.9055     7.7417     2.3968     0.1701     0.0232
  452.5000   -44.0221    12.6904    16.1995    89.0628     7.7691     2.3969     0.1685     0.0227
  453.0000   -43.9819    12.6226    16.1728    89.2185     7.7960     2.3948     0.1683     0.0233
  453.5000   -43.9412    12.5552    16.1458    89.3018     7.8088     2.3908     0.1714     0.0259
  454.0000   -43.9032    12.4881    16.1076    89.8338     7.8199     2.3901     0.1744     0.0284
  454.5000   -43.9812    12.4452    16.2211    90.4468     7.8309     2.3914     0.1734     0.0286
  455.0000   -44.2673    12.4461    16.4232    92.0651     7.8420     2.3928     0.1722     0.0285
  455.5000   -44.2781    12.4460    16.7121    93.3227     7.8530     2.3935     0.1722     0.0285
  456.0000   -44.2774    12.4460    16.6358    93.4917     7.8617     2.3907     0.1737     0.0287
  456.5000   -44.3337    12.4460    16.5076    93.7045     7.8679     2.3879     0.1760     0.0343
  457.0000   -44.6506    12.4460    16.4070    94.0114     7.8741     2.3750     0.1823     0.0402
  457.5000   -44.9654    12.4460    16.4583    95.0808     7.8804     2.3637     0.1874     0.0460
  458.0000   -45.0781    12.4462    16.5008    96.1616     7.8867     2.3580     0.1921     0.0485
  458.5000   -45.0810    12.4459    16.5588    97.3000     7.8930     2.3556     0.1949     0.0497
  459.0000   -45.1282    12.4313    16.4798    98.5035     7.8932     2.3653     0.1891     0.0503
  459.5000   -45.3592    12.3707    16.3569    99.1198     7.8439     2.3770     0.1797     0.0597
  460.0000   -45.4802    12.3104    16.2349    98.6980     7.7934     2.3850     0.1769     0.0703
  460.5000   -45.4227    12.2504    16.1138    96.0154     7.7650     2.3849     0.1780     0.0706
  461.0000   -45.3663    12.1572    15.9936    93.6212     7.7448     2.3850     0.1801     0.0696
  461.5000   -45.3099    12.0276    15.8743    92.7814     7.7327     2.3891     0.1801     0.0644
  462.0000   -45.2537    11.8992    15.8136    91.3898     7.7236     2.3987     0.1706     0.0593
