~VERSION INFORMATION
 VERS.                2.0:   CWLS LOG ASCII STANDARD - VERSION 2.0
 WRAP.                 NO:   ONE LINE PER DEPTH STEP
~WELL INFORMATION
#MNEM.UNIT      DATA TYPE    INFORMATION
#----------   ------------   ------------------------------
 STRT.F            0.0000:   START DEPTH
 STOP.F         2182.0000:   STOP DEPTH
 STEP.F            0.1000:   STEP LENGTH
 NULL.          -999.2500:   NO VALUE
 COMP.       FLUOR DANIEL:   COMPANY
 WELL.   75-1 X 29 #75-29:   WELL
 FLD .             TEAPOT:   FIELD
 LOC .      S29 T39N R78W:   LOCATION
 CNTY.            NATRONA:   COUNTY
 STAT.            WYOMING:   STATE
 CTRY. UNITED STATES OF AMERICA:   COUNTRY
 SRVC.      Western Atlas:   SERVICE COMPANY
 DATE.        10-MAY-1996:   LOGDATE
 API .       490252279100:   API NUMBER
~CURVE INFORMATION
#MNEM.UNIT       API CODE    CURVE DESCRIPTION
#----------   ------------   ------------------------------
 DEPT.F                  :   
 GRR .GAPI   07 310 01 00:   GAMMA RAY
 RFOC.OHMM   07 220 04 00:   RESISTIVITY FOCUSED LOG
 RILD.OHMM   07 120 46 00:   INDUCTION LOG DEEP RESISTIVITY
 RILM.OHMM   07 120 44 00:   INDUCTION LOG MEDIUM RESISTIVITY
~PARAMETER INFORMATION
#MNEM.UNIT          VALUE    DESCRIPTION
#----------   ------------   ------------------------------
 PD  .                 GL:   PERMANENT DATUM
 EPD .F              5031:   ELEVATION PERMANENT DATUM
 LMF .                 KB:   LOG MEASURED FROM
 DAPD.F                10:   FEET ABOVE PERMANENT DATUM
 DMF .                 KB:   DRILLING MEASURED FROM
 EKB .F              5041:   KELLING BUSHING
 EDF .F              5040:   DRILLING FLOOR
 EGL .F              5031:   GROUND LEVEL
 DATE.        10-MAY-1996:   RUN DATE
 RUN .                  1:   RUN NUMBER
 DD  .F              2188:   DEPTH DRILLER
 DL  .F              2184:   DEPTH LOGGER
 BLI .F              2182:   BOTTOM LOG INTERVAL
 TLI .F               400:   TOP LOG INTERVAL
 CS  .IN                7:   CASING SIZE
 CBD .F               400:   CASING BOTTOM DRILLER
 CBL .F               400:   CASING BOTTOM LOGGER
 BS  .IN             6.25:   BIT SIZE
 BSD .F              2188:   BIT SIZE AT DEPTH
 DFT .                AIR:   DRILLING FLUID TYPE
 MRT .F                97:   MAXIMUM RECORDED TEMPERATURE
 LUN .            HL-6530:   LOGGING UNIT NUMBER
 LUL .             CASPER:   LOGGING UNIT LOCATION
 ENGI.           BROWNLOW:   RECORDING ENGINEER
 WITN.             LEBEAU:   WITNESSED BY
 CLNT.            A2DTECH:   CLIENT CODE
 ORIG.           5" PRINT:   ORIGIN OF DATA
 UWI .       490252279100:   UNIQUE WELL ID
 DICO. A2D Technologies, Inc.:   DIGITIZING COMPANY
~OTHER INFORMATION
~A    DEPT      GRR      RFOC       RILD       RILM   
# ...
 1343.2000   126.9895  -999.2500     7.4364     7.7341
 1343.3000   126.1349  -999.2500     7.4363     7.7339
 1343.4000   125.4811  -999.2500     7.4362     7.7336
 1343.5000   125.0281  -999.2500     7.4361     7.7332
 1343.6000   124.7758  -999.2500     7.4360     7.7329
 1343.7000   124.5239  -999.2500     7.4316     7.7326
 1343.8000   124.4723  -999.2500     7.3845     7.7322
 1343.9000   124.4711  -999.2500     7.3844     7.6895
 1344.0000   124.4699  -999.2500     7.3843     7.6781
 1344.1000   124.5190  -999.2500     7.3842     7.6779
 1344.2000   124.7687  -999.2500     7.3841     7.6620
 1344.3000   124.7674  -999.2500     7.3840     7.6175
 1344.4000   124.9669  -999.2500     7.3839     7.5712
 1344.5000   125.2169  -999.2500     7.3837     7.5709
 1344.6000   125.5674  -999.2500     7.3534     7.5376
 1344.7000   126.0681  -999.2500     7.3109     7.4939
 1344.8000   126.5687  -999.2500     7.2554     7.4658
 1344.9000   127.0692  -999.2500     7.1768     7.4586
 1345.0000   127.5701  -999.2500     7.1320     7.4136
 1345.1000   128.2214  -999.2500     7.0941     7.3723
 1345.2000   128.9736  -999.2500     7.0825     7.3295
 1345.3000   129.6754  -999.2500     7.0825     7.3106
 1345.4000   130.1759  -999.2500     7.0824     7.3103
 1345.5000   130.9276  -999.2500     7.0823     7.3031
 1345.6000   131.2779  -999.2500     7.0822     7.2592
 1345.7000   131.6782  -999.2500     7.0821     7.2590
 1345.8000   132.0787  -999.2500     7.0820     7.2586
 1345.9000   132.2786  -999.2500     7.0819     7.2584
 1346.0000   132.2771  -999.2500     7.0818     7.2581
 1346.1000   131.6732  -999.2500     7.0817     7.2577
 1346.2000   131.2706  -999.2500     7.0816     7.2574
 1346.3000   130.7674  -999.2500     7.0815     7.2572
 1346.4000   130.4650  -999.2500     7.0814     7.2568
 1346.5000   130.4639  -999.2500     7.0813     7.2565
 1346.6000   130.4626  -999.2500     7.0812     7.2562
 1346.7000   130.4612  -999.2500     7.0811     7.2559
 1346.8000   130.4603  -999.2500     7.0810     7.2556
 1346.9000   130.6096  -999.2500     7.0809     7.2554
 1347.0000   130.7590  -999.2500     7.0808     7.2876
 1347.1000   130.7579  -999.2500     7.0807     7.3052
 1347.2000   130.7566  -999.2500     7.0806     7.3209
 1347.3000   130.7552  -999.2500     7.0805     7.3554
 1347.4000   130.7542  -999.2500     7.0804     7.3551
 1347.5000   130.7530  -999.2500     7.0803     7.3965
 1347.6000   130.6516  -999.2500     7.0802     7.4056
 1347.7000   130.3492  -999.2500     7.0802     7.4303
 1347.8000   129.8458  -999.2500     7.0800     7.4565
 1347.9000   129.2419  -999.2500     7.0799     7.4561
 1348.0000   128.4370  -999.2500     7.0798     7.4558
 1348.1000   127.4323  -999.2500     7.0797     7.4556
 1348.2000   126.5279  -999.2500     7.0796     7.4552
 1348.3000   125.7236  -999.2500     7.0796     7.4549
 1348.4000   124.7181  -999.2500     7.0795     7.4546
 1348.5000   124.1142  -999.2500     7.0794     7.4543
 1348.6000   124.1133  -999.2500     7.0792     7.4540
 1348.7000   124.2626  -999.2500     7.0791     7.4537
 1348.8000   124.5124  -999.2500     7.1110     7.4533
 1348.9000   124.7622  -999.2500     7.1282     7.4531
 1349.0000   125.0120  -999.2500     7.1439     7.4528
 1349.1000   125.9142  -999.2500     7.1775     7.4608
 1349.2000   126.1141  -999.2500     7.1774     7.5040
 1349.3000   126.5145  -999.2500     7.2183     7.5037
 1349.4000   127.0153  -999.2500     7.2270     7.5033
 1349.5000   127.5162  -999.2500     7.2517     7.5030
 1349.6000   128.0170  -999.2500     7.2771     7.5027
 1349.7000   128.5173  -999.2500     7.2770     7.5024
 1349.8000   128.4161  -999.2500     7.2769     7.5021
 1349.9000   127.5610  -999.2500     7.2767     7.5018
 1350.0000   126.9085  -999.2500     7.2713     7.5015
 1350.1000   126.8423  -999.2500     7.2646     7.5013
 1350.2000   125.6000  -999.2500     7.2579     7.5011
 1350.3000   125.5986  -999.2500     7.2512     7.5009
 1350.4000   125.5976  -999.2500     7.2445     7.5007
 1350.5000   125.5964  -999.2500     7.2378     7.4727
 1350.6000   125.5952  -999.2500     7.2311     7.4484
 1350.7000   125.5940  -999.2500     7.2236     7.4370
 1350.8000   125.5928  -999.2500     7.2232     7.3966
 1350.9000   125.5914  -999.2500     7.2228     7.3963
 1351.0000   125.5903  -999.2500     7.2015     7.3583
 1351.1000   125.5892  -999.2500     7.1722     7.3154
 1351.2000   125.5880  -999.2500     7.1718     7.2939
 1351.3000   125.5868  -999.2500     7.1714     7.2806
 1351.4000   125.5491  -999.2500     7.1710     7.2432
 1351.5000   125.2831  -999.2500     7.1706     7.2430
 1351.6000   125.2820  -999.2500     7.1702     7.2035
 1351.7000   125.0857  -999.2500     7.1698     7.1926
 1351.8000   124.5357  -999.2500     7.1694     7.1692
 1351.9000   123.9737  -999.2500     7.1690     7.1424
 1352.0000   123.7711  -999.2500     7.1191     7.1350
 1352.1000   123.7699  -999.2500     7.1188     7.0927
 1352.2000   123.7685  -999.2500     7.0926     7.0925
 1352.3000   123.7674  -999.2500     7.0689     7.0924
 1352.4000   123.7662  -999.2500     7.0584     7.0921
 1352.5000   123.7651  -999.2500     7.0169     7.0919
 1352.6000   123.8317  -999.2500     6.9704     7.0918
 1352.7000   124.1043  -999.2500     6.9701     7.0916
 1352.8000   124.6649  -999.2500     6.9420     7.0913
 1352.9000   124.8903  -999.2500     6.9212     7.0912
 1353.0000   125.1426  -999.2500     6.9084     7.0910
 1353.1000   125.3949  -999.2500     6.8727     7.0908
 1353.2000   125.7308  -999.2500     6.8723     7.0906
 1353.3000   126.3094  -999.2500     6.8347     7.0941
 1353.4000   127.3686  -999.2500     6.8241     7.1395
 1353.5000   128.3348  -999.2500     6.8238     7.1393
 1353.6000   129.1542  -999.2500     6.8234     7.1688
 1353.7000   129.6204  -999.2500     6.8230     7.1886
 1353.8000   129.8728  -999.2500     6.8226     7.2023
 1353.9000   130.1251  -999.2500     6.8696     7.2382
 1354.0000   130.3775  -999.2500     6.8693     7.2379
 1354.1000   130.6733  -999.2500     6.8689     7.2780
 1354.2000   130.6723  -999.2500     6.8685     7.2879
 1354.3000   130.8334  -999.2500     6.8681     7.3121
 1354.4000   130.9711  -999.2500     6.8701     7.3381
 1354.5000   130.9699  -999.2500     6.9150     7.3463
 1354.6000   130.9883  -999.2500     6.9147     7.3890
 1354.7000   131.2685  -999.2500     6.9143     7.4399
 1354.8000   131.4932  -999.2500     6.9339     7.4398
 1354.9000   131.9240  -999.2500     6.9740     7.4395
 1355.0000   132.2993  -999.2500     7.0096     7.4583
 1355.1000   132.5516  -999.2500     7.0092     7.4909
 1355.2000   132.8038  -999.2500     7.0470     7.4907
 1355.3000   133.0686  -999.2500     7.0878     7.4904
 1355.4000   133.0675  -999.2500     7.1289     7.5283
 1355.5000   133.0663  -999.2500     7.1547     7.5421
 1355.6000   133.0651  -999.2500     7.1543     7.5419
 1355.7000   132.8667  -999.2500     7.1539     7.5549
 1355.8000   132.3074  -999.2500     7.1535     7.5940
 1355.9000   131.5453  -999.2500     7.1532     7.5937
 1356.0000   130.6504  -999.2500     7.1527     7.6344
 1356.1000   130.2302  -999.2500     7.1524     7.6461
 1356.2000   129.8839  -999.2500     7.1520     7.6459
 1356.3000   129.6293  -999.2500     7.1516     7.6615
 1356.4000   129.4410  -999.2500     7.1511     7.6987
 1356.5000   129.4589  -999.2500     7.1870     7.6984
 1356.6000   129.7396  -999.2500     7.2001     7.6982
 1356.7000   130.4134  -999.2500     7.1997     7.6980
 1356.8000   130.9958  -999.2500     7.1993     7.7245
 1356.9000   131.3721  -999.2500     7.2038     7.7511
 1357.0000   131.6245  -999.2500     7.2485     7.7509
 1357.1000   131.8423  -999.2500     7.2481     7.7507
 1357.2000   131.8409  -999.2500     7.2477     7.7504
 1357.3000   132.0805  -999.2500     7.2708     7.7881
 1357.4000   132.1397  -999.2500     7.2972     7.8039
 1357.5000   132.1385  -999.2500     7.2968     7.8037
 1357.6000   132.1373  -999.2500     7.2964     7.8035
 1357.7000   132.0856  -999.2500     7.2960     7.8068
