~VERSION INFORMATION
 VERS.                2.0:   CWLS LOG ASCII STANDARD - VERSION 2.0
 WRAP.                 NO:   ONE LINE PER DEPTH STEP
~WELL INFORMATION
#MNEM.UNIT      DATA TYPE    INFORMATION
#----------   ------------   ------------------------------
 STRT.F           40.0000:   START DEPTH
 STOP.F          512.0000:   STOP DEPTH
 STEP.F            0.5000:   STEP LENGTH
 NULL.          -999.2500:   NO VALUE
 COMP. FENIX & SCISSON INC:   COMPANY
 WELL.    SX 3FO 55 #52-3:   WELL
 FLD .             TEAPOT:   FIELD
 LOC .       S3 T38N R78W:   LOCATION
 CNTY.            NATRONA:   COUNTY
 STAT.            WYOMING:   STATE
 CTRY. UNITED STATES OF AMERICA:   COUNTRY
 SRVC.              Welex:   SERVICE COMPANY
 DATE.        28-JUN-1980:   LOGDATE
 API .       490251081600:   API NUMBER
~CURVE INFORMATION
#MNEM.UNIT       API CODE    CURVE DESCRIPTION
#----------   ------------   ------------------------------
 DEPT.F                  :   
 GRD .GAPI   45 310 01 00:   GAMMA RAY FROM DENSITY LOG
 CALD.IN     45 280 60 00:   CALIPER
 RHOB.G/C3   45 350 01 00:   BULK DENSITY
 DPHI.DEC    45 890 12 00:   DENSITY POROSITY SANDSTONE
 CORR.G/C3   45 356 01 00:   DENSITY CORRECTION
~PARAMETER INFORMATION
#MNEM.UNIT          VALUE    DESCRIPTION
#----------   ------------   ------------------------------
 PD  .                 GL:   PERMANENT DATUM
 EPD .F              5161:   ELEVATION PERMANENT DATUM
 LMF .                 KB:   LOG MEASURED FROM
 DAPD.F                 5:   FEET ABOVE PERMANENT DATUM
 DMF .                 KB:   DRILLING MEASURED FROM
 EKB .F              5166:   KELLING BUSHING
 EGL .F              5161:   GROUND LEVEL
 DATE.            6-28-80:   RUN DATE
 RUN .                  1:   RUN NUMBER
 DD  .F               514:   DEPTH DRILLER
 DL  .F               514:   DEPTH LOGGER
 BLI .F               512:   BOTTOM LOG INTERVAL
 TLI .F                46:   TOP LOG INTERVAL
 CS  .IN                7:   CASING SIZE
 BS  .IN             6.25:   BIT SIZE
 BSD .F               514:   BIT SIZE AT DEPTH
 DFT .        AIR DRILLED:   DRILLING FLUID TYPE
 BHT .F                74:   BOTTOM HOLE TEMPERATURE
 TCS .HRS               2:   TIME CURCULATED STOPPED
 MRT .F                74:   MAXIMUM RECORDED TEMPERATURE
 ENGI.            TOTHILL:   RECORDING ENGINEER
 WITN.              AMEND:   WITNESSED BY
 CLNT.            A2DTECH:   CLIENT CODE
 ORIG.           5" PRINT:   ORIGIN OF DATA
 UWI .       490251081600:   UNIQUE WELL ID
 DICO. A2D Technologies, Inc.:   DIGITIZING COMPANY
~OTHER INFORMATION
~A   DEPT       GRD        CALD       RHOB       DPHI       CORR 
# ...
  406.0000    83.0054     6.3735     2.4280     0.1484     0.0302
  406.5000    83.5849     6.3723     2.4103     0.1553     0.0142
  407.0000    84.1638     6.3711     2.4057     0.1597     0.0092
  407.5000    84.7441     6.3699     2.4062     0.1617     0.0080
  408.0000    85.3405     6.3686     2.4202     0.1556     0.0191
  408.5000    85.8314     6.3674     2.4314     0.1477     0.0293
  409.0000    86.3079     6.3662     2.4369     0.1422     0.0338
  409.5000    86.7822     6.3648     2.4526     0.1343     0.0430
  410.0000    87.2531     6.3685     2.4738     0.1228     0.0571
  410.5000    88.1370     6.3743     2.4853     0.1149     0.0713
  411.0000    89.1786     6.3800     2.4971     0.1078     0.0837
  411.5000    89.7945     6.3815     2.4976     0.1064     0.0771
  412.0000    90.4103     6.3678     2.4865     0.1084     0.0560
  412.5000    90.4573     6.3546     2.4751     0.1185     0.0380
  413.0000    90.3975     6.3447     2.4738     0.1189     0.0400
  413.5000    90.3375     6.3464     2.4862     0.1148     0.0432
  414.0000    90.6685     6.3479     2.4874     0.1114     0.0463
  414.5000    91.5044     6.3493     2.4822     0.1130     0.0425
  415.0000    92.3363     6.3507     2.4692     0.1213     0.0317
  415.5000    93.1714     6.3522     2.4561     0.1288     0.0204
  416.0000    94.0082     6.3536     2.4510     0.1346     0.0157
  416.5000    94.8392     6.3551     2.4416     0.1388     0.0112
  417.0000    95.4732     6.3565     2.4304     0.1433     0.0079
  417.5000    94.7280     6.3580     2.4268     0.1489     0.0100
  418.0000    94.5371     6.3594     2.4327     0.1485     0.0201
  418.5000    95.7172     6.3609     2.4437     0.1411     0.0361
  419.0000    96.6729     6.3623     2.4547     0.1343     0.0523
  419.5000    97.7889     6.3635     2.4661     0.1275     0.0692
  420.0000    98.8484     6.3438     2.4726     0.1219     0.0725
  420.5000    99.1811     6.2938     2.4792     0.1173     0.0698
  421.0000    99.4830     6.2439     2.4825     0.1142     0.0618
  421.5000    99.6479     6.2311     2.4751     0.1175     0.0540
  422.0000    99.2099     6.2616     2.4614     0.1240     0.0460
  422.5000    98.7603     6.3032     2.4693     0.1285     0.0518
  423.0000    98.3107     6.3554     2.4812     0.1185     0.0709
  423.5000    97.8732     6.4046     2.5041     0.1037     0.0966
  424.0000    98.3841     6.4402     2.5288     0.0927     0.1213
  424.5000    99.2352     6.4106     2.5443     0.0850     0.1303
  425.0000   100.0875     6.3826     2.5338     0.0862     0.1066
  425.5000   100.9418     6.3547     2.5165     0.0980     0.0849
  426.0000   101.7944     6.3267     2.4997     0.1071     0.0602
  426.5000   102.6431     6.2986     2.4874     0.1132     0.0483
  427.0000   102.8646     6.2696     2.4731     0.1182     0.0349
  427.5000   101.8608     6.2876     2.4645     0.1231     0.0217
  428.0000   100.8637     6.3158     2.4713     0.1253     0.0218
  428.5000   100.2419     6.3438     2.4751     0.1208     0.0252
  429.0000   100.2568     6.3465     2.4795     0.1162     0.0287
  429.5000   100.2613     6.3480     2.4873     0.1134     0.0323
  430.0000   100.4810     6.3497     2.4952     0.1083     0.0409
  430.5000   101.0832     6.3513     2.5049     0.1028     0.0495
  431.0000   101.6775     6.3530     2.5116     0.0986     0.0500
  431.5000   102.1942     6.3547     2.5091     0.1000     0.0512
  432.0000   102.5813     6.3564     2.5240     0.0957     0.0559
  432.5000   102.2891     6.3581     2.5326     0.0894     0.0597
  433.0000   101.8324     6.3598     2.5273     0.0910     0.0550
  433.5000   101.4692     6.3615     2.5197     0.0948     0.0468
  434.0000   102.8636     6.3631     2.5010     0.1038     0.0271
  434.5000   104.9238     6.3649     2.4823     0.1120     0.0161
  435.0000   106.2595     6.3665     2.4819     0.1162     0.0160
  435.5000   107.0025     6.3682     2.4836     0.1134     0.0190
  436.0000   106.8802     6.3700     2.4823     0.1153     0.0218
  436.5000   106.7191     6.3717     2.4692     0.1190     0.0213
  437.0000   107.1938     6.3734     2.4561     0.1253     0.0109
  437.5000   108.9050     6.3751     2.4563     0.1295     0.0024
  438.0000   110.3832     6.3768     2.4598     0.1284     0.0115
  438.5000   111.6544     6.3785     2.4655     0.1253     0.0203
  439.0000   112.9740     6.3802     2.4711     0.1223     0.0300
  439.5000   113.7782     6.3820     2.4692     0.1214     0.0290
  440.0000   115.4089     6.3837     2.4645     0.1243     0.0283
  440.5000   117.3402     6.3845     2.4702     0.1225     0.0374
  441.0000   118.1104     6.3845     2.4764     0.1190     0.0463
  441.5000   118.3111     6.3845     2.4827     0.1154     0.0556
  442.0000   118.5164     6.3845     2.4907     0.1112     0.0637
  442.5000   117.2299     6.3848     2.4996     0.1052     0.0657
  443.0000   114.6958     6.3837     2.5074     0.1005     0.0485
  443.5000   112.0400     6.3176     2.5063     0.0986     0.0345
  444.0000   109.2946     6.2430     2.5063     0.1014     0.0205
  444.5000   108.6807     6.2262     2.5096     0.0995     0.0159
  445.0000   108.7438     6.2856     2.5004     0.1027     0.0115
  445.5000   108.8410     6.3520     2.4881     0.1080     0.0025
  446.0000   108.0071     6.3730     2.4921     0.1106     0.0080
  446.5000   106.8789     6.3521     2.5001     0.1048     0.0200
  447.0000   107.0083     6.3305     2.5082     0.1003     0.0305
  447.5000   107.2166     6.3390     2.5164     0.0972     0.0397
  448.0000   106.8961     6.3656     2.5231     0.0954     0.0455
  448.5000   106.6199     6.3797     2.5015     0.1030     0.0305
  449.0000   106.9871     6.3340     2.4913     0.1089     0.0159
  449.5000   107.4881     6.2882     2.4834     0.1126     0.0093
  450.0000   108.0017     6.2834     2.4787     0.1163     0.0052
  450.5000   107.8370     6.3190     2.4739     0.1199    -0.0024
  451.0000   107.0685     6.3455     2.4585     0.1269    -0.0114
  451.5000   106.3263     6.3462     2.4473     0.1349    -0.0183
  452.0000   105.7513     6.3474     2.4484     0.1357    -0.0090
  452.5000   105.2507     6.3486     2.4618     0.1276     0.0041
  453.0000   105.3445     6.3499     2.4769     0.1200     0.0175
  453.5000   105.4190     6.3511     2.4863     0.1141     0.0219
  454.0000   104.9096     6.3523     2.4865     0.1120     0.0219
  454.5000   104.3942     6.3535     2.4844     0.1129     0.0255
  455.0000   103.8827     6.3547     2.4892     0.1109     0.0311
  455.5000   103.3720     6.3559     2.4934     0.1090     0.0282
  456.0000   102.8608     6.3572     2.4867     0.1115     0.0237
  456.5000   102.2530     6.3584     2.4826     0.1158     0.0259
  457.0000   101.2678     6.3596     2.4902     0.1124     0.0322
  457.5000   100.2789     6.3608     2.5045     0.1038     0.0386
  458.0000    99.2913     6.3621     2.5133     0.0982     0.0449
  458.5000    98.2859     6.3633     2.5183     0.0951     0.0497
  459.0000    98.3546     6.3645     2.5215     0.0934     0.0514
  459.5000    98.8435     6.3646     2.5213     0.0931     0.0506
  460.0000    99.2468     6.3645     2.5262     0.0928     0.0492
  460.5000    98.1731     6.3645     2.5212     0.0927     0.0440
  461.0000    96.9742     6.3645     2.5130     0.0967     0.0388
  461.5000    96.4577     6.3645     2.5045     0.1007     0.0336
  462.0000    96.1454     6.3645     2.4958     0.1042     0.0281
  462.5000    95.8864     6.3645     2.4968     0.1046     0.0263
  463.0000    95.9702     6.3645     2.4988     0.1050     0.0298
  463.5000    96.0674     6.3645     2.5008     0.1043     0.0333
  464.0000    96.9409     6.3645     2.5021     0.1038     0.0342
  464.5000    97.8943     6.3645     2.4926     0.1089     0.0270
  465.0000    98.9784     6.3645     2.4833     0.1136     0.0200
  465.5000   100.0243     6.3645     2.4747     0.1183     0.0130
  466.0000   101.0606     6.3645     2.4766     0.1182     0.0141
  466.5000   101.8654     6.3645     2.4813     0.1153     0.0174
