~VERSION INFORMATION
 VERS.                2.0:   CWLS LOG ASCII STANDARD - VERSION 2.0
 WRAP.                 NO:   ONE LINE PER DEPTH STEP
~WELL INFORMATION
#MNEM.UNIT      DATA TYPE    INFORMATION
#----------   ------------   ------------------------------
 STRT.F           12.0000:   START DEPTH
 STOP.F          549.0000:   STOP DEPTH
 STEP.F            0.5000:   STEP LENGTH
 NULL.          -999.2500:   NO VALUE
 COMP. LAWRENCE/ALLISON INC:   COMPANY
 WELL.  58-64-1 SX 3 #3-3:   WELL
 FLD .             TEAPOT:   FIELD
 LOC .       S3 T38N R78W:   LOCATION
 CNTY.            NATRONA:   COUNTY
 STAT.            WYOMING:   STATE
 CTRY. UNITED STATES OF AMERICA:   COUNTRY
 SRVC.      Dresser Atlas:   SERVICE COMPANY
 DATE.        05-DEC-1984:   LOGDATE
 API .       490251117800:   API NUMBER
~CURVE INFORMATION
#MNEM.UNIT       API CODE    CURVE DESCRIPTION
#----------   ------------   ------------------------------
 DEPT.F                  :   
 RFOC.OHMM   07 220 04 00:   RESISTIVITY FOCUSED LOG
 RILD.OHMM   07 120 46 00:   INDUCTION LOG DEEP RESISTIVITY
 RILM.OHMM   07 120 44 00:   INDUCTION LOG MEDIUM RESISTIVITY
 SPR .MV     07 010 01 00:   SPONTANEOUS POTENTIAL
 CALD.IN     45 280 60 00:   CALIPER FROM DENSITY LOG
 CNC .DEC    42 890 03 00:   NEUTRON POROSITY SANDSTONE
 CORR.G/C3   45 356 01 00:   DENSITY CORRECTION
 DEN .G/C3   45 350 01 00:   COMPENSATED BULK DENSTIY
 GRD .GAPI   45 310 01 00:   GAMMA RAY FROM DENSITY LOG
 PORD.DEC    45 890 12 00:   POROSITY DENSITY SANDSTONE
 DT  .US/F   60 520 00 00:   INTERVAL TRANSIT TIME
~PARAMETER INFORMATION
#MNEM.UNIT          VALUE    DESCRIPTION
#----------   ------------   ------------------------------
 PD  .                 GL:   PERMANENT DATUM
 EPD .F              5188:   ELEVATION PERMANENT DATUM
 LMF .                 KB:   LOG MEASURED FROM
 DMF .                 KB:   DRILLING MEASURED FROM
 EGL .F              5188:   GROUND LEVEL
 DATE.         5-DEC-1984:   RUN DATE
 RUN .                  1:   RUN NUMBER
 DD  .F               556:   DEPTH DRILLER
 DL  .F               551:   DEPTH LOGGER
 BLI .F               549:   BOTTOM LOG INTERVAL
 CS  .IN            8.625:   CASING SIZE
 CBD .F                20:   CASING BOTTOM DRILLER
 CBL .F                20:   CASING BOTTOM LOGGER
 BS  .IN            7.875:   BIT SIZE
 BSD .F               556:   BIT SIZE AT DEPTH
 DFT .          KCL WATER:   DRILLING FLUID TYPE
 MSS .           FLOWLINE:   MUD SAMPLE SOURCE
 RMS .OHMM            .36:   RESISTIVITY MUD SAMPLE
 MST .F                70:   MUD SAMPLE TEMPERATURE
 RMF .OHMM            .26:   RESISTIVITY MUD FILTRATE SAMPLE
 MFST.F                70:   MUD FILTRATE SAMPLE TEMPERATURE
 RMC .OHMM            .46:   RESISTIVITY MUD CAKE
 MCST.F                70:   MUD CAKE SAMPLE TEMPERATURE
 MFSS.               CALC:   MUD FILTRATE SAMPLE SOURCE
 MCSS.               CALC:   MUD CAKE SAMPLE SOURCE
 RMB .OHMM            .29:   RESISTIVITY MUD AT BHT
 BHT .F                85:   BOTTOM HOLE TEMPERATURE
 TCS .HRS               3:   TIME CURCULATED STOPPED
 MRT .F               100:   MAXIMUM RECORDED TEMPERATURE
 LUN .               6274:   LOGGING UNIT NUMBER
 LUL .               GLTE:   LOGGING UNIT LOCATION
 ENGI.             RAUTIO:   RECORDING ENGINEER
 WITN.       GROOMS/LUERS:   WITNESSED BY
 CLNT.            A2DTECH:   CLIENT CODE
 ORIG.         2.5" PRINT:   ORIGIN OF DATA
 UWI .       490251117800:   UNIQUE WELL ID
 DICO. A2D Technologies, Inc.:   DIGITIZING COMPANY
~OTHER INFORMATION
~A   DEPT     RFOC       RILD       RILM        SPR       CALD        CNC       CORR        DEN         GRD      PORD         DT   
# ...
  378.0000    17.9732    18.4239    16.8168   -49.3617     8.0139     0.2594     0.0387     2.3976    84.4265     0.1663    97.6149
  378.5000    17.7175    18.3152    16.8086   -49.9899     8.0134     0.2564     0.0333     2.3991    85.0225     0.1651    97.0038
  379.0000    17.4268    18.1567    16.5683   -50.3141     8.0130     0.2486     0.0263     2.4006    84.8572     0.1639    96.0975
  379.5000    16.9368    17.7895    16.5347   -50.6383     8.0125     0.2401     0.0190     2.4052    82.9959     0.1621    95.4975
  380.0000    16.6912    17.4023    15.8174   -50.9625     8.0121     0.2293     0.0091     2.4112    81.9453     0.1609    95.1835
  380.5000    16.2219    17.1559    14.9767   -51.1976     8.0116     0.2148     0.0061     2.4158    81.3275     0.1590    94.8896
  381.0000    15.9866    16.7938    14.7943   -51.5137     8.0112     0.2209     0.0061     2.4158    82.1742     0.1585    94.6003
  381.5000    15.5931    16.3223    14.7871   -51.6312     8.0107     0.2269     0.0076     2.4067    83.6818     0.1636    94.5835
  382.0000    15.3118    16.0864    14.7799   -52.2594     8.0103     0.2354     0.0091     2.4021    84.9362     0.1665    94.2986
  382.5000    15.0898    15.6348    14.5686   -52.5836     8.0098     0.2390     0.0152     2.3976    86.5197     0.1670    93.9756
  383.0000    14.6655    15.1094    14.3080   -52.9078     8.0094     0.2328     0.0273     2.3977    87.5968     0.1668    93.6717
  383.5000    14.3204    14.8955    13.9044   -53.0942     8.0089     0.2293     0.0394     2.4040    84.8975     0.1643    93.3419
  384.0000    14.1166    14.6847    13.7015   -53.4103     8.0085     0.2308     0.0455     2.4134    84.2776     0.1598    93.0638
  384.5000    13.9158    14.4768    13.3757   -53.4225     8.0080     0.2346     0.0462     2.4242    86.6973     0.1535    92.9108
  385.0000    13.9100    14.2719    13.1845   -53.4347     8.0076     0.2361     0.0303     2.4294    87.9012     0.1498    92.7903
  385.5000    13.7121    14.0698    13.1781   -53.4468     8.0071     0.2328     0.0182     2.4279    89.7130     0.1510    92.4887
  386.0000    13.7063    13.8707    12.9897   -53.4590     8.0066     0.2319     0.0091     2.4321    90.3100     0.1520    92.4515
  386.5000    13.5113    13.8659    12.9833   -53.4734     8.0061     0.2388     0.0088     2.4410    91.5129     0.1485    92.1870
  387.0000    13.5057    13.8611    12.9770   -53.4854     8.0057     0.2433     0.0273     2.4477    88.4615     0.1408    91.8436
  387.5000    13.5000    13.8564    12.9707   -53.1935     8.0052     0.2452     0.0424     2.4543    86.6259     0.1332    91.6906
  388.0000    13.4944    13.8516    12.9644   -53.5094     8.0048     0.2418     0.0423     2.4540    89.0456     0.1320    91.5837
  388.5000    13.4888    13.8468    12.9581   -53.5214     8.0044     0.2375     0.0361     2.4456    87.7669     0.1381    91.6322
  389.0000    13.4831    13.8421    12.9518   -54.1413     8.0039     0.2350     0.0273     2.4401    86.5897     0.1406    91.8854
  389.5000    13.4775    13.8373    12.9455   -54.4573     8.0034     0.2333     0.0273     2.4417    87.2614     0.1406    91.7345
  390.0000    13.4708    13.8325    12.9392   -54.4693     8.0030     0.2324     0.0279     2.4470    89.0983     0.1382    91.5837
  390.5000    13.4652    13.8278    12.9329   -54.4813     8.0026     0.2345     0.0303     2.4537    90.2019     0.1346    91.3753
  391.0000    13.4597    13.8230    12.9254   -54.4933     8.0323     0.2357     0.0273     2.4583    91.4057     0.1309    91.2222
  391.5000    13.6426    13.8183    12.9191   -54.5053     8.0319     0.2357     0.0303     2.4613    88.6059     0.1285    90.9804
  392.0000    13.6370    13.8135    12.9129   -54.2133     8.0314     0.2382     0.0344     2.4643    86.5167     0.1298    90.7652
  392.5000    13.6313    13.8087    12.9067   -54.2253     8.0310     0.2430     0.0406     2.4583    87.3405     0.1304    90.6121
  393.0000    13.4374    13.8039    12.9005   -54.2373     8.0305     0.2412     0.0455     2.4613    89.4305     0.1285    90.4590
  393.5000    13.4319    13.7991    12.8943   -54.2493     8.0301     0.2382     0.0515     2.4643    91.9007     0.1273    90.3771
  394.0000    13.4263    13.7804    12.8880   -54.2654     8.0296     0.2395     0.0561     2.4659    94.3708     0.1261    90.3771
  394.5000    13.2353    13.5990    12.7039   -54.5775     8.0292     0.2443     0.0636     2.4674    92.7629     0.1250    90.3771
  395.0000    13.0471    13.5943    12.6977   -54.8936     8.0287     0.2407     0.0697     2.4704    89.3819     0.1249    90.3771
  395.5000    13.0417    13.3762    12.5163   -55.2381     8.0380     0.2371     0.0396     2.4765    88.2531     0.1252    90.5279
  396.0000    12.8562    13.2120    12.5102   -55.5623     8.0581     0.2359     0.0252     2.4668    88.8511     0.1275    90.6787
  396.5000    12.6733    12.9923    12.3314   -55.8419     8.0576     0.2341     0.0170     2.4631    90.0530     0.1299    90.6787
  397.0000    12.4931    12.6631    12.1552   -55.8541     8.0571     0.2363     0.0078     2.4613    91.2569     0.1305    90.6787
  397.5000    12.3154    12.4450    11.9815   -55.8663     8.0566     0.2437     0.0030     2.4643    92.4608     0.1300    90.4387
  398.0000    11.9724    12.1370    11.8103   -55.8784     8.0562     0.2518    -0.0030     2.4643    93.6647     0.1288    90.2262
  398.5000    11.9675    11.9652    11.8046   -55.8136     8.0557     0.2497     0.0017     2.4659    96.0844     0.1276    90.0754
  399.0000    11.9626    11.9610    11.7989   -55.5971     8.0553     0.2428     0.0162     2.4683    98.5041     0.1264    90.3771
  399.5000    11.9576    11.9568    11.7932   -55.6109     8.0548     0.2396     0.0333     2.4719    99.7080     0.1252    90.5279
  400.0000    11.9527    11.9724    11.7875   -55.6231     8.0543     0.2414     0.0091     2.4740    98.8787     0.1228    90.5279
  400.5000    12.1151    12.0882    11.8954   -55.6353     8.0537     0.2433    -0.0030     2.4757    94.7588     0.1210    90.3771
  401.0000    12.2798    12.2039    12.0032   -55.9483     8.0531     0.2421     0.0152     2.4795    91.7102     0.1204    90.3771
  401.5000    12.2849    12.3196    12.1110   -55.9590     8.0525     0.2337     0.0303     2.4792    89.9430     0.1216    90.0754
  402.0000    12.4415    12.4479    12.2188   -56.2736     8.0519     0.2241     0.0152     2.4758    91.4083     0.1222    89.7738
  402.5000    12.9656    12.4445    12.2646   -56.5881     8.0513     0.2205     0.0091     2.4734    93.7335     0.1216    89.1704
  403.0000    13.3260    12.4411    12.2592   -56.9027     8.0507     0.2217     0.0182     2.4782    95.1672     0.1192    88.5671
  403.5000    13.5076    12.4376    12.2264   -56.9134     8.0501     0.2254     0.0303     2.4876    96.2118     0.1138    87.6621
  404.0000    13.5272    12.0930    11.8821   -56.9240     8.0495     0.2320     0.0394     2.5037    97.7103     0.1035    86.4555
  404.5000    13.4960    11.5955    11.5811   -56.9367     8.0489     0.2351     0.0515     2.5214    99.9058     0.0937    85.8590
  405.0000    13.1202    11.1184    11.3795   -56.6433     8.0483     0.2303     0.0577     2.5287   101.7528     0.0930    86.4631
  405.5000    12.7549    11.1153    11.2539   -56.6537     8.0477     0.2325     0.0622     2.5138   102.5298     0.1029    87.0672
  406.0000    12.2284    10.9588    11.2492   -56.6642     8.0471     0.2456     0.0419     2.4945    98.3692     0.1086    87.9729
  406.5000    12.0545    10.9557    11.0891   -56.6747     8.0465     0.2496     0.0146     2.4899    96.5366     0.1118    89.1803
  407.0000    11.8830    10.9527    11.0845   -57.2931     8.0459     0.2472    -0.0006     2.4869    97.1357     0.1131    89.9352
  407.5000    11.8781    10.9496    10.9268   -57.6075     8.0453     0.2491     0.0084     2.4838    98.3426     0.1143    90.3884
  408.0000    11.8731    10.9466    10.9222   -57.6180     8.0447     0.2523     0.0265     2.4869    98.9416     0.1135    90.3891
