~VERSION INFORMATION
 VERS.                2.0:   CWLS LOG ASCII STANDARD - VERSION 2.0
 WRAP.                 NO:   ONE LINE PER DEPTH STEP
~WELL INFORMATION
#MNEM.UNIT      DATA TYPE    INFORMATION
#----------   ------------   ------------------------------
 STRT.F           20.0000:   START DEPTH
 STOP.F          599.0000:   STOP DEPTH
 STEP.F            0.5000:   STEP LENGTH
 NULL.          -999.2500:   NO VALUE
 COMP. FENIX & SCISSON INC:   COMPANY
 WELL.    47 SX 34 #47-34:   WELL
 FLD .             TEAPOT:   FIELD
 LOC .      S34 T39N R78W:   LOCATION
 CNTY.            NATRONA:   COUNTY
 STAT.            WYOMING:   STATE
 CTRY. UNITED STATES OF AMERICA:   COUNTRY
 SRVC.       Schlumberger:   SERVICE COMPANY
 DATE.        24-JAN-1979:   LOGDATE
 API .       490251077000:   API NUMBER
~CURVE INFORMATION
#MNEM.UNIT       API CODE    CURVE DESCRIPTION
#----------   ------------   ------------------------------
 DEPT.F                  :   
 SN  .OHMM   05 040 16 00:   SHORT NORMAL 16"
 ILD .OHMM   05 120 46 00:   INDUCTION LOG DEEP
 SPR .MV     05 010 01 00:   SPONTANEOUS POTENTIAL FROM RES.
 CALD.IN     45 280 60 00:   CALIPER
 GRD .GAPI   45 310 01 00:   GAMMA RAY FROM DENSITY LOG
 DPHI.DEC    45 890 12 00:   DENSITY POROSITY SANDSTONE
 CORR.G/C3   45 356 01 00:   DENSITY CORRECTION
 RHOB.G/C3   45 350 01 00:   BULK DENSITY
~PARAMETER INFORMATION
#MNEM.UNIT          VALUE    DESCRIPTION
#----------   ------------   ------------------------------
 PD  .                 GL:   PERMANENT DATUM
 EPD .F              5132:   ELEVATION PERMANENT DATUM
 LMF .                 KB:   LOG MEASURED FROM
 DAPD.F                 4:   FEET ABOVE PERMANENT DATUM
 DMF .                 KB:   DRILLING MEASURED FROM
 EKB .F              5136:   KELLING BUSHING
 EGL .F              5132:   GROUND LEVEL
 DATE.            1-24-79:   RUN DATE
 RUN .                  1:   RUN NUMBER
 DD  .F               600:   DEPTH DRILLER
 DL  .F               600:   DEPTH LOGGER
 BLI .F               594:   BOTTOM LOG INTERVAL
 TLI .F                28:   TOP LOG INTERVAL
 CS  .IN            8.625:   CASING SIZE
 CBD .F                40:   CASING BOTTOM DRILLER
 BS  .IN            7.875:   BIT SIZE
 BSD .F               600:   BIT SIZE AT DEPTH
 DFT .                KCL:   DRILLING FLUID TYPE
 DFD .                8.8:   DRILLING FLUID DENSITY
 DFV .                 60:   DRILLING FLUID VISCOSITY
 DFPH.                9.5:   DRILLING FLUID PH
 DFL .               10.8:   DRILLING FLUID LOSS
 MSS .           FLOWLINE:   MUD SAMPLE SOURCE
 RMS .OHMM            .22:   RESISTIVITY MUD SAMPLE
 MST .F                60:   MUD SAMPLE TEMPERATURE
 RMF .OHMM             .2:   RESISTIVITY MUD FILTRATE SAMPLE
 MFST.F                61:   MUD FILTRATE SAMPLE TEMPERATURE
 RMC .OHMM             .3:   RESISTIVITY MUD CAKE
 MCST.F                61:   MUD CAKE SAMPLE TEMPERATURE
 MFSS.           MEASURED:   MUD FILTRATE SAMPLE SOURCE
 MCSS.           MEASURED:   MUD CAKE SAMPLE SOURCE
 RMB .OHMM            .23:   RESISTIVITY MUD AT BHT
 BHT .F                58:   BOTTOM HOLE TEMPERATURE
 TCS .HRS               4:   TIME CURCULATED STOPPED
 MRT .F                58:   MAXIMUM RECORDED TEMPERATURE
 LUN .               3029:   LOGGING UNIT NUMBER
 LUL .             CASPER:   LOGGING UNIT LOCATION
 ENGI.         B. ROLLINS:   RECORDING ENGINEER
 WITN.         RICHARDSON:   WITNESSED BY
 CLNT.            A2DTECH:   CLIENT CODE
 ORIG.           5" PRINT:   ORIGIN OF DATA
 UWI .       490251077000:   UNIQUE WELL ID
 DICO. A2D Technologies, Inc.:   DIGITIZING COMPANY
~OTHER INFORMATION
~A   DEPT       SN        ILD        SPR         CALD       GRD        DPHI       CORR       RHOB 
# ...
  101.0000     6.0682     6.9295   -24.0740     8.3352    99.5919     0.1405     0.0072     2.4399
  101.5000     6.0372     6.9118   -23.5077     8.3436    98.2784     0.1379     0.0053     2.4461
  102.0000     6.0063     6.8941   -23.4617     8.3437   102.3144     0.1358     0.0101     2.4515
  102.5000     5.9756     6.8764   -24.7853     8.3246   101.6186     0.1397     0.0148     2.4438
  103.0000     5.9451     6.8588   -25.4210     8.3237   100.6691     0.1317     0.0176     2.4479
  103.5000     5.9148     6.8412   -25.8790     8.3202   100.7676     0.1304     0.0142     2.4578
  104.0000     5.8821     6.8156   -25.8160     8.2581   104.2671     0.1275     0.0109     2.4678
  104.5000     5.8823     6.8452   -24.8976     8.2695   105.7106     0.1208     0.0075     2.4773
  105.0000     5.8822     6.9022   -24.1894     8.3047   100.6337     0.1149     0.0044     2.4857
  105.5000     5.9187     6.9594   -25.1429     8.3063   101.6061     0.1150     0.0135     2.4898
  106.0000     5.9680     7.0171   -26.0836     8.2733   104.3523     0.1312     0.0141     2.4737
  106.5000     6.0177     7.0752   -26.9250     8.2400   104.6894     0.1302     0.0174     2.4602
  107.0000     6.0678     7.1369   -26.5509     8.2056   104.8960     0.1268     0.0211     2.4660
  107.5000     6.1183     7.1368   -25.8793     8.1984   106.8035     0.1234     0.0248     2.4714
  108.0000     6.1693     7.1979   -25.2055     8.1933   109.1465     0.1197     0.0285     2.4775
  108.5000     6.2209     7.3101   -24.5294     8.1870   104.1095     0.1159     0.0322     2.4878
  109.0000     6.2742     7.4235   -24.5831     8.1549   102.0431     0.1122     0.0357     2.4983
  109.5000     6.2736     7.5387   -25.2567     8.0433    99.9796     0.1112     0.0330     2.4921
  110.0000     6.2734     7.6111   -25.9261     8.0158    97.9493     0.1166     0.0301     2.4840
  110.5000     6.2738     7.5988   -26.5324     8.1964    96.6653     0.1204     0.0326     2.4776
  111.0000     6.3893     7.5775   -26.3052     8.2104    98.9138     0.1242     0.0355     2.4701
  111.5000     6.4742     7.5563   -25.5603     8.2197   101.5960     0.1321     0.0328     2.4626
  112.0000     6.5090     7.5352   -24.5496     8.2454   104.4358     0.1319     0.0288     2.4564
  112.5000     6.3944     7.5141   -24.1880     8.3156   104.7448     0.1317     0.0248     2.4565
  113.0000     6.3135     7.4931   -24.7480     8.3654   102.5012     0.1340     0.0209     2.4557
  113.5000     6.2335     7.4722   -25.3223     8.3488   100.9008     0.1363     0.0170     2.4512
  114.0000     6.1546     7.3997   -25.8455     8.2173   100.4518     0.1385     0.0141     2.4475
  114.5000     6.0767     7.3278   -24.4817     8.1605   103.3056     0.1389     0.0211     2.4475
  115.0000     6.0471     7.2570   -23.2731     8.3061   107.1675     0.1350     0.0282     2.4502
  115.5000     6.0471     7.2023   -23.5814     8.3168   110.4617     0.1294     0.0354     2.4550
  116.0000     6.0471     7.2861   -24.0815     8.3005   108.0456     0.1238     0.0426     2.4695
  116.5000     6.1248     7.3687   -24.5827     8.2856   104.3711     0.1190     0.0492     2.4842
  117.0000     6.2164     7.4525   -25.0850     8.2704   101.0418     0.1177     0.0397     2.4843
  117.5000     6.2164     7.5371   -25.5988     8.2553    98.6183     0.1231     0.0295     2.4730
  118.0000     6.3166     7.6227   -25.7003     8.2399    96.5976     0.1302     0.0195     2.4620
  118.5000     6.4378     7.7092   -25.7050     8.2233    98.6550     0.1351     0.0126     2.4519
  119.0000     6.5615     7.7968   -25.6848     8.2606   101.0733     0.1337     0.0165     2.4560
  119.5000     6.6578     7.8853   -25.0702     8.3021   103.4877     0.1285     0.0202     2.4652
  120.0000     6.7196     7.9695   -24.4212     8.3068   104.6211     0.1280     0.0238     2.4738
  120.5000     6.7820     8.0431   -23.7655     8.2827   102.0994     0.1275     0.0274     2.4764
  121.0000     6.8452     8.0431   -23.7585     8.2824   101.0165     0.1269     0.0303     2.4699
  121.5000     6.8791     8.0431   -24.1281     8.3124   100.9296     0.1299     0.0330     2.4634
  122.0000     6.8812     8.0431   -22.9465     8.3414    99.5164     0.1329     0.0358     2.4585
  122.5000     6.8825     8.0422   -23.1246     7.9356    99.5245     0.1283     0.0385     2.4606
  123.0000     6.8155     8.0450   -23.5182     7.9662   101.3953     0.1277     0.0375     2.4646
  123.5000     6.6130     7.8078   -23.8540     8.0218    98.9569     0.1295     0.0325     2.4618
  124.0000     6.3340     7.6521   -23.0394     7.9876    97.9866     0.1315     0.0299     2.4585
  124.5000     6.0668     7.4999   -22.8094     8.0392   108.4979     0.1335     0.0287     2.4546
  125.0000     5.9369     7.3361   -23.3838     8.1544   106.7782     0.1385     0.0234     2.4465
  125.5000     6.0724     7.3577   -23.9512     8.1271   104.4223     0.1397     0.0178     2.4416
  126.0000     6.1607     7.3884   -23.9934     8.0399   106.9108     0.1380     0.0204     2.4464
  126.5000     6.0822     7.4043   -24.2373     8.1610   109.9084     0.1321     0.0233     2.4560
  127.0000     5.9917     7.3664   -25.1711     8.0591   110.7946     0.1313     0.0250     2.4605
  127.5000     6.0441     7.2938   -25.2675     8.0753   111.5410     0.1305     0.0269     2.4606
  128.0000     6.1465     7.2220   -24.7139     8.1786   111.8750     0.1296     0.0301     2.4606
  128.5000     6.2506     7.1364   -24.5517     8.0519   109.0234     0.1289     0.0332     2.4629
  129.0000     6.3565     7.2777   -24.8035     8.0929   107.6226     0.1293     0.0354     2.4655
  129.5000     6.4494     7.3861   -25.0574     8.1991   101.5816     0.1304     0.0300     2.4613
  130.0000     6.4494     7.4960   -25.3041     8.1714   101.5594     0.1348     0.0183     2.4494
  130.5000     6.4076     7.6087   -25.2917     8.0996   103.4143     0.1419     0.0056     2.4374
  131.0000     6.3765     7.6810   -24.1733     8.0710   104.3323     0.1427     0.0031     2.4392
  131.5000     6.3456     7.6434   -23.0718     8.1909   108.9671     0.1409     0.0084     2.4436
  132.0000     6.3318     7.6111   -22.9743     8.3139   109.6229     0.1311     0.0133     2.4527
  132.5000     6.4732     7.5414   -23.0637     8.3215   108.7489     0.1281     0.0085     2.4672
  133.0000     6.6245     7.7024   -23.1571     8.2916   107.9353     0.1192     0.0021     2.4817
  133.5000     6.7792     7.8735   -23.2464     8.2914   101.2871     0.1103    -0.0043     2.4963
  134.0000     6.9376     8.0489   -23.2904     8.3218    94.1693     0.1054    -0.0110     2.5025
  134.5000     7.0710     8.2708   -23.7683     8.3377    90.7248     0.1116     0.0002     2.4938
  135.0000     7.0710     8.3481   -24.2683     8.3127   101.7956     0.1198     0.0154     2.4785
  135.5000     7.0710     8.3475   -23.2948     8.2890   109.9267     0.1217     0.0158     2.4756
  136.0000     7.0710     8.3445   -20.9901     8.2641   107.3798     0.1238     0.0149     2.4734
  136.5000     6.7997     8.2716   -20.1192     8.2844   106.4315     0.1289     0.0141     2.4620
  137.0000     6.5358     8.1799   -21.1519     8.3079   108.1091     0.1285     0.0149     2.4625
  137.5000     6.3318     8.0892   -22.1494     8.3318   110.2359     0.1281     0.0165     2.4635
  138.0000     6.3319     7.9995   -23.1621     8.3446   108.3247     0.1277     0.0180     2.4618
  138.5000     6.3317     7.9108   -23.4270     8.2943   106.6829     0.1274     0.0196     2.4629
  139.0000     6.3318     7.8242   -23.1177     8.2359   106.9161     0.1236     0.0212     2.4713
  139.5000     6.3318     7.7124   -22.7849     8.1187   107.7820     0.1218     0.0227     2.4766
  140.0000     6.3318     7.6036   -23.7864     8.0051   108.6419     0.1247     0.0240     2.4747
  140.5000     6.3318     7.4963   -25.3907     7.9216   104.3000     0.1289     0.0239     2.4649
  141.0000     6.3318     7.3905   -26.8825     7.9706   100.8542     0.1329     0.0239     2.4556
