~VERSION INFORMATION
 VERS.                2.0:   CWLS LOG ASCII STANDARD - VERSION 2.0
 WRAP.                 NO:   ONE LINE PER DEPTH STEP
~WELL INFORMATION
#MNEM.UNIT      DATA TYPE    INFORMATION
#----------   ------------   ------------------------------
 STRT.F            0.0000:   START DEPTH
 STOP.F          404.0000:   STOP DEPTH
 STEP.F            0.1000:   STEP LENGTH
 NULL.          -999.2500:   NO VALUE
 COMP.   FLUOR DANIEL INC:   COMPANY
 WELL.   62-1 X 10 #62-10:   WELL
 FLD .             TEAPOT:   FIELD
 LOC .      S10 T38N R78W:   LOCATION
 CNTY.            NATRONA:   COUNTY
 STAT.            WYOMING:   STATE
 CTRY. UNITED STATES OF AMERICA:   COUNTRY
 SRVC.      Western Atlas:   SERVICE COMPANY
 DATE.        29-MAR-1995:   LOGDATE
 API .       490252270300:   API NUMBER
~CURVE INFORMATION
#MNEM.UNIT       API CODE    CURVE DESCRIPTION
#----------   ------------   ------------------------------
 DEPT.F                  :   
 GRR .GAPI   07 310 01 00:   GAMMA RAY
 RILD.OHMM   07 120 46 00:   INDUCTION LOG DEEP RESISTIVITY
 RILM.OHMM   07 120 44 00:   RESITIVITY LONG MEDIUM
~PARAMETER INFORMATION
#MNEM.UNIT          VALUE    DESCRIPTION
#----------   ------------   ------------------------------
 PD  .                 GL:   PERMANENT DATUM
 EPD .F              5160:   ELEVATION PERMANENT DATUM
 LMF .                 KB:   LOG MEASURED FROM
 DAPD.F                10:   FEET ABOVE PERMANENT DATUM
 DMF .                 KB:   DRILLING MEASURED FROM
 EKB .F              5170:   KELLING BUSHING
 EDF .F              5169:   DRILLING FLOOR
 EGL .F              5160:   GROUND LEVEL
 DATE.        29-MAR-1995:   RUN DATE
 RUN .                  1:   RUN NUMBER
 DD  .F               455:   DEPTH DRILLER
 DL  .F               416:   DEPTH LOGGER
 BLI .F               408:   BOTTOM LOG INTERVAL
 TLI .F                95:   TOP LOG INTERVAL
 CS  .IN            9.625:   CASING SIZE
 CBD .F                95:   CASING BOTTOM DRILLER
 CBL .F                95:   CASING BOTTOM LOGGER
 BS  .IN             8.75:   BIT SIZE
 BSD .F               455:   BIT SIZE AT DEPTH
 DFT .                AIR:   DRILLING FLUID TYPE
 MRT .F               204:   MAXIMUM RECORDED TEMPERATURE
 LUN .            HL 6530:   LOGGING UNIT NUMBER
 LUL .             CASPER:   LOGGING UNIT LOCATION
 ENGI.        VERN RAUTIO:   RECORDING ENGINEER
 WITN.        GARY STRONG:   WITNESSED BY
 CLNT.            A2DTECH:   CLIENT CODE
 ORIG.           5" PRINT:   ORIGIN OF DATA
 UWI .       490252270300:   UNIQUE WELL ID
 DICO. A2D Technologies, Inc.:   DIGITIZING COMPANY
~OTHER INFORMATION
~A    DEPT      GRR      RILD       RILM   
# ...
  163.8000   131.3883     5.0313     4.3289
  163.9000   130.6679     4.8827     4.2846
  164.0000   130.0995     4.7449     4.2347
  164.1000   129.3011     4.5870     4.1729
  164.2000   128.4818     4.4598     4.1079
  164.3000   127.9746     4.3457     4.0599
  164.4000   127.4707     4.2258     4.0107
  164.5000   127.1737     4.1277     3.9659
  164.6000   126.9647     4.0197     3.9197
  164.7000   126.8742     3.9388     3.8740
  164.8000   126.9904     3.8476     3.8198
  164.9000   127.1783     3.7693     3.7435
  165.0000   127.1996     3.6968     3.6351
  165.1000   127.4825     3.6137     3.5151
  165.2000   127.7104     3.5473     3.4115
  165.3000   127.9658     3.4697     3.2937
  165.4000   128.3532     3.3596     3.1536
  165.5000   128.7783     3.2222     2.9811
  165.6000   128.9967     3.0813     2.7978
  165.7000   128.9979     2.9606     2.6446
  165.8000   129.2428     2.8579     2.5454
  165.9000   129.3020     2.7434     2.4646
  166.0000   129.1543     2.6772     2.3934
  166.1000   128.6986     2.5902     2.3242
  166.2000   128.0450     2.5006     2.2493
  166.3000   127.7985     2.4219     2.1455
  166.4000   127.7999     2.3657     2.0035
  166.5000   127.8009     2.3061     1.9366
  166.6000   127.8021     2.2694     1.8798
  166.7000   127.8033     2.2299     1.8362
  166.8000   127.8045     2.1910     1.7936
  166.9000   127.8057     2.1528     1.7530
  167.0000   127.8071     2.1173     1.7198
  167.1000   127.5781     2.0924     1.6924
  167.2000   127.5077     2.0635     1.6700
  167.3000   127.2386     2.0538     1.6611
  167.4000   126.7314     2.0271     1.6611
  167.5000   126.1438     1.9918     1.6628
  167.6000   125.0993     1.9599     1.6727
  167.7000   123.8658     1.9370     1.6727
  167.8000   122.7953     1.9117     1.6806
  167.9000   121.4756     1.8921     1.6905
  168.0000   119.9517     1.8777     1.7005
  168.1000   118.3135     1.8667     1.7131
  168.2000   116.2811     1.8558     1.7325
  168.3000   113.9465     1.8449     1.7438
  168.4000   112.4329     1.8337     1.7621
  168.5000   110.9925     1.8337     1.7829
  168.6000   109.8442     1.8337     1.8040
  168.7000   108.9766     1.8400     1.8216
  168.8000   108.4693     1.8465     1.8340
  168.9000   107.9205     1.8488     1.8562
  169.0000   107.6883     1.8597     1.8775
  169.1000   108.1786     1.8723     1.8996
  169.2000   109.0808     1.8816     1.9289
  169.3000   110.4624     1.9001     1.9631
  169.4000   112.4101     1.9225     2.0007
  169.5000   113.9608     1.9485     2.0475
  169.6000   115.2129     1.9869     2.0887
  169.7000   117.0932     2.0635     2.1209
  169.8000   118.8176     2.1203     2.1761
  169.9000   120.3440     2.1739     2.2408
  170.0000   121.8100     2.2402     2.3031
  170.1000   123.0821     2.3152     2.3595
  170.2000   124.5275     2.3840     2.4332
  170.3000   126.7246     2.4548     2.5020
  170.4000   128.2348     2.5593     2.5649
  170.5000   129.0035     2.6214     2.6349
  170.6000   129.5131     2.6893     2.7262
  170.7000   129.9632     2.7605     2.8365
  170.8000   129.9645     2.8425     2.9378
  170.9000   129.9656     2.9242     3.0595
  171.0000   129.7778     2.9818     3.1366
  171.1000   129.3832     3.0449     3.2173
  171.2000   128.8760     3.1172     3.3031
  171.3000   128.2289     3.2111     3.4012
  171.4000   126.9551     3.3192     3.4999
  171.5000   126.6548     3.4177     3.5891
  171.6000   126.6558     3.5228     3.6481
  171.7000   126.6570     3.6036     3.6806
  171.8000   126.7692     3.6722     3.7144
  171.9000   127.0882     3.7506     3.7582
  172.0000   127.5978     3.8209     3.8068
  172.1000   128.1703     3.8659     3.8741
  172.2000   128.8398     3.9124     3.9280
  172.3000   129.6036     3.9919     3.9661
  172.4000   130.4953     4.0323     3.9979
  172.5000   131.4328     4.0961     4.0107
  172.6000   132.1967     4.1448     4.0170
  172.7000   133.0040     4.1841     4.0406
  172.8000   133.7243     4.2553     4.0667
  172.9000   134.4881     4.3089     4.0883
  173.0000   135.3967     4.3563     4.0950
  173.1000   136.5120     4.4272     4.1079
  173.2000   137.7343     4.4908     4.1236
  173.3000   138.7475     4.5437     4.1236
  173.4000   139.3474     4.6025     4.1236
  173.5000   139.7667     4.6839     4.1236
  173.6000   140.1146     4.7489     4.1236
  173.7000   140.3701     4.7719     4.1236
  173.8000   140.6255     4.8000     4.1236
  173.9000   140.8615     4.8282     4.1236
  174.0000   140.8629     4.8566     4.1236
  174.1000   140.6379     4.8827     4.1236
  174.2000   140.2064     4.8827     4.1236
  174.3000   139.5681     4.8827     4.1236
  174.4000   138.8067     4.8827     4.1236
  174.5000   138.0452     4.8827     4.1236
  174.6000   137.2501     4.8729     4.1201
  174.7000   136.5225     4.8399     4.0950
  174.8000   135.7610     4.7820     4.0950
  174.9000   135.1477     4.7278     4.0765
  175.0000   134.8416     4.6727     4.0527
  175.1000   134.8959     4.6020     4.0194
  175.2000   135.1457     4.5218     3.9777
  175.3000   135.1471     4.4369     3.9535
  175.4000   135.3605     4.3338     3.9008
  175.5000   135.6159     4.2200     3.8619
  175.6000   135.8713     4.1564     3.8020
  175.7000   136.0567     4.0840     3.7358
  175.8000   136.0579     4.0244     3.6641
  175.9000   136.0592     3.9774     3.5816
  176.0000   136.0603     3.9310     3.5151
  176.1000   136.0616     3.8825     3.4578
  176.2000   136.0628     3.8400     3.3976
  176.3000   136.0640     3.7952     3.3274
  176.4000   136.0652     3.7510     3.2502
  176.5000   136.0664     3.7073     3.1748
  176.6000   136.0676     3.6597     3.1011
  176.7000   136.2675     3.5958     3.0174
  176.8000   136.3716     3.5228     2.9592
  176.9000   136.3728     3.4886     2.8907
  177.0000   136.4303     3.4350     2.8313
  177.1000   136.6858     3.3842     2.7910
  177.2000   136.9800     3.3447     2.7746
  177.3000   137.1966     3.3039     2.7570
  177.4000   137.4520     3.2410     2.7277
  177.5000   137.7074     3.2067     2.7074
  177.6000   137.9628     3.1561     2.7002
  177.7000   138.2439     3.1108     2.6945
  177.8000   138.7971     3.0745     2.6815
  177.9000   139.0307     3.0386     2.6815
  178.0000   139.4711     3.0026     2.6630
  178.1000   139.8431     2.9854     2.6630
  178.2000   140.2788     2.9679     2.6532
  178.3000   140.9999     2.9506     2.6446
  178.4000   141.5192     2.9260     2.6446
  178.5000   142.2685     2.8960     2.6446
  178.6000   142.8304     2.8790     2.6446
  178.7000   142.8766     2.8601     2.6446
  178.8000   142.6236     2.8455     2.6556
  178.9000   142.3707     2.8289     2.6630
  179.0000   142.1176     2.8123     2.6630
  179.1000   141.8294     2.8011     2.6654
  179.2000   141.3929     2.8011     2.6815
  179.3000   140.7143     2.8011     2.6969
  179.4000   139.7051     2.8011     2.7002
  179.5000   138.5882     2.8011     2.7098
  179.6000   137.8558     2.8011     2.7257
  179.7000   137.3117     2.8011     2.7418
  179.8000   136.6058     2.8011     2.7579
  179.9000   136.2208     2.8011     2.7762
  180.0000   136.1086     2.8011     2.8047
  180.1000   136.1098     2.8011     2.8378
  180.2000   136.1569     2.8120     2.8628
  180.3000   136.4139     2.8285     2.8850
  180.4000   136.7170     2.8451     2.9167
  180.5000   136.9231     2.8618     2.9347
  180.6000   137.1785     2.8801     2.9676
  180.7000   137.3237     2.8956     3.0026
  180.8000   137.3249     2.9126     3.0277
  180.9000   137.3414     2.9392     3.0455
  181.0000   137.6291     2.9675     3.0672
  181.1000   137.8522     2.9881     3.1028
  181.2000   138.2822     3.0236     3.1239
  181.3000   138.5376     3.0658     3.1395
  181.4000   138.6184     3.1099     3.1702
  181.5000   138.8416     3.1651     3.1986
  181.6000   138.8429     3.2129     3.2230
  181.7000   138.6051     3.2508     3.2589
  181.8000   138.5436     3.2877     3.2794
  181.9000   138.4008     3.3093     3.3334
