~VERSION INFORMATION
 VERS.                2.0:   CWLS LOG ASCII STANDARD - VERSION 2.0
 WRAP.                 NO:   ONE LINE PER DEPTH STEP
~WELL INFORMATION
#MNEM.UNIT      DATA TYPE    INFORMATION
#----------   ------------   ------------------------------
 STRT.F           40.0000:   START DEPTH
 STOP.F          821.0000:   STOP DEPTH
 STEP.F            0.5000:   STEP LENGTH
 NULL.          -999.2500:   NO VALUE
 COMP. FENIX & SCISSON INC:   COMPANY
 WELL. NPR 3 -68 SX #68-27:   WELL
 FLD .             TEAPOT:   FIELD
 LOC .      S27 T39N R78W:   LOCATION
 CNTY.            NATRONA:   COUNTY
 STAT.            WYOMING:   STATE
 CTRY. UNITED STATES OF AMERICA:   COUNTRY
 SRVC.           BIRDWELL:   SERVICE COMPANY
 DATE.        11-SEP-1978:   LOGDATE
 API .       490251069500:   API NUMBER
~CURVE INFORMATION
#MNEM.UNIT       API CODE    CURVE DESCRIPTION
#----------   ------------   ------------------------------
 DEPT.F                  :   
 SPR .MV     05 010 01 00:   SPONTANEOUS POTENTIAL FROM RES.
 SN  .OHMM   05 040 16 00:   SHORT NORMAL 16"
 ILD .OHMM   05 120 46 00:   INDUCTION LOG DEEP
 GRD .GAPI   45 310 01 00:   GAMMA RAY FROM DENSITY LOG
 CALD.IN     45 280 60 00:   CALIPER
 RHOB.G/C3   45 350 01 00:   BULK DENSITY
 CORR.G/C3   45 356 01 00:   DENSITY CORRECTION
 DPHI.DEC    45 890 12 00:   DENSITY POROSITY SANDSTONE
~PARAMETER INFORMATION
#MNEM.UNIT          VALUE    DESCRIPTION
#----------   ------------   ------------------------------
 PD  .                 GL:   PERMANENT DATUM
 EPD .F              5032:   ELEVATION PERMANENT DATUM
 LMF .                 GL:   LOG MEASURED FROM
 DAPD.F                 4:   FEET ABOVE PERMANENT DATUM
 DMF .                 GL:   DRILLING MEASURED FROM
 EKB .F              5036:   KELLING BUSHING
 EGL .F              5032:   GROUND LEVEL
 DATE.            9-11-78:   RUN DATE
 RUN .                  1:   RUN NUMBER
 DD  .F               820:   DEPTH DRILLER
 DL  .F               822:   DEPTH LOGGER
 BLI .F               818:   BOTTOM LOG INTERVAL
 TLI .F                40:   TOP LOG INTERVAL
 CS  .IN            8.625:   CASING SIZE
 CBD .F                40:   CASING BOTTOM DRILLER
 CBL .F                40:   CASING BOTTOM LOGGER
 BS  .IN            7.875:   BIT SIZE
 BSD .F               820:   BIT SIZE AT DEPTH
 DFT .                KCL:   DRILLING FLUID TYPE
 DFD .                8.6:   DRILLING FLUID DENSITY
 DFV .                 34:   DRILLING FLUID VISCOSITY
 DFPH.                  9:   DRILLING FLUID PH
 DFL .                  8:   DRILLING FLUID LOSS
 MSS .           FLOWLINE:   MUD SAMPLE SOURCE
 RMS .OHMM            .24:   RESISTIVITY MUD SAMPLE
 MST .F                62:   MUD SAMPLE TEMPERATURE
 RMF .OHMM            .18:   RESISTIVITY MUD FILTRATE SAMPLE
 MFST.F                64:   MUD FILTRATE SAMPLE TEMPERATURE
 RMC .OHMM             .3:   RESISTIVITY MUD CAKE
 MCST.F                66:   MUD CAKE SAMPLE TEMPERATURE
 MFSS.               MEAS:   MUD FILTRATE SAMPLE SOURCE
 MCSS.               MEAS:   MUD CAKE SAMPLE SOURCE
 RMB .OHMM            .22:   RESISTIVITY MUD AT BHT
 BHT .F                68:   BOTTOM HOLE TEMPERATURE
 TCS .HRS               1:   TIME CURCULATED STOPPED
 MRT .F                68:   MAXIMUM RECORDED TEMPERATURE
 LUN .               3006:   LOGGING UNIT NUMBER
 LUL .               CASP:   LOGGING UNIT LOCATION
 ENGI.            POINTER:   RECORDING ENGINEER
 WITN.              AMEND:   WITNESSED BY
 CLNT.            A2DTECH:   CLIENT CODE
 ORIG.           5" PRINT:   ORIGIN OF DATA
 UWI .       490251069500:   UNIQUE WELL ID
 DICO. A2D Technologies, Inc.:   DIGITIZING COMPANY
~OTHER INFORMATION
~A   DEPT       SPR        SN        ILD         GRD        CALD     RHOB       CORR       DPHI   
   40.0000    -6.1122  -999.2500  -999.2500    77.3253     8.1300  -999.2500  -999.2500  -999.2500
   40.5000    -7.7571  -999.2500  -999.2500    75.8370     8.1500  -999.2500    -0.1550  -999.2500
   41.0000    -9.5788  -999.2500  -999.2500    74.5353     8.1500  -999.2500    -0.1564  -999.2500
   41.5000   -11.0862  -999.2500  -999.2500    73.4936     8.1538  -999.2500    -0.1583  -999.2500
   42.0000   -12.3024  -999.2500  -999.2500    72.1933     8.1878  -999.2500    -0.1623  -999.2500
   42.5000   -13.3751  -999.2500  -999.2500    70.8773     8.1799  -999.2500    -0.1602  -999.2500
   43.0000   -14.4482  -999.2500  -999.2500    71.0565     8.1697  -999.2500    -0.1458  -999.2500
   43.5000   -15.4379  -999.2500  -999.2500    72.4156     8.2028  -999.2500    -0.1028  -999.2500
   44.0000   -14.0295  -999.2500  -999.2500    73.7839     8.2273  -999.2500    -0.0598  -999.2500
   44.5000   -15.1343  -999.2500  -999.2500    75.4159     8.2525  -999.2500    -0.0273  -999.2500
   45.0000   -16.3930  -999.2500  -999.2500    79.3083     8.2776  -999.2500    -0.0340  -999.2500
   45.5000   -17.7645  -999.2500  -999.2500    83.6720     8.3025  -999.2500     0.0029  -999.2500
   46.0000   -19.3238  -999.2500  -999.2500    88.0288     8.3313  -999.2500     0.0836  -999.2500
   46.5000   -20.8418  -999.2500    20.4579    92.3325     8.2175  -999.2500     0.1262  -999.2500
   47.0000   -23.6737  -999.2500    13.3735    93.3007     7.7433  -999.2500     0.0941  -999.2500
   47.5000   -23.5632  -999.2500     8.8182    96.0140     7.6701  -999.2500     0.0621     0.1627
   48.0000   -23.5693  -999.2500     6.2221    98.7889     7.6369     2.4021     0.0360     0.1638
   48.5000   -24.8219     2.2079     3.8525    99.0371     7.4371     2.4022     0.0197     0.1707
   49.0000   -25.6345     3.8949     1.8250    97.1514     7.1901     2.4091     0.0135     0.1715
   49.5000   -25.0557     4.3445     2.3876    95.2702     6.9540     2.4065     0.0073     0.1727
   50.0000   -25.8664     4.8396     4.3467    93.3971     6.9721     2.4092     0.0055     0.1749
   50.5000   -28.2125     6.2606     5.2809    91.5217     7.2205     2.4093     0.0095     0.1715
   51.0000   -28.9470     6.6062     6.3904    90.7292     7.4682     2.4067     0.0204     0.1699
   51.5000   -29.0798     7.0830     6.6299    96.8434     7.7157     2.4041     0.0349     0.1699
   52.0000   -29.2018     7.6036     6.8875    99.5891     7.9610     2.4014     0.0548     0.1718
   52.5000   -29.3258     7.9695     7.1394   101.5941     8.1909     2.3988     0.0759     0.1754
   53.0000   -29.4511     7.9324     7.1389   102.8055     8.1901     2.4008     0.0970     0.1779
   53.5000   -29.5764     7.9000     7.1072   103.1631     8.1748     2.4108     0.1182     0.1780
   54.0000   -29.7017     7.8678     7.0848    98.0317     8.1443     2.4324     0.1394     0.1771
   54.5000   -29.8269     7.8356     6.9737    91.7868     8.0707     2.4498     0.1551     0.1693
   55.0000   -29.9522     7.8036     6.7168    85.5310     7.9444     2.4621     0.1130     0.1401
   55.5000   -30.0771     7.7718     6.4693    79.7577     7.8159     2.4616     0.0672     0.1392
   56.0000   -30.2031     7.7525     6.2309    79.9868     7.6873     2.4340     0.0476     0.1546
   56.5000   -30.3307     7.7654     6.0471    81.8933     7.5589     2.4119     0.0350     0.1655
   57.0000   -30.6537     7.7963     6.0471    87.7727     7.4305     2.3897     0.0290     0.1680
   57.5000   -31.1912     7.8217     6.0595    92.9276     7.3020     2.3875     0.0278     0.1727
   58.0000   -31.7290     8.0031     6.0796    96.4614     7.1738     2.3861     0.0260     0.1828
   58.5000   -32.2677     8.1773     6.1058    95.3583     7.0444     2.3847     0.0240     0.1859
   59.0000   -32.8064     8.3553     6.0992    93.7591     6.9913     2.3843     0.0221     0.1848
   59.5000   -33.3445     8.5371     6.3393    93.6404     7.0380     2.3929     0.0202     0.1828
   60.0000   -33.8820     8.7229     6.5199    93.1314     7.2050     2.4157     0.0182     0.1808
   60.5000   -34.1697     8.8998     6.7052    92.8403     7.3714     2.4353     0.0162     0.1758
   61.0000   -34.1682     8.8998     6.8734    92.6619     7.5377     2.4326     0.0156     0.1617
   61.5000   -34.1683     8.8411     7.0121    91.9530     7.7040     2.4171     0.0211     0.1499
   62.0000   -34.1699     8.7552     7.0062    91.3580     7.8700     2.4114     0.0347     0.1683
   62.5000   -34.1747     8.6701     6.9084    90.7627     8.0110     2.4162     0.0747     0.1717
   63.0000   -34.3846     8.5782     6.8005    90.5657     8.0556     2.4275     0.1145     0.1728
   63.5000   -34.3907     8.4997     6.6942    92.2776     8.0544     2.4388     0.1526     0.1657
   64.0000   -34.4027     8.4228     6.5896    94.3756     8.0517     2.4502     0.1511     0.1494
   64.5000   -34.4188     8.3169     6.4866    96.4850     8.0257     2.4517     0.0801     0.1400
   65.0000   -34.4346     8.1814     6.3853    98.6009     7.9374     2.4350     0.0454     0.1501
   65.5000   -34.4504     8.0217     6.2855    99.7925     7.8503     2.4179     0.0415     0.1584
   66.0000   -34.4662     7.8652     6.1873    97.5416     7.7637     2.4135     0.0426     0.1641
   66.5000   -34.4821     7.7117     6.0905    93.1693     7.6772     2.4115     0.0425     0.1691
   67.0000   -34.4979     7.5612     5.9947    89.1630     7.5908     2.4085     0.0379     0.1681
   67.5000   -34.5137     7.4136     5.9361    91.9841     7.5043     2.4006     0.0333     0.1663
   68.0000   -34.5295     7.2689     5.9365    96.5834     7.4180     2.3929     0.0287     0.1716
   68.5000   -34.5453     7.1271     5.9509    99.4731     7.3599     2.3863     0.0242     0.1794
   69.0000   -34.5611     7.0710     5.9612    97.2242     7.3382     2.3892     0.0196     0.1851
   69.5000   -34.5769     7.0451     5.9715    93.7465     7.3162     2.3929     0.0150     0.1808
   70.0000   -34.5928     7.0193     5.9818    91.0621     7.2943     2.3967     0.0105     0.1774
   70.5000   -34.6086     6.9937     5.9920    89.8564     7.2723     2.4001     0.0059     0.1740
   71.0000   -34.6244     6.9681     6.0023    88.1957     7.2505     2.3988     0.0050     0.1731
   71.5000   -34.6402     6.9426     6.0127    83.8306     7.2290     2.3968     0.0119     0.1743
   72.0000   -34.6560     6.9173     6.0230    81.5418     7.2499     2.3933     0.0222     0.1768
   72.5000   -34.6718     6.8920     6.0333    85.5245     7.2823     2.3893     0.0315     0.1793
   73.0000   -34.6876     6.8785     6.0437    91.3927     7.4189     2.3869     0.0348     0.1818
   73.5000   -34.7034     6.7222     6.0471    94.8394     7.5656     2.3947     0.0379     0.1835
   74.0000   -34.7193     6.5790     5.9298    96.3843     7.7126     2.4061     0.0385     0.1738
   74.5000   -34.7351     6.4389     5.8728    97.8744     7.8590     2.4173     0.0368     0.1634
   75.0000   -34.7504     6.3017     5.8163    96.1903     8.0107     2.4258     0.0375     0.1627
   75.5000   -34.7630     6.1675     5.7604    93.8833     8.1096     2.4245     0.0462     0.1631
   76.0000   -34.9173     6.1030     5.6699    91.5292     8.1120     2.4231     0.0545     0.1635
   76.5000   -35.0971     6.1303     5.6699    91.8065     8.0850     2.4220     0.0628     0.1616
   77.0000   -35.2779     6.1511     5.6655    93.2899     8.0245     2.4281     0.0715     0.1568
   77.5000   -35.3665     6.1720     5.6607    93.8356     7.9461     2.4390     0.0703     0.1515
   78.0000   -35.2750     6.1930     5.6560    93.3806     7.8568     2.4591     0.0640     0.1336
   78.5000   -35.1855     6.2141     5.6512    92.9676     7.7675     2.4470     0.0527     0.1336
   79.0000   -35.0970     6.2352     5.6464    96.4834     7.6782     2.4275     0.0415     0.1499
   79.5000   -35.0067     6.2564     5.6417   100.9878     7.5896     2.4075     0.0300     0.1622
   80.0000   -35.0736     6.2801     5.6369   100.9971     7.5008     2.3937     0.0278     0.1711
