~VERSION INFORMATION
 VERS.                2.0:   CWLS LOG ASCII STANDARD - VERSION 2.0
 WRAP.                 NO:   ONE LINE PER DEPTH STEP
~WELL INFORMATION
#MNEM.UNIT      DATA TYPE    INFORMATION
#----------   ------------   ------------------------------
 STRT.F            0.0000:   START DEPTH
 STOP.F         2182.0000:   STOP DEPTH
 STEP.F            0.1000:   STEP LENGTH
 NULL.          -999.2500:   NO VALUE
 COMP.       FLUOR DANIEL:   COMPANY
 WELL.   75-1 X 29 #75-29:   WELL
 FLD .             TEAPOT:   FIELD
 LOC .      S29 T39N R78W:   LOCATION
 CNTY.            NATRONA:   COUNTY
 STAT.            WYOMING:   STATE
 CTRY. UNITED STATES OF AMERICA:   COUNTRY
 SRVC.      Western Atlas:   SERVICE COMPANY
 DATE.        10-MAY-1996:   LOGDATE
 API .       490252279100:   API NUMBER
~CURVE INFORMATION
#MNEM.UNIT       API CODE    CURVE DESCRIPTION
#----------   ------------   ------------------------------
 DEPT.F                  :   
 GRR .GAPI   07 310 01 00:   GAMMA RAY
 RFOC.OHMM   07 220 04 00:   RESISTIVITY FOCUSED LOG
 RILD.OHMM   07 120 46 00:   INDUCTION LOG DEEP RESISTIVITY
 RILM.OHMM   07 120 44 00:   INDUCTION LOG MEDIUM RESISTIVITY
~PARAMETER INFORMATION
#MNEM.UNIT          VALUE    DESCRIPTION
#----------   ------------   ------------------------------
 PD  .                 GL:   PERMANENT DATUM
 EPD .F              5031:   ELEVATION PERMANENT DATUM
 LMF .                 KB:   LOG MEASURED FROM
 DAPD.F                10:   FEET ABOVE PERMANENT DATUM
 DMF .                 KB:   DRILLING MEASURED FROM
 EKB .F              5041:   KELLING BUSHING
 EDF .F              5040:   DRILLING FLOOR
 EGL .F              5031:   GROUND LEVEL
 DATE.        10-MAY-1996:   RUN DATE
 RUN .                  1:   RUN NUMBER
 DD  .F              2188:   DEPTH DRILLER
 DL  .F              2184:   DEPTH LOGGER
 BLI .F              2182:   BOTTOM LOG INTERVAL
 TLI .F               400:   TOP LOG INTERVAL
 CS  .IN                7:   CASING SIZE
 CBD .F               400:   CASING BOTTOM DRILLER
 CBL .F               400:   CASING BOTTOM LOGGER
 BS  .IN             6.25:   BIT SIZE
 BSD .F              2188:   BIT SIZE AT DEPTH
 DFT .                AIR:   DRILLING FLUID TYPE
 MRT .F                97:   MAXIMUM RECORDED TEMPERATURE
 LUN .            HL-6530:   LOGGING UNIT NUMBER
 LUL .             CASPER:   LOGGING UNIT LOCATION
 ENGI.           BROWNLOW:   RECORDING ENGINEER
 WITN.             LEBEAU:   WITNESSED BY
 CLNT.            A2DTECH:   CLIENT CODE
 ORIG.           5" PRINT:   ORIGIN OF DATA
 UWI .       490252279100:   UNIQUE WELL ID
 DICO. A2D Technologies, Inc.:   DIGITIZING COMPANY
~OTHER INFORMATION
~A    DEPT      GRR      RFOC       RILD       RILM   
# ...
 1927.2000   171.0140  -999.2500     8.0095     8.8581
 1927.3000   172.1343  -999.2500     8.0094     8.8337
 1927.4000   173.0449  -999.2500     8.0093     8.8337
 1927.5000   173.9267  -999.2500     8.0092     8.8266
 1927.6000   174.8587  -999.2500     8.0091     8.7727
 1927.7000   175.6420  -999.2500     8.0090     8.7727
 1927.8000   176.7384  -999.2500     8.0088     8.7727
 1927.9000   176.7372  -999.2500     8.0087     8.7443
 1928.0000   176.7361  -999.2500     8.0087     8.7122
 1928.1000   176.7348  -999.2500     8.0085     8.7035
 1928.2000   176.7336  -999.2500     8.0084     8.6521
 1928.3000   176.7325  -999.2500     8.0083     8.6521
 1928.4000   176.7312  -999.2500     8.0082     8.6128
 1928.5000   176.0210  -999.2500     8.0081     8.5924
 1928.6000   175.4496  -999.2500     8.0080     8.5725
 1928.7000   174.8057  -999.2500     7.9904     8.5331
 1928.8000   174.0472  -999.2500     7.9525     8.5331
 1928.9000   173.3676  -999.2500     7.9523     8.5331
 1929.0000   173.1040  -999.2500     7.9522     8.5331
 1929.1000   172.6184  -999.2500     7.9521     8.5022
 1929.2000   172.4983  -999.2500     7.9520     8.4742
 1929.3000   172.3533  -999.2500     7.9519     8.4742
 1929.4000   172.1943  -999.2500     7.9421     8.4742
 1929.5000   172.1931  -999.2500     7.8968     8.4742
 1929.6000   172.1918  -999.2500     7.8966     8.4742
 1929.7000   172.1906  -999.2500     7.8965     8.4742
 1929.8000   172.1895  -999.2500     7.8964     8.4742
 1929.9000   172.1882  -999.2500     7.8963     8.4742
 1930.0000   172.1870  -999.2500     7.8962     8.4781
 1930.1000   172.2371  -999.2500     7.8982     8.5331
 1930.2000   172.4883  -999.2500     7.9509     8.5331
 1930.3000   172.7865  -999.2500     7.9508     8.5331
 1930.4000   173.8113  -999.2500     7.9506     8.5331
 1930.5000   174.6041  -999.2500     7.9506     8.5331
 1930.6000   175.1074  -999.2500     7.9505     8.5331
 1930.7000   175.4968  -999.2500     7.9504     8.5331
 1930.8000   175.4957  -999.2500     7.9502     8.5331
 1930.9000   175.4942  -999.2500     7.9908     8.5692
 1931.0000   175.7046  -999.2500     8.0053     8.5924
 1931.1000   175.9556  -999.2500     8.0052     8.5924
 1931.2000   176.0941  -999.2500     8.0189     8.5924
 1931.3000   176.0295  -999.2500     8.0606     8.5924
 1931.4000   175.7759  -999.2500     8.0605     8.6401
 1931.5000   175.4870  -999.2500     8.0604     8.6521
 1931.6000   174.6177  -999.2500     8.0603     8.6521
 1931.7000   173.4394  -999.2500     8.0602     8.6521
 1931.8000   172.1761  -999.2500     8.0601     8.6521
 1931.9000   170.9821  -999.2500     8.0600     8.6521
 1932.0000   169.9511  -999.2500     8.0598     8.6521
 1932.1000   168.5416  -999.2500     8.0597     8.6521
 1932.2000   167.8707  -999.2500     8.0596     8.6521
 1932.3000   167.2865  -999.2500     8.0595     8.6521
 1932.4000   166.9052  -999.2500     8.0594     8.6521
 1932.5000   166.7270  -999.2500     8.0593     8.6521
 1932.6000   166.7520  -999.2500     8.0592     8.6521
 1932.7000   167.0261  -999.2500     8.0141     8.6107
 1932.8000   167.0250  -999.2500     7.9676     8.5924
 1932.9000   167.2037  -999.2500     7.9480     8.5924
 1933.0000   167.4549  -999.2500     7.9303     8.5924
 1933.1000   167.7061  -999.2500     7.8928     8.5924
 1933.2000   167.9573  -999.2500     7.8927     8.5924
 1933.3000   168.2256  -999.2500     7.8926     8.5924
 1933.4000   168.2244  -999.2500     7.8925     8.5924
 1933.5000   168.4093  -999.2500     7.8923     8.5689
 1933.6000   168.5237  -999.2500     7.8923     8.5331
 1933.7000   168.5225  -999.2500     7.8823     8.5331
 1933.8000   168.5597  -999.2500     7.8375     8.5331
 1933.9000   168.8217  -999.2500     7.8374     8.4890
 1934.0000   169.3031  -999.2500     7.8373     8.4742
 1934.1000   169.8067  -999.2500     7.8372     8.4494
 1934.2000   170.7387  -999.2500     7.8371     8.4157
 1934.3000   171.9991  -999.2500     7.8370     8.4098
 1934.4000   173.2149  -999.2500     7.8346     8.3576
 1934.5000   174.2443  -999.2500     7.7826     8.3128
 1934.6000   175.4803  -999.2500     7.7825     8.2999
 1934.7000   176.3450  -999.2500     7.7824     8.2740
 1934.8000   176.8030  -999.2500     7.7824     8.2427
 1934.9000   176.9544  -999.2500     7.7823     8.2427
 1935.0000   176.9533  -999.2500     7.7821     8.2427
 1935.1000   176.9520  -999.2500     7.7820     8.1969
 1935.2000   176.9506  -999.2500     7.7819     8.1858
 1935.3000   176.9497  -999.2500     7.7818     8.1858
 1935.4000   176.9484  -999.2500     7.7817     8.1858
 1935.5000   177.0526  -999.2500     7.7816     8.1858
 1935.6000   177.3038  -999.2500     7.7815     8.1858
 1935.7000   177.5550  -999.2500     7.7814     8.1858
 1935.8000   177.8484  -999.2500     7.7812     8.1858
 1935.9000   178.4785  -999.2500     7.7811     8.1858
 1936.0000   179.2341  -999.2500     7.7811     8.2055
 1936.1000   179.9897  -999.2500     7.7959     8.2427
 1936.2000   180.7458  -999.2500     7.8349     8.2440
 1936.3000   181.5018  -999.2500     7.8348     8.2999
 1936.4000   182.3660  -999.2500     7.8347     8.2999
 1936.5000   183.6615  -999.2500     7.8346     8.2999
 1936.6000   185.0076  -999.2500     7.8345     8.2999
 1936.7000   185.9159  -999.2500     7.8344     8.2999
 1936.8000   186.3512  -999.2500     7.8343     8.2999
 1936.9000   186.5835  -999.2500     7.8342     8.2999
 1937.0000   186.5821  -999.2500     7.8340     8.2999
 1937.1000   186.8033  -999.2500     7.8339     8.2999
 1937.2000   187.0544  -999.2500     7.8339     8.2999
 1937.3000   187.3056  -999.2500     7.8338     8.2999
 1937.4000   187.7059  -999.2500     7.8337     8.2999
 1937.5000   188.4366  -999.2500     7.8335     8.2999
 1937.6000   188.9881  -999.2500     7.8334     8.2999
 1937.7000   189.6715  -999.2500     7.8701     8.3341
 1937.8000   190.9642  -999.2500     7.8876     8.3576
 1937.9000   192.4775  -999.2500     7.8876     8.3576
 1938.0000   194.3930  -999.2500     7.8875     8.3576
 1938.1000   196.9750  -999.2500     7.8886     8.3576
 1938.2000   198.1852  -999.2500     7.9421     8.3576
 1938.3000   199.3953  -999.2500     7.9420     8.3937
 1938.4000   200.6055  -999.2500     7.9418     8.4157
 1938.5000   201.8156  -999.2500     7.9418     8.4330
 1938.6000   203.0258  -999.2500     7.9417     8.4742
 1938.7000   204.2805  -999.2500     7.9415     8.4742
 1938.8000   205.8666  -999.2500     7.9414     8.4742
 1938.9000   205.8655  -999.2500     7.9413     8.5124
 1939.0000   205.8642  -999.2500     7.9412     8.5331
 1939.1000   205.8630  -999.2500     7.9630     8.5524
 1939.2000   205.8618  -999.2500     7.9962     8.5924
 1939.3000   205.7746  -999.2500     8.0041     8.5924
 1939.4000   205.2561  -999.2500     8.1076     8.6521
 1939.5000   204.2691  -999.2500     8.1496     8.6928
 1939.6000   202.0744  -999.2500     8.2639     8.7122
 1939.7000   200.8244  -999.2500     8.3352     8.7335
 1939.8000   200.4737  -999.2500     8.3500     8.7727
 1939.9000   200.1231  -999.2500     8.3929     8.7744
 1940.0000   199.7724  -999.2500     8.3927     8.8337
 1940.1000   199.4218  -999.2500     8.3926     8.8337
 1940.2000   199.0078  -999.2500     8.3925     8.8670
 1940.3000   198.5553  -999.2500     8.3924     8.9186
 1940.4000   198.3019  -999.2500     8.3923     8.9569
 1940.5000   198.0028  -999.2500     8.3922     8.9569
 1940.6000   197.7947  -999.2500     8.3920     8.9569
 1940.7000   197.3831  -999.2500     8.3919     9.0025
 1940.8000   196.8773  -999.2500     8.3918     9.0191
 1940.9000   196.3717  -999.2500     8.3917     9.0191
 1941.0000   195.8656  -999.2500     8.3916     9.0191
 1941.1000   195.2807  -999.2500     8.3915     9.0191
 1941.2000   194.6396  -999.2500     8.3914     9.0191
 1941.3000   194.0452  -999.2500     8.3912     9.0191
 1941.4000   193.5394  -999.2500     8.3911     9.0191
 1941.5000   192.9684  -999.2500     8.3910     9.0191
 1941.6000   192.2421  -999.2500     8.3909     9.0191
 1941.7000   191.9552  -999.2500     8.3908     9.0121
