~VERSION INFORMATION
 VERS.                2.0:   CWLS LOG ASCII STANDARD - VERSION 2.0
 WRAP.                 NO:   ONE LINE PER DEPTH STEP
~WELL INFORMATION
#MNEM.UNIT      DATA TYPE    INFORMATION
#----------   ------------   ------------------------------
 STRT.F            1.0000:   START DEPTH
 STOP.F          524.0000:   STOP DEPTH
 STEP.F            0.1000:   STEP LENGTH
 NULL.          -999.2500:   NO VALUE
 COMP.       F D SERV INC:   COMPANY
 WELL.    87-2 SX-3 #87-3:   WELL
 FLD .             TEAPOT:   FIELD
 LOC .       S3 T38N R78W:   LOCATION
 CNTY.            NATRONA:   COUNTY
 STAT.            WYOMING:   STATE
 CTRY. UNITED STATES OF AMERICA:   COUNTRY
 SRVC.     Atlas Wireline:   SERVICE COMPANY
 DATE.        20-OCT-1992:   LOGDATE
 API .       490252254700:   API NUMBER
~CURVE INFORMATION
#MNEM.UNIT       API CODE    CURVE DESCRIPTION
#----------   ------------   ------------------------------
 DEPT.F                  :   
 GRR .GAPI   07 310 01 00:   GAMMA RAY
 RILD.OHMM   07 120 46 00:   INDUCTION LOG DEEP RESISTIVITY
 RILM.OHMM   07 120 44 00:   INDUCTION LOG MEDIUM RESISTIVITY
~PARAMETER INFORMATION
#MNEM.UNIT          VALUE    DESCRIPTION
#----------   ------------   ------------------------------
 PD  .                 GL:   PERMANENT DATUM
 EPD .F              5124:   ELEVATION PERMANENT DATUM
 LMF .                 KB:   LOG MEASURED FROM
 DAPD.F                10:   FEET ABOVE PERMANENT DATUM
 DMF .                 KB:   DRILLING MEASURED FROM
 EKB .F              5134:   KELLING BUSHING
 EDF .F              5133:   DRILLING FLOOR
 EGL .F              5124:   GROUND LEVEL
 DATE.        20-OCT-1992:   RUN DATE
 RUN .                  1:   RUN NUMBER
 DD  .F               533:   DEPTH DRILLER
 DL  .F               532:   DEPTH LOGGER
 BLI .F               524:   BOTTOM LOG INTERVAL
 TLI .F                74:   TOP LOG INTERVAL
 CS  .IN            8.625:   CASING SIZE
 CBD .F                85:   CASING BOTTOM DRILLER
 CBL .F                74:   CASING BOTTOM LOGGER
 BS  .IN            7.875:   BIT SIZE
 BSD .F               533:   BIT SIZE AT DEPTH
 DFT .           AIR FOAM:   DRILLING FLUID TYPE
 TCS .HRS               3:   TIME CURCULATED STOPPED
 MRT .F                70:   MAXIMUM RECORDED TEMPERATURE
 LUN .            HL-6274:   LOGGING UNIT NUMBER
 LUL .             CASPER:   LOGGING UNIT LOCATION
 ENGI.             RAUTIO:   RECORDING ENGINEER
 WITN.        GARY STRONG:   WITNESSED BY
 CLNT.            A2DTECH:   CLIENT CODE
 ORIG.           5" PRINT:   ORIGIN OF DATA
 UWI .       490252254700:   UNIQUE WELL ID
 DICO. A2D Technologies, Inc.:   DIGITIZING COMPANY
~OTHER INFORMATION
~A    DEPT     GRR       RILD       RILM   
# ...
  310.4000   132.2076     7.4035     7.6148
  310.5000   132.3419     7.4454     7.6578
  310.6000   132.5147     7.4886     7.7011
  310.7000   132.5321     7.5301     7.7417
  310.8000   132.8222     7.5728     7.7416
  310.9000   132.8237     7.6374     7.8141
  311.0000   132.8255     7.7125     7.8505
  311.1000   132.9125     7.7573     7.8503
  311.2000   133.1326     7.8455     7.8551
  311.3000   133.1347     7.8993     7.9052
  311.4000   133.1363     7.9441     7.9441
  311.5000   133.1381     7.9749     7.9605
  311.6000   133.0436     7.9750     7.9781
  311.7000   132.7626     7.9752     8.0231
  311.8000   132.2332     7.9753     8.0722
  311.9000   131.5619     7.9754     8.0306
  312.0000   130.6627     7.9431     7.9852
  312.1000   129.7918     7.8595     7.9207
  312.2000   129.0097     7.8105     7.8316
  312.3000   127.9934     7.6946     7.7400
  312.4000   127.2887     7.5657     7.6565
  312.5000   126.9095     7.4218     7.6013
  312.6000   126.7848     7.2632     7.5379
  312.7000   126.7867     7.1337     7.4633
  312.8000   126.7901     7.0219     7.4209
  312.9000   127.0370     6.9043     7.3376
  313.0000   127.2838     6.7886     7.2551
  313.1000   127.5306     6.6747     7.1736
  313.2000   127.7775     6.5612     7.0700
  313.3000   128.0244     6.4173     6.9136
  313.4000   128.3172     6.2744     6.7759
  313.5000   128.5180     6.1697     6.6834
  313.6000   128.7648     6.0913     6.5501
  313.7000   129.0940     5.9902     6.4036
  313.8000   129.5620     5.9232     6.2602
  313.9000   129.8437     5.8307     6.1007
  314.0000   130.0557     5.7510     5.9839
  314.1000   130.3025     5.6866     5.7707
  314.2000   130.4558     5.6256     5.5384
  314.3000   130.4927     5.5892     5.3617
  314.4000   130.7632     5.5362     5.2303
  314.5000   130.7648     5.4742     5.1510
  314.6000   130.9297     5.4242     5.0834
  314.7000   131.1766     5.3979     5.0143
  314.8000   131.4234     5.3980     4.9402
  314.9000   131.6826     5.3708     4.9109
  315.0000   131.9171     5.3606     4.8586
  315.1000   132.5123     5.3607     4.8232
  315.2000   133.4807     5.3607     4.7960
  315.3000   134.7651     5.3608     4.7815
  315.4000   136.2440     5.3896     4.8086
  315.5000   138.9279     5.3985     4.8905
  315.6000   141.8101     5.4130     4.9740
  315.7000   143.9909     5.4364     5.0440
  315.8000   145.2576     5.4365     5.1012
  315.9000   145.9846     5.4672     5.1590
  316.0000   146.5740     5.4982     5.2292
  316.1000   146.7719     5.5294     5.3251
  316.2000   146.8807     5.5607     5.4467
  316.3000   146.8030     5.5922     5.5709
  316.4000   146.5388     5.6300     5.6950
  316.5000   145.9760     5.6558     5.8071
  316.6000   145.3548     5.6879     5.8913
  316.7000   144.3232     5.7201     6.0127
  316.8000   142.8280     5.7525     6.1368
  316.9000   140.8377     5.7898     6.2414
  317.0000   138.3978     5.7898     6.3594
  317.1000   136.4312     5.8102     6.4564
  317.2000   134.7084     5.8305     6.5667
  317.3000   133.3417     5.8402     6.6629
  317.4000   132.1618     5.9126     6.7453
  317.5000   131.1230     5.9431     6.8674
  317.6000   130.6651     5.9995     6.9776
  317.7000   130.0056     6.0676     7.1252
  317.8000   129.3852     6.1433     7.2494
  317.9000   128.8426     6.2525     7.3316
  318.0000   128.0972     6.3895     7.4160
  318.1000   127.6170     6.5087     7.5408
  318.2000   126.9463     6.6198     7.6372
  318.3000   126.2131     6.7422     7.7461
  318.4000   125.5454     6.8959     7.8662
  318.5000   125.0573     7.0938     7.9580
  318.6000   124.5689     7.2971     8.1399
  318.7000   123.8871     7.5521     8.3261
  318.8000   123.2891     7.8421     8.4894
  318.9000   122.8009     8.1083     8.6342
  319.0000   122.3308     8.3829     8.7775
  319.1000   122.0476     8.4609     8.8935
  319.2000   122.0492     8.5853     8.9355
  319.3000   121.9047     8.7147     8.9860
  319.4000   121.8371     8.8135     9.0552
  319.5000   122.0546     8.9268     9.1453
  319.6000   122.0567     8.9269     9.1451
  319.7000   122.0583     8.9589     9.1907
  319.8000   122.2174     8.9897     9.2091
  319.9000   122.3654     8.9977     9.2089
  320.0000   122.4077     9.0529     9.2088
  320.1000   122.6727     9.0530     9.2087
  320.2000   122.9014     9.0531     9.1606
  320.3000   123.1482     9.0308     9.1443
  320.4000   123.5051     8.9905     9.1210
  320.5000   123.9454     8.9906     9.0803
  320.6000   124.1991     8.9907     9.0801
  320.7000   124.6773     8.9908     9.0304
  320.8000   125.1691     8.9910     9.0166
  320.9000   125.6609     8.9782     9.0165
  321.0000   126.2782     8.9287     9.0034
  321.1000   127.2516     8.9288     8.9534
  321.2000   127.7435     8.9289     8.9533
  321.3000   128.2354     8.9291     8.9532
  321.4000   128.8596     8.9292     8.9804
  321.5000   129.4487     8.9293     9.0157
  321.6000   129.6955     8.9295     9.0188
  321.7000   129.9857     8.9714     9.0787
  321.8000   130.1892     8.9922     9.0786
  321.9000   130.2926     9.0103     9.1086
  322.0000   130.2094     9.0673     9.1421
  322.1000   129.9397     9.1828     9.1532
  322.2000   129.3878     9.2285     9.2706
  322.3000   128.7502     9.2809     9.3161
  322.4000   128.0170     9.3548     9.3688
  322.5000   127.4760     9.4521     9.4427
  322.6000   127.2327     9.5095     9.5497
  322.7000   126.9689     9.6098     9.6672
  322.8000   126.7464     9.7189     9.8184
  322.9000   126.5032     9.8292     9.9861
  323.0000   126.2600     9.9408    10.1565
  323.1000   126.0168    10.0561    10.3297
  323.2000   125.7640    10.2242    10.5127
  323.3000   125.2950    10.3553    10.6854
  323.4000   124.9837    10.5028    10.8680
  323.5000   124.7405    10.6820    11.0841
  323.6000   124.4375    10.8656    11.3050
  323.7000   123.9507    11.1142    11.4338
  323.8000   123.7075    11.3173    11.6955
  323.9000   123.0883    11.5834    11.8588
  324.0000   122.4846    11.8928    12.0660
  324.1000   121.8543    12.1636    12.3618
  324.2000   120.8511    12.4864    12.7069
  324.3000   119.1075    12.7259    12.9648
  324.4000   118.1137    12.9720    13.0844
  324.5000   116.7497    13.1933    13.2328
  324.6000   115.0348    13.4376    13.4344
  324.7000   112.6659    13.8651    13.7327
  324.8000   108.1908    14.1467    14.0005
  324.9000   106.0905    14.4699    14.2059
  325.0000   103.9457    14.8000    14.5514
  325.1000   101.6143    15.1372    14.9675
  325.2000    98.7450    15.5037    15.4074
  325.3000    96.0603    15.9208    15.9890
  325.4000    93.1846    16.3768    16.4886
  325.5000    90.4899    16.8005    16.8634
  325.6000    87.9373    17.1612    17.1512
  325.7000    85.1523    17.4575    17.4248
  325.8000    81.8053    17.8517    17.6324
  325.9000    79.2500    18.2597    17.9185
  326.0000    77.7745    18.6764    18.3731
  326.1000    77.0273    19.1629    18.8988
  326.2000    76.4821    19.8073    19.4387
  326.3000    75.7445    20.1460    19.9964
  326.4000    75.2592    20.4904    20.4514
  326.5000    74.7709    20.8402    21.2848
  326.6000    74.4093    21.1957    22.0034
  326.7000    74.1661    21.5569    22.4333
  326.8000    73.9229    21.9811    22.6874
  326.9000    73.6313    22.4077    22.9963
  327.0000    73.2402    22.8397    23.2054
  327.1000    73.0276    23.1800    23.3939
  327.2000    72.9501    23.4429    23.5260
  327.3000    72.7069    23.7363    23.6588
  327.4000    72.4264    23.9785    23.8130
  327.5000    72.2205    24.2509    23.9269
  327.6000    71.9773    24.4674    24.0620
  327.7000    71.8246    24.5803    24.1474
  327.8000    71.7944    24.5807    24.1293
  327.9000    71.5249    24.5810    23.9784
  328.0000    71.5266    24.5814    23.8578
  328.1000    71.3683    24.5817    23.6363
  328.2000    71.1251    24.5820    23.3705
  328.3000    70.8819    24.5824    23.1303
  328.4000    70.6235    24.5827    22.9915
  328.5000    70.6252    24.5831    22.7495
