~VERSION INFORMATION
 VERS.                2.0:   CWLS LOG ASCII STANDARD - VERSION 2.0
 WRAP.                 NO:   ONE LINE PER DEPTH STEP
~WELL INFORMATION
#MNEM.UNIT      DATA TYPE    INFORMATION
#----------   ------------   ------------------------------
 STRT.F           27.0000:   START DEPTH
 STOP.F          992.0000:   STOP DEPTH
 STEP.F            0.5000:   STEP LENGTH
 NULL.          -999.2500:   NO VALUE
 COMP. FENIX & SCISSON INC:   COMPANY
 WELL. NPR 3  77- S -27 #77-27:   WELL
 FLD .             TEAPOT:   FIELD
 LOC .      S27 T39N R78W:   LOCATION
 CNTY.            NATRONA:   COUNTY
 STAT.            WYOMING:   STATE
 CTRY. UNITED STATES OF AMERICA:   COUNTRY
 SRVC.            Unknown:   SERVICE COMPANY
 DATE.        09-SEP-1978:   LOGDATE
 API .       490251069700:   API NUMBER
~CURVE INFORMATION
#MNEM.UNIT       API CODE    CURVE DESCRIPTION
#----------   ------------   ------------------------------
 DEPT.F                  :   
 SPR .MV     05 010 01 00:   SPONTANEOUS POTENTIAL FROM RES.
 SN  .OHMM   05 040 16 00:   SHORT NORMAL 16"
 ILD .OHMM   05 120 46 00:   INDUCTION LOG DEEP
 CALD.IN     45 280 60 00:   CALIPER
 GRD .GAPI   45 310 01 00:   GAMMA RAY FROM DENSITY LOG
 RHOB.G/C3   45 350 01 00:   BULK DENSITY
 CORR.G/C3   45 356 01 00:   DENSITY CORRECTION
 DPHI.DEC    45 890 12 00:   DENSITY POROSITY SANDSTONE
~PARAMETER INFORMATION
#MNEM.UNIT          VALUE    DESCRIPTION
#----------   ------------   ------------------------------
 PD  .                 GL:   PERMANENT DATUM
 EPD .F              5069:   ELEVATION PERMANENT DATUM
 LMF .                 KB:   LOG MEASURED FROM
 DAPD.F                 4:   FEET ABOVE PERMANENT DATUM
 DMF .                 KB:   DRILLING MEASURED FROM
 EKB .F              5073:   KELLING BUSHING
 EGL .F              5069:   GROUND LEVEL
 DATE.           9-9-1978:   RUN DATE
 RUN .                  1:   RUN NUMBER
 DD  .F               990:   DEPTH DRILLER
 DL  .F               998:   DEPTH LOGGER
 BLI .F               992:   BOTTOM LOG INTERVAL
 TLI .F                50:   TOP LOG INTERVAL
 CS  .IN            8.625:   CASING SIZE
 CBD .F                40:   CASING BOTTOM DRILLER
 BS  .IN            7.875:   BIT SIZE
 BSD .F               990:   BIT SIZE AT DEPTH
 DFT .                KCL:   DRILLING FLUID TYPE
 DFD .                8.7:   DRILLING FLUID DENSITY
 DFV .                 34:   DRILLING FLUID VISCOSITY
 DFPH.                  9:   DRILLING FLUID PH
 DFL .                  8:   DRILLING FLUID LOSS
 MSS .          FLOW LINE:   MUD SAMPLE SOURCE
 RMS .OHMM             .4:   RESISTIVITY MUD SAMPLE
 MST .F                79:   MUD SAMPLE TEMPERATURE
 RMF .OHMM            .12:   RESISTIVITY MUD FILTRATE SAMPLE
 MFST.F                84:   MUD FILTRATE SAMPLE TEMPERATURE
 RMC .OHMM            .34:   RESISTIVITY MUD CAKE
 MCST.F                84:   MUD CAKE SAMPLE TEMPERATURE
 MFSS.               MEAS:   MUD FILTRATE SAMPLE SOURCE
 MCSS.               MEAS:   MUD CAKE SAMPLE SOURCE
 TCS .HRS               3:   TIME CURCULATED STOPPED
 LUN .               2958:   LOGGING UNIT NUMBER
 LUL .               CASP:   LOGGING UNIT LOCATION
 ENGI.             MILLER:   RECORDING ENGINEER
 WITN.              AMEND:   WITNESSED BY
 CLNT.            A2DTECH:   CLIENT CODE
 ORIG.           5" PRINT:   ORIGIN OF DATA
 UWI .       490251069700:   UNIQUE WELL ID
 DICO. A2D Technologies, Inc.:   DIGITIZING COMPANY
~OTHER INFORMATION
~A   DEPT      SPR         SN        ILD       CALD        GRD       RHOB       CORR       DPHI   
# ...
  229.5000   -67.3376     5.6316     6.0414     7.8622   124.6938     2.4529     0.0069     0.1307
  230.0000   -67.3765     5.6021     5.9923     7.8607   124.9915     2.4573     0.0072     0.1272
  230.5000   -67.4154     5.5727     5.9436     7.8591   123.3785     2.4616     0.0075     0.1238
  231.0000   -67.4543     5.5435     5.8953     7.8576   121.9723     2.4659     0.0060     0.1233
  231.5000   -67.4932     5.5145     5.8474     7.8561   125.6357     2.4702     0.0023     0.1256
  232.0000   -67.5322     5.4856     5.7999     7.8546   129.0879     2.4716    -0.0013     0.1327
  232.5000   -67.5711     5.4568     5.7528     7.8530   129.1421     2.4595    -0.0050     0.1397
  233.0000   -67.6100     5.4329     5.6889     7.8515   129.0455     2.4472    -0.0084     0.1466
  233.5000   -67.6490     5.4330     5.6889     7.8500   131.0840     2.4349    -0.0081     0.1523
  234.0000   -67.6877     5.4329     5.6368     7.8485   133.5422     2.4230    -0.0070     0.1528
  234.5000   -67.7098     5.4329     5.6463     7.8469   134.5984     2.4212    -0.0060     0.1474
  235.0000   -67.7288     5.4329     5.6630     7.8454   134.4274     2.4243    -0.0050     0.1421
  235.5000   -67.7476     5.4329     5.6797     7.8439   134.1912     2.4323    -0.0039     0.1372
  236.0000   -67.7665     5.4329     5.6965     7.8424   133.8264     2.4409    -0.0029     0.1361
  236.5000   -67.7854     5.4328     5.7134     7.8408   135.1284     2.4490    -0.0019     0.1351
  237.0000   -67.8043     5.4330     5.7302     7.8393   136.8825     2.4505    -0.0009     0.1341
  237.5000   -67.8232     5.4334     5.7472     7.8378   135.1595     2.4518    -0.0004     0.1332
  238.0000   -67.8420     5.3893     5.7642     7.8363   131.5452     2.4531    -0.0003     0.1332
  238.5000   -67.8598     5.3533     5.7812     7.8348   131.3999     2.4544    -0.0002     0.1332
  239.0000   -67.8782     5.3175     5.7947     7.8332   132.3366     2.4557     0.0000     0.1300
  239.5000   -67.9719     5.2819     5.7092     7.8317   133.4319     2.4573     0.0001     0.1252
  240.0000   -68.5865     5.2466     5.6396     7.8302   133.8607     2.4638     0.0002     0.1220
  240.5000   -69.2084     5.2115     5.5709     7.8286   132.8310     2.4701     0.0004     0.1248
  241.0000   -69.4934     5.1766     5.5030     7.8271   132.1902     2.4722     0.0005     0.1291
  241.5000   -69.5251     5.1420     5.4359     7.8256   132.0836     2.4660     0.0006     0.1334
  242.0000   -69.5521     5.1076     5.3696     7.8241   132.1457     2.4564     0.0008     0.1377
  242.5000   -69.5785     5.0734     5.3041     7.8225   132.2239     2.4473     0.0009     0.1420
  243.0000   -69.6053     5.0395     5.2394     7.8210   132.8043     2.4382     0.0010     0.1460
  243.5000   -69.6322     5.0056     5.1753     7.8195   134.4491     2.4353     0.0011     0.1460
  244.0000   -69.6591     5.0007     5.1408     7.8180   134.5363     2.4341     0.0013     0.1432
  244.5000   -69.6859     5.0007     5.1408     7.8165   132.9653     2.4360     0.0014     0.1415
  245.0000   -69.7128     5.0007     5.1408     7.8160   131.4521     2.4379     0.0015     0.1400
  245.5000   -69.7396     5.0007     5.1750     7.8168   130.6315     2.4397     0.0016     0.1375
  246.0000   -69.7665     5.0334     5.2151     7.8177   130.7079     2.4414     0.0018     0.1344
  246.5000   -69.7934     5.0711     5.2555     7.8185   133.1466     2.4478     0.0019     0.1313
  247.0000   -69.8202     5.1094     5.2962     7.8193   136.7939     2.4542     0.0020     0.1327
  247.5000   -69.8471     5.1479     5.3372     7.8201   136.8960     2.4559     0.0022     0.1352
  248.0000   -69.8739     5.1867     5.3786     7.8210   132.4806     2.4533     0.0023     0.1330
  248.5000   -69.9008     5.2258     5.4202     7.8218   130.4393     2.4512     0.0024     0.1305
  249.0000   -69.9277     5.2652     5.4622     7.8226   130.5915     2.4558     0.0026     0.1280
  249.5000   -69.9545     5.3049     5.5045     7.8235   132.0363     2.4602     0.0027     0.1255
  250.0000   -69.9814     5.3449     5.5472     7.8243   133.4274     2.4647     0.0028     0.1230
  250.5000   -70.0082     5.3852     5.5901     7.8251   132.7800     2.4690     0.0029     0.1207
  251.0000   -70.0351     5.4258     5.6334     7.8260   130.7708     2.4732     0.0031     0.1217
  251.5000   -70.0620     5.4667     5.6771     7.8268   129.2347     2.4741     0.0032     0.1243
  252.0000   -70.0888     5.5079     5.7416     7.8276   127.7561     2.4705     0.0033     0.1269
  252.5000   -70.1157     5.5494     5.7304     7.8284   126.2604     2.4656     0.0035     0.1288
  253.0000   -70.1425     5.5851     5.7095     7.8293   126.1503     2.4611     0.0033     0.1283
  253.5000   -70.1694     5.5471     5.6888     7.8301   128.0990     2.4610     0.0030     0.1268
  254.0000   -70.1963     5.5142     5.6681     7.8309   129.9957     2.4622     0.0027     0.1253
  254.5000   -70.2228     5.4815     5.6475     7.8317   130.7926     2.4648     0.0024     0.1239
  255.0000   -70.2485     5.4489     5.6270     7.8326   131.0803     2.4673     0.0021     0.1228
  255.5000   -70.2820     5.4166     5.6066     7.8334   130.9955     2.4698     0.0018     0.1228
  256.0000   -70.5769     5.3845     5.5862     7.8343   131.8232     2.4691     0.0015     0.1261
  256.5000   -70.8954     5.3529     5.5660     7.8350   132.9837     2.4677     0.0012     0.1315
  257.0000   -71.2127     5.2962     5.5457     7.8304   133.9147     2.4602     0.0009     0.1348
  257.5000   -71.5322     5.2055     5.4668     7.8070   134.0344     2.4528     0.0006     0.1356
  258.0000   -71.6676     5.1164     5.3092     7.7843   134.0345     2.4461     0.0003     0.1360
  258.5000   -71.6703     5.0287     5.1560     7.7618   134.6326     2.4482     0.0000     0.1390
  259.0000   -71.6692     4.9426     5.0073     7.7392   136.6862     2.4485    -0.0003     0.1438
  259.5000   -71.7855     4.8580     4.8629     7.7165   138.6389     2.4390    -0.0006     0.1484
  260.0000   -71.9837     4.7748     4.7227     7.6959   139.1792     2.4285    -0.0009     0.1492
  260.5000   -72.1848     4.6930     4.5864     7.6959   137.2323     2.4241    -0.0012     0.1500
  261.0000   -72.2651     4.6127     4.4540     7.7186   133.9135     2.4241    -0.0014     0.1507
  261.5000   -72.2666     4.6028     4.3257     7.7266   133.7634     2.4241    -0.0017     0.1515
  262.0000   -72.2665     4.6027     4.2367     7.7348   134.0479     2.4241    -0.0020     0.1531
  262.5000   -72.2664     4.6039     4.2367     7.7434   134.0326     2.4206    -0.0023     0.1556
  263.0000   -72.2664     4.6011     4.3009     7.7520   132.3302     2.4153    -0.0025     0.1581
  263.5000   -72.2664     4.7061     4.4312     7.7607   130.6866     2.4099    -0.0025     0.1599
  264.0000   -72.2664     4.8268     4.5654     7.7692   130.0111     2.4080    -0.0025     0.1536
  264.5000   -72.2664     4.9505     4.7469     7.7779   130.0348     2.4097    -0.0025     0.1450
  265.0000   -72.2664     5.0775     4.9546     7.7864   130.0427     2.4224    -0.0025     0.1411
  265.5000   -72.2664     5.2077     5.1705     7.7951   130.0578     2.4354    -0.0025     0.1399
  266.0000   -72.2664     5.3412     5.3958     7.8037   129.3892     2.4421    -0.0025     0.1386
  266.5000   -72.2664     5.4782     5.6310     7.8123   128.6054     2.4444    -0.0025     0.1357
  267.0000   -72.2664     5.6181     5.8764     7.8209   127.8069     2.4462    -0.0025     0.1325
  267.5000   -72.2664     5.7628     6.1325     7.8295   127.3708     2.4520    -0.0025     0.1338
  268.0000   -72.2664     5.8483     6.3096     7.8381   131.3338     2.4539    -0.0025     0.1359
  268.5000   -72.2664     5.9024     6.3463     7.8467   135.4031     2.4513    -0.0025     0.1376
  269.0000   -72.2662     5.9072     6.3832     7.8553   136.9201     2.4486    -0.0025     0.1378
  269.5000   -72.2648     5.9153     6.4204     7.8639   131.9707     2.4461    -0.0025     0.1376
