~VERSION INFORMATION
 VERS.                2.0:   CWLS LOG ASCII STANDARD - VERSION 2.0
 WRAP.                 NO:   ONE LINE PER DEPTH STEP
~WELL INFORMATION
#MNEM.UNIT      DATA TYPE    INFORMATION
#----------   ------------   ------------------------------
 STRT.F           34.0000:   START DEPTH
 STOP.F          460.0000:   STOP DEPTH
 STEP.F            0.5000:   STEP LENGTH
 NULL.          -999.2500:   NO VALUE
 COMP. FENIX & SCISSON INC:   COMPANY
 WELL.     SX 3 FO #46--3:   WELL
 FLD .              NPR 3:   FIELD
 LOC .       S3 T38N R78W:   LOCATION
 CNTY.            NATRONA:   COUNTY
 STAT.            WYOMING:   STATE
 CTRY. UNITED STATES OF AMERICA:   COUNTRY
 SRVC.              Welex:   SERVICE COMPANY
 DATE.        10-JUL-1981:   LOGDATE
 API .       490251086000:   API NUMBER
~CURVE INFORMATION
#MNEM.UNIT       API CODE    CURVE DESCRIPTION
#----------   ------------   ------------------------------
 DEPT.F                  :   
 GRD .GAPI   45 310 01 00:   GAMMA RAY FROM DENSITY LOG
 CALD.IN     45 280 60 00:   CALIPER
 RHOB.G/C3   45 350 01 00:   BULK DENSITY
 DPHI.DEC    45 890 12 00:   DENSITY POROSITY SANDSTONE
 CORR.G/C3   45 356 01 00:   DENSITY CORRECTION
~PARAMETER INFORMATION
#MNEM.UNIT          VALUE    DESCRIPTION
#----------   ------------   ------------------------------
 PD  .                 GL:   PERMANENT DATUM
 EPD .F              5168:   ELEVATION PERMANENT DATUM
 LMF .                 KB:   LOG MEASURED FROM
 DAPD.F                 5:   FEET ABOVE PERMANENT DATUM
 DMF .                 KB:   DRILLING MEASURED FROM
 EKB .F              5173:   KELLING BUSHING
 EGL .F              5168:   GROUND LEVEL
 DATE.            7-10-80:   RUN DATE
 RUN .                  1:   RUN NUMBER
 DD  .F               470:   DEPTH DRILLER
 DL  .F               468:   DEPTH LOGGER
 BLI .F               460:   BOTTOM LOG INTERVAL
 TLI .F                46:   TOP LOG INTERVAL
 CS  .IN                7:   CASING SIZE
 CBD .F                46:   CASING BOTTOM DRILLER
 BS  .IN             6.25:   BIT SIZE
 BSD .F               470:   BIT SIZE AT DEPTH
 DFT .        AIR DRILLED:   DRILLING FLUID TYPE
 BHT .F                75:   BOTTOM HOLE TEMPERATURE
 TCS .HRS               2:   TIME CURCULATED STOPPED
 MRT .F                75:   MAXIMUM RECORDED TEMPERATURE
 ENGI.    JOYNER/PFRIMMER:   RECORDING ENGINEER
 WITN.              AMEND:   WITNESSED BY
 CLNT.            A2DTECH:   CLIENT CODE
 ORIG.           5" PRINT:   ORIGIN OF DATA
 UWI .       490251086000:   UNIQUE WELL ID
 DICO. A2D Technologies, Inc.:   DIGITIZING COMPANY
~OTHER INFORMATION
~A   DEPT       GRD      CALD       RHOB       DPHI       CORR   
# ...
  400.0000    87.6204     6.2848     2.5135     0.1031     0.0443
  400.5000    88.5566     6.2944     2.5035     0.1079     0.0317
  401.0000    88.7913     6.3044     2.4942     0.1124     0.0201
  401.5000    87.9333     6.3004     2.5001     0.1088     0.0254
  402.0000    86.0908     6.2954     2.5095     0.1028     0.0330
  402.5000    85.3947     6.2903     2.5191     0.0966     0.0408
  403.0000    85.0443     6.2854     2.5164     0.0971     0.0445
  403.5000    85.6380     6.2804     2.5073     0.1033     0.0432
  404.0000    87.2182     6.2754     2.4980     0.1096     0.0318
  404.5000    87.9144     6.2704     2.4853     0.1201     0.0204
  405.0000    85.9698     6.2652     2.4753     0.1243     0.0121
  405.5000    87.8823     6.2634     2.4706     0.1261     0.0113
  406.0000    87.0821     6.2614     2.4674     0.1274     0.0105
  406.5000    85.5302     6.2593     2.4676     0.1274     0.0130
  407.0000    83.8709     6.2573     2.4752     0.1228     0.0178
  407.5000    83.4662     6.2552     2.4845     0.1176     0.0226
  408.0000    83.4311     6.2531     2.4938     0.1124     0.0275
  408.5000    84.3549     6.2510     2.5033     0.1072     0.0323
  409.0000    84.9155     6.2490     2.5046     0.1054     0.0325
  409.5000    85.1722     6.2469     2.4979     0.1084     0.0308
  410.0000    87.3045     6.2452     2.4913     0.1124     0.0288
  410.5000    89.5514     6.2490     2.4845     0.1164     0.0269
  411.0000    91.2001     6.2526     2.4808     0.1182     0.0249
  411.5000    91.3837     6.2562     2.4816     0.1182     0.0245
  412.0000    91.8289     6.2599     2.4915     0.1162     0.0245
  412.5000    93.5964     6.2635     2.5036     0.1069     0.0294
  413.0000    95.4828     6.2671     2.5156     0.0993     0.0381
  413.5000    95.4095     6.2707     2.5277     0.0938     0.0469
  414.0000    94.7077     6.2744     2.5396     0.0882     0.0556
  414.5000    96.5407     6.2780     2.5467     0.0842     0.0646
  415.0000    93.2603     6.2816     2.5383     0.0868     0.0653
  415.5000    91.0929     6.2850     2.5366     0.0880     0.0610
  416.0000    89.8444     6.2825     2.5477     0.0852     0.0648
  416.5000    90.8503     6.2797     2.5440     0.0835     0.0684
  417.0000    92.5474     6.2771     2.5412     0.0844     0.0721
  417.5000    93.7911     6.2744     2.5506     0.0835     0.0759
  418.0000    93.5093     6.2717     2.5539     0.0832     0.0763
  418.5000    93.4361     6.2690     2.5366     0.0891     0.0642
  419.0000    96.0057     6.2663     2.5245     0.0949     0.0512
  419.5000    98.2915     6.2650     2.5159     0.1008     0.0450
  420.0000    99.9245     6.2649     2.5057     0.1067     0.0404
  420.5000   101.4994     6.2649     2.4956     0.1126     0.0386
  421.0000   105.0113     6.2649     2.4890     0.1138     0.0386
  421.5000   108.6681     6.2649     2.4890     0.1130     0.0408
  422.0000   112.3003     6.2649     2.5064     0.1056     0.0463
  422.5000   108.9176     6.2649     2.5248     0.0929     0.0520
  423.0000   102.3844     6.2649     2.5432     0.0803     0.0578
  423.5000    96.1482     6.2649     2.5610     0.0722     0.0636
  424.0000    92.7748     6.2632     2.5577     0.0735     0.0696
  424.5000    92.6767     6.2617     2.5546     0.0757     0.0729
  425.0000    95.6205     6.2601     2.5537     0.0777     0.0664
  425.5000    95.5182     6.2586     2.5481     0.0790     0.0594
  426.0000    95.2231     6.2570     2.5427     0.0827     0.0523
  426.5000    95.2125     6.2554     2.5354     0.0865     0.0453
  427.0000    95.4622     6.2539     2.5282     0.0902     0.0383
  427.5000    95.6770     6.2523     2.5224     0.0939     0.0312
  428.0000    97.6079     6.2508     2.5266     0.0922     0.0291
  428.5000    98.1097     6.2492     2.5342     0.0890     0.0300
  429.0000    98.3097     6.2477     2.5327     0.0916     0.0305
  429.5000    99.0802     6.2461     2.5251     0.0961     0.0287
  430.0000    98.6037     6.2453     2.5174     0.1004     0.0270
  430.5000    97.8873     6.2467     2.5108     0.1038     0.0252
  431.0000    97.5293     6.2480     2.5163     0.0986     0.0245
  431.5000    97.5278     6.2492     2.5166     0.1000     0.0242
  432.0000    96.7664     6.2505     2.5219     0.0962     0.0352
  432.5000    97.0271     6.2518     2.5347     0.0886     0.0481
  433.0000    97.3295     6.2531     2.5428     0.0849     0.0603
  433.5000    96.9951     6.2543     2.5356     0.0878     0.0588
  434.0000    95.6287     6.2556     2.5313     0.0853     0.0564
  434.5000    94.3189     6.2569     2.5559     0.0812     0.0608
  435.0000    93.0099     6.2582     2.5527     0.0810     0.0624
  435.5000    91.7263     6.2594     2.5489     0.0838     0.0579
  436.0000    90.9423     6.2607     2.5436     0.0865     0.0534
  436.5000    91.6506     6.2620     2.5375     0.0892     0.0489
  437.0000    91.8178     6.2633     2.5315     0.0920     0.0444
  437.5000    91.1836     6.2646     2.5254     0.0946     0.0399
  438.0000    90.5693     6.2649     2.5249     0.0908     0.0372
  438.5000    89.9588     6.2649     2.5364     0.0843     0.0406
  439.0000    89.3739     6.2649     2.5493     0.0782     0.0451
  439.5000    89.1927     6.2649     2.5545     0.0765     0.0551
  440.0000    90.1785     6.2649     2.5448     0.0762     0.0527
  440.5000    91.5196     6.2649     2.5331     0.0816     0.0449
  441.0000    92.8846     6.2649     2.5213     0.0868     0.0372
  441.5000    94.2575     6.2649     2.5117     0.0910     0.0295
  442.0000    95.6572     6.2649     2.5231     0.0865     0.0306
  442.5000    95.1592     6.2649     2.5366     0.0796     0.0436
  443.0000    93.9616     6.2649     2.5502     0.0746     0.0560
  443.5000    92.7628     6.2649     2.5545     0.0750     0.0641
  444.0000    92.2231     6.2649     2.5591     0.0602     0.0711
  444.5000    94.5898     6.2649     2.5704     0.0638     0.0761
  445.0000    97.0798     6.2649     2.5633     0.0686     0.0768
  445.5000    98.2428     6.2649     2.5643     0.0694     0.0722
  446.0000    97.3117     6.2649     2.5612     0.0708     0.0686
  446.5000    96.4037     6.2649     2.5567     0.0734     0.0651
  447.0000    95.7148     6.2649     2.5518     0.0742     0.0611
  447.5000    96.8050     6.2649     2.5577     0.0763     0.0581
  448.0000    98.1731     6.2649     2.5524     0.0785     0.0573
  448.5000    97.1812     6.2650     2.5455     0.0808     0.0568
  449.0000    95.8935     6.2598     2.5385     0.0831     0.0544
  449.5000  -999.2500     6.2527     2.5362     0.0838     0.0547
  450.0000  -999.2500     6.2455     2.5462     0.0795     0.0586
  450.5000  -999.2500     6.2383     2.5572     0.0756     0.0667
  451.0000  -999.2500     6.2311     2.5612     0.0722     0.0705
  451.5000  -999.2500     6.2256     2.5572     0.0736     0.0706
  452.0000  -999.2500     6.2307     2.5532     0.0763     0.0708
  452.5000  -999.2500     6.2355     2.5482     0.0793     0.0683
  453.0000  -999.2500     6.2403     2.5404     0.0836     0.0526
  453.5000  -999.2500     6.2452     2.5275     0.0880     0.0357
  454.0000  -999.2500     6.2512     2.5146     0.0987     0.0190
  454.5000  -999.2500     6.2572     2.5064     0.1003     0.0078
  455.0000  -999.2500     6.2637     2.5120     0.0966     0.0065
  455.5000  -999.2500     6.2518     2.5155     0.1002     0.0050
  456.0000  -999.2500     6.2335     2.5039     0.1050     0.0036
  456.5000  -999.2500     6.2150     2.4968     0.1000     0.0025
  457.0000  -999.2500     6.1966     2.5238     0.0919     0.0051
  457.5000  -999.2500     6.1850     2.5413     0.0866     0.0179
  458.0000  -999.2500     6.1970     2.5437     0.0863     0.0308
  458.5000  -999.2500     6.2159     2.5461     0.0851     0.0438
  459.0000  -999.2500     6.2349     2.5809     0.0846     0.0565
  459.5000  -999.2500     6.2451     2.6065     0.0887     0.0729
  460.0000  -999.2500     6.2450     2.6106     0.0898     0.0746
