~VERSION INFORMATION
 VERS.                2.0:   CWLS LOG ASCII STANDARD - VERSION 2.0
 WRAP.                 NO:   ONE LINE PER DEPTH STEP
~WELL INFORMATION
#MNEM.UNIT      DATA TYPE    INFORMATION
#----------   ------------   ------------------------------
 STRT.F           48.0000:   START DEPTH
 STOP.F          650.0000:   STOP DEPTH
 STEP.F            0.5000:   STEP LENGTH
 NULL.          -999.2500:   NO VALUE
 COMP. FENIX & SCISSON INC:   COMPANY
 WELL.    36 SX 34 #36-34:   WELL
 FLD .             TEAPOT:   FIELD
 LOC .      S34 T39N R78W:   LOCATION
 CNTY.            NATRONA:   COUNTY
 STAT.            WYOMING:   STATE
 CTRY. UNITED STATES OF AMERICA:   COUNTRY
 SRVC.            Unknown:   SERVICE COMPANY
 DATE.        19-JAN-1979:   LOGDATE
 API .       490251076800:   API NUMBER
~CURVE INFORMATION
#MNEM.UNIT       API CODE    CURVE DESCRIPTION
#----------   ------------   ------------------------------
 DEPT.F                  :   
 SPR .MV     05 010 01 00:   SPONTANEOUS POTENTIAL FROM RES.
 SN  .OHMM   05 040 16 00:   SHORT NORMAL 16"
 IL  .OHMM   05 120 00 00:   INDUCTION LOG
 CALD.IN     45 280 60 00:   CALIPER
 GRD .GAPI   45 310 01 00:   GAMMA RAY FROM DENSITY LOG
 RHOB.G/C3   45 350 01 00:   BULK DENSITY
 DPHI.DEC    45 890 12 00:   DENSITY POROSITY SANDSTONE
 CORR.G/C3   45 356 01 00:   DENSITY CORRECTION
~PARAMETER INFORMATION
#MNEM.UNIT          VALUE    DESCRIPTION
#----------   ------------   ------------------------------
 PD  .                 GL:   PERMANENT DATUM
 EPD .F              5125:   ELEVATION PERMANENT DATUM
 LMF .                 KB:   LOG MEASURED FROM
 DAPD.F                 4:   FEET ABOVE PERMANENT DATUM
 DMF .                 KB:   DRILLING MEASURED FROM
 EKB .F              5129:   KELLING BUSHING
 EGL .F              5125:   GROUND LEVEL
 DATE.            1-19-79:   RUN DATE
 RUN .                  1:   RUN NUMBER
 DD  .F               650:   DEPTH DRILLER
 DL  .F               650:   DEPTH LOGGER
 BLI .F               643:   BOTTOM LOG INTERVAL
 TLI .F                50:   TOP LOG INTERVAL
 CS  .IN            8.625:   CASING SIZE
 CBD .F                40:   CASING BOTTOM DRILLER
 CBL .F                36:   CASING BOTTOM LOGGER
 BS  .IN            7.875:   BIT SIZE
 BSD .F               650:   BIT SIZE AT DEPTH
 DFT .                KCL:   DRILLING FLUID TYPE
 DFD .                8.8:   DRILLING FLUID DENSITY
 DFV .                 34:   DRILLING FLUID VISCOSITY
 DFL .                8.8:   DRILLING FLUID LOSS
 MSS .           FLOWLINE:   MUD SAMPLE SOURCE
 RMS .OHMM            .17:   RESISTIVITY MUD SAMPLE
 MST .F                62:   MUD SAMPLE TEMPERATURE
 RMF .OHMM            .15:   RESISTIVITY MUD FILTRATE SAMPLE
 MFST.F                62:   MUD FILTRATE SAMPLE TEMPERATURE
 RMC .OHMM            .22:   RESISTIVITY MUD CAKE
 MCST.F                63:   MUD CAKE SAMPLE TEMPERATURE
 MFSS.           MEASURED:   MUD FILTRATE SAMPLE SOURCE
 MCSS.           MEASURED:   MUD CAKE SAMPLE SOURCE
 RMB .OHMM            .18:   RESISTIVITY MUD AT BHT
 BHT .F                60:   BOTTOM HOLE TEMPERATURE
 TCS .HRS               3:   TIME CURCULATED STOPPED
 MRT .F                60:   MAXIMUM RECORDED TEMPERATURE
 LUN .                 30:   LOGGING UNIT NUMBER
 LUL .             CASPER:   LOGGING UNIT LOCATION
 ENGI.         B. ROLLINS:   RECORDING ENGINEER
 WITN.           DINSMORE:   WITNESSED BY
 CLNT.            A2DTECH:   CLIENT CODE
 ORIG.           5" PRINT:   ORIGIN OF DATA
 UWI .       490251076800:   UNIQUE WELL ID
 DICO. A2D Technologies, Inc.:   DIGITIZING COMPANY
~OTHER INFORMATION
~A   DEPT      SPR           SN        IL      CALD        GRD       RHOB       DPHI       CORR   
   48.0000   -39.0660     8.4560    12.1320  -999.2500  -999.2500  -999.2500  -999.2500  -999.2500
   48.5000   -39.2640     8.4560    12.1320  -999.2500  -999.2500  -999.2500  -999.2500  -999.2500
   49.0000   -39.8750     8.4560    12.1320  -999.2500  -999.2500  -999.2500  -999.2500  -999.2500
   49.5000   -40.4570     8.4050    11.9290  -999.2500  -999.2500  -999.2500  -999.2500  -999.2500
   50.0000   -38.6210     8.4560    12.0010     8.7850    96.2250  -999.2500     0.1740     0.0280
   50.5000   -36.5760     8.4470    11.9730     8.7850    96.2250     2.3610     0.1770     0.0280
   51.0000   -36.0750     8.5430    11.9500     8.7850    96.2250     2.3660     0.1770     0.0280
   51.5000   -36.4620     8.5260    11.9100     8.7850    97.8060     2.3780     0.1670     0.0280
   52.0000   -36.8810     8.6140    12.0070     8.7890    97.0390     2.3810     0.1620     0.0280
   52.5000   -36.3950     8.6140    12.2410     8.7290    95.9050     2.3940     0.1550     0.0310
   53.0000   -35.8040     8.5730    12.4750     8.9140    94.7540     2.4020     0.1550     0.0380
   53.5000   -35.2090     8.5310    12.7090     7.5360    93.7070     2.3960     0.1570     0.0390
   54.0000   -34.6150     8.4890    12.9430     7.4310    92.8410     2.3910     0.1590     0.0360
   54.5000   -34.0180     8.4470    13.1780     7.4780    91.9730     2.3850     0.1650     0.0330
   55.0000   -33.9050     8.4050    13.4120     7.5820    91.1070     2.3810     0.1670     0.0330
   55.5000   -34.3440     8.3630    13.6460     7.6860    90.2310     2.3850     0.1650     0.0330
   56.0000   -34.7760     8.3210    13.8800     7.7900    89.3320     2.3980     0.1570     0.0340
   56.5000   -35.2090     8.2790    14.0690     7.8940    87.9990     2.4100     0.1490     0.0340
   57.0000   -35.4300     8.2370    13.9320     7.9980    85.7790     2.4140     0.1460     0.0490
   57.5000   -35.1740     8.1950    13.7570     8.1020    83.5620     2.4130     0.1510     0.0600
   58.0000   -34.4380     8.1530    13.5820     8.2050    81.3750     2.3850     0.1680     0.0460
   58.5000   -33.6910     8.1110    13.4070     8.3080    81.1360     2.3570     0.1810     0.0320
   59.0000   -33.2690     8.0690    13.2320     8.3470    86.2620     2.3530     0.1740     0.0360
   59.5000   -33.2030     8.0270    13.0570     8.2950    89.2850     2.3900     0.1610     0.0470
   60.0000   -33.1350     7.9850    12.8820     8.2430    89.3060     2.4210     0.1480     0.0580
   60.5000   -32.5250     7.9250    12.7070     8.1910    88.3640     2.4410     0.1340     0.0600
   61.0000   -31.0660     7.9560    12.5320     8.1380    88.7660     2.4380     0.1330     0.0560
   61.5000   -30.1280     8.0080    12.3570     8.0930    88.6650     2.4230     0.1410     0.0520
   62.0000   -30.2270     8.0600    12.1820     8.0770    87.0980     2.4070     0.1520     0.0430
   62.5000   -30.3270     8.1120    12.1320     8.1830    85.5940     2.3900     0.1620     0.0360
   63.0000   -31.1990     8.1640    12.1320     8.4220    85.9730     2.3800     0.1680     0.0340
   63.5000   -32.1830     8.2240    12.1940     8.2690    89.7360     2.3690     0.1750     0.0310
   64.0000   -31.5230     8.1870    12.3280     8.0730    87.5320     2.3580     0.1810     0.0290
   64.5000   -30.6370     8.1420    12.4610     8.0560    84.2590     2.3520     0.1830     0.0260
   65.0000   -29.7620     8.0970    12.5950     8.0820    81.0100     2.3520     0.1840     0.0290
   65.5000   -29.7410     8.0530    12.7280     8.1100    78.6850     2.3520     0.1840     0.0310
   66.0000   -30.1520     8.0080    12.8620     8.1320    79.8800     2.3530     0.1820     0.0340
   66.5000   -31.4890     7.9640    12.9950     8.0770    83.0540     2.3600     0.1800     0.0350
   67.0000   -31.5130     7.9190    13.1290     8.0180    86.2870     2.3620     0.1770     0.0320
   67.5000   -31.1680     7.8750    13.2620     7.9990    88.2730     2.3660     0.1750     0.0280
   68.0000   -30.4350     7.8300    13.3090     8.2690    89.6450     2.3710     0.1720     0.0270
   68.5000   -29.7810     7.7860    13.2840     8.1710    92.2510     2.3770     0.1690     0.0300
   69.0000   -30.6990     7.7410    13.1680     8.0830    94.8700     2.3820     0.1660     0.0330
   69.5000   -31.6700     7.6960    13.0520     8.0750    97.4070     2.3820     0.1650     0.0360
   70.0000   -32.6360     7.6520    12.9370     8.0770    96.0860     2.3820     0.1660     0.0380
   70.5000   -33.3110     7.6070    12.8210     8.0800    93.5540     2.3800     0.1670     0.0370
   71.0000   -33.2980     7.5670    12.7050     8.0820    91.0190     2.3760     0.1700     0.0350
   71.5000   -33.3510     7.3840    12.5890     8.0850    88.5010     2.3680     0.1740     0.0340
   72.0000   -34.4560     7.2560    12.4740     8.0870    86.9170     2.3600     0.1780     0.0320
   72.5000   -35.3980     7.1280    12.3580     8.0900    88.0400     2.3590     0.1790     0.0310
   73.0000   -36.1270     7.0010    12.2420     8.0920    91.3340     2.3620     0.1740     0.0290
   73.5000   -36.8580     6.8730    12.1270     8.1310    94.8280     2.3780     0.1700     0.0300
   74.0000   -37.5900     6.7450    12.0110     8.1990    98.3250     2.3960     0.1610     0.0360
   74.5000   -38.3160     6.6180    11.8310     8.2680   101.8160     2.4150     0.1520     0.0420
   75.0000   -39.4960     6.4900    11.2130     8.2570   105.3060     2.4270     0.1430     0.0470
   75.5000   -41.1050     6.3630    10.5950     8.2360   108.7970     2.4310     0.1330     0.0500
   76.0000   -42.7110     6.2350     9.9780     8.2160   112.2970     2.4500     0.1240     0.0520
   76.5000   -44.3180     6.1070     9.3600     8.1950   115.3990     2.4700     0.1140     0.0540
   77.0000   -45.9250     5.9800     8.7420     8.1750   114.7070     2.4810     0.1110     0.0550
   77.5000   -47.5330     5.8520     8.1240     8.1550   113.4350     2.4740     0.1160     0.0480
   78.0000   -49.1460     5.7240     7.5060     8.1340   112.1520     2.4660     0.1230     0.0410
   78.5000   -50.7800     5.5970     6.8880     8.1140   111.5780     2.4650     0.1200     0.0340
   79.0000   -51.8880     5.4690     6.3470     8.0930   112.4530     2.4700     0.1160     0.0360
   79.5000   -51.9760     5.3410     6.2300     8.1020   111.9780     2.4760     0.1140     0.0380
   80.0000   -51.5130     5.2250     6.1160     8.1140   109.3890     2.4770     0.1160     0.0400
   80.5000   -51.8570     5.2250     6.0600     8.1260   106.9180     2.4710     0.1200     0.0380
   81.0000   -52.5520     5.2250     6.0040     8.1300   106.0870     2.4650     0.1230     0.0360
   81.5000   -53.0060     5.1770     5.9480     8.1210   104.5280     2.4590     0.1270     0.0340
   82.0000   -53.0580     5.1770     5.9740     8.1130   104.1050     2.4550     0.1290     0.0370
   82.5000   -53.1150     5.1890     6.0060     8.1040   108.0960     2.4610     0.1240     0.0440
   83.0000   -53.1930     5.2230     6.0380     8.0960   112.0110     2.4680     0.1190     0.0510
   83.5000   -54.0730     5.2580     6.0700     8.0990   112.7680     2.4720     0.1170     0.0540
   84.0000   -55.0310     5.2920     6.1020     8.1250   111.0910     2.4680     0.1190     0.0530
   84.5000   -54.7470     5.3260     6.1340     8.1510   109.3760     2.4620     0.1210     0.0530
   85.0000   -54.3250     5.3600     6.1660     8.1780   108.9100     2.4620     0.1230     0.0540
   85.5000   -54.1520     5.3950     6.1980     8.2040   110.0980     2.4710     0.1190     0.0630
   86.0000   -53.9590     5.4290     6.2310     8.2300   111.2530     2.4850     0.1130     0.0720
   86.5000   -54.8170     5.4630     6.2630     8.2330   112.1900     2.4970     0.1060     0.0790
   87.0000   -55.9960     5.4970     6.2950     8.2350   110.1810     2.4900     0.1080     0.0730
   87.5000   -55.8810     5.5320     6.3270     8.2360   106.3040     2.4800     0.1120     0.0630
   88.0000   -54.9900     5.5660     6.3590     8.2380   104.1900     2.4700     0.1160     0.0520
