~VERSION INFORMATION
 VERS.                2.0:   CWLS LOG ASCII STANDARD - VERSION 2.0
 WRAP.                 NO:   ONE LINE PER DEPTH STEP
~WELL INFORMATION
#MNEM.UNIT      DATA TYPE    INFORMATION
#----------   ------------   ------------------------------
 STRT.F            0.0000:   START DEPTH
 STOP.F          649.0000:   STOP DEPTH
 STEP.F            0.1000:   STEP LENGTH
 NULL.          -999.2500:   NO VALUE
 COMP.   FLUOR DANIEL INC:   COMPANY
 WELL.     17-1 X 2 #17-2:   WELL
 FLD .             TEAPOT:   FIELD
 LOC .       S2 T38N R78W:   LOCATION
 CNTY.            NATRONA:   COUNTY
 STAT.            WYOMING:   STATE
 CTRY. UNITED STATES OF AMERICA:   COUNTRY
 SRVC.      Western Atlas:   SERVICE COMPANY
 DATE.        20-MAY-1995:   LOGDATE
 API .       490252271000:   API NUMBER
~CURVE INFORMATION
#MNEM.UNIT       API CODE    CURVE DESCRIPTION
#----------   ------------   ------------------------------
 DEPT.F                  :   
 GRR .GAPI   07 310 01 00:   GAMMA RAY
 RILD.OHMM   07 120 46 00:   INDUCTION LOG DEEP RESISTIVITY
 RILM.OHMM   07 120 44 00:   RESITIVITY LOG MEDIUM
~PARAMETER INFORMATION
#MNEM.UNIT          VALUE    DESCRIPTION
#----------   ------------   ------------------------------
 PD  .                 GL:   PERMANENT DATUM
 EPD .F              5145:   ELEVATION PERMANENT DATUM
 LMF .                 KB:   LOG MEASURED FROM
 DAPD.F                10:   FEET ABOVE PERMANENT DATUM
 DMF .                 KB:   DRILLING MEASURED FROM
 EKB .F              5155:   KELLING BUSHING
 EDF .F              5154:   DRILLING FLOOR
 EGL .F              5145:   GROUND LEVEL
 DATE.        20-MAY-1995:   RUN DATE
 RUN .                  1:   RUN NUMBER
 DD  .F               657:   DEPTH DRILLER
 DL  .F               657:   DEPTH LOGGER
 BLI .F               649:   BOTTOM LOG INTERVAL
 CS  .IN            9.625:   CASING SIZE
 CBD .F                82:   CASING BOTTOM DRILLER
 CBL .F                82:   CASING BOTTOM LOGGER
 BS  .IN             8.75:   BIT SIZE
 BSD .F               657:   BIT SIZE AT DEPTH
 DFT .                AIR:   DRILLING FLUID TYPE
 MRT .F                92:   MAXIMUM RECORDED TEMPERATURE
 LUN .            HL 6530:   LOGGING UNIT NUMBER
 LUL .             CASPER:   LOGGING UNIT LOCATION
 ENGI.        VERN RAUTIO:   RECORDING ENGINEER
 WITN.        STEVE HARDY:   WITNESSED BY
 CLNT.            A2DTECH:   CLIENT CODE
 ORIG.           5" PRINT:   ORIGIN OF DATA
 UWI .       490252271000:   UNIQUE WELL ID
 DICO. A2D Technologies, Inc.:   DIGITIZING COMPANY
~OTHER INFORMATION
~A    DEPT      GRR      RILD       RILM   
# ...
  327.6000   139.6996     7.1759     7.0909
  327.7000   139.6137     7.1762     7.0911
  327.8000   139.4001     7.1731     7.0913
  327.9000   139.4016     7.1275     7.0915
  328.0000   139.6280     7.1278     7.0917
  328.1000   139.8763     7.1282     7.0519
  328.2000   140.0085     7.1286     7.0431
  328.3000   140.1331     7.1290     7.0432
  328.4000   140.6287     7.1294     7.0434
  328.5000   141.2189     7.0906     7.0436
  328.6000   142.0195     7.0809     7.0439
  328.7000   143.0094     7.0813     7.0440
  328.8000   143.9083     7.0817     7.0442
  328.9000   144.6145     7.0821     7.0444
  329.0000   145.1464     7.0826     7.0446
  329.1000   145.6057     7.0484     7.0448
  329.2000   146.1012     7.0343     7.0450
  329.3000   146.5967     7.0347     7.0452
  329.4000   147.0922     7.0351     7.0454
  329.5000   147.5876     7.0355     7.0456
  329.6000   148.1703     7.0359     7.0458
  329.7000   148.5788     7.0363     7.0460
  329.8000   149.2235     7.0367     7.0462
  329.9000   149.7767     7.0371     7.0464
  330.0000   150.1055     7.0375     7.0303
  330.1000   150.8912     7.0379     6.9980
  330.2000   151.1252     7.0382     6.9982
  330.3000   151.7303     7.0386     6.9984
  330.4000   152.2252     7.0225     6.9986
  330.5000   152.5430     6.9907     6.9786
  330.6000   153.0237     6.9912     6.9506
  330.7000   153.3118     6.9915     6.9508
  330.8000   153.3128     6.9919     6.9510
  330.9000   153.4670     6.9923     6.9512
  331.0000   153.5184     6.9927     6.9273
  331.1000   153.1403     6.9931     6.9035
  331.2000   152.1111     6.9935     6.9037
  331.3000   151.4022     6.9939     6.9039
  331.4000   151.0263     6.9942     6.9040
  331.5000   150.6526     6.9946     6.9042
  331.6000   150.3059     6.9950     6.9044
  331.7000   150.3071     6.9954     6.9046
  331.8000   150.3085     6.9958     6.9048
  331.9000   150.3095     6.9962     6.9050
  332.0000   150.4676     7.0022     6.9052
  332.1000   150.7159     7.0135     6.9054
  332.2000   150.9642     7.0247     6.9056
  332.3000   151.2193     7.0360     6.9058
  332.4000   151.7015     7.0468     6.9060
  332.5000   152.1971     7.0473     6.9422
  332.6000   152.4296     7.0476     6.9545
  332.7000   152.3538     7.0243     6.9546
  332.8000   152.1302     6.9997     6.9548
  332.9000   152.1317     7.0001     6.9550
  333.0000   151.4871     7.0005     6.9552
  333.1000   150.9076     7.0008     6.9554
  333.2000   150.3083     6.9734     6.9556
  333.3000   149.6714     6.9532     6.9558
  333.4000   149.4226     6.9536     6.9560
  333.5000   149.1795     6.9540     6.9562
  333.6000   148.9336     6.9545     6.9564
  333.7000   149.0935     6.9548     6.9566
  333.8000   149.8316     6.9319     6.9568
  333.9000   151.0423     6.9075     6.9570
  334.0000   152.1449     6.9021     6.9572
  334.1000   153.0220     6.8605     6.9573
  334.2000   153.8473     6.8250     6.9575
  334.3000   154.4801     6.7600     6.9577
  334.4000   154.9756     6.6841     6.9451
  334.5000   155.4702     6.6090     6.9021
  334.6000   155.7185     6.5347     6.8149
  334.7000   156.1605     6.4476     6.7478
  334.8000   156.5168     6.3597     6.6475
  334.9000   156.7652     6.2528     6.5513
  335.0000   156.9834     6.1602     6.4775
  335.1000   156.9847     6.0909     6.4031
  335.2000   156.9858     6.0172     6.3327
  335.3000   157.1553     5.9550     6.2350
  335.4000   157.4037     5.8650     6.1300
  335.5000   157.5928     5.7818     6.0165
  335.6000   157.5940     5.7250     5.8788
  335.7000   157.5952     5.6929     5.6915
  335.8000   157.5964     5.6550     5.5557
  335.9000   157.7406     5.6294     5.3817
  336.0000   157.9005     5.5978     5.2373
  336.1000   157.9017     5.5665     5.1543
  336.2000   157.9030     5.5397     5.0939
  336.3000   157.9041     5.5401     5.0391
  336.4000   157.9053     5.5115     5.0031
  336.5000   157.9065     5.5023     5.0039
  336.6000   157.9077     5.5027     5.0324
  336.7000   157.9089     5.5030     5.0612
  336.8000   157.9103     5.5024     5.0948
  336.9000   157.9113     5.4656     5.1682
  337.0000   157.9125     5.4658     5.2204
  337.1000   157.8214     5.4661     5.2618
  337.2000   157.6131     5.4553     5.3219
  337.3000   157.6145     5.4289     5.3864
  337.4000   157.1547     5.4293     5.3866
  337.5000   157.0136     5.4296     5.4086
  337.6000   156.7719     5.4085     5.4395
  337.7000   156.2788     5.3926     5.4706
  337.8000   155.7856     5.3853     5.5018
  337.9000   155.2086     5.3560     5.5390
  338.0000   154.3892     5.3563     5.5391
  338.1000   153.1005     5.3322     5.5393
  338.2000   151.6186     5.3198     5.5394
  338.3000   150.1368     5.3093     5.5396
  338.4000   148.5780     5.2795     5.5398
  338.5000   147.4077     5.2474     5.5688
  338.6000   146.5326     5.2477     5.5786
  338.7000   146.1683     5.2480     5.5788
  338.8000   146.1695     5.2344     5.5789
  338.9000   146.1707     5.2123     5.5785
  339.0000   146.1721     5.2126     5.5471
  339.1000   146.5910     5.2129     5.5408
  339.2000   147.0865     5.1895     5.5410
  339.3000   147.7818     5.1774     5.5303
  339.4000   148.6809     5.1777     5.4991
  339.5000   149.1946     5.1780     5.4651
  339.6000   149.6720     5.1783     5.4375
  339.7000   149.9839     5.1519     5.4069
  339.8000   150.2323     5.1431     5.3629
  339.9000   150.4060     5.1298     5.3026
  340.0000   150.4072     5.1081     5.2429
  340.1000   150.4086     5.1077     5.2134
  340.2000   150.1969     5.0791     5.1614
  340.3000   149.9510     5.0736     5.1193
  340.4000   149.6013     5.0574     5.0905
  340.5000   149.1081     5.0391     5.0589
  340.6000   148.6045     5.0356     4.9951
  340.7000   148.1219     5.0049     4.9704
  340.8000   147.6288     4.9794     4.9425
  340.9000   147.1356     4.9708     4.9028
  341.0000   146.6425     4.9711     4.8532
  341.1000   146.1493     4.9646     4.8254
  341.2000   145.5953     4.9373     4.7988
  341.3000   145.1632     4.9376     4.7515
  341.4000   144.5079     4.9156     4.7263
  341.5000   143.8752     4.9040     4.7183
  341.6000   143.2758     4.8945     4.6939
  341.7000   142.2830     4.8706     4.6940
  341.8000   141.3013     4.8709     4.7170
  341.9000   140.3138     4.8963     4.7270
  342.0000   138.9160     4.9053     4.7381
  342.1000   136.6935     4.9185     4.7651
  342.2000   133.7039     4.9468     4.7934
  342.3000   132.3356     4.9752     4.7936
  342.4000   131.8958     5.0038     4.8137
  342.5000   131.7345     5.0325     4.8412
  342.6000   131.7357     5.0450     4.8768
  342.7000   131.7939     5.0553     4.9308
  342.8000   132.0471     5.0844     4.9636
  342.9000   132.7899     5.1163     5.0111
  343.0000   133.7274     5.1430     5.0507
  343.1000   134.8577     5.1725     5.0908
  343.2000   136.3529     5.2022     5.1490
  343.3000   138.3000     5.2321     5.2114
  343.4000   140.1920     5.2626     5.2393
  343.5000   142.8836     5.3230     5.2907
  343.6000   145.5113     5.3599     5.3363
  343.7000   147.9843     5.3906     5.3668
  343.8000   150.1535     5.4324     5.3987
  343.9000   151.3655     5.4946     5.4718
  344.0000   151.6624     5.5638     5.5229
  344.1000   151.4644     5.6214     5.5672
  344.2000   151.2185     5.7080     5.6107
  344.3000   150.9725     5.7911     5.6702
  344.4000   150.6912     5.8654     5.7052
  344.5000   150.1600     5.9662     5.7954
  344.6000   149.9331     6.0692     5.8486
  344.7000   149.5135     6.1460     5.8977
  344.8000   149.0204     6.2165     5.9651
  344.9000   148.5918     6.2754     6.0332
  345.0000   148.3359     6.3158     6.1022
  345.1000   147.7541     6.3955     6.1441
  345.2000   147.5523     6.4286     6.1792
  345.3000   147.4546     6.4655     6.2268
  345.4000   147.4558     6.4859     6.2935
  345.5000   147.4570     6.4863     6.3331
  345.6000   147.4583     6.4866     6.3656
  345.7000   147.6913     6.4870     6.4266
