~VERSION INFORMATION
 VERS.                2.0:   CWLS LOG ASCII STANDARD - VERSION 2.0
 WRAP.                 NO:   ONE LINE PER DEPTH STEP
~WELL INFORMATION
#MNEM.UNIT      DATA TYPE    INFORMATION
#----------   ------------   ------------------------------
 STRT.F            2.0000:   START DEPTH
 STOP.F          602.0000:   STOP DEPTH
 STEP.F            0.1000:   STEP LENGTH
 NULL.          -999.2500:   NO VALUE
 COMP.       F D SERV INC:   COMPANY
 WELL.    63-1 SX-3 #63-3:   WELL
 FLD .             TEAPOT:   FIELD
 LOC .       S3 T38N R78W:   LOCATION
 CNTY.            NATRONA:   COUNTY
 STAT.            WYOMING:   STATE
 CTRY. UNITED STATES OF AMERICA:   COUNTRY
 SRVC.     Atlas Wireline:   SERVICE COMPANY
 DATE.        20-APR-1992:   LOGDATE
 API .       490252251300:   API NUMBER
~CURVE INFORMATION
#MNEM.UNIT       API CODE    CURVE DESCRIPTION
#----------   ------------   ------------------------------
 DEPT.F                  :   
 GRR .GAPI   07 310 01 00:   GAMMA RAY
 RILD.OHMM   07 120 46 00:   INDUCTION LOG DEEP RESISTIVITY
 RILM.OHMM   07 120 44 00:   INDUCTION LOG MEDIUM RESISTIVITY
~PARAMETER INFORMATION
#MNEM.UNIT          VALUE    DESCRIPTION
#----------   ------------   ------------------------------
 PD  .                 GL:   PERMANENT DATUM
 EPD .F              5176:   ELEVATION PERMANENT DATUM
 LMF .                 KB:   LOG MEASURED FROM
 DAPD.F                 5:   FEET ABOVE PERMANENT DATUM
 DMF .                 KB:   DRILLING MEASURED FROM
 EKB .F              5181:   KELLING BUSHING
 EDF .F              5180:   DRILLING FLOOR
 EGL .F              5176:   GROUND LEVEL
 DATE.        20-APR-1992:   RUN DATE
 RUN .                  1:   RUN NUMBER
 DD  .F               608:   DEPTH DRILLER
 DL  .F               608:   DEPTH LOGGER
 BLI .F               602:   BOTTOM LOG INTERVAL
 CS  .IN            8.625:   CASING SIZE
 CBD .F                48:   CASING BOTTOM DRILLER
 CBL .F                50:   CASING BOTTOM LOGGER
 BS  .IN            7.875:   BIT SIZE
 BSD .F               608:   BIT SIZE AT DEPTH
 DFT .                AIR:   DRILLING FLUID TYPE
 TCS .HRS               2:   TIME CURCULATED STOPPED
 MRT .F                85:   MAXIMUM RECORDED TEMPERATURE
 LUN .           HL- 6274:   LOGGING UNIT NUMBER
 LUL .             CASPER:   LOGGING UNIT LOCATION
 ENGI.             RAUTIO:   RECORDING ENGINEER
 WITN.        GARY STRONG:   WITNESSED BY
 CLNT.            A2DTECH:   CLIENT CODE
 ORIG.           5" PRINT:   ORIGIN OF DATA
 UWI .       490252251300:   UNIQUE WELL ID
 DICO. A2D Technologies, Inc.:   DIGITIZING COMPANY
~OTHER INFORMATION
~A    DEPT      GRR      RILD       RILM   
# ...
  256.8000   121.9541     6.3279     6.1387
  256.9000   122.4492     6.2565     6.0582
  257.0000   122.9441     6.1858     5.9583
  257.1000   123.3866     6.1159     5.8815
  257.2000   123.6393     6.0459     5.7955
  257.3000   123.8853     5.9453     5.7179
  257.4000   123.9481     5.8449     5.6400
  257.5000   123.9518     5.7633     5.5442
  257.6000   123.8055     5.6981     5.4460
  257.7000   123.3178     5.6338     5.2999
  257.8000   122.7565     5.5607     5.1938
  257.9000   122.5509     5.4810     5.0912
  258.0000   122.3086     5.3883     4.9919
  258.1000   122.1635     5.3090     4.9366
  258.2000   122.0850     5.2392     4.9036
  258.3000   121.5676     5.1141     4.8806
  258.4000   121.5710     5.0063     4.8694
  258.5000   121.3997     4.9334     4.8693
  258.6000   121.1575     4.9046     4.8733
  258.7000   120.9154     4.9048     4.9033
  258.8000   120.6733     4.9058     4.9290
  258.9000   120.3832     4.9396     4.9768
  259.0000   120.1891     4.9398     5.0338
  259.1000   119.9470     4.9562     5.0914
  259.2000   119.6196     4.9749     5.1487
  259.3000   119.1899     4.9819     5.1486
  259.4000   119.1944     5.0454     5.1950
  259.5000   118.9783     5.0456     5.2210
  259.6000   118.7362     5.0650     5.2408
  259.7000   118.7088     5.0941     5.2975
  259.8000   118.9581     5.1234     5.3314
  259.9000   119.2121     5.1534     5.3582
  260.0000   119.2157     5.1826     5.4089
  260.1000   119.4048     5.2125     5.4708
  260.2000   119.6540     5.2424     5.5334
  260.3000   119.8299     5.2816     5.5983
  260.4000   119.8689     5.3423     5.6294
  260.5000   120.4410     5.4134     5.6615
  260.6000   120.4440     5.4660     5.7109
  260.7000   120.7511     5.5094     5.7761
  260.8000   121.6296     5.5411     5.8399
  260.9000   123.1073     5.5834     5.8784
  261.0000   124.6820     5.6862     5.9066
  261.1000   126.5228     5.7474     5.9403
  261.2000   127.7974     5.7900     5.9741
  261.3000   129.0200     5.8394     6.0195
  261.4000   130.3739     5.9065     6.1297
  261.5000   131.3660     5.9744     6.2288
  261.6000   132.5988     6.0431     6.3104
  261.7000   133.2438     6.1128     6.3826
  261.8000   133.3188     6.1629     6.4557
  261.9000   132.9928     6.1984     6.5294
  262.0000   132.5050     6.2381     6.6189
  262.1000   131.9618     6.3180     6.6798
  262.2000   131.3109     6.3826     6.7563
  262.3000   130.5773     6.4560     6.8337
  262.4000   129.2065     6.5140     6.9118
  262.5000   127.1991     6.5592     6.9990
  262.6000   125.9464     6.6364     7.0349
  262.7000   125.4696     6.6737     7.1022
  262.8000   124.9818     6.7410     7.1651
  262.9000   124.3659     6.8185     7.2060
  263.0000   123.9937     6.8969     7.2474
  263.1000   124.5056     6.9734     7.2884
  263.2000   125.3653     7.0200     7.2980
  263.3000   126.1934     7.0540     7.2979
  263.4000   127.1805     7.1195     7.3108
  263.5000   127.9780     7.1855     7.3489
  263.6000   128.4344     7.2268     7.3487
  263.7000   128.7013     7.2713     7.3486
  263.8000   128.9331     7.2716     7.3485
  263.9000   128.8374     7.3011     7.3655
  264.0000   128.7119     7.3431     7.3999
  264.1000   128.6547     7.3750     7.3998
  264.2000   128.4126     7.3753     7.3996
  264.3000   128.1705     7.3756     7.3995
  264.4000   126.7602     7.4430     7.3995
  264.5000   125.3213     7.4801     7.4110
  264.6000   124.3449     7.4804     7.4511
  264.7000   123.8839     7.4854     7.4510
  264.8000   123.6131     7.5336     7.4859
  264.9000   123.3995     7.5718     7.5031
  265.0000   123.1574     7.6154     7.5188
  265.1000   122.8103     7.6593     7.5616
  265.2000   122.4205     7.6946     7.6083
  265.3000   122.4242     7.6949     7.6082
  265.4000   121.9499     7.6952     7.6081
  265.5000   122.9260     7.7283     7.6281
  265.6000   124.1495     7.7499     7.6613
  265.7000   124.8519     7.7630     7.6616
  265.8000   124.8708     7.8049     7.7053
  265.9000   125.1614     7.8053     7.7147
  266.0000   125.3695     7.8056     7.7146
  266.1000   125.9174     7.8330     7.7437
  266.2000   126.6584     7.8781     7.8229
  266.3000   127.3616     7.9165     7.8228
  266.4000   127.8941     7.9169     7.8619
  266.5000   127.6702     7.9172     7.9067
  266.6000   127.4281     7.9490     7.9326
  266.7000   127.0705     7.9734     7.9325
  266.8000   126.6422     7.9848     7.9324
  266.9000   126.4000     8.0300     7.9322
  267.0000   126.1580     8.0303     7.9321
  267.1000   126.1092     7.9948     7.9321
  267.2000   126.1128     7.9497     7.9320
  267.3000   126.0348     7.9198     7.9318
  267.4000   125.7926     7.9201     7.9317
  267.5000   125.5208     7.9205     7.9316
  267.6000   125.5240     7.9208     7.9315
  267.7000   125.3680     7.9211     7.9314
  267.8000   126.0594     7.9215     7.9313
  267.9000   127.9818     7.9219     7.9311
  268.0000   129.7618     7.9222     7.9310
  268.1000   130.2408     7.9663     7.9309
  268.2000   130.3723     8.0122     7.9526
  268.3000   130.3759     8.0348     7.9979
  268.4000   130.3795     8.0351     8.0422
  268.5000   130.3270     8.0380     8.0421
  268.6000   129.1807     8.0922     8.0420
  268.7000   128.7759     8.1309     8.0948
  268.8000   127.9919     8.1496     8.1550
  268.9000   127.2888     8.1674     8.1549
  269.0000   127.0468     8.2075     8.1547
  269.1000   126.7852     8.2079     8.1963
  269.2000   126.5626     8.2514     8.2430
  269.3000   126.3204     8.2661     8.2692
  269.4000   126.1925     8.2665     8.2691
  269.5000   126.0795     8.2669     8.2689
  269.6000   125.5963     8.2672     8.2688
  269.7000   125.6000     8.2675     8.2687
  269.8000   125.6036     8.3049     8.2938
  269.9000   125.6072     8.3263     8.3264
  270.0000   125.6109     8.3422     8.3263
  270.1000   125.6145     8.3854     8.3262
  270.2000   125.6186     8.3858     8.3668
  270.3000   125.6217     8.3861     8.3843
  270.4000   124.9917     8.3865     8.3842
  270.5000   124.0123     8.4068     8.3841
  270.6000   123.0792     8.4460     8.3840
  270.7000   122.3181     8.4464     8.3839
  270.8000   121.3756     8.4467     8.3838
  270.9000   120.5765     8.4471     8.3837
  271.0000   119.7180     8.4475     8.3836
  271.1000   118.8078     8.4478     8.3834
  271.2000   118.0744     8.4481     8.3833
  271.3000   117.2121     8.4486     8.3832
  271.4000   116.8098     8.4489     8.4113
  271.5000   116.3218     8.4492     8.4417
  271.6000   116.0157     8.4496     8.4482
  271.7000   115.9844     8.4499     8.5007
  271.8000   115.7216     8.4503     8.5006
  271.9000   115.5002     8.4506     8.5004
  272.0000   115.4269     8.4180     8.4783
  272.1000   115.3174     8.3924     8.4411
  272.2000   115.1324     8.3928     8.4409
  272.3000   115.1397     8.3931     8.4408
  272.4000   115.8809     8.3935     8.4407
  272.5000   117.1948     8.3939     8.4406
  272.6000   118.1320     8.3942     8.4249
  272.7000   118.7063     8.3945     8.3816
  272.8000   119.4240     8.3949     8.3814
  272.9000   119.9848     8.3953     8.3813
  273.0000   120.2011     8.3956     8.3812
  273.1000   120.7648     8.3655     8.3611
  273.2000   121.4044     8.3183     8.3135
  273.3000   121.8997     8.2800     8.2645
  273.4000   122.4158     8.2804     8.2644
  273.5000   122.6546     8.2807     8.2296
  273.6000   122.9040     8.2811     8.2067
  273.7000   123.1534     8.2578     8.2066
  273.8000   123.3351     8.2241     8.2064
  273.9000   123.3619     8.2244     8.2063
  274.0000   123.9464     8.2248     8.2062
  274.1000   124.1510     8.2251     8.2061
  274.2000   124.6917     8.2254     8.2059
  274.3000   125.4323     8.2258     8.1986
  274.4000   126.1729     8.2197     8.1486
  274.5000   126.9807     8.1692     8.1484
  274.6000   127.8781     8.1695     8.1483
  274.7000   128.8650     8.1698     8.1482
  274.8000   129.7402     8.1701     8.1481
  274.9000   130.3691     8.1705     8.1480
