~VERSION INFORMATION
 VERS.                2.0:   CWLS LOG ASCII STANDARD - VERSION 2.0
 WRAP.                 NO:   ONE LINE PER DEPTH STEP
~WELL INFORMATION
#MNEM.UNIT      DATA TYPE    INFORMATION
#----------   ------------   ------------------------------
 STRT.F           12.0000:   START DEPTH
 STOP.F          754.0000:   STOP DEPTH
 STEP.F            0.5000:   STEP LENGTH
 NULL.          -999.2500:   NO VALUE
 COMP. FENIX & SCISSON INC:   COMPANY
 WELL.    62 SX 34 #62-34:   WELL
 FLD .             TEAPOT:   FIELD
 LOC .      S34 T39N R78W:   LOCATION
 CNTY.            NATRONA:   COUNTY
 STAT.            WYOMING:   STATE
 CTRY. UNITED STATES OF AMERICA:   COUNTRY
 SRVC.            Unknown:   SERVICE COMPANY
 DATE.        20-AUG-1978:   LOGDATE
 API .       490251070200:   API NUMBER
~CURVE INFORMATION
#MNEM.UNIT       API CODE    CURVE DESCRIPTION
#----------   ------------   ------------------------------
 DEPT.F                  :   
 SPR .MV     05 010 01 00:   SPONTANEOUS POTENTIAL FROM RES.
 SN  .OHMM   05 040 16 00:   SHORT NORMAL 16"
 ILD .OHMM   05 120 46 00:   INDUCTION LOG DEEP
 GRD .GAPI   45 310 01 00:   GAMMA RAY FROM DENSITY LOG
 CALD.IN     45 280 60 00:   CALIPER
 RHOB.G/C3   45 350 01 00:   BULK DENSITY
 DPHI.DEC    45 890 12 00:   DENSITY POROSITY SANDSTONE
 CORR.G/C3   45 356 01 00:   DENSITY CORRECTION
~PARAMETER INFORMATION
#MNEM.UNIT          VALUE    DESCRIPTION
#----------   ------------   ------------------------------
 PD  .                 GL:   PERMANENT DATUM
 EPD .F              5039:   ELEVATION PERMANENT DATUM
 LMF .                 KB:   LOG MEASURED FROM
 DAPD.F                 4:   FEET ABOVE PERMANENT DATUM
 DMF .                 KB:   DRILLING MEASURED FROM
 EKB .F              5043:   KELLING BUSHING
 EGL .F              5039:   GROUND LEVEL
 DATE.            8-20-78:   RUN DATE
 RUN .                  1:   RUN NUMBER
 DD  .F               750:   DEPTH DRILLER
 DL  .F               755:   DEPTH LOGGER
 BLI .F               749:   BOTTOM LOG INTERVAL
 TLI .F                30:   TOP LOG INTERVAL
 CS  .IN            8.625:   CASING SIZE
 CBD .F                30:   CASING BOTTOM DRILLER
 CBL .F                34:   CASING BOTTOM LOGGER
 BS  .IN            7.875:   BIT SIZE
 BSD .F               750:   BIT SIZE AT DEPTH
 DFT .            KCL MUD:   DRILLING FLUID TYPE
 DFD .                8.6:   DRILLING FLUID DENSITY
 DFV .                 30:   DRILLING FLUID VISCOSITY
 DFPH.                9.5:   DRILLING FLUID PH
 DFL .               10.4:   DRILLING FLUID LOSS
 MSS .          FLOW LINE:   MUD SAMPLE SOURCE
 RMS .OHMM            .28:   RESISTIVITY MUD SAMPLE
 MST .F                76:   MUD SAMPLE TEMPERATURE
 RMF .OHMM            .24:   RESISTIVITY MUD FILTRATE SAMPLE
 MFST.F                80:   MUD FILTRATE SAMPLE TEMPERATURE
 RMC .OHMM            .34:   RESISTIVITY MUD CAKE
 MCST.F                82:   MUD CAKE SAMPLE TEMPERATURE
 MFSS.               MEAS:   MUD FILTRATE SAMPLE SOURCE
 MCSS.               MEAS:   MUD CAKE SAMPLE SOURCE
 BHT .F                72:   BOTTOM HOLE TEMPERATURE
 TCS .HRS               3:   TIME CURCULATED STOPPED
 MRT .F                72:   MAXIMUM RECORDED TEMPERATURE
 LUN .               2958:   LOGGING UNIT NUMBER
 LUL .               CASP:   LOGGING UNIT LOCATION
 ENGI.           REYNOLDS:   RECORDING ENGINEER
 WITN.              AMEND:   WITNESSED BY
 CLNT.            A2DTECH:   CLIENT CODE
 ORIG.           5" PRINT:   ORIGIN OF DATA
 UWI .       490251070200:   UNIQUE WELL ID
 DICO. A2D Technologies, Inc.:   DIGITIZING COMPANY
~OTHER INFORMATION
~A   DEPT      SPR         SN        ILD         GRD      CALD       RHOB       DPHI       CORR   
# ...
  498.0000   -61.4269     5.6180     6.1586   102.4688     8.8802     2.4194     0.1587     0.0217
  498.5000   -61.4270     5.6201     5.6816   101.8970     8.8590     2.4333     0.1432     0.0181
  499.0000   -61.4270     5.6180     5.2613   104.0914     8.9094     2.4597     0.1288     0.0156
  499.5000   -61.4270     5.3935     4.7605   108.9414     9.4781     2.4851     0.1172     0.0193
  500.0000   -61.4270     5.1497     4.7945   111.4282     9.1593     2.5023     0.1151     0.0229
  500.5000   -61.4270     4.9168     4.8439   111.0740     8.8614     2.4971     0.1155     0.0263
  501.0000   -61.4270     4.6737     4.8939   110.2512     8.8449     2.4931     0.1148     0.0335
  501.5000   -61.4270     4.6309     4.9390   109.3825     8.8546     2.4927     0.1140     0.0455
  502.0000   -61.4275     4.7427     4.9852   107.3206     8.8637     2.4950     0.1067     0.0620
  502.5000   -61.4293     4.8739     5.0772   105.3110     8.8792     2.5024     0.0998     0.0783
  503.0000   -61.4128     5.2146     5.2688   103.3130     8.8941     2.5160     0.0930     0.0948
  503.5000   -61.1254     5.6327     5.7335   101.3008     8.9092     2.5293     0.0860     0.1034
  504.0000   -60.8437     6.0825     6.2407   100.3278     8.9243     2.5425     0.0828     0.1004
  504.5000   -60.5640     6.2967     6.7858    99.8247     8.9393     2.5420     0.0875     0.0872
  505.0000   -60.2845     6.4549     7.0777    99.4797     8.9544     2.5234     0.1007     0.0744
  505.5000   -60.0049     6.6299     7.0710    99.7276     8.9695     2.5047     0.1140     0.0674
  506.0000   -59.7230     6.6912     7.0710   101.3343     8.9846     2.4862     0.1209     0.0675
  506.5000   -59.5934     6.6912     7.0710   102.1198     8.9998     2.4749     0.1211     0.0672
  507.0000   -59.5307     6.6912     7.0722    98.3828     9.0135     2.4761     0.1209     0.0628
  507.5000   -59.4672     6.6912     7.0646    96.8684     9.0396     2.4771     0.1223     0.0583
  508.0000   -59.3510     6.6912     7.1451    95.9364     9.0660     2.4777     0.1269     0.0538
  508.5000   -59.1704     6.6912     7.1623    95.0783     9.0898     2.4697     0.1316     0.0496
  509.0000   -59.0373     6.6912     7.1792    94.7019     9.1031     2.4617     0.1352     0.0514
  509.5000   -59.0513     6.6912     7.1962    94.2963     9.1156     2.4570     0.1352     0.0538
  510.0000   -59.0625     6.6912     7.2132    93.9033     9.1280     2.4598     0.1328     0.0664
  510.5000   -59.0737     6.6912     7.2303    94.5384     9.1391     2.4688     0.1249     0.0792
  511.0000   -59.0847     6.6912     7.2476    96.7298     9.1739     2.4776     0.1191     0.0918
  511.5000   -59.0957     6.6912     7.2646    98.7917     9.2150     2.4791     0.1224     0.1009
  512.0000   -59.1068     6.6912     7.3054    98.6966     9.2563     2.4745     0.1255     0.1045
  512.5000   -59.1178     6.6912     7.4114    99.0366     9.2976     2.4699     0.1268     0.1104
  513.0000   -59.1288     6.6912     7.5189    99.6534     9.3388     2.4675     0.1273     0.1265
  513.5000   -59.1399     6.6912     7.6111   100.1998     9.3800     2.4660     0.1410     0.1399
  514.0000   -59.1509     6.6912     7.8837    98.8328     9.4212     2.4432     0.1635     0.1408
  514.5000   -59.1620     6.6913     8.1911    97.3651     9.4624     2.4151     0.1861     0.1470
  515.0000   -59.1730     6.6922     7.8997    96.5830     9.5042     2.3795     0.1959     0.1643
  515.5000   -59.1841     6.6941     7.6001    96.4145     9.5209     2.3594     0.1848     0.1834
  516.0000   -59.1951     6.6172     7.0600    97.7427     9.4252     2.4038     0.1598     0.1906
  516.5000   -59.2062     6.4349     6.3828   106.5559     9.3261     2.4725     0.1347     0.1897
  517.0000   -59.2176     5.9628     5.7706   114.2806    10.5914     2.4826     0.1179     0.1921
  517.5000   -59.2282     5.4585     5.4150   113.5775    10.2215     2.4837     0.1149     0.1975
  518.0000   -59.2105     4.9846     5.4803   104.7073     9.8472     2.4856     0.1119     0.2155
  518.5000   -59.0754     4.9846     5.5156    98.0983     9.6961     2.4945     0.1083     0.2347
  519.0000   -58.9415     5.0155     5.4910    91.3154     9.7749     2.5056     0.1011     0.2538
  519.5000   -58.7276     5.0988     5.4650    89.4319     9.8565     2.5168     0.0939     0.2728
  520.0000   -58.1643     5.1834     5.4650    90.3201     9.9383     2.5281     0.0867     0.2896
  520.5000   -57.6120     5.5887     6.2614    91.9763    10.0198     2.5393     0.0817     0.2914
  521.0000   -57.0560     6.5352     7.0062    93.6193    10.1013     2.5499     0.0812     0.2797
  521.5000   -56.7988     6.9636     8.1008    95.0804    10.1828     2.5496     0.0920     0.2618
  522.0000   -56.7131     7.2488     9.4050    95.0815    10.2643     2.5188     0.1062     0.2438
  522.5000   -56.6306     7.5459     9.4562    93.3908    10.3458     2.4856     0.1204     0.2307
  523.0000   -56.5489     7.5376     9.4919    91.5846    10.4273     2.4725     0.1327     0.2216
  523.5000   -56.4723     7.7504     9.3329    89.6874    10.5091     2.4608     0.1488     0.2145
  524.0000   -56.1159     7.8718     9.2428    89.7185    10.5906     2.4356     0.1649     0.2123
  524.5000   -55.7025     7.9747     9.1535    93.2414    10.6655     2.4100     0.1809     0.2100
  525.0000   -55.2877     8.0010     9.0651    92.9443    10.6634     2.3844     0.1970     0.2077
  525.5000   -54.8736     8.0274     9.3163    80.1418    10.6624     2.3588     0.2087     0.2055
  526.0000   -54.4597     8.1583     9.9265    70.2003    10.6618     2.3332     0.2195     0.2027
  526.5000   -54.0457     8.4510    10.6170    60.2655    10.6612     2.3200     0.2161     0.1910
  527.0000   -53.6341     8.7530    11.3564    56.1672    10.6606     2.3261     0.2127     0.1795
  527.5000   -53.1768     9.0662    12.1467    55.3975    10.6600     2.3327     0.2014     0.1701
  528.0000   -52.6247     9.6175    12.9920    54.6670    10.6594     2.3543     0.1897     0.1657
  528.5000   -50.7145    10.1997    13.8961    54.5772    10.6588     2.3789     0.1767     0.1613
  529.0000   -49.3931    10.5607    14.8632    55.0810    10.6582     2.4063     0.1637     0.1569
  529.5000   -48.1106    10.8751    15.4576    56.1693    10.6576     2.4179     0.1571     0.1525
  530.0000   -47.3628    11.1355    15.8246    56.8044    10.6570     2.4170     0.1641     0.1481
  530.5000   -46.6332    11.3624    16.0371    55.9458    10.6564     2.3988     0.1783     0.1437
  531.0000   -45.9025    11.5938    16.0371    55.2094    10.6558     2.3787     0.1926     0.1357
  531.5000   -45.2337    11.7674    16.0371    56.1998    10.6552     2.3585     0.2068     0.1232
  532.0000   -44.9409    11.8581    16.0371    58.1040    10.6546     2.3384     0.2151     0.1108
  532.5000   -44.6385    11.9469    16.0371    58.1578    10.6540     2.3259     0.2125     0.1006
  533.0000   -44.3350    11.9532    16.1853    58.0133    10.6534     2.3281     0.2035     0.0978
  533.5000   -44.0314    11.9588    16.4753    58.8142    10.6528     2.3494     0.1947     0.0948
  534.0000   -43.7276    11.9646    16.7921    59.4966    10.6522     2.3672     0.1923     0.0810
  534.5000   -43.4225    11.9705    16.7921    57.8149    10.6516     2.3675     0.2108     0.0666
  535.0000   -43.1179    11.9764    16.7921    56.0666    10.6510     2.3286     0.2288     0.0616
  535.5000   -42.9912    11.9822    16.7921    54.4255    10.6504     2.2979     0.2468     0.0552
  536.0000   -42.8721    11.9881    16.7921    54.1328    10.6498     2.2672     0.2648     0.0451
  536.5000   -42.7519    11.9940    16.7967    55.9014    10.6492     2.2367     0.2798     0.0440
  537.0000   -42.6316    11.9999    16.7816    58.4115    10.6486     2.2166     0.2802     0.0448
  537.5000   -42.5113    12.0058    17.1680    59.3655    10.6480     2.2163     0.2697     0.0453
  538.0000   -42.3904    12.0117    17.5296    57.0138    10.6474     2.2281     0.2526     0.0408
