~VERSION INFORMATION
 VERS.                2.0:   CWLS LOG ASCII STANDARD - VERSION 2.0
 WRAP.                 NO:   ONE LINE PER DEPTH STEP
~WELL INFORMATION
#MNEM.UNIT      DATA TYPE    INFORMATION
#----------   ------------   ------------------------------
 STRT.F           32.0000:   START DEPTH
 STOP.F         1006.0000:   STOP DEPTH
 STEP.F            0.5000:   STEP LENGTH
 NULL.          -999.2500:   NO VALUE
 COMP. FENIX & SCISSON INC:   COMPANY
 WELL.        NPR-3 #54-2:   WELL
 FLD .             TEAPOT:   FIELD
 LOC .       S2 T38N R78W:   LOCATION
 CNTY.            NATRONA:   COUNTY
 STAT.            WYOMING:   STATE
 CTRY. UNITED STATES OF AMERICA:   COUNTRY
 SRVC.              Welex:   SERVICE COMPANY
 DATE.        08-SEP-1977:   LOGDATE
 API .       490251041600:   API NUMBER
~CURVE INFORMATION
#MNEM.UNIT       API CODE    CURVE DESCRIPTION
#----------   ------------   ------------------------------
 DEPT.F                  :   
 CALD.IN     45 280 60 00:   CALIPER FROM DENSITY LOG
 GRD .GAPI   45 310 01 00:   GAMMA RAY FROM DENSITY LOG
 CORR.G/C3   45 356 01 00:   DENSITY CORRECTION
 DPHI.DEC    45 890 12 00:   DENSITY POROSITY SANDSTONE
 RHOB.G/C3   45 350 01 00:   BULK DENSITY
 SPR .MV     07 010 01 00:   SPONTANEOUS POTENTIAL
 ILD .OHMM   07 120 46 00:   INDUCTION LOG DEEP
 ILM .OHMM   07 120 44 00:   INDUCTION LOG MEDIUM
 SGRD.OHMM   07 221 05 00:   SHALLOW SHORT GUARD RESISTIVITY
~PARAMETER INFORMATION
#MNEM.UNIT          VALUE    DESCRIPTION
#----------   ------------   ------------------------------
 PD  .                 GL:   PERMANENT DATUM
 EPD .F              5160:   ELEVATION PERMANENT DATUM
 LMF .                 KB:   LOG MEASURED FROM
 DAPD.F                10:   FEET ABOVE PERMANENT DATUM
 DMF .                 KB:   DRILLING MEASURED FROM
 EKB .F              5170:   KELLING BUSHING
 EGL .F              5160:   GROUND LEVEL
 DATE.        08-SEP-1977:   RUN DATE
 RUN .                  1:   RUN NUMBER
 DD  .F              1000:   DEPTH DRILLER
 DL  .F              1008:   DEPTH LOGGER
 BLI .F              1006:   BOTTOM LOG INTERVAL
 TLI .F                47:   TOP LOG INTERVAL
 CS  .IN            8.625:   CASING SIZE
 BS  .IN             6.75:   BIT SIZE
 BSD .F              1000:   BIT SIZE AT DEPTH
 DFT .            KCL MUD:   DRILLING FLUID TYPE
 DFD .                9.1:   DRILLING FLUID DENSITY
 BHT .F               100:   BOTTOM HOLE TEMPERATURE
 TCS .HRS            0230:   TIME CURCULATED STOPPED
 MRT .F               100:   MAXIMUM RECORDED TEMPERATURE
 ENGI.          D. LAWSON:   RECORDING ENGINEER
 WITN.         HARRINGTON:   WITNESSED BY
 CLNT.            A2DTECH:   CLIENT CODE
 ORIG.           5" PRINT:   ORIGIN OF DATA
 UWI .       490251041600:   UNIQUE WELL ID
 DICO. A2D Technologies, Inc.:   DIGITIZING COMPANY
~OTHER INFORMATION
~A   DEPT     CALD         GRD       CORR      DPHI         RHOB      SPR        ILD        ILM       SGRD   
# ...
  105.0000     7.2634    76.6619     0.0310     0.1329     2.4422   -53.9462     6.3064     8.6217     9.8551
  105.5000     7.2500    76.0146     0.0282     0.1332     2.4408   -53.9304     6.3094     8.5673     9.7924
  106.0000     7.2371    81.5905     0.0253     0.1335     2.4379   -54.2128     6.3563     8.5136     9.7302
  106.5000     7.2243    80.9378     0.0224     0.1346     2.4342   -54.1958     6.2713     8.3373     9.6588
  107.0000     7.2269    78.8617     0.0196     0.1373     2.4276   -54.1794     6.2751     8.2915     9.1994
  107.5000     7.2289    76.8011     0.0168     0.1408     2.4209   -54.1629     6.3656     8.4124     8.6640
  108.0000     7.2310    75.0255     0.0154     0.1465     2.4150   -53.9970     6.3687     8.5350     8.9140
  108.5000     7.2331    73.5487     0.0156     0.1491     2.4151   -53.9731     6.4161     8.5996     9.4253
  109.0000     7.2352    72.4066     0.0173     0.1494     2.4160   -53.8146     6.4638     8.6647     9.8306
  109.5000     7.2522    73.7359     0.0220     0.1491     2.4168   -53.6487     6.4223     8.6093     9.8361
  110.0000     7.2693    76.6216     0.0236     0.1484     2.4177   -53.4828     6.4254     8.4973     9.8416
  110.5000     7.3162    79.4471     0.0238     0.1469     2.4193   -53.3168     6.3842     8.3279     9.8470
  111.0000     7.3332    80.7295     0.0240     0.1445     2.4224   -53.3003     6.2130     7.8843     9.9210
  111.5000     7.3353    80.3142     0.0196     0.1420     2.4262   -53.5828     6.0463     7.5684     9.9955
  112.0000     7.3374    75.4495     0.0152     0.1372     2.4316   -53.8652     5.7234     7.1653    10.1405
  112.5000     7.3245    66.0439     0.0169     0.1276     2.4406   -54.1476     5.4934     6.5078     9.4673
  113.0000     7.3112    61.7003     0.0261     0.1213     2.4527   -54.2810     5.2725     6.2039     8.4206
  113.5000     7.2839    61.4012     0.0323     0.1261     2.4461   -54.4141     5.1311     6.5612     6.8183
  114.0000     7.2705    70.4834     0.0325     0.1311     2.4327   -54.5471     5.1759     7.0845     4.7478
  114.5000     7.2427    76.6906     0.0311     0.1382     2.4358   -54.6801     5.2797     7.2377     6.3968
  115.0000     7.2149    70.2882     0.0313     0.1385     2.4389   -54.6630     5.3621     7.3941    12.7440
  115.5000     7.1871    69.1080     0.0315     0.1355     2.4390   -54.6465     5.5146     7.6064    19.0911
  116.0000     7.1742    73.4690     0.0301     0.1334     2.4376   -54.4805     5.6662     7.7708    23.5421
  116.5000     7.1768    76.7613     0.0273     0.1375     2.4347   -54.4640     5.8375     7.9388     7.5672
  117.0000     7.1938    79.4898     0.0245     0.1396     2.4318   -54.2980     6.0403     8.1104     8.7566
  117.5000     7.2258    77.2686     0.0231     0.1386     2.4289   -54.1320     6.2122     8.3432    11.1645
  118.0000     7.2727    75.4958     0.0203     0.1377     2.4267   -53.6671     6.3889     8.5235    12.1370
  118.5000     7.3197    74.0219     0.0174     0.1385     2.4261   -53.3516     6.4803     8.7682     8.1844
  119.0000     7.3517    72.3985     0.0161     0.1418     2.4277   -53.1856     6.5730     9.0200     8.2458
  119.5000     7.3537    70.4762     0.0163     0.1433     2.4293   -52.8701     6.7126     9.2149     9.0276
  120.0000     7.3558    69.8940     0.0167     0.1420     2.4332   -52.7042     6.8094     9.4795     9.8416
  120.5000     7.3579    73.0591     0.0196     0.1396     2.4363   -52.6876     6.9077     9.7516     9.9566
  121.0000     7.3600    75.0232     0.0215     0.1372     2.4401   -52.6711     7.0074     9.9624    10.0425
  121.5000     7.3621    76.0904     0.0274     0.1315     2.4463   -52.6546     7.1085    10.1076    10.3289
  122.0000     7.3642    74.0134     0.0276     0.1278     2.4500   -52.7917     7.2110    10.3261    10.6323
  122.5000     7.3663    75.8333     0.0277     0.1290     2.4517   -52.7711     7.2647    10.5493    10.9186
  123.0000     7.3683    73.4625     0.0279     0.1278     2.4533   -52.9082     7.2682    10.4108    10.5529
  123.5000     7.3704    70.1949     0.0233     0.1251     2.4541   -53.0411     7.2717    10.0630    10.4093
  124.0000     7.3725    71.2621     0.0174     0.1209     2.4550   -53.1741     7.2250     9.6598    10.2760
  124.5000     7.3746    74.4221     0.0149     0.1181     2.4565   -53.3071     7.2286     9.3371    10.1389
  125.0000     7.3767    74.7367     0.0135     0.1190     2.4574   -53.2864     7.1821     9.0865    10.0064
  125.5000     7.3638    72.5206     0.0152     0.1240     2.4597   -53.4194     7.0870     8.8440    10.0120
  126.0000     7.3659    69.2530     0.0169     0.1210     2.4627   -53.4029     7.0414     8.8509     9.8798
  126.5000     7.3680    68.2224     0.0170     0.1141     2.4643   -53.5358     7.0450     8.9179     9.6810
  127.0000     7.3701    69.4443     0.0172     0.1108     2.4645   -53.5193     7.0484     8.9855     9.6383
  127.5000     7.3572    72.4547     0.0142     0.1107     2.4623   -53.6564     7.0518     9.1164     9.5957
  128.0000     7.3593    75.1662     0.0100     0.1167     2.4572   -53.6358     7.0552     9.1221     9.6434
  128.5000     7.3451    78.3261     0.0104     0.1178     2.4595   -53.7729     7.0587     9.1897     9.7862
  129.0000     7.3320    78.7954     0.0135     0.1136     2.4708   -53.7522     7.0624     9.1321    10.0001
  129.5000     7.3207    79.4142     0.0165     0.1052     2.4882   -53.8893     7.1146     9.0748    10.4328
  130.0000     7.3079    80.9299     0.0184     0.1043     2.4912   -54.0223     7.1675     8.9570    10.7324
  130.5000     7.2800    78.5592     0.0214     0.1072     2.4831   -54.1553     7.1710     8.8994    10.1659
  131.0000     7.2649    76.1884     0.0232     0.1108     2.4727   -54.2882     7.1745     8.7840     9.6940
  131.5000     7.2394    76.2093     0.0247     0.1119     2.4705   -54.4171     7.1780     8.6089     9.3082
  132.0000     7.2238    77.8692     0.0234     0.1107     2.4759   -54.4006     7.0828     8.4360    10.1926
  132.5000     7.1987    74.3079     0.0235     0.1071     2.4805   -54.5377     7.0373     8.2121    11.7958
  133.0000     7.1709    73.4319     0.0205     0.1088     2.4731   -54.5170     6.9914     8.0484    11.1707
  133.5000     7.1431    73.7518     0.0148     0.1130     2.4620   -54.6541     6.9474     7.8880    10.3616
  134.0000     7.1158    74.9685     0.0118     0.1165     2.4590   -54.7871     6.9020     7.7832     8.9072
  134.5000     7.0880    76.0305     0.0076     0.1150     2.4652   -54.7698     6.7176     7.6716     9.6195
  135.0000     7.0602    68.8817     0.0048     0.1126     2.4720   -54.7541     6.5828     7.5802    16.0604
  135.5000     7.0324    63.2225     0.0020     0.1099     2.4781   -54.8870     6.4507     7.5851    14.4907
  136.0000     7.0344    61.8929     0.0006     0.1065     2.4857   -54.8500     6.3212     7.6956     7.5699
  136.5000     7.0365    65.3517     0.0008     0.1023     2.4925   -54.5371     6.3682     7.7602     8.8604
  137.0000     7.0536    48.6364     0.0026     0.0996     2.5031   -54.2242     6.5050     7.9876    10.5262
  137.5000     7.0557    36.2507     0.0087     0.0957     2.5152   -53.9238     6.6908     8.2720    12.1532
  138.0000     7.0727    33.1274     0.0180     0.0928     2.5190   -53.7479     6.9778     8.9339     8.4266
  138.5000     7.1047    37.6378     0.0286     0.0995     2.5041   -53.4350     7.3277     9.8455     7.6536
  139.0000     7.1217    44.9831     0.0317     0.1045     2.4908   -52.9776     7.5371    10.8525    14.8819
  139.5000     7.1537    57.4105     0.0304     0.1146     2.4699   -52.9611     7.8062    12.0414    33.4495
  140.0000     7.1857    67.5959     0.0289     0.1340     2.4303   -52.7952     7.9738    12.9062   216.5610
  140.5000     7.2027    74.0443     0.0262     0.1448     2.4221   -52.7787     7.8680    12.6489   192.7119
  141.0000     7.2496    76.3073     0.0232     0.1402     2.4342   -53.0611     7.6570    11.0210   143.2712
