~VERSION INFORMATION
 VERS.                2.0:   CWLS LOG ASCII STANDARD - VERSION 2.0
 WRAP.                 NO:   ONE LINE PER DEPTH STEP
~WELL INFORMATION
#MNEM.UNIT      DATA TYPE    INFORMATION
#----------   ------------   ------------------------------
 STRT.F           28.0000:   START DEPTH
 STOP.F          468.0000:   STOP DEPTH
 STEP.F            0.5000:   STEP LENGTH
 NULL.          -999.2500:   NO VALUE
 COMP. FENIX & SCISSON INC:   COMPANY
 WELL. NAVAL PETROLEUM RESERVE 3 SX3F #35-3:   WELL
 FLD .             TEAPOT:   FIELD
 LOC .       S3 T38N R78W:   LOCATION
 CNTY.            NATRONA:   COUNTY
 STAT.            WYOMING:   STATE
 CTRY. UNITED STATES OF AMERICA:   COUNTRY
 SRVC.              Welex:   SERVICE COMPANY
 DATE.        07-JUL-1980:   LOGDATE
 API .       490251081700:   API NUMBER
~CURVE INFORMATION
#MNEM.UNIT       API CODE    CURVE DESCRIPTION
#----------   ------------   ------------------------------
 DEPT.F                  :   
 CORR.G/C3   45 356 01 00:   DENSITY CORRECTION
 RHOB.G/C3   45 350 01 00:   BULK DENSITY
 CALD.IN     45 280 60 00:   CALIPER
 GRD .GAPI   45 310 01 00:   GAMMA RAY FROM DENSITY LOG
 DPHI.DEC    45 890 12 00:   DENSITY POROSITY SANDSTONE
~PARAMETER INFORMATION
#MNEM.UNIT          VALUE    DESCRIPTION
#----------   ------------   ------------------------------
 PD  .                 GL:   PERMANENT DATUM
 EPD .F              5162:   ELEVATION PERMANENT DATUM
 LMF .                 KB:   LOG MEASURED FROM
 DAPD.F                 5:   FEET ABOVE PERMANENT DATUM
 DMF .                 KB:   DRILLING MEASURED FROM
 EKB .F              5167:   KELLING BUSHING
 EGL .F              5162:   GROUND LEVEL
 DATE.             7-7-80:   RUN DATE
 RUN .                  1:   RUN NUMBER
 DD  .F               470:   DEPTH DRILLER
 DL  .F               470:   DEPTH LOGGER
 BLI .F               468:   BOTTOM LOG INTERVAL
 TLI .F                30:   TOP LOG INTERVAL
 BS  .IN             6.25:   BIT SIZE
 BSD .F               470:   BIT SIZE AT DEPTH
 DFT .        ARI DRILLED:   DRILLING FLUID TYPE
 TCS .HRS             1.5:   TIME CURCULATED STOPPED
 MRT .F                74:   MAXIMUM RECORDED TEMPERATURE
 ENGI.            TOTHILL:   RECORDING ENGINEER
 WITN.             AMENDS:   WITNESSED BY
 CLNT.            A2DTECH:   CLIENT CODE
 ORIG.           5" PRINT:   ORIGIN OF DATA
 UWI .       490251081700:   UNIQUE WELL ID
 DICO. A2D Technologies, Inc.:   DIGITIZING COMPANY
~OTHER INFORMATION
~A   DEPT      CORR        RHOB       CALD       GRD        DPHI 
# ...
   89.0000     0.0517     2.4617     6.1414   117.1216     0.1279
   89.5000     0.0468     2.4539     6.1414   116.2060     0.1323
   90.0000     0.0522     2.4636     6.1414   115.2516     0.1230
   90.5000     0.0609     2.4689     6.1416   114.2320     0.1234
   91.0000     0.0732     2.4735     6.1428   113.2112     0.1205
   91.5000     0.0855     2.4810     6.1440   112.7392     0.1153
   92.0000     0.0969     2.4866     6.1453   112.7116     0.1137
   92.5000     0.0855     2.4802     6.1465   111.9047     0.1177
   93.0000     0.0702     2.4741     6.1478   111.6213     0.1214
   93.5000     0.0693     2.4785     6.1490   112.4722     0.1183
   94.0000     0.0671     2.4818     6.1503   111.5454     0.1161
   94.5000     0.0650     2.4783     6.1515   110.5224     0.1161
   95.0000     0.0558     2.4800     6.1528   109.8835     0.1165
   95.5000     0.0447     2.4696     6.1540   109.9416     0.1233
   96.0000     0.0335     2.4586     6.1552   111.2177     0.1301
   96.5000     0.0223     2.4493     6.1565   112.5409     0.1361
   97.0000     0.0162     2.4439     6.1577   113.6145     0.1383
   97.5000     0.0192     2.4443     6.1590   111.1174     0.1392
   98.0000     0.0299     2.4555     6.1603   108.9413     0.1332
   98.5000     0.0408     2.4551     6.1619   109.5488     0.1326
   99.0000     0.0461     2.4507     6.1469   108.6764     0.1347
   99.5000     0.0575     2.4546     6.1299   107.2129     0.1310
  100.0000     0.0892     2.4702     6.1129   106.3996     0.1214
  100.5000     0.1005     2.4714     6.1007   106.9924     0.1238
  101.0000     0.0933     2.4694     6.1024   105.9834     0.1243
  101.5000     0.0864     2.4759     6.1158   106.9573     0.1215
  102.0000     0.0900     2.4731     6.1293   106.7151     0.1187
  102.5000     0.1022     2.4837     6.1413   106.3002     0.1161
  103.0000     0.0948     2.4820     6.1388   104.9873     0.1168
  103.5000     0.0833     2.4647     6.1358   103.5845     0.1253
  104.0000     0.0750     2.4595     6.1328   103.6549     0.1287
  104.5000     0.0712     2.4641     6.1298   104.1240     0.1268
  105.0000     0.0679     2.4629     6.1268   103.0806     0.1268
  105.5000     0.0649     2.4590     6.1239   101.1578     0.1303
  106.0000     0.0646     2.4601     6.1217   101.2334     0.1296
  106.5000     0.0759     2.4674     6.1260   102.4217     0.1242
  107.0000     0.0895     2.4750     6.1304   102.5124     0.1198
  107.5000     0.0890     2.4790     6.1349   103.5284     0.1174
  108.0000     0.0846     2.4824     6.1394   104.8076     0.1172
  108.5000     0.0932     2.4786     6.1413   104.7055     0.1182
  109.0000     0.1025     2.4843     6.1135   103.9097     0.1143
  109.5000     0.1110     2.4845     6.0825   104.9496     0.1145
  110.0000     0.1087     2.4754     6.0627   105.4743     0.1217
  110.5000     0.0844     2.4599     6.0720   103.8545     0.1276
  111.0000     0.0604     2.4535     6.0808   103.8270     0.1336
  111.5000     0.0611     2.4497     6.0896   103.3231     0.1352
  112.0000     0.0664     2.4541     6.0984   102.6310     0.1327
  112.5000     0.0511     2.4491     6.1072   104.5062     0.1352
  113.0000     0.0501     2.4462     6.1159   105.8938     0.1355
  113.5000     0.0556     2.4467     6.1248   105.2918     0.1346
  114.0000     0.0628     2.4515     6.1336   104.4860     0.1367
  114.5000     0.0698     2.4572     6.1407   103.6600     0.1287
  115.0000     0.0744     2.4632     6.1345   103.7680     0.1270
  115.5000     0.0730     2.4634     6.1281   104.2321     0.1279
  116.0000     0.0666     2.4583     6.1219   104.4721     0.1294
  116.5000     0.0567     2.4534     6.1236   102.8609     0.1337
  117.0000     0.0551     2.4500     6.1264   101.2206     0.1335
  117.5000     0.0627     2.4571     6.1291   100.9556     0.1312
  118.0000     0.0705     2.4597     6.1319   102.0541     0.1287
  118.5000     0.0539     2.4514     6.1346   102.8144     0.1360
  119.0000     0.0400     2.4434     6.1373   102.6949     0.1383
  119.5000     0.0408     2.4487     6.1400   102.3364     0.1345
  120.0000     0.0599     2.4570     6.1414   101.2948     0.1306
  120.5000     0.0784     2.4650     6.1414   101.4101     0.1267
  121.0000     0.0773     2.4623     6.1414   101.2167     0.1266
  121.5000     0.0695     2.4604     6.1414   101.3414     0.1289
  122.0000     0.0712     2.4684     6.1414   102.8006     0.1252
  122.5000     0.0792     2.4761     6.1414   103.7376     0.1197
  123.0000     0.0822     2.4752     6.1414   104.7386     0.1192
  123.5000     0.0886     2.4760     6.1414   106.3363     0.1194
  124.0000     0.0940     2.4804     6.1414   107.1266     0.1174
  124.5000     0.0813     2.4718     6.1414   107.9697     0.1234
  125.0000     0.0677     2.4626     6.1414   109.2391     0.1269
  125.5000     0.0585     2.4606     6.1414   112.5620     0.1283
  126.0000     0.0695     2.4625     6.1414   115.5325     0.1260
  126.5000     0.0823     2.4654     6.1414   114.3316     0.1248
  127.0000     0.0803     2.4633     6.1414   114.6670     0.1260
  127.5000     0.0780     2.4652     6.1417   115.6738     0.1252
  128.0000     0.0767     2.4665     6.1249   115.8021     0.1254
  128.5000     0.0810     2.4620     6.1016   112.3611     0.1271
  129.0000     0.0879     2.4639     6.0842   109.8426     0.1255
  129.5000     0.0963     2.4729     6.1148   110.5328     0.1208
  130.0000     0.0941     2.4731     6.1460   111.4167     0.1190
  130.5000     0.0911     2.4788     6.1616   111.1687     0.1218
  131.0000     0.0842     2.4787     6.1601   110.7810     0.1157
  131.5000     0.0741     2.4706     6.1571   110.5320     0.1241
  132.0000     0.0648     2.4674     6.1541   110.6507     0.1262
  132.5000     0.0617     2.4707     6.1511   110.6348     0.1218
  133.0000     0.0604     2.4643     6.1480   110.4895     0.1254
  133.5000     0.0626     2.4699     6.1450   110.3394     0.1224
  134.0000     0.0654     2.4739     6.1420   110.2988     0.1222
  134.5000     0.0680     2.4725     6.1390   111.6860     0.1226
  135.0000     0.0752     2.4784     6.1360   113.3738     0.1194
  135.5000     0.0782     2.4781     6.1330   114.7421     0.1170
  136.0000     0.0741     2.4725     6.1300   113.1149     0.1227
  136.5000     0.0639     2.4684     6.1269   111.3083     0.1246
  137.0000     0.0611     2.4690     6.1239   111.9116     0.1239
  137.5000     0.0606     2.4648     6.1209   113.1463     0.1266
  138.0000     0.0661     2.4653     6.1175   113.1429     0.1256
  138.5000     0.0717     2.4701     6.1141   112.8635     0.1232
  139.0000     0.0713     2.4727     6.1108   110.7251     0.1214
  139.5000     0.0697     2.4743     6.1074   110.3876     0.1214
  140.0000     0.0680     2.4723     6.1040   111.4261     0.1232
  140.5000     0.0604     2.4644     6.1006   111.6769     0.1259
  141.0000     0.0528     2.4619     6.0963   112.7850     0.1282
  141.5000     0.0490     2.4592     6.0920   115.0720     0.1293
  142.0000     0.0470     2.4557     6.0877   117.2584     0.1313
  142.5000     0.0441     2.4496     6.0834   118.9991     0.1354
  143.0000     0.0443     2.4441     6.0791   118.5302     0.1388
  143.5000     0.0442     2.4441     6.0748   116.6980     0.1379
  144.0000     0.0478     2.4480     6.0705   114.3955     0.1347
  144.5000     0.0516     2.4539     6.0662   113.2837     0.1330
  145.0000     0.0545     2.4522     6.0617   114.5987     0.1326
  145.5000     0.0599     2.4589     6.0677   115.4647     0.1271
  146.0000     0.0838     2.4738     6.0778   114.4125     0.1207
  146.5000     0.1043     2.4813     6.0879   115.5635     0.1169
  147.0000     0.0962     2.4770     6.0981   117.1976     0.1216
  147.5000     0.0788     2.4680     6.1010   115.9661     0.1262
  148.0000     0.0657     2.4632     6.0951   115.9831     0.1287
  148.5000     0.0624     2.4587     6.0831   114.4259     0.1299
  149.0000     0.0601     2.4617     6.0712   113.7047     0.1266
  149.5000     0.0579     2.4661     6.0617   114.9798     0.1238
