~VERSION INFORMATION
 VERS.                2.0:   CWLS LOG ASCII STANDARD - VERSION 2.0
 WRAP.                 NO:   ONE LINE PER DEPTH STEP
~WELL INFORMATION
#MNEM.UNIT      DATA TYPE    INFORMATION
#----------   ------------   ------------------------------
 STRT.F          534.0000:   START DEPTH
 STOP.F         1820.0000:   STOP DEPTH
 STEP.F            0.5000:   STEP LENGTH
 NULL.          -999.2500:   NO VALUE
 COMP.   FLUOR DANIEL INC:   COMPANY
 WELL. NAVAL PETROLEUM RESERVE 3 X-29 #45-29:   WELL
 FLD .             TEAPOT:   FIELD
 LOC .      S29 T39N R78W:   LOCATION
 CNTY.            NATRONA:   COUNTY
 STAT.            WYOMING:   STATE
 CTRY. UNITED STATES OF AMERICA:   COUNTRY
 SRVC.            Unknown:   SERVICE COMPANY
 DATE.        30-SEP-1994:   LOGDATE
 API .       490252265100:   API NUMBER
~CURVE INFORMATION
#MNEM.UNIT       API CODE    CURVE DESCRIPTION
#----------   ------------   ------------------------------
 DEPT.F                  :   
 ROP .FT/HR  91 810 01 00:   RAT OF DRILLING PENETRATION
 TGAS.TC/CC  91 830 01 00:   TOTAL GAS UNIT
~PARAMETER INFORMATION
#MNEM.UNIT          VALUE    DESCRIPTION
#----------   ------------   ------------------------------
 EKB .F              5023:   KELLING BUSHING
 EGL .F              5013:   GROUND LEVEL
 DATE.        30-SEP-1994:   RUN DATE
 RUN .                  1:   RUN NUMBER
 BLI .F              1820:   BOTTOM LOG INTERVAL
 TLI .F               540:   TOP LOG INTERVAL
 WITN.     C.TOWER/R.HUSK:   WITNESSED BY
 CLNT.            A2DTECH:   CLIENT CODE
 ORIG.           5" PRINT:   ORIGIN OF DATA
 UWI .       490252265100:   UNIQUE WELL ID
 DICO. A2D Technologies, Inc.:   DIGITIZING COMPANY
~OTHER INFORMATION
~A   DEPT        ROP       TGAS 
# ...
  898.5000     0.4915     2.6641
  899.0000     0.5003     2.6573
  899.5000     0.4996     2.6517
  900.0000     0.5085     2.2678
  900.5000     0.5185     2.0723
  901.0000     0.5262     2.0666
  901.5000     0.5366     2.0600
  902.0000     0.5534     2.0534
  902.5000     0.5621     2.0467
  903.0000     0.5616     2.0401
  903.5000     0.5610     2.0335
  904.0000     0.5605     2.0269
  904.5000     0.5599     2.0203
  905.0000     0.5593     2.0137
  905.5000     0.5588     2.0070
  906.0000     0.5582     2.0004
  906.5000     0.5576     1.9938
  907.0000     0.5571     1.9872
  907.5000     0.5565     1.9806
  908.0000     0.5559     1.9739
  908.5000     0.5554     1.9673
  909.0000     0.5548     1.9607
  909.5000     0.5542     1.9541
  910.0000     0.5537     1.9475
  910.5000     0.5531     1.9409
  911.0000     0.5525     1.9342
  911.5000     0.5520     1.9276
  912.0000     0.5514     1.9210
  912.5000     0.5508     1.9144
  913.0000     0.5503     1.9078
  913.5000     0.5497     1.9012
  914.0000     0.5492     1.8945
  914.5000     0.5486     1.8879
  915.0000     0.5480     1.8813
  915.5000     0.5475     1.8747
  916.0000     0.5469     1.8681
  916.5000     0.5463     1.8614
  917.0000     0.5458     1.8537
  917.5000     0.5452     2.4144
  918.0000     0.5446     3.1643
  918.5000     0.5441     4.2923
  919.0000     0.5435     6.9329
  919.5000     0.5429     8.4390
  920.0000     0.5423     6.9200
  920.5000     0.5323     4.2664
  921.0000     0.5224     3.1027
  921.5000     0.5218     2.5220
  922.0000     0.5213     2.3547
  922.5000     0.5133     2.3482
  923.0000     0.5108     2.3145
  923.5000     0.5196     2.2745
  924.0000     0.5238     2.2344
  924.5000     0.5279     2.1944
  925.0000     0.5273     2.1543
  925.5000     0.5267     2.1143
  926.0000     0.5262     2.0742
  926.5000     0.5256     2.0341
  927.0000     0.5250     1.9941
  927.5000     0.5244     1.9540
  928.0000     0.5238     1.9140
  928.5000     0.5234     2.2701
  929.0000     0.5228     2.6418
  929.5000     0.5222     2.4447
  930.0000     0.5217     1.4928
  930.5000     0.5211     1.6771
  931.0000     0.5205     1.8597
  931.5000     0.5199     1.8516
  932.0000     0.5194     1.8451
  932.5000     0.5188     1.6496
  933.0000     0.5182     1.4540
  933.5000     0.5177     1.4474
  934.0000     0.5171     1.4408
  934.5000     0.5166     1.4331
  935.0000     0.5253     1.4266
  935.5000     0.5248     1.4201
  936.0000     0.5243     1.4137
  936.5000     0.5237     1.5979
  937.0000     0.5231     1.5898
  937.5000     0.5226     1.5834
  938.0000     0.4836     1.5769
  938.5000     0.4838     1.5703
  939.0000     0.4832     1.5624
  939.5000     0.4826     1.7466
  940.0000     0.4820     1.7385
  940.5000     0.5003     1.7321
  941.0000     0.5092     1.7256
  941.5000     0.5087     1.7196
  942.0000     0.5081     1.7127
  942.5000     0.5075     2.0844
  943.0000     0.5070     2.4561
  943.5000     0.5064     2.4495
  944.0000     0.5058     2.4429
  944.5000     0.5052     2.4351
  945.0000     0.5047     2.4296
  945.5000     0.5041     2.2331
  946.0000     0.5036     2.0375
  946.5000     0.5030     2.0311
  947.0000     0.5024     2.0246
  947.5000     0.5018     2.0181
  948.0000     0.5013     2.2008
  948.5000     0.5007     2.1942
  949.0000     0.5002     2.1876
  949.5000     0.4996     2.1798
  950.0000     0.4990     2.3640
  950.5000     0.4985     2.5450
  951.0000     0.4978     2.9183
  951.5000     0.4974     3.8556
  952.0000     0.4968     4.6070
  952.5000     0.4962     3.6536
  953.0000     0.4957     3.0799
  953.5000     0.4951     2.8843
  954.0000     0.4945     2.6888
  954.5000     0.4940     2.8711
  955.0000     0.4933     2.8644
  955.5000     0.4928     2.8580
  956.0000     0.4923     3.1009
  956.5000     0.4917     2.6544
  957.0000     0.4911     2.6479
  957.5000     0.4906     2.4524
  958.0000     0.4900     2.6366
  958.5000     0.4895     2.2504
  959.0000     0.4889     1.8658
  959.5000     0.4883     1.8593
  960.0000     0.4877     1.8528
  960.5000     0.4872     2.0354
  961.0000     0.4866     2.2181
  961.5000     0.4860     2.2100
  962.0000     0.4855     2.2035
  962.5000     0.4849     2.0080
  963.0000     0.4937     2.0015
  963.5000     0.4932     1.9951
  964.0000     0.4926     1.9886
  964.5000     0.4921     2.1728
  965.0000     0.4915     2.1648
  965.5000     0.4910     2.3474
  966.0000     0.4810     2.5298
  966.5000     0.4804     2.5232
  967.0000     0.4798     2.5154
  967.5000     0.4888     2.5090
  968.0000     0.4880     2.1244
  968.5000     0.4875     1.7398
  969.0000     0.4869     1.7333
  969.5000     0.4864     2.1050
  970.0000     0.3823     2.2876
  970.5000     0.3913     2.4703
  971.0000     0.4000     2.8419
  971.5000     0.4089     2.8352
  972.0000     0.4177     3.0416
  972.5000     0.4170     3.2007
  973.0000     0.4071     3.1926
  973.5000     0.4065     3.1861
  974.0000     0.4060     2.9906
  974.5000     0.4055     2.7951
  975.0000     0.4049     2.7886
  975.5000     0.4042     2.7821
  976.0000     0.3943     2.7756
  976.5000     0.3938     2.7690
  977.0000     0.3913     2.9518
  977.5000     0.3926     3.1344
  978.0000     0.3920     2.9373
  978.5000     0.3915     2.9308
  979.0000     0.4004     3.1151
  979.5000     0.3997     3.2977
  980.0000     0.3992     3.4803
  980.5000     0.3986     3.4722
  981.0000     0.3981     3.4657
  981.5000     0.3975     3.0470
  982.0000     0.3969     2.1277
  982.5000     0.4058     1.9321
  983.0000     0.4053     1.5475
  983.5000     0.4141     1.5411
  984.0000     0.4136     1.3455
  984.5000     0.4223     1.3391
  985.0000     0.4218     1.5217
  985.5000     0.4213     1.5152
  986.0000     0.4207     1.5088
  986.5000     0.4295     1.5022
  987.0000     0.4290     1.7137
  987.5000     0.4190     1.8675
  988.0000     0.4184     2.0485
  988.5000     0.4178     2.2328
  989.0000     0.4192     2.2247
  989.5000     0.4262     2.2188
  990.0000     0.4256     2.2118
  990.5000     0.4384     2.2053
  991.0000     0.4433     2.3880
  991.5000     0.4522     2.3770
  992.0000     0.4516     2.1857
  992.5000     0.4510     2.1778
  993.0000     0.4598     1.9823
  993.5000     0.4593     1.7868
  994.0000     0.4588     1.5912
  994.5000     0.4581     1.3957
  995.0000     0.4670     1.0935
  995.5000     0.4759     1.0046
  996.0000     0.4753     0.9981
  996.5000     0.4734     0.9917
  997.0000     0.4647     0.9851
  997.5000     0.4547     0.9771
  998.0000     0.4542     0.9707
  998.5000     0.4536     0.9642
  999.0000     0.4531     0.9578
  999.5000     0.4714     0.9513
 1000.0000     0.5179     1.5114
 1000.5000     0.5366     1.5040
 1001.0000     0.5458     1.4965
 1001.5000     0.5361     1.6801
 1002.0000     0.5454     1.8617
 1002.5000     0.5358     2.0434
 1003.0000     0.5356     2.2250
 1003.5000     0.5354     2.2158
 1004.0000     0.5446     2.0193
 1004.5000     0.5444     2.0118
 1005.0000     0.5443     2.0042
 1005.5000     0.5535     1.9952
 1006.0000     0.5581     2.1787
 1006.5000     0.5625     2.1694
 1007.0000     0.5623     2.1620
 1007.5000     0.5621     2.1546
 1008.0000     0.5620     2.1472
 1008.5000     0.5520     1.9507
 1009.0000     0.5333     1.9437
 1009.5000     0.5237     1.9359
 1010.0000     0.4953     1.9284
 1010.5000     0.4857     1.9210
 1011.0000     0.4761     1.9134
 1011.5000     0.4759     1.9059
 1012.0000     0.4757     1.8969
 1012.5000     0.4849     2.0786
 1013.0000     0.4847     2.2621
 1013.5000     0.4943     2.4419
 1014.0000     0.5045     2.4345
 1014.5000     0.5219     2.4271
 1015.0000     0.5405     2.4197
 1015.5000     0.5403     2.2232
 1016.0000     0.5401     2.2158
 1016.5000     0.5399     2.2084
 1017.0000     0.5397     2.2008
 1017.5000     0.5395     2.0042
 1018.0000     0.5394     1.9952
 1018.5000     0.5392     1.7987
 1019.0000     0.5390     1.7913
 1019.5000     0.5388     1.7839
