~VERSION INFORMATION
 VERS.                2.0:   CWLS LOG ASCII STANDARD - VERSION 2.0
 WRAP.                 NO:   ONE LINE PER DEPTH STEP
~WELL INFORMATION
#MNEM.UNIT      DATA TYPE    INFORMATION
#----------   ------------   ------------------------------
 STRT.F           32.0000:   START DEPTH
 STOP.F          738.0000:   STOP DEPTH
 STEP.F            0.5000:   STEP LENGTH
 NULL.          -999.2500:   NO VALUE
 COMP. FENIX & SCISSON INC:   COMPANY
 WELL.       NPR-3 #43-34:   WELL
 FLD .             TEAPOT:   FIELD
 LOC .      S34 T39N R78W:   LOCATION
 CNTY.            NATRONA:   COUNTY
 STAT.            WYOMING:   STATE
 CTRY. UNITED STATES OF AMERICA:   COUNTRY
 SRVC.            Unknown:   SERVICE COMPANY
 DATE.        26-AUG-1978:   LOGDATE
 API .       490251069900:   API NUMBER
~CURVE INFORMATION
#MNEM.UNIT       API CODE    CURVE DESCRIPTION
#----------   ------------   ------------------------------
 DEPT.F                  :   
 GRD .GAPI   45 310 01 00:   GAMMA RAY FROM DENSITY LOG
 CALD.IN     45 280 60 00:   CALIPER
 RHOB.G/C3   45 350 01 00:   BULK DENSITY
 DPHI.DEC    45 890 12 00:   DENSITY POROSITY SANDSTONE
 CORR.G/C3   45 356 01 00:   DENSITY CORRECTION
 SPR .MV     05 010 01 00:   SPONTANEOUS POTENTIAL FROM RES.
 SN  .OHMM   05 040 16 00:   SHORT NORMAL 16"
 ILD .OHMM   05 120 46 00:   INDUCTION LOG DEEP
~PARAMETER INFORMATION
#MNEM.UNIT          VALUE    DESCRIPTION
#----------   ------------   ------------------------------
 PD  .                 GL:   PERMANENT DATUM
 EPD .F              5110:   ELEVATION PERMANENT DATUM
 LMF .                 KB:   LOG MEASURED FROM
 DAPD.F                 4:   FEET ABOVE PERMANENT DATUM
 DMF .                 KB:   DRILLING MEASURED FROM
 EKB .F              5114:   KELLING BUSHING
 EGL .F              5110:   GROUND LEVEL
 DATE.            8-26-78:   RUN DATE
 RUN .                  1:   RUN NUMBER
 DD  .F               748:   DEPTH DRILLER
 DL  .F               738:   DEPTH LOGGER
 BLI .F               732:   BOTTOM LOG INTERVAL
 TLI .F                40:   TOP LOG INTERVAL
 CS  .IN            8.625:   CASING SIZE
 CBD .F                40:   CASING BOTTOM DRILLER
 CBL .F                40:   CASING BOTTOM LOGGER
 BS  .IN            7.875:   BIT SIZE
 BSD .F               748:   BIT SIZE AT DEPTH
 DFT .                KCL:   DRILLING FLUID TYPE
 DFD .                8.7:   DRILLING FLUID DENSITY
 DFV .                 33:   DRILLING FLUID VISCOSITY
 DFPH.                  9:   DRILLING FLUID PH
 DFL .                 10:   DRILLING FLUID LOSS
 MSS .          FLOW LINE:   MUD SAMPLE SOURCE
 RMS .OHMM            .36:   RESISTIVITY MUD SAMPLE
 MST .F                80:   MUD SAMPLE TEMPERATURE
 RMF .OHMM             .3:   RESISTIVITY MUD FILTRATE SAMPLE
 MFST.F                80:   MUD FILTRATE SAMPLE TEMPERATURE
 RMC .OHMM            .48:   RESISTIVITY MUD CAKE
 MCST.F                82:   MUD CAKE SAMPLE TEMPERATURE
 MFSS.               MEAS:   MUD FILTRATE SAMPLE SOURCE
 MCSS.               MEAS:   MUD CAKE SAMPLE SOURCE
 TCS .HRS               2:   TIME CURCULATED STOPPED
 LUN .               2958:   LOGGING UNIT NUMBER
 LUL .               CASP:   LOGGING UNIT LOCATION
 ENGI.             MILLER:   RECORDING ENGINEER
 WITN.              AMEND:   WITNESSED BY
 CLNT.            A2DTECH:   CLIENT CODE
 ORIG.           5" PRINT:   ORIGIN OF DATA
 UWI .       490251069900:   UNIQUE WELL ID
 DICO. A2D Technologies, Inc.:   DIGITIZING COMPANY
~OTHER INFORMATION
~A   DEPT       GRD      CALD       RHOB       DPHI       CORR        SPR         SN        ILD   
# ...
  599.0000    69.8218     6.9960     2.4010     0.1641     0.0216   -31.7613    13.4828    14.8351
  599.5000    69.8835     6.9960     2.4033     0.1611     0.0215   -31.7317    13.4256    14.8270
  600.0000    73.8313     6.9960     2.4079     0.1636     0.0215   -31.7011    13.3689    14.8157
  600.5000    73.4945     6.9960     2.4112     0.1666     0.0215   -31.6704    13.3125    14.8042
  601.0000    69.1657     6.9960     2.4098     0.1691     0.0214   -31.6390    13.2563    14.7927
  601.5000    67.6350     6.9960     2.4034     0.1695     0.0243   -31.6158    13.2003    14.7812
  602.0000    67.2871     6.9958     2.3981     0.1691     0.0278   -31.7318    13.1642    14.7698
  602.5000    67.4369     6.9968     2.3986     0.1603     0.0314   -31.8696    13.1558    14.7583
  603.0000    69.2000     7.0150     2.4093     0.1587     0.0350   -32.0163    13.1332    14.7469
  603.5000    71.7779     7.0329     2.4184     0.1528     0.0386   -32.1673    13.1105    14.7354
  604.0000    72.6017     7.0507     2.4277     0.1484     0.0415   -32.3238    13.0879    14.7240
  604.5000    70.1995     7.0686     2.4371     0.1432     0.0415   -32.5820    13.0654    14.7126
  605.0000    69.9201     7.0864     2.4423     0.1432     0.0415   -32.5461    13.0439    14.7012
  605.5000    72.8790     7.1040     2.4423     0.1456     0.0415   -32.5159    13.0439    14.6985
  606.0000    72.4343     7.1165     2.4396     0.1491     0.0415   -32.4897    13.0690    14.7300
  606.5000    71.5185     7.1161     2.4369     0.1453     0.0415   -32.4634    13.1069    14.7664
  607.0000    72.1380     7.1069     2.4362     0.1389     0.0415   -32.4369    13.1451    14.8025
  607.5000    74.4336     7.0822     2.4415     0.1367     0.0411   -32.4091    13.1834    14.8357
  608.0000    74.2883     7.0578     2.4523     0.1389     0.0408   -32.3961    13.2217    14.8352
  608.5000    72.3600     7.0354     2.4515     0.1431     0.0406   -32.1031    13.2598    14.8351
  609.0000    71.3486     7.0347     2.4477     0.1472     0.0402   -31.8970    13.3838    14.8351
  609.5000    70.7200     7.0253     2.4439     0.1512     0.0399   -31.6773    13.6703    14.8353
  610.0000    68.0808     7.0159     2.4175     0.1719     0.0396   -31.4582    13.9106    14.8365
  610.5000    65.0243     7.0065     2.3819     0.1775     0.0410   -31.2323    13.8532    14.8375
  611.0000    61.9577     6.9979     2.3644     0.1590     0.0532   -31.2185    13.7826    14.6314
  611.5000    58.8935     6.9652     2.4226     0.1394     0.0554   -31.5621    13.7854    14.2992
  612.0000    55.8550     6.9303     2.4683     0.1198     0.0555   -32.5617    13.5861    14.0219
  612.5000    53.9273     6.9156     2.4888     0.1096     0.0580   -33.5593    13.3508    13.7554
  613.0000    54.4357     6.9310     2.4929     0.1204     0.0632   -34.2151    13.1195    13.4939
  613.5000    61.8392     6.9498     2.4834     0.1296     0.0630   -34.3340    12.6435    13.2761
  614.0000    70.1350     6.9689     2.4662     0.1389     0.0621   -34.4601    12.0678    12.8969
  614.5000    72.6783     6.9885     2.4489     0.1481     0.0612   -34.5849    12.0042    12.5688
  615.0000    72.6675     7.0174     2.4305     0.1548     0.0603   -34.7153    11.9669    12.5697
  615.5000    70.6779     7.0163     2.4256     0.1540     0.0596   -34.9557    11.9298    12.5728
  616.0000    68.5886     7.0160     2.4262     0.1437     0.0653   -35.3973    11.8982    12.6493
  616.5000    67.5197     7.0160     2.4403     0.1348     0.0716   -35.8287    12.0192    12.7538
  617.0000    70.5229     7.0160     2.4539     0.1378     0.0773   -36.1435    12.0029    12.8591
  617.5000    73.5117     7.0160     2.4521     0.1343     0.0829   -36.0448    12.0091    12.9244
  618.0000    76.4249     7.0160     2.4528     0.1204     0.0897   -35.9586    12.0081    12.9101
  618.5000    77.2403     7.0161     2.4781     0.1281     0.0966   -35.6985    12.0081    12.8853
  619.0000    76.7350     7.0159     2.4651     0.1356     0.0994   -35.4928    12.0081    12.8607
  619.5000    74.4546     7.0066     2.4530     0.1317     0.0988   -35.3450    12.0081    12.8363
  620.0000    73.8958     6.9875     2.4547     0.1280     0.0981   -35.3454    12.0081    12.8119
  620.5000    72.9740     6.9678     2.4691     0.1221     0.0976   -35.2514    12.0080    12.7875
  621.0000    71.1351     6.9211     2.4850     0.1149     0.0957   -34.9986    12.0080    12.7632
  621.5000    69.2886     6.7573     2.4897     0.1124     0.0882   -34.7482    12.0075    12.7390
  622.0000    68.2613     6.7548     2.4901     0.1176     0.0755   -34.4990    12.0536    12.7150
  622.5000    69.0711     6.7554     2.4878     0.1186     0.0507   -34.3760    12.1421    12.6890
  623.0000    69.6952     6.7556     2.4852     0.1211     0.0473   -34.4805    12.2317    12.7151
  623.5000    71.1510     6.7568     2.4832     0.1260     0.0474   -34.5814    12.3433    12.7648
  624.0000    76.1949     6.7056     2.4740     0.1354     0.0474   -34.6802    12.2306    12.8147
  624.5000    75.4240     6.6433     2.4625     0.1444     0.0474   -34.6924    12.0842    12.8649
  625.0000    80.2248     6.6354     2.4509     0.1440     0.0474   -34.4294    11.9388    12.9258
  625.5000    80.4439     6.6435     2.4407     0.1401     0.0474   -34.1763    11.7953    12.8045
  626.0000    76.7679     6.6514     2.4458     0.1376     0.0474   -34.4192    11.6537    12.6060
  626.5000    72.7663     6.6591     2.4526     0.1356     0.0474   -34.8335    11.5746    12.4117
  627.0000    71.6890     6.6669     2.4550     0.1328     0.0475   -35.2556    11.5310    12.2204
  627.5000    73.4705     6.6751     2.4572     0.1242     0.0475   -35.6806    11.4639    12.0320
  628.0000    72.4138     6.6528     2.4690     0.1172     0.0445   -36.1070    11.3972    11.9681
  628.5000    69.9234     6.6322     2.4812     0.1159     0.0404   -36.5207    11.3558    11.8847
  629.0000    70.3384     6.6232     2.4858     0.1265     0.0362   -36.5375    11.3275    11.8019
  629.5000    76.3926     6.6141     2.4790     0.1336     0.0320   -36.5352    11.2998    11.6815
  630.0000    81.0671     6.6051     2.4648     0.1366     0.0299   -36.5349    11.2722    11.7396
  630.5000    81.5616     6.5964     2.4525     0.1408     0.0287   -36.5340    11.2598    11.8982
  631.0000    79.3267     6.5797     2.4498     0.1452     0.0275   -36.5389    11.3351    11.8458
  631.5000    77.1099     6.5579     2.4424     0.1502     0.0267   -36.2356    11.4147    11.7893
  632.0000    77.4171     6.5359     2.4329     0.1553     0.0234   -35.7841    11.4947    11.8659
  632.5000    79.4028     6.5155     2.4236     0.1610     0.0247   -35.5588    11.5746    11.9309
  633.0000    80.1141     6.5169     2.4142     0.1691     0.0273   -34.9409    11.5746    12.0087
  633.5000    78.1917     6.5213     2.4050     0.1807     0.0299   -33.7500    11.5744    12.0100
  634.0000    75.8505     6.5256     2.3826     0.2054     0.0325   -30.3893    11.5749    12.0041
  634.5000    68.6589     6.5296     2.3520     0.2263     0.0350   -29.9299    11.5713    12.5903
  635.0000    61.0314     6.5337     2.3201     0.2293     0.0379   -29.4692    11.7773    13.0038
  635.5000    55.5317     6.6062     2.3025     0.2303     0.0431   -28.1518    12.0862    13.7457
  636.0000    52.9794     6.7261     2.2999     0.2212     0.0475   -26.4895    12.4507    14.5298
  636.5000    50.7082     6.8488     2.3135     0.2048     0.0437   -25.8984    12.8318    15.3587
  637.0000    50.7252     6.8695     2.3393     0.1883     0.0353   -25.3511    13.2247    16.1145
  637.5000    51.6670     6.8576     2.3646     0.1767     0.0271   -25.4698    13.4508    16.1145
  638.0000    52.3484     6.8751     2.3845     0.1812     0.0218   -26.0452    13.5322    16.1145
  638.5000    52.3502     6.8989     2.3763     0.1900     0.0296   -26.6236    13.5322    16.1145
  639.0000    54.0420     6.9161     2.3635     0.1998     0.0417   -26.8293    13.7287    16.1145
