~VERSION INFORMATION
 VERS.                2.0:   CWLS LOG ASCII STANDARD - VERSION 2.0
 WRAP.                 NO:   ONE LINE PER DEPTH STEP
~WELL INFORMATION
#MNEM.UNIT      DATA TYPE    INFORMATION
#----------   ------------   ------------------------------
 STRT.F           32.0000:   START DEPTH
 STOP.F         1006.0000:   STOP DEPTH
 STEP.F            0.5000:   STEP LENGTH
 NULL.          -999.2500:   NO VALUE
 COMP. FENIX & SCISSON INC:   COMPANY
 WELL.        NPR-3 #54-2:   WELL
 FLD .             TEAPOT:   FIELD
 LOC .       S2 T38N R78W:   LOCATION
 CNTY.            NATRONA:   COUNTY
 STAT.            WYOMING:   STATE
 CTRY. UNITED STATES OF AMERICA:   COUNTRY
 SRVC.              Welex:   SERVICE COMPANY
 DATE.        08-SEP-1977:   LOGDATE
 API .       490251041600:   API NUMBER
~CURVE INFORMATION
#MNEM.UNIT       API CODE    CURVE DESCRIPTION
#----------   ------------   ------------------------------
 DEPT.F                  :   
 CALD.IN     45 280 60 00:   CALIPER FROM DENSITY LOG
 GRD .GAPI   45 310 01 00:   GAMMA RAY FROM DENSITY LOG
 CORR.G/C3   45 356 01 00:   DENSITY CORRECTION
 DPHI.DEC    45 890 12 00:   DENSITY POROSITY SANDSTONE
 RHOB.G/C3   45 350 01 00:   BULK DENSITY
 SPR .MV     07 010 01 00:   SPONTANEOUS POTENTIAL
 ILD .OHMM   07 120 46 00:   INDUCTION LOG DEEP
 ILM .OHMM   07 120 44 00:   INDUCTION LOG MEDIUM
 SGRD.OHMM   07 221 05 00:   SHALLOW SHORT GUARD RESISTIVITY
~PARAMETER INFORMATION
#MNEM.UNIT          VALUE    DESCRIPTION
#----------   ------------   ------------------------------
 PD  .                 GL:   PERMANENT DATUM
 EPD .F              5160:   ELEVATION PERMANENT DATUM
 LMF .                 KB:   LOG MEASURED FROM
 DAPD.F                10:   FEET ABOVE PERMANENT DATUM
 DMF .                 KB:   DRILLING MEASURED FROM
 EKB .F              5170:   KELLING BUSHING
 EGL .F              5160:   GROUND LEVEL
 DATE.        08-SEP-1977:   RUN DATE
 RUN .                  1:   RUN NUMBER
 DD  .F              1000:   DEPTH DRILLER
 DL  .F              1008:   DEPTH LOGGER
 BLI .F              1006:   BOTTOM LOG INTERVAL
 TLI .F                47:   TOP LOG INTERVAL
 CS  .IN            8.625:   CASING SIZE
 BS  .IN             6.75:   BIT SIZE
 BSD .F              1000:   BIT SIZE AT DEPTH
 DFT .            KCL MUD:   DRILLING FLUID TYPE
 DFD .                9.1:   DRILLING FLUID DENSITY
 BHT .F               100:   BOTTOM HOLE TEMPERATURE
 TCS .HRS            0230:   TIME CURCULATED STOPPED
 MRT .F               100:   MAXIMUM RECORDED TEMPERATURE
 ENGI.          D. LAWSON:   RECORDING ENGINEER
 WITN.         HARRINGTON:   WITNESSED BY
 CLNT.            A2DTECH:   CLIENT CODE
 ORIG.           5" PRINT:   ORIGIN OF DATA
 UWI .       490251041600:   UNIQUE WELL ID
 DICO. A2D Technologies, Inc.:   DIGITIZING COMPANY
~OTHER INFORMATION
~A   DEPT     CALD         GRD       CORR      DPHI         RHOB      SPR        ILD        ILM       SGRD   
# ...
  214.5000     7.3929    69.9238     0.0004     0.1378     2.4380   -50.3867     5.6258     7.5377     7.7542
  215.0000     7.3950    69.3405     0.0020     0.1369     2.4328   -50.2222     5.7881     8.0286     8.2037
  215.5000     7.4270    72.5039     0.0051     0.1431     2.4261   -50.0578     5.9551     8.5516     8.7379
  216.0000     7.4291    74.7655     0.0067     0.1461     2.4217   -50.0428     6.1694     8.7989     9.5023
  216.5000     7.4461    76.2798     0.0068     0.1490     2.4165   -49.8783     6.3474     8.8673    12.1287
  217.0000     7.4482    76.5933     0.0038     0.1520     2.4120   -49.8634     6.4854     8.8127    14.4173
  217.5000     7.4649    74.8191     0.0009     0.1550     2.4046   -49.8484     6.5808     8.6376     9.9268
  218.0000     7.4969    75.8898    -0.0005     0.1573     2.3986   -49.8334     6.6776     8.4076    11.2532
  218.5000     7.5165    74.2650    -0.0034     0.1591     2.3957   -49.9679     6.5896     8.3019     9.6299
  219.0000     7.5459    75.0319    -0.0033     0.1579     2.3980   -49.9530     6.4158     8.3089     8.7154
  219.5000     7.5779    76.8451    -0.0033     0.1564     2.3995   -49.9380     6.3312     8.2582     8.3164
  220.0000     7.5800    78.0604    -0.0032     0.1552     2.4033   -50.0762     6.2490     8.1515     8.3886
  220.5000     7.5821    79.8736    -0.0014     0.1540     2.4071   -50.2107     6.1678     8.0294     8.5714
  221.0000     7.5842    81.9857     0.0000     0.1524     2.4101   -50.1920     6.0468     7.7699     8.8277
  221.5000     7.5699    86.1906     0.0016     0.1509     2.4132   -50.1770     6.0097     7.6155     9.4125
  222.0000     7.5274    88.3027     0.0062     0.1490     2.4162   -50.1621     6.0142     7.5268     9.8576
  222.5000     7.4998    82.9410     0.0078     0.1492     2.4133   -49.9976     6.0188     7.4810     8.0702
  223.0000     7.4729    80.2651     0.0064     0.1522     2.4081   -49.8332     6.1073     7.8062     8.4867
  223.5000     7.4445    83.6593     0.0065     0.1535     2.4059   -49.5193     6.1971     8.1439     8.8537
  224.0000     7.4323    83.4916     0.0066     0.1538     2.4051   -49.3548     6.2883     8.4376     9.2366
  224.5000     7.4192    79.7969     0.0067     0.1535     2.4052   -49.1904     6.4697     8.6815     9.7252
  225.0000     7.3916    78.3507     0.0068     0.1532     2.4075   -48.8764     6.6104     8.8098    10.2048
  225.5000     7.3788    77.3269     0.0084     0.1529     2.4098   -48.5625     6.8011     8.8783    10.6337
  226.0000     7.3659    76.9440     0.0145     0.1531     2.4091   -48.3981     7.0459     8.9474    10.9410
  226.5000     7.3680    78.3502     0.0176     0.1543     2.4046   -48.2336     7.2995     8.9548    10.5130
  227.0000     7.3701    79.5626     0.0177     0.1582     2.3987   -48.0692     7.5622     9.0244     9.7287
  227.5000     7.3722    80.9416     0.0162     0.1620     2.3912   -48.2074     7.6735     9.0318    10.3306
  228.0000     7.3893    82.5850     0.0148     0.1680     2.3793   -48.3419     7.7326     9.1021    11.3769
  228.5000     7.4213    83.4694     0.0089     0.1724     2.3696   -48.6221     7.6837     9.1096    12.0863
  229.0000     7.4383    83.3263    -0.0045     0.1787     2.3637   -48.9061     7.5853     9.2442    11.6528
  229.5000     7.4853    83.7035    -0.0075     0.1673     2.3757   -49.1901     7.2823     9.1880    10.8663
  230.0000     7.5771    84.8729    -0.0028     0.1580     2.3945   -49.4741     7.0876     8.8216     9.9802
  230.5000     7.6987    84.5849    -0.0028     0.1544     2.4042   -49.6123     6.8058     8.5287     9.5813
  231.0000     7.7008    82.3865    -0.0012     0.1514     2.4095   -49.7468     6.5793     8.3027     8.8240
  231.5000     7.6431    76.8266    -0.0011     0.1490     2.4141   -49.8813     6.3604     8.0811     8.4129
  232.0000     7.5107    74.3300     0.0005     0.1472     2.4209   -50.0158     6.3202     7.8686     8.1893
  232.5000     7.4381    74.8132    -0.0009     0.1493     2.4119   -49.9971     6.2814     7.7652     8.0255
  233.0000     7.3953    77.3700    -0.0008     0.1528     2.4052   -50.1354     6.2873     8.0469     8.3739
  233.5000     7.3820    79.6278    -0.0022     0.1558     2.4045   -50.1167     6.2921     8.5120     8.7358
  234.0000     7.3696    80.3947    -0.0036     0.1576     2.4064   -50.1017     6.2969     8.7581    10.1812
  234.5000     7.3717    81.1615    -0.0020     0.1582     2.4035   -50.0867     6.3455     8.8262    12.1991
  235.0000     7.3738    81.9284    -0.0004     0.1557     2.4009   -50.0747     6.4388     8.5923    10.7032
  235.5000     7.3759    82.9942     0.0026     0.1539     2.4033   -50.0598     6.4884     8.4813     9.8572
  236.0000     7.3780    83.1789     0.0045     0.1515     2.4079   -50.0448     6.4486     8.3699     9.3331
  236.5000     7.3801    79.8942     0.0058     0.1488     2.4108   -49.8804     6.2773     8.1481     8.7153
  237.0000     7.3822    79.7090     0.0074     0.1501     2.4093   -49.8396     6.1946     7.9339     8.4251
  237.5000     7.3843    82.7732     0.0090     0.1512     2.4086   -49.7010     6.0731     7.7234     8.1996
  238.0000     7.4014    83.3906     0.0106     0.1511     2.4087   -49.6861     6.0346     7.4671     8.7959
  238.5000     7.4035    83.4101     0.0122     0.1511     2.4095   -49.6712     5.9574     7.2192     9.3040
  239.0000     7.4056    81.6358     0.0123     0.1505     2.4117   -49.6562     5.9196     7.2251     8.7485
  239.5000     7.4077    79.5626     0.0124     0.1502     2.4133   -49.6413     5.8833     7.2813     8.3409
  240.0000     7.4098    78.3863     0.0125     0.1496     2.4118   -49.6263     5.8472     7.4402     7.7887
  240.5000     7.4119    80.6479     0.0096     0.1489     2.4134   -49.6114     5.8527     7.5501     8.7685
  241.0000     7.4140    83.0590     0.0082     0.1477     2.4179   -49.5969     5.8572     7.5564     8.8361
  241.5000     7.4161    84.1249     0.0082     0.1459     2.4217   -49.7314     5.8616     7.4587     9.0285
  242.0000     7.4182    84.4433     0.0068     0.1444     2.4247   -49.7160     5.8661     7.3616     9.2251
  242.5000     7.4048    84.1638     0.0054     0.1432     2.4278   -49.7014     5.8290     7.2153     8.9799
  243.0000     7.4074    81.6422     0.0025     0.1420     2.4278   -49.8359     5.7532     7.0232     8.3276
  243.5000     7.3946    78.6721     0.0026     0.1410     2.4271   -49.9704     5.6785     6.9349     7.9395
  244.0000     7.3817    79.4390     0.0027     0.1431     2.4257   -49.9552     5.6058     6.9407     8.0564
  244.5000     7.3838    82.2985     0.0028     0.1461     2.4212   -50.0900     5.5329     6.9947     8.1750
  245.0000     7.3859    87.5497     0.0029     0.1496     2.4138   -50.0747     5.4610     7.0981     8.0594
  245.5000     7.3704    91.3061     0.0031     0.1523     2.4101   -50.0598     5.4265     7.1533     7.5869
  246.0000     7.3526    89.2329     0.0037     0.1487     2.4163   -50.0450     5.4316     7.2090     8.6604
  246.5000     7.3315    85.0671     0.0055     0.1430     2.4247   -50.1795     5.3983     7.2150     8.6670
  247.0000     7.3337    82.6900     0.0072     0.1415     2.4305   -50.1969     5.4024     7.1723     8.6725
  247.5000     7.3360    86.1524     0.0074     0.1424     2.4305   -50.3069     5.3322     7.0796     8.6802
  248.0000     7.3382    88.4140     0.0091     0.1450     2.4276   -50.4365     5.2628     6.8445     8.6269
  248.5000     7.3554    83.2018     0.0092     0.1495     2.4224   -50.4201     5.1791     6.6172     8.5147
  249.0000     7.3576    78.5875     0.0109     0.1489     2.4179   -50.4037     5.0954     6.4419     8.2312
  249.5000     7.3748    76.9627     0.0096     0.1474     2.4224   -50.5409     5.0116     6.2712     8.0146
  250.0000     7.3771    76.6784     0.0083     0.1465     2.4262   -50.5204     4.9279     6.1888     7.3276
  250.5000     7.3793    87.7683     0.0055     0.1477     2.4263   -50.5041     4.8619     6.1512     7.1803
