~VERSION INFORMATION
 VERS.                2.0:   CWLS LOG ASCII STANDARD - VERSION 2.0
 WRAP.                 NO:   ONE LINE PER DEPTH STEP
~WELL INFORMATION
#MNEM.UNIT      DATA TYPE    INFORMATION
#----------   ------------   ------------------------------
 STRT.F            0.0000:   START DEPTH
 STOP.F          666.0000:   STOP DEPTH
 STEP.F            0.1000:   STEP LENGTH
 NULL.          -999.2500:   NO VALUE
 COMP.   FLUOR DANIEL INC:   COMPANY
 WELL.   77-2 X 34 #77-34:   WELL
 FLD .             TEAPOT:   FIELD
 LOC .      S34 T39N R78W:   LOCATION
 CNTY.            NATRONA:   COUNTY
 STAT.            WYOMING:   STATE
 CTRY. UNITED STATES OF AMERICA:   COUNTRY
 SRVC.      Western Atlas:   SERVICE COMPANY
 DATE.        01-APR-1995:   LOGDATE
 API .       490252270000:   API NUMBER
~CURVE INFORMATION
#MNEM.UNIT       API CODE    CURVE DESCRIPTION
#----------   ------------   ------------------------------
 DEPT.F                  :   
 GRR .GAPI   07 310 01 00:   GAMMA RAY
 RILD.OHMM   07 120 46 00:   INDUCTION LOG DEEP RESISTIVITY
 RILM.OHMM   07 120 44 00:   INDUCTION LOG MEDIUM RESISTIVITY
~PARAMETER INFORMATION
#MNEM.UNIT          VALUE    DESCRIPTION
#----------   ------------   ------------------------------
 PD  .                 GL:   PERMANENT DATUM
 EPD .F              5106:   ELEVATION PERMANENT DATUM
 LMF .                 KB:   LOG MEASURED FROM
 DAPD.F                10:   FEET ABOVE PERMANENT DATUM
 DMF .                 KB:   DRILLING MEASURED FROM
 EKB .F              5116:   KELLING BUSHING
 EDF .F              5115:   DRILLING FLOOR
 EGL .F              5106:   GROUND LEVEL
 DATE.        01-APR-1995:   RUN DATE
 RUN .                  1:   RUN NUMBER
 DD  .F               674:   DEPTH DRILLER
 DL  .F               674:   DEPTH LOGGER
 BLI .F               666:   BOTTOM LOG INTERVAL
 TLI .F                52:   TOP LOG INTERVAL
 CS  .IN            9.625:   CASING SIZE
 CBD .F                52:   CASING BOTTOM DRILLER
 CBL .F                52:   CASING BOTTOM LOGGER
 BS  .IN             8.75:   BIT SIZE
 BSD .F               674:   BIT SIZE AT DEPTH
 DFT .                AIR:   DRILLING FLUID TYPE
 MRT .F                89:   MAXIMUM RECORDED TEMPERATURE
 LUN .            HL 6530:   LOGGING UNIT NUMBER
 LUL .             CASPER:   LOGGING UNIT LOCATION
 ENGI.      PAT RASMUSSEN:   RECORDING ENGINEER
 WITN.        GARY STRONG:   WITNESSED BY
 CLNT.            A2DTECH:   CLIENT CODE
 ORIG.           5" PRINT:   ORIGIN OF DATA
 UWI .       490252270000:   UNIQUE WELL ID
 DICO. A2D Technologies, Inc.:   DIGITIZING COMPANY
~OTHER INFORMATION
~A    DEPT      GRR      RILD       RILM   
# ...
  418.6000   137.0655     6.5605     6.4338
  418.7000   137.2910     6.5548     6.4075
  418.8000   137.7972     6.5147     6.4038
  418.9000   138.2886     6.4786     6.3633
  419.0000   138.5762     6.4408     6.3299
  419.1000   139.0139     6.4033     6.2932
  419.2000   139.1807     6.3659     6.2567
  419.3000   139.1813     6.3225     6.2205
  419.4000   139.1819     6.2473     6.1798
  419.5000   139.1825     6.2118     6.1037
  419.6000   139.1832     6.1476     6.0706
  419.7000   139.1837     6.0762     6.0354
  419.8000   139.1843     5.9921     5.9815
  419.9000   139.0556     5.8880     5.8883
  420.0000   138.8839     5.7856     5.7526
  420.1000   138.8528     5.6657     5.6153
  420.2000   138.5835     5.5867     5.5527
  420.3000   138.3485     5.4897     5.4641
  420.4000   138.2830     5.4203     5.3695
  420.5000   138.2836     5.3819     5.2882
  420.6000   138.3730     5.3193     5.2269
  420.7000   138.7065     5.2470     5.1660
  420.8000   139.4920     5.1966     5.0773
  420.9000   140.2245     5.1362     4.9895
  421.0000   141.1785     5.0895     4.9204
  421.1000   142.3363     5.0598     4.8519
  421.2000   143.6010     5.0289     4.7738
  421.3000   144.8172     4.9619     4.7185
  421.4000   145.8305     4.9129     4.6546
  421.5000   146.7362     4.8744     4.6323
  421.6000   147.3474     4.8330     4.6054
  421.7000   147.7969     4.7768     4.5788
  421.8000   148.1559     4.7233     4.5522
  421.9000   148.6053     4.6924     4.5258
  422.0000   148.8587     4.6684     4.4959
  422.1000   149.1530     4.6412     4.4959
  422.2000   148.9416     4.6141     4.4960
  422.3000   148.6894     4.5872     4.4838
  422.4000   148.3229     4.5605     4.4649
  422.5000   147.8180     4.5312     4.4650
  422.6000   147.2800     4.4839     4.4651
  422.7000   146.1400     4.4684     4.4651
  422.8000   145.2588     4.4550     4.4473
  422.9000   143.9050     4.4372     4.4343
  423.0000   142.6343     4.4340     4.4344
  423.1000   141.5502     4.4062     4.4344
  423.2000   140.2621     4.4062     4.4345
  423.3000   138.6022     4.4061     4.4345
  423.4000   137.2296     4.4060     4.4533
  423.5000   135.5334     4.4060     4.4656
  423.6000   133.8955     4.4059     4.4743
  423.7000   132.3794     4.4059     4.4969
  423.8000   130.8301     4.4303     4.4970
  423.9000   128.9527     4.4366     4.5218
  424.0000   127.5294     4.4510     4.5483
  424.1000   126.2016     4.4770     4.5749
  424.2000   125.0778     4.5031     4.6017
  424.3000   124.3394     4.5301     4.6287
  424.4000   124.0873     4.5558     4.6565
  424.5000   123.8281     4.5824     4.6830
  424.6000   123.8287     4.6091     4.7319
  424.7000   123.8293     4.6466     4.7711
  424.8000   123.9779     4.6957     4.7991
  424.9000   124.3304     4.7232     4.8272
  425.0000   124.9373     4.7562     4.8554
  425.1000   125.9534     4.8235     4.8894
  425.2000   128.0556     4.8738     4.9357
  425.3000   129.4934     4.9141     4.9936
  425.4000   131.4201     4.9780     5.0522
  425.5000   133.3354     5.0650     5.1114
  425.6000   135.2227     5.1349     5.1704
  425.7000   137.5084     5.2097     5.2057
  425.8000   140.4272     5.2821     5.2825
  425.9000   142.1377     5.3440     5.3757
  426.0000   143.6660     5.4142     5.4562
  426.1000   144.6986     5.5081     5.5367
  426.2000   145.3904     5.5825     5.6650
  426.3000   145.8783     5.6662     5.7788
  426.4000   146.1624     5.7663     5.8967
  426.5000   146.3852     5.8680     6.0121
  426.6000   146.2918     5.9714     6.1011
  426.7000   145.9151     6.0765     6.1829
  426.8000   145.4102     6.1975     6.2918
  426.9000   144.8518     6.2609     6.4149
  427.0000   143.7527     6.3343     6.4820
  427.1000   143.0612     6.4086     6.5581
  427.2000   142.3034     6.4837     6.6351
  427.3000   141.5457     6.5560     6.7129
  427.4000   140.7880     6.5983     6.7870
  427.5000   140.1006     6.5982     6.8299
  427.6000   139.8347     6.6525     6.9037
  427.7000   139.5962     6.7105     6.9552
  427.8000   139.5342     6.7496     6.9959
  427.9000   139.3934     6.7844     7.0230
  428.0000   139.2338     6.7843     7.0349
  428.1000   139.1908     6.8208     7.1216
  428.2000   138.9333     6.8606     7.1612
  428.3000   138.9339     6.9007     7.2031
  428.4000   138.7359     6.9409     7.2217
  428.5000   138.4837     6.9814     7.2218
  428.6000   138.2315     7.0244     7.2364
  428.7000   137.8752     7.0632     7.3231
  428.8000   137.1142     7.1044     7.3232
  428.9000   135.9211     7.1458     7.3569
  429.0000   135.0930     7.1725     7.4000
  429.1000   134.0823     7.1793     7.4262
  429.2000   133.1812     7.2225     7.4263
  429.3000   132.5445     7.2633     7.4266
  429.4000   132.2924     7.3057     7.4783
  429.5000   132.0031     7.3484     7.4784
  429.6000   132.2192     7.3747     7.4785
  429.7000   132.8060     7.3746     7.4971
  429.8000   133.3293     7.3745     7.5309
  429.9000   133.5827     7.4172     7.5310
  430.0000   133.8563     7.4259     7.5312
  430.1000   134.4200     7.4258     7.5312
  430.2000   134.8685     7.4257     7.5314
  430.3000   135.5499     7.4165     7.5315
  430.4000   136.1826     7.3739     7.5316
  430.5000   136.7663     7.3738     7.5317
  430.6000   137.5253     7.3737     7.5318
  430.7000   138.3452     7.3468     7.4939
  430.8000   138.8106     7.3223     7.4798
  430.9000   139.3167     7.3122     7.4590
  431.0000   139.5535     7.2712     7.4281
  431.1000   139.4683     7.2711     7.4282
  431.2000   139.2161     7.2353     7.4283
  431.3000   138.9521     7.2204     7.4284
  431.4000   138.7117     7.2012     7.3982
  431.5000   138.6516     7.1700     7.3553
  431.6000   138.7954     7.1699     7.3127
  431.7000   139.0488     7.1698     7.2703
  431.8000   139.3022     7.1697     7.2251
  431.9000   139.5590     7.1696     7.2252
  432.0000   139.5596     7.1496     7.2253
  432.1000   139.7607     7.1196     7.2028
  432.2000   139.8625     7.1159     7.1611
  432.3000   139.9658     7.0699     7.1257
  432.4000   140.2192     7.0698     7.1259
  432.5000   140.4676     7.0411     7.0864
  432.6000   140.4683     7.0205     7.0454
  432.7000   140.4688     7.0079     7.0277
  432.8000   140.4694     6.9715     7.0126
  432.9000   140.4700     6.9714     6.9719
  433.0000   140.4706     6.9342     6.9309
  433.1000   140.4712     6.8938     6.8521
  433.2000   140.4719     6.8536     6.8040
  433.3000   140.4724     6.8136     6.7646
  433.4000   140.4730     6.7686     6.7098
  433.5000   140.4736     6.6852     6.6400
  433.6000   140.4742     6.6123     6.6010
  433.7000   140.4748     6.5639     6.5109
  433.8000   140.4755     6.5049     6.4800
  433.9000   140.2502     6.4293     6.4193
  434.0000   140.1750     6.3546     6.3608
  434.1000   140.1756     6.2781     6.3153
  434.2000   140.1762     6.1732     6.2422
  434.3000   140.1464     6.0661     6.1590
  434.4000   139.8758     5.9608     6.0987
  434.5000   139.8763     5.8573     6.0054
  434.6000   139.8769     5.7555     5.9328
  434.7000   140.0141     5.6542     5.8805
  434.8000   140.3551     5.5894     5.7832
  434.9000   140.8225     5.4740     5.7456
  435.0000   141.0860     5.3662     5.6586
  435.1000   141.5720     5.2730     5.5827
  435.2000   142.2720     5.1814     5.5181
  435.3000   143.0311     5.0913     5.4450
  435.4000   143.7901     4.9868     5.3537
  435.5000   144.5018     4.9631     5.2859
  435.6000   145.0112     4.8988     5.2032
  435.7000   145.6152     4.8495     5.1132
  435.8000   146.0203     4.8429     5.0397
  435.9000   146.5266     4.8147     4.9630
  436.0000   146.8235     4.7821     4.8521
  436.1000   146.8241     4.7587     4.7625
  436.2000   146.8247     4.7488     4.7111
  436.3000   146.8254     4.7487     4.6567
  436.4000   146.8259     4.7486     4.6173
  436.5000   146.8266     4.7486     4.5906
  436.6000   146.8272     4.7485     4.5640
  436.7000   146.9561     4.7484     4.5365
