~VERSION INFORMATION
 VERS.                2.0:   CWLS LOG ASCII STANDARD - VERSION 2.0
 WRAP.                 NO:   ONE LINE PER DEPTH STEP
~WELL INFORMATION
#MNEM.UNIT      DATA TYPE    INFORMATION
#----------   ------------   ------------------------------
 STRT.F            3.5000:   START DEPTH
 STOP.F          523.0000:   STOP DEPTH
 STEP.F            0.5000:   STEP LENGTH
 NULL.          -999.2500:   NO VALUE
 COMP.       F D SERV INC:   COMPANY
 WELL.    88-8 SX 3 #88-3:   WELL
 FLD .             TEAPOT:   FIELD
 LOC .       S3 T38N R78W:   LOCATION
 CNTY.            NATRONA:   COUNTY
 STAT.            WYOMING:   STATE
 CTRY. UNITED STATES OF AMERICA:   COUNTRY
 SRVC.      Western Atlas:   SERVICE COMPANY
 DATE.        28-NOV-1992:   LOGDATE
 API .       490252256200:   API NUMBER
~CURVE INFORMATION
#MNEM.UNIT       API CODE    CURVE DESCRIPTION
#----------   ------------   ------------------------------
 DEPT.F                  :   
 GRR .GAPI   07 310 01 00:   GAMMA RAY
 RILD.OHMM   07 120 46 00:   INDUCTION LOG DEEP RESISTIVITY
 RILM.OHMM   07 120 44 00:   RESITIVITY LONG MEDIUM
 C13 .IN     45 280 13 00:   CALIPER X
 PORZ.DEC    45 890 12 00:   DENSITY POROSITY SANDSTONE
 NPHI.DEC    42 890 03 00:   NEUTRON POROSITY SANDSTONE
 ZCOR.G/C3   45 356 01 00:   DENSITY CORRECTION
 ZDEN.G/C3   45 350 01 00:   BULK DENSITY
~PARAMETER INFORMATION
#MNEM.UNIT          VALUE    DESCRIPTION
#----------   ------------   ------------------------------
 PD  .                 GL:   PERMANENT DATUM
 EPD .F              5126:   ELEVATION PERMANENT DATUM
 LMF .                 KB:   LOG MEASURED FROM
 DAPD.F                10:   FEET ABOVE PERMANENT DATUM
 DMF .                 KB:   DRILLING MEASURED FROM
 EKB .F              5136:   KELLING BUSHING
 EDF .F              5135:   DRILLING FLOOR
 EGL .F              5126:   GROUND LEVEL
 DATE.        28-NOV-1992:   RUN DATE
 RUN .                  1:   RUN NUMBER
 DD  .F               525:   DEPTH DRILLER
 DL  .F               525:   DEPTH LOGGER
 BLI .F               516:   BOTTOM LOG INTERVAL
 TLI .F                76:   TOP LOG INTERVAL
 CS  .IN            8.625:   CASING SIZE
 CBD .F                95:   CASING BOTTOM DRILLER
 CBL .F                76:   CASING BOTTOM LOGGER
 BS  .IN            7.875:   BIT SIZE
 BSD .F               525:   BIT SIZE AT DEPTH
 DFT .           AIR FOAM:   DRILLING FLUID TYPE
 MRT .F                70:   MAXIMUM RECORDED TEMPERATURE
 LUN .            HL-6274:   LOGGING UNIT NUMBER
 LUL .             CASPER:   LOGGING UNIT LOCATION
 ENGI.             RAUTIO:   RECORDING ENGINEER
 WITN.           ED REISH:   WITNESSED BY
 CLNT.            A2DTECH:   CLIENT CODE
 ORIG.           5" PRINT:   ORIGIN OF DATA
 UWI .       490252256200:   UNIQUE WELL ID
 DICO. A2D Technologies, Inc.:   DIGITIZING COMPANY
~OTHER INFORMATION
~A    DEPT     GRR       RILD       RILM        C13       PORZ       NPHI       ZCOR       ZDEN   
# ...
  489.5000   129.8822     8.8213     8.9699     7.9459     0.0941     0.2771     0.0592     2.4923
  490.0000   131.6866     8.9437     9.1575     7.9458     0.0959     0.2771     0.0652     2.4885
  490.5000   132.9016     9.0079     9.3491     7.9456     0.0990     0.2765     0.0605     2.4825
  491.0000   134.0906     9.2665     9.4791     7.9605     0.1008     0.2756     0.0457     2.4787
  491.5000   133.1834     9.4508     9.6829     7.9453     0.1020     0.2753     0.0457     2.4818
  492.0000   132.0442     9.6484     9.8796     7.9602     0.0977     0.2744     0.0547     2.4900
  492.5000  -999.2500     9.7833    10.0167     7.9450     0.0901     0.2722     0.0577     2.4990
  493.0000  -999.2500     9.9866    10.1558     7.9298     0.0863     0.2699     0.0517     2.5042
  493.5000  -999.2500    10.1251    10.2257     7.8995     0.0869     0.2681     0.0472     2.5057
  494.0000  -999.2500    10.2655    10.2961     7.8693     0.0899     0.2669     0.0442     2.5057
  494.5000  -999.2500    10.3361    10.4600     7.8536     0.0928     0.2678     0.0442     2.5035
  495.0000  -999.2500    10.5521    10.6573     7.8388     0.0938     0.2696     0.0457     2.4997
  495.5000  -999.2500    10.6984    10.7306     7.8387     0.0926     0.2687     0.0487     2.4974
  496.0000  -999.2500    10.7721    10.8796     7.8385     0.0923     0.2663     0.0532     2.4959
  496.5000  -999.2500    10.9214    11.0304     7.8384     0.0926     0.2636     0.0517     2.4952
  497.0000  -999.2500    11.0272    11.1835     7.8232     0.0935     0.2654     0.0457     2.4952
  497.5000  -999.2500    11.1491    11.2637     7.8230     0.0950     0.2678     0.0472     2.4921
  498.0000  -999.2500    11.3035    11.4961     7.8229     0.0989     0.2708     0.0487     2.4876
  498.5000  -999.2500    11.3813    11.5752     7.8077     0.1032     0.2747     0.0517     2.4816
  499.0000  -999.2500    11.3852    11.7357     7.8075     0.1047     0.2765     0.0517     2.4778
  499.5000  -999.2500    11.5382    11.8165     7.8074     0.1056     0.2783     0.0533     2.4756
  500.0000  -999.2500    11.5374    11.8155     7.8072     0.1011     0.2744     0.0622     2.4763
  500.5000  -999.2500    11.5367    11.8148     7.8071     0.0944     0.2696     0.0697     2.4816
  501.0000  -999.2500    11.6159    11.8140     7.8069     0.0896  -999.2500     0.0757     2.4906
  501.5000  -999.2500    11.5350    11.8132     7.8068     0.0869  -999.2500     0.0637     2.5049
  502.0000  -999.2500    11.4547    11.8123     7.8066     0.0884  -999.2500     0.0502     2.5011
  502.5000  -999.2500    11.3750    11.7300     7.8215     0.0932  -999.2500     0.0487     2.4943
  503.0000  -999.2500    11.2958    11.7292     7.8214     0.0959  -999.2500     0.0502     2.4868
  503.5000  -999.2500    11.2028    11.6040     7.8212     0.0992  -999.2500     0.0547     2.4845
  504.0000  -999.2500    11.0621    11.4864     7.8362     0.0995  -999.2500     0.0607     2.4845
  504.5000  -999.2500    10.9851    11.3277     7.8209     0.0971  -999.2500     0.0637     2.4869
  505.0000  -999.2500    10.9086    11.1711     7.8358     0.0911  -999.2500     0.0667     2.4928
  505.5000  -999.2500    10.7578    11.0167     7.8357     0.0842  -999.2500     0.0697     2.5033
  506.0000  -999.2500    10.6093    10.7893     7.8355     0.0780  -999.2500     0.0757     2.5183
  506.5000  -999.2500    10.8309    10.6403     7.8203     0.0719  -999.2500     0.0832     2.5439
  507.0000  -999.2500    10.6818    10.4932     7.8353     0.0601  -999.2500     0.0862     2.5536
  507.5000  -999.2500    10.6068    10.6818     7.8351     0.0574  -999.2500     0.0802     2.5544
  508.0000  -999.2500    10.4620    10.5348     7.8199     0.0598  -999.2500     0.0712     2.5474
  508.5000  -999.2500    10.2467    10.3804     7.8348     0.0692  -999.2500     0.0667     2.5326
  509.0000  -999.2500    10.1057     9.9666     7.8346     0.0695  -999.2500     0.0637     2.5280
  509.5000  -999.2500     9.9666     9.4291     7.8345     0.0670  -999.2500     0.0607     2.5303
  510.0000  -999.2500     9.8887     9.4291     7.8042     0.0652  -999.2500     0.0607     2.5364
  510.5000  -999.2500     9.6272     9.4946     7.8191     0.0637  -999.2500     0.0637     2.5415
  511.0000  -999.2500     9.4946     9.4291     7.8340     0.0622  -999.2500     0.0622     2.5445
  511.5000  -999.2500     9.2993     9.2993     7.8188     0.0604  -999.2500     0.0667     2.5475
  512.0000  -999.2500     0.2329     9.1713     7.8036     0.0586  -999.2500     0.0742     2.5505
  512.5000  -999.2500     0.2014     9.1079     7.8035     0.0574  -999.2500     0.0757     2.5513
  513.0000  -999.2500  -999.2500     9.0363     7.8033     0.0571  -999.2500     0.0756     2.5528
  513.5000  -999.2500  -999.2500     8.9205     7.8031     0.0571  -999.2500     0.0727     2.5535
  514.0000  -999.2500  -999.2500     8.9205     7.8181     0.0574  -999.2500     0.0727     2.5535
  514.5000  -999.2500  -999.2500     8.9205     7.8179     0.0583  -999.2500     0.0712     2.5527
  515.0000  -999.2500  -999.2500     8.9185     7.8163     0.0607  -999.2500     0.0697     2.5512
  515.5000  -999.2500  -999.2500     8.7977     7.8176     0.0610  -999.2500     0.0682     2.5474
  516.0000  -999.2500  -999.2500     8.7080     7.8024     0.0574  -999.2500     0.0697     2.5467
  516.5000  -999.2500  -999.2500  -999.2500     7.8023     0.0535  -999.2500     0.0833     2.5535
  517.0000  -999.2500  -999.2500  -999.2500     7.8021     0.0529  -999.2500     0.0892     2.5580
  517.5000  -999.2500  -999.2500  -999.2500     7.8019     0.0535  -999.2500     0.0832     2.5595
  518.0000  -999.2500  -999.2500  -999.2500     7.7867     0.0547  -999.2500     0.0757     2.5580
  518.5000  -999.2500  -999.2500  -999.2500     7.7715     0.0547  -999.2500     0.0680     2.5579
  519.0000  -999.2500  -999.2500  -999.2500     7.7714     0.0538  -999.2500     0.0637     2.5580
  519.5000  -999.2500  -999.2500  -999.2500     7.7712     0.0538  -999.2500     0.0652     2.5594
  520.0000  -999.2500  -999.2500  -999.2500     7.7711     0.0547  -999.2500     0.0727     2.5594
  520.5000  -999.2500  -999.2500  -999.2500     7.7709     0.0577  -999.2500     0.0757     2.5557
  521.0000  -999.2500  -999.2500  -999.2500     7.7557     0.0613  -999.2500     0.0697     2.5496
  521.5000  -999.2500  -999.2500  -999.2500     7.7139     0.0646  -999.2500     0.0607     2.5451
  522.0000  -999.2500  -999.2500  -999.2500     7.7139     0.0646  -999.2500     0.0562     2.5439
  522.5000  -999.2500  -999.2500  -999.2500     7.7139  -999.2500  -999.2500  -999.2500  -999.2500
  523.0000  -999.2500  -999.2500  -999.2500     7.7139  -999.2500  -999.2500  -999.2500  -999.2500
