~VERSION INFORMATION
 VERS.                2.0:   CWLS LOG ASCII STANDARD - VERSION 2.0
 WRAP.                 NO:   ONE LINE PER DEPTH STEP
~WELL INFORMATION
#MNEM.UNIT      DATA TYPE    INFORMATION
#----------   ------------   ------------------------------
 STRT.F            0.0000:   START DEPTH
 STOP.F         4535.0000:   STOP DEPTH
 STEP.F            0.5000:   STEP LENGTH
 NULL.          -999.2500:   NO VALUE
 COMP.   FLUOR DANIEL INC:   COMPANY
 WELL.     56 X 15 #56-15:   WELL
 FLD .             TEAPOT:   FIELD
 LOC .      S15 T38N R78W:   LOCATION
 CNTY.            NATRONA:   COUNTY
 STAT.            WYOMING:   STATE
 CTRY. UNITED STATES OF AMERICA:   COUNTRY
 SRVC.      Dresser Atlas:   SERVICE COMPANY
 DATE.        03-MAY-1984:   LOGDATE
 API .       490252268500:   API NUMBER
~CURVE INFORMATION
#MNEM.UNIT       API CODE    CURVE DESCRIPTION
#----------   ------------   ------------------------------
 DEPT.F                  :   
 CNC .DEC    42 890 03 00:   NEUTRON POROSITY SANDSTONE
 PORD.DEC    45 890 12 00:   POROSITY DENSITY SANDSTONE
 RHOB.G/C3   45 350 01 00:   BULK DENSITY
 CORR.G/C3   45 356 01 00:   DENSITY CORRECTION
 DT  .US/F   60 520 00 00:   INTERVAL TRANSIT TIME
 RILD.OHMM   07 120 46 00:   INDUCTION LOG DEEP RESISTIVITY
 RILM.OHMM   07 120 44 00:   INDUCTION LOG MEDIUM RESISTIVITY
 CALR.IN     07 280 01 00:   CALIPER FROM RESISTIVITY
 GRR .GAPI   07 310 01 00:   GAMMA RAY FROM RESISTIVITY LOG
 SPR .MV     07 010 01 00:   SPONTANEOUS POTENTIAL
 RFOC.OHMM   07 220 04 00:   RESISTIVITY FOCUSED LOG
~PARAMETER INFORMATION
#MNEM.UNIT          VALUE    DESCRIPTION
#----------   ------------   ------------------------------
 PD  .                 GL:   PERMANENT DATUM
 EPD .F              5326:   ELEVATION PERMANENT DATUM
 LMF .                 KB:   LOG MEASURED FROM
 DAPD.F                12:   FEET ABOVE PERMANENT DATUM
 DMF .                 KB:   DRILLING MEASURED FROM
 EKB .F              5338:   KELLING BUSHING
 EDF .F              5337:   DRILLING FLOOR
 EGL .F              5326:   GROUND LEVEL
 DATE.        03-MAY-1984:   RUN DATE
 RUN .                  1:   RUN NUMBER
 DD  .F              4547:   DEPTH DRILLER
 DL  .F              4539:   DEPTH LOGGER
 BLI .F              4536:   BOTTOM LOG INTERVAL
 TLI .F              1021:   TOP LOG INTERVAL
 CS  .IN            8.625:   CASING SIZE
 CBD .F              1027:   CASING BOTTOM DRILLER
 CBL .F              1021:   CASING BOTTOM LOGGER
 BS  .IN            7.875:   BIT SIZE
 BSD .F              4547:   BIT SIZE AT DEPTH
 DFT .            KCL GEL:   DRILLING FLUID TYPE
 DFD .                9.1:   DRILLING FLUID DENSITY
 DFV .                 44:   DRILLING FLUID VISCOSITY
 DFPH.                  8:   DRILLING FLUID PH
 DFL .               14.5:   DRILLING FLUID LOSS
 MSS .            MUDTANK:   MUD SAMPLE SOURCE
 RMS .OHMM           0.56:   RESISTIVITY MUD SAMPLE
 MST .F                73:   MUD SAMPLE TEMPERATURE
 RMF .OHMM           0.42:   RESISTIVITY MUD FILTRATE SAMPLE
 MFST.F                73:   MUD FILTRATE SAMPLE TEMPERATURE
 RMC .OHMM           0.71:   RESISTIVITY MUD CAKE
 MCST.F                73:   MUD CAKE SAMPLE TEMPERATURE
 MFSS.               MEAS:   MUD FILTRATE SAMPLE SOURCE
 MCSS.               CALC:   MUD CAKE SAMPLE SOURCE
 RMB .OHMM           0.29:   RESISTIVITY MUD AT BHT
 BHT .F               141:   BOTTOM HOLE TEMPERATURE
 TCS .HRS             3.5:   TIME CURCULATED STOPPED
 MRT .F               125:   MAXIMUM RECORDED TEMPERATURE
 LUN .               6302:   LOGGING UNIT NUMBER
 LUL .               CODY:   LOGGING UNIT LOCATION
 ENGI.              GETTY:   RECORDING ENGINEER
 WITN.           JENNINGS:   WITNESSED BY
 CLNT.            A2DTECH:   CLIENT CODE
 ORIG.           5" PRINT:   ORIGIN OF DATA
 UWI .       490252268500:   UNIQUE WELL ID
 DICO. A2D Technologies, Inc.:   DIGITIZING COMPANY
~OTHER INFORMATION
~A    DEPT     CNC       PORD       RHOB       CORR         DT       RILD       RILM       CALR         GRR       SPR       RFOC   
# ...
 3599.0000     0.1967     0.0776     2.5203     0.0110    73.5530     6.3237     7.3461     8.2895    99.5489    -9.8830     7.9745
 3599.5000     0.1980     0.0820     2.5173     0.0276    73.7075     5.9432     6.8519     8.3044   101.6541    -9.2953     6.6740
 3600.0000     0.1974     0.0838     2.5151     0.0194    76.5008     5.5727     6.1296     8.2740   102.6763    -8.9769     5.8466
 3600.5000     0.1985     0.0872     2.5096     0.0019    77.2139     5.3916     5.4884     8.2733   103.4205    -8.7461     5.3715
 3601.0000     0.2104     0.0863     2.5075     0.0064    78.8370     5.1003     5.3662     8.2726   104.1648    -8.3987     5.1602
 3601.5000     0.2140     0.0848     2.5105     0.0396    79.9675     4.8228     5.1842     8.2568   104.0511    -8.1003     5.0883
 3602.0000     0.2143     0.0845     2.5143     0.0365    80.9471     4.5639     4.8400     8.2559   102.8445    -7.9518     4.9482
 3602.5000     0.2152     0.0860     2.5113     0.0259    81.7005     4.4081     4.6424     8.2552   101.3379    -7.8034     4.8120
 3603.0000     0.2174     0.0908     2.5045     0.0169    81.7754     4.2575     4.4529     8.2697   100.4327    -7.5050     4.7780
 3603.5000     0.2306     0.0980     2.4939     0.0139    81.6991     4.1408     4.2712     8.2688   102.2343    -7.2069     4.7443
 3604.0000     0.2322     0.0971     2.4864     0.0154    81.6229     4.0552     4.1542     8.2680   104.6374    -6.9025     4.6782
 3604.5000     0.2303     0.0908     2.5007     0.0168    81.5468     3.9715     4.0687     8.2673   107.0406    -6.6101     4.6096
 3605.0000     0.2319     0.0908     2.5052     0.0138    81.7220     3.8894     4.0128     8.2816   108.8822    -6.9118     4.4859
 3605.5000     0.2364     0.0911     2.5014     0.0108    81.9978     3.8065     3.9852     8.2658   110.6438    -7.2131     4.3624
 3606.0000     0.2400     0.0905     2.4999     0.0138    82.6002     3.7303     3.9856     8.2649   110.3394    -7.6643     4.3016
 3606.5000     0.2279     0.0896     2.5029     0.0155    83.3536     3.7301     3.9859     8.2341   108.8327    -8.1156     4.2417
 3607.0000     0.2207     0.0890     2.5044     0.0198    83.9562     3.7298     4.0420     8.2334   107.0253    -8.2669     4.3005
 3607.5000     0.2186     0.0881     2.5044     0.0213    84.1065     3.7556     4.0989     8.2176   104.6164    -8.5682     4.3601
 3608.0000     0.2205     0.0866     2.5068     0.0228    83.6531     3.8077     4.2148     8.2168   103.1097    -8.7196     4.4204
 3608.5000     0.2225     0.0838     2.5097     0.0258    83.3507     3.8607     4.3040     8.2011   101.8898    -8.8713     4.4198
 3609.0000     0.2240     0.0817     2.5127     0.0273    83.3575     3.9968     4.3343     8.2003   100.9979    -9.0227     4.4191
 3609.5000     0.2237     0.0793     2.5164     0.0273    83.5000     4.1452     4.3346     8.1994    98.8897    -9.3240     4.3879
 3610.0000     0.2192     0.0775     2.5209     0.0255    83.4991     4.4035     4.3350     8.1987    97.9846    -9.6253     4.4797
 3610.5000     0.2056     0.0760     2.5247     0.0182    83.4984     4.6544     4.4267     8.1980   100.9892    -9.9266     4.7350
 3611.0000     0.1903     0.0754     2.5254     0.0106    83.3468     4.9538     4.6157     8.1822   106.0991   -10.3779     4.9703
 3611.5000     0.1775     0.0736     2.5270     0.0181    82.8936     5.2361     4.9485     8.1814   106.1303   -10.8291     5.3642
 3612.0000     0.1685     0.0706     2.5352     0.0347    80.9321     5.4582     5.3424     8.1807   100.3024   -11.2985     5.7095
 3612.5000     0.1661     0.0712     2.5375     0.0408    79.0460     5.7693     5.8893     8.1800    94.9624   -11.7319     6.0419
 3613.0000     0.1686     0.0745     2.5329     0.0377    76.6217     6.1444     6.4090     8.1943    94.9589   -12.1831     6.6501
 3613.5000     0.1731     0.0791     2.5262     0.0221    75.4439     6.4009     6.8643     8.1934    94.6552   -12.3345     7.1772
 3614.0000     0.1836     0.0860     2.5013    -0.0046    74.2925     6.3561     7.0095     8.1927    90.7426   -12.6358     7.4818
 3614.5000     0.1951     0.0926     2.4989    -0.0257    74.4428     6.1818     6.9131     8.1920    87.1306   -12.6373     7.3774
 3615.0000     0.2030     0.0902     2.5013    -0.0197    74.7435     5.9707     6.4490     8.2213    89.5337   -12.4888     6.7865
 3615.5000     0.2145     0.0893     2.5044    -0.0167    75.7986     5.8474     6.0580     8.2206    91.6385   -12.3403     6.3744
 3616.0000     0.2168     0.0887     2.5058    -0.0137    76.8536     5.7266     5.8922     8.2349    90.6865   -12.1918     6.1559
 3616.5000     0.2177     0.0884     2.5058    -0.0092    77.7579     5.7262     5.8112     8.2493    92.5318   -12.1937     6.0252
 3617.0000     0.2177     0.0887     2.5043    -0.0045    78.2096     5.7224     5.7313     8.2333    95.8372   -12.1951     5.8620
 3617.5000     0.2171     0.0908     2.4997     0.0029    78.5923     5.6465     5.6525     8.2326    99.7440   -12.0463     5.8207
 3618.0000     0.2165     0.0947     2.4937     0.0149    78.9621     5.5298     5.5748     8.2168    98.5381   -11.7479     5.8604
 3618.5000     0.2153     0.0929     2.4945     0.0255    79.1877     5.3782     5.5752     8.2161    94.9262   -11.4498     5.8596
 3619.0000     0.2122     0.0872     2.5083     0.0315    79.2625     5.2307     5.5756     8.2153    93.1188   -11.4513     5.8999
 3619.5000     0.2009     0.0838     2.5163     0.0209    79.1108     5.0872     5.6541     8.2146    90.0317   -11.3028     5.9816
 3620.0000     0.1997     0.0866     2.5102     0.0043    78.7330     5.0517     5.8140     8.2159    88.9017   -11.4546     6.1065
 3620.5000     0.2045     0.0920     2.4997    -0.0125    78.1289     5.0865     5.8550     8.2433    90.1018   -11.3057     6.2343
 3621.0000     0.2120     0.0998     2.4831    -0.0169    77.4495     5.0862     5.8097     8.2725    93.1064   -11.1576     6.2769
 3621.5000     0.2123     0.1020     2.4846    -0.0018    77.1471     5.0858     5.5775     8.2868    97.0133   -11.1591     6.2324
 3622.0000     0.2030     0.0998     2.4891    -0.0033    77.6394     5.0854     5.2031     8.2861   101.5217   -10.8607     5.8947
 3622.5000     0.2003     0.0974     2.4936    -0.0109    79.7095     5.0499     5.0960     8.3006   104.2255   -10.7121     5.3850
 3623.0000     0.2043     0.0950     2.4967    -0.0124    80.7646     5.0848     5.0609     8.2846   104.5234   -10.5637     5.0580
 3623.5000     0.2057     0.0926     2.4996    -0.0034    81.4426     5.1199     5.1322     8.2839   102.7152   -10.4153     5.1638
 3624.0000     0.2057     0.0914     2.5011    -0.0019    81.6683     5.2271     5.2045     8.2982    99.4041   -10.8668     5.4204
 3624.5000     0.2048     0.0917     2.5019    -0.0034    80.6116     5.3011     5.3905     8.2973    92.7846   -10.7184     5.6930
 3625.0000     0.1991     0.0914     2.5019    -0.0034    79.7813     5.4484     5.5866     8.3118    90.0749   -10.2700     5.9379
 3625.5000     0.1934     0.0902     2.5011    -0.0049    79.1018     5.6012     5.7381     8.3109    88.5683    -9.9713     5.9715
 3626.0000     0.2003     0.0866     2.5086     0.0147    78.8748     5.7186     5.7384     8.3254    91.5729    -9.9731     5.8882
 3626.5000     0.2036     0.0826     2.5162     0.0313    78.9495     5.7581     5.7389     8.3095    93.0738    -9.9745     5.8874
 3627.0000     0.2012     0.0817     2.5177     0.0298    79.0240     5.8382     5.7793     8.2937    90.6641   -10.2759     5.9691
 3627.5000     0.1931     0.0811     2.5169     0.0252    78.9479     6.0857     5.9016     8.2928    88.8567   -10.5996     6.0518
 3628.0000     0.1907     0.0802     2.5177     0.0131    78.8717     6.3000     6.0265     8.2770    88.8538   -11.0287     6.2213
 3628.5000     0.1937     0.0778     2.5192     0.0056    78.6447     6.5708     6.1970     8.2763    89.7539   -11.3300     6.3957
 3629.0000     0.1925     0.0733     2.5229     0.0070    78.3423     6.8934     6.3723     8.2755    90.3517   -11.6313     6.6350
