~VERSION INFORMATION
 VERS.                2.0:   CWLS LOG ASCII STANDARD - VERSION 2.0
 WRAP.                 NO:   ONE LINE PER DEPTH STEP
~WELL INFORMATION
#MNEM.UNIT      DATA TYPE    INFORMATION
#----------   ------------   ------------------------------
 STRT.F            0.0000:   START DEPTH
 STOP.F          550.0000:   STOP DEPTH
 STEP.F            0.1000:   STEP LENGTH
 NULL.          -999.2500:   NO VALUE
 COMP.       F D SERV INC:   COMPANY
 WELL. NAVAL PETROLEUM RESERVE 3 SX-3 #77-4-3:   WELL
 FLD .          N.P.R. #3:   FIELD
 LOC .       S3 T38N R78W:   LOCATION
 CNTY.            NATRONA:   COUNTY
 STAT.            WYOMING:   STATE
 CTRY. UNITED STATES OF AMERICA:   COUNTRY
 SRVC.      Western Atlas:   SERVICE COMPANY
 DATE.        28-OCT-1992:   LOGDATE
 API .       490252255100:   API NUMBER
~CURVE INFORMATION
#MNEM.UNIT       API CODE    CURVE DESCRIPTION
#----------   ------------   ------------------------------
 DEPT.F                  :   
 GRR .GAPI   07 310 01 00:   GAMMA RAY FROM RESISTIVITY
 RILD.OHMM   07 120 46 00:   DEEP INDUCTION RESISTIVITY
 RILM.OHMM   07 120 44 00:   INDUCTION LOG MEDIUM RESISTIVITY
~PARAMETER INFORMATION
#MNEM.UNIT          VALUE    DESCRIPTION
#----------   ------------   ------------------------------
 PD  .                 GL:   PERMANENT DATUM
 EPD .F              5160:   ELEVATION PERMANENT DATUM
 LMF .                 KB:   LOG MEASURED FROM
 DAPD.F                10:   FEET ABOVE PERMANENT DATUM
 DMF .                 KB:   DRILLING MEASURED FROM
 EKB .F              5170:   KELLING BUSHING
 EDF .F              5169:   DRILLING FLOOR
 EGL .F              5160:   GROUND LEVEL
 DATE.        28-OCT-1992:   RUN DATE
 RUN .                  1:   RUN NUMBER
 DD  .F               555:   DEPTH DRILLER
 DL  .F               558:   DEPTH LOGGER
 BLI .F               550:   BOTTOM LOG INTERVAL
 CS  .IN            8.625:   CASING SIZE
 CBD .F                54:   CASING BOTTOM DRILLER
 CBL .F                54:   CASING BOTTOM LOGGER
 BS  .IN            7.875:   BIT SIZE
 BSD .F               555:   BIT SIZE AT DEPTH
 DFT .           AIR FOAM:   DRILLING FLUID TYPE
 TCS .HRS               1:   TIME CURCULATED STOPPED
 MRT .F                65:   MAXIMUM RECORDED TEMPERATURE
 LUN .            HL-6274:   LOGGING UNIT NUMBER
 LUL .             CASPER:   LOGGING UNIT LOCATION
 ENGI.             RAUTIO:   RECORDING ENGINEER
 WITN.     BRUCE ANDERSON:   WITNESSED BY
 CLNT.            A2DTECH:   CLIENT CODE
 ORIG.           5" PRINT:   ORIGIN OF DATA
 UWI .       490252255100:   UNIQUE WELL ID
 DICO. A2D Technologies, Inc.:   DIGITIZING COMPANY
~OTHER INFORMATION
~A    DEPT      GRR      RILD       RILM   
# ...
  473.2000   120.2039     5.8216     6.9358
  473.3000   120.2027     5.8989     7.0041
  473.4000   120.2015     5.9724     7.1107
  473.5000   119.9524     6.0144     7.2336
  473.6000   119.7014     6.0848     7.3585
  473.7000   119.5909     6.1900     7.4872
  473.8000   119.5027     6.2980     7.6151
  473.9000   119.2516     6.4494     7.7126
  474.0000   118.9802     6.6241     7.8261
  474.1000   118.7494     6.7779     7.9458
  474.2000   118.3223     6.9502     8.0424
  474.3000   117.6989     7.1347     8.1954
  474.4000   116.9481     7.3430     8.2801
  474.5000   116.1973     7.5571     8.3752
  474.6000   115.3309     7.7889     8.4486
  474.7000   114.9071     8.0552     8.4968
  474.8000   114.4061     8.2204     8.5466
  474.9000   114.0093     8.3388     8.6633
  475.0000   113.7582     8.4841     8.7441
  475.1000   113.5041     8.6123     8.8445
  475.2000   113.7497     8.7035     8.9265
  475.3000   114.1916     8.7563     8.9774
  475.4000   114.5505     8.8539     9.0316
  475.5000   114.7992     8.9186     9.0801
  475.6000   115.0479     8.9979     9.1319
  475.7000   115.3177     9.0861     9.1839
  475.8000   115.5452     9.1342     9.2363
  475.9000   115.7938     9.1350     9.2851
  476.0000   115.9211     9.1817     9.2846
  476.1000   115.9199     9.2353     9.3757
  476.2000   115.9187     9.2891     9.4143
  476.3000   115.9173     9.3312     9.4365
  476.4000   115.9162     9.3319     9.4903
  476.5000   115.9150     9.3327     9.5453
  476.6000   115.9138     9.3761     9.5449
  476.7000   115.9126     9.3996     9.5445
  476.8000   115.9114     9.4198     9.5742
  476.9000   115.9102     9.4669     9.6287
  477.0000   115.9090     9.4678     9.6773
  477.1000   116.1849     9.5190     9.6768
  477.2000   116.6835     9.5745     9.7263
  477.3000   117.1820     9.6304     9.7818
  477.4000   117.7249     9.6711     9.8115
  477.5000   117.9514     9.6753     9.8111
  477.6000   118.2001     9.7405     9.8122
  477.7000   118.5692     9.7412     9.8789
  477.8000   119.0010     9.7420     9.9244
  477.9000   119.2495     9.7659     9.9810
  478.0000   119.5385     9.8228    10.0379
  478.1000   119.7469     9.8813    10.0861
  478.2000   119.9955     9.8821    10.0856
  478.3000   120.2442     9.9262    10.0852
  478.4000   120.4928     9.9529    10.1266
  478.5000   120.7466     9.9726    10.1843
  478.6000   120.7454    10.0307    10.2256
  478.7000   121.1266    10.0953    10.2291
  478.8000   121.3499    10.1480    10.2962
  478.9000   121.4327    10.1675    10.3461
  479.0000   121.6813    10.1954    10.3674
  479.1000   121.9531    10.2549    10.4167
  479.2000   121.9520    10.3146    10.5122
  479.3000   121.9508    10.3861    10.5117
  479.4000   121.9496    10.3868    10.5112
  479.5000   121.8168    10.4233    10.5569
  479.6000   121.3160    10.4612    10.6171
  479.7000   120.7318    10.4719    10.6575
  479.8000   120.5224    10.5362    10.6638
  479.9000   120.2713    10.5371    10.7311
  480.0000   120.1214    10.5822    10.7858
  480.1000   120.0726    10.6126    10.8053
  480.2000   119.8154    10.6135    10.8333
  480.3000   119.8143    10.6688    10.8800
  480.4000   120.0032    10.7310    10.8810
  480.5000   120.1153    10.7652    10.9552
  480.6000   120.1141    10.7811    10.9548
  480.7000   120.0835    10.8423    10.9913
  480.8000   119.8081    10.8434    11.0540
  480.9000   119.8070    10.8946    11.1073
  481.0000   119.6338    10.9209    11.1067
  481.1000   119.5011    10.9454    11.1063
  481.2000   119.4998    11.0092    11.1516
  481.3000   119.4875    11.0771    11.2152
  481.4000   119.1937    11.0780    11.2608
  481.5000   118.9853    11.1252    11.2688
  481.6000   118.8880    11.1574    11.4179
  481.7000   118.6866    11.1771    11.4175
  481.8000   118.2321    11.2373    11.4170
  481.9000   117.9739    11.2384    11.4436
  482.0000   117.2443    11.2392    11.5088
  482.1000   117.0610    11.2817    11.5759
  482.2000   116.7887    11.3475    11.5754
  482.3000   116.2877    11.3999    11.6255
  482.4000   115.8434    11.4008    11.6918
  482.5000   115.8421    11.4669    11.7365
  482.6000   115.8410    11.4825    11.7396
  482.7000   115.8398    11.4835    11.7728
  482.8000   115.8385    11.4844    11.8061
  482.9000   115.8373    11.4938    11.8623
  483.0000   115.8361    11.5668    11.8988
  483.1000   115.8347    11.5677    11.8983
  483.2000   116.2465    11.5687    11.9005
  483.3000   116.4395    11.6014    12.0643
  483.4000   116.4382    11.6515    12.0639
  483.5000   116.4370    11.6525    12.0634
  483.6000   116.4358    11.6537    12.0629
  483.7000   116.6764    11.7100    12.0727
  483.8000   116.9250    11.7370    12.1462
  483.9000   117.0391    11.7380    12.1458
  484.0000   117.0379    11.7510    12.1951
  484.1000   117.0367    11.8221    12.2297
  484.2000   117.0354    11.8231    12.2292
  484.3000   117.2579    11.8241    12.2287
  484.4000   117.5066    11.8250    12.2281
  484.5000   117.6388    11.8260    12.2870
  484.6000   117.7003    11.8335    12.3127
  484.7000   117.9490    11.9109    12.3411
  484.8000   118.2420    11.9118    12.3979
  484.9000   118.4463    11.9128    12.3973
  485.0000   118.6950    11.9138    12.3968
  485.1000   118.9436    11.9148    12.4501
  485.2000   119.1923    11.9166    12.4825
  485.3000   119.4500    11.9862    12.5050
  485.4000   119.6896    12.0561    12.5688
  485.5000   119.9383    12.0861    12.5682
  485.6000   120.0534    12.1124    12.5677
  485.7000   120.1321    12.1830    12.5672
  485.8000   120.3546    12.2590    12.5666
  485.9000   120.3531    12.2599    12.5661
  486.0000   120.5746    12.3113    12.5656
  486.1000   120.6543    12.3478    12.5651
  486.2000   120.6531    12.3687    12.5645
  486.3000   120.6519    12.4362    12.5640
  486.4000   120.6426    12.4374    12.5898
  486.5000   120.3458    12.4383    12.6509
  486.6000   120.1404    12.4394    12.6503
  486.7000   119.7386    12.4404    12.5828
  486.8000   119.2377    12.4415    12.5614
  486.9000   118.6497    12.4425    12.5609
  487.0000   117.6085    12.4435    12.5603
  487.1000   117.1278    12.4993    12.5598
  487.2000   116.2547    12.5327    12.5592
  487.3000   115.5189    12.5337    12.5588
  487.4000   115.0179    12.5431    12.5582
  487.5000   114.5170    12.6237    12.5577
  487.6000   113.9592    12.6246    12.5572
  487.7000   113.5150    12.6257    12.5566
  487.8000   113.3499    12.6267    12.5561
  487.9000   113.2344    12.6278    12.5556
  488.0000   112.9833    12.6288    12.5551
  488.1000   112.7393    12.6301    12.5546
  488.2000   112.7379    12.6309    12.5540
  488.3000   112.7369    12.6320    12.5534
  488.4000   112.5860    12.6331    12.5530
  488.5000   112.4310    12.6341    12.5048
  488.6000   112.4297    12.6352    12.4647
  488.7000   112.4285    12.6362    12.4642
  488.8000   112.4273    12.5844    12.4637
  488.9000   112.6112    12.5505    12.4632
  489.0000   112.7284    12.5516    12.4626
  489.1000   112.8051    12.5526    12.4621
  489.2000   113.0537    12.5538    12.4616
  489.3000   113.3316    12.5547    12.4509
  489.4000   113.7716    12.5558    12.3739
  489.5000   114.2702    12.5257    12.3735
  489.6000   114.7687    12.4706    12.4233
  489.7000   115.2672    12.4717    12.4590
  489.8000   115.7657    12.4727    12.4585
  489.9000   116.3591    12.4738    12.4540
  490.0000   116.7628    12.4748    12.3708
  490.1000   117.2612    12.4508    12.3704
  490.2000   117.5697    12.3901    12.3698
  490.3000   117.6514    12.3913    12.3693
  490.4000   118.1741    12.3923    12.3688
  490.5000   118.1730    12.3933    12.3683
  490.6000   118.3559    12.3944    12.2995
  490.7000   118.4741    12.3764    12.2813
  490.8000   118.5497    12.3102    12.2435
  490.9000   118.7752    12.3115    12.1950
  491.0000   118.7738    12.3124    12.1945
  491.1000   118.7727    12.3134    12.1939
  491.2000   118.9374    12.3144    12.1934
  491.3000   119.1860    12.3154    12.1929
