~VERSION INFORMATION
 VERS.                2.0:   CWLS LOG ASCII STANDARD - VERSION 2.0
 WRAP.                 NO:   ONE LINE PER DEPTH STEP
~WELL INFORMATION
#MNEM.UNIT      DATA TYPE    INFORMATION
#----------   ------------   ------------------------------
 STRT.F           28.5000:   START DEPTH
 STOP.F          516.0000:   STOP DEPTH
 STEP.F            0.5000:   STEP LENGTH
 NULL.          -999.2500:   NO VALUE
 COMP. FENIX & SCISSON INC:   COMPANY
 WELL.         SX 3 #54-3:   WELL
 FLD .            WILDCAT:   FIELD
 LOC .       S3 T38N R78W:   LOCATION
 CNTY.            NATRONA:   COUNTY
 STAT.            WYOMING:   STATE
 CTRY. UNITED STATES OF AMERICA:   COUNTRY
 SRVC.            Unknown:   SERVICE COMPANY
 DATE.        22-SEP-1978:   LOGDATE
 API .       490251069000:   API NUMBER
~CURVE INFORMATION
#MNEM.UNIT       API CODE    CURVE DESCRIPTION
#----------   ------------   ------------------------------
 DEPT.F                  :   
 SPR .MV     05 010 01 00:   SPONTANEOUS POTENTIAL FROM RES.
 ILD .OHMM   05 120 46 00:   INDUCTION LOG DEEP
 SN  .OHMM   05 040 16 00:   SHORT NORMAL 16"
 CALD.IN     45 280 60 00:   CALIPER
 GRD .GAPI   45 310 01 00:   GAMMA RAY FROM DENSITY LOG
 CORR.G/C3   45 356 01 00:   DENSITY CORRECTION
 DEN .G/C3   45 350 01 00:   COMPENSATED BULK DENSTIY
 DPHI.DEC    45 890 12 00:   DENSITY POROSITY SANDSTONE
~PARAMETER INFORMATION
#MNEM.UNIT          VALUE    DESCRIPTION
#----------   ------------   ------------------------------
 PD  .                 GL:   PERMANENT DATUM
 EPD .F              5168:   ELEVATION PERMANENT DATUM
 LMF .                 KB:   LOG MEASURED FROM
 DAPD.F                 4:   FEET ABOVE PERMANENT DATUM
 DMF .                 KB:   DRILLING MEASURED FROM
 EKB .F              5172:   KELLING BUSHING
 EGL .F              5168:   GROUND LEVEL
 DATE.            9-22-78:   RUN DATE
 RUN .                  1:   RUN NUMBER
 DD  .F               510:   DEPTH DRILLER
 DL  .F               517:   DEPTH LOGGER
 BLI .F               510:   BOTTOM LOG INTERVAL
 TLI .F                40:   TOP LOG INTERVAL
 CS  .IN            8.625:   CASING SIZE
 CBD .F                40:   CASING BOTTOM DRILLER
 CBL .F                48:   CASING BOTTOM LOGGER
 BS  .IN            7.875:   BIT SIZE
 BSD .F               510:   BIT SIZE AT DEPTH
 DFT .            KCL MUD:   DRILLING FLUID TYPE
 DFD .                8.7:   DRILLING FLUID DENSITY
 DFV .                 39:   DRILLING FLUID VISCOSITY
 DFPH.                  9:   DRILLING FLUID PH
 DFL .                8.9:   DRILLING FLUID LOSS
 MSS .          FLOW LINE:   MUD SAMPLE SOURCE
 RMS .OHMM            .32:   RESISTIVITY MUD SAMPLE
 MST .F                68:   MUD SAMPLE TEMPERATURE
 RMF .OHMM            .26:   RESISTIVITY MUD FILTRATE SAMPLE
 MFST.F                72:   MUD FILTRATE SAMPLE TEMPERATURE
 RMC .OHMM            .28:   RESISTIVITY MUD CAKE
 MCST.F                75:   MUD CAKE SAMPLE TEMPERATURE
 MFSS.               MEAS:   MUD FILTRATE SAMPLE SOURCE
 MCSS.               MEAS:   MUD CAKE SAMPLE SOURCE
 RMB .OHMM            .32:   RESISTIVITY MUD AT BHT
 BHT .F                69:   BOTTOM HOLE TEMPERATURE
 TCS .HRS               3:   TIME CURCULATED STOPPED
 MRT .F                69:   MAXIMUM RECORDED TEMPERATURE
 LUN .               2958:   LOGGING UNIT NUMBER
 LUL .               CASP:   LOGGING UNIT LOCATION
 ENGI.           REYNOLDS:   RECORDING ENGINEER
 WITN.              AMEND:   WITNESSED BY
 CLNT.            A2DTECH:   CLIENT CODE
 ORIG.           5" PRINT:   ORIGIN OF DATA
 UWI .       490251069000:   UNIQUE WELL ID
 DICO. A2D Technologies, Inc.:   DIGITIZING COMPANY
~OTHER INFORMATION
~A   DEPT      SPR        ILD         SN       CALD         GRD      CORR        DEN       DPHI   
# ...
  190.5000   -58.6640     6.6891     7.0747     7.9562   123.6522     0.0170     2.4768     0.1159
  191.0000   -58.5149     7.1044     7.5167     7.9511   122.7691     0.0201     2.4834     0.1163
  191.5000   -58.3663     7.5450     7.9420     7.9460   118.5337     0.0239     2.4818     0.1166
  192.0000   -58.1929     7.8671     8.0700     7.9408   114.4398     0.0276     2.4798     0.1169
  192.5000   -57.9671     7.9148     8.1905     7.9357   110.3196     0.0314     2.4785     0.1173
  193.0000   -57.8689     7.9824     8.3128     7.9306   108.6108     0.0310     2.4796     0.1180
  193.5000   -57.8742     8.0505     8.4369     7.9256   108.6184     0.0258     2.4810     0.1215
  194.0000   -58.0989     8.1193     8.5629     7.9205   110.3868     0.0206     2.4823     0.1249
  194.5000   -58.9600     8.1887     8.6908     7.9128   123.7595     0.0157     2.4783     0.1283
  195.0000   -59.3099     8.2584     8.8205     7.8840   122.2658     0.0184     2.4609     0.1318
  195.5000   -59.6754     8.3155     8.9533     7.8548   118.1677     0.0206     2.4526     0.1326
  196.0000   -60.0446     8.2464     8.9616     7.8257   114.1647     0.0226     2.4567     0.1284
  196.5000   -60.2609     8.1888     8.9721     7.7969   110.4584     0.0247     2.4677     0.1229
  197.0000   -60.2587     8.1315     8.9826     7.7714   110.3721     0.0238     2.4786     0.1175
  197.5000   -60.2592     8.0843     8.9931     7.7468   111.4805     0.0221     2.4892     0.1120
  198.0000   -60.2590     8.0678     9.0036     7.7713   119.8609     0.0204     2.4937     0.1094
  198.5000   -60.2590     8.0515     9.0141     7.7964   118.7399     0.0190     2.4848     0.1185
  199.0000   -60.2590     8.0351     9.0247     7.8242   117.6433     0.0193     2.4769     0.1159
  199.5000   -60.2590     8.0188     9.0352     7.8394   117.7453     0.0197     2.4813     0.1133
  200.0000   -60.2590     8.0025     9.0458     7.8542   117.2744     0.0202     2.4873     0.1106
  200.5000   -60.2590     7.9863     9.0564     7.8690   115.9702     0.0206     2.4932     0.1080
  201.0000   -60.2590     7.9702     9.0669     7.8836   113.9108     0.0211     2.4992     0.1054
  201.5000   -60.2590     7.9544     9.0775     7.8968   110.7294     0.0216     2.5052     0.1027
  202.0000   -60.2590     7.9400     9.0882     7.9212   111.4872     0.0220     2.4993     0.1160
  202.5000   -60.2590     7.7925     9.0988     7.9471   113.1138     0.0225     2.4860     0.1178
  203.0000   -60.2590     7.6399     9.1093     7.9729   114.5604     0.0230     2.4795     0.1159
  203.5000   -60.2590     7.4903     9.1206     7.9988   113.9455     0.0224     2.4792     0.1138
  204.0000   -60.2590     7.3437     9.1041     8.0246   113.6443     0.0216     2.4856     0.1134
  204.5000   -60.2590     7.1999     9.0639     8.0504   115.6223     0.0209     2.4878     0.1154
  205.0000   -60.2590     7.0907     9.0237     8.0761   115.9835     0.0201     2.4868     0.1182
  205.5000   -60.2590     6.9904     8.9836     8.1019   116.1817     0.0194     2.4855     0.1209
  206.0000   -60.2588     6.8919     8.9533     8.1278   120.7657     0.0187     2.4781     0.1300
  206.5000   -60.2581     6.7955     8.6668     8.1538   123.1563     0.0179     2.4613     0.1403
  207.0000   -60.2594     6.7237     8.4009     8.1769   121.6032     0.0172     2.4447     0.1483
  207.5000   -60.3249     6.4995     8.3155     8.1575   120.0639     0.0165     2.4296     0.1512
  208.0000   -60.6137     6.2961     8.1556     8.1367   119.7526     0.0157     2.4262     0.1541
  208.5000   -60.8921     6.0991     8.0352     8.1159   120.4380     0.0150     2.4224     0.1570
  209.0000   -61.1702     5.9083     7.9166     8.0968   121.1317     0.0142     2.4133     0.1766
  209.5000   -61.4477     5.6692     7.7997     8.1014   119.8280     0.0135     2.3976     0.1960
  210.0000   -61.7270     5.0936     7.5398     8.1068   115.3096     0.0143     2.3589     0.2156
  210.5000   -61.9011     4.5765     7.0196     8.1120   110.7965     0.0197     2.3215     0.2318
  211.0000   -61.9929     4.1118     6.5353     8.1125   109.3251     0.0248     2.2838     0.2424
  211.5000   -61.9725     3.6944     6.0843     8.0866   108.5581     0.0299     2.2461     0.2528
  212.0000   -61.7391     3.3193     5.6647     8.0599   108.1136     0.0325     2.2092     0.2630
  212.5000   -61.3942     2.9823     5.2742     8.1063   105.5658     0.0298     2.1895     0.2418
  213.0000   -60.7150     2.9536     4.9089     8.1147   104.9638     0.0271     2.2772     0.2161
  213.5000   -60.0436     2.9527     4.4959     8.0812   105.7243     0.0245     2.3395     0.1903
  214.0000   -59.3702     3.0017     4.0745     8.0480   112.3037     0.0218     2.4032     0.1646
  214.5000   -58.7054     3.0951     3.6926     8.0151   117.5733     0.0191     2.4315     0.1389
  215.0000   -58.2306     3.1904     3.3467     7.9817   114.8264     0.0170     2.4495     0.1236
  215.5000   -58.1189     3.4144     3.2715     7.9759   112.2201     0.0170     2.4682     0.1194
  216.0000   -57.9973     3.8704     3.3726     7.9759   109.8045     0.0159     2.4772     0.1228
  216.5000   -57.8730     4.3874     3.4930     7.9759   109.9608     0.0150     2.4729     0.1260
  217.0000   -58.1331     4.9733     3.7803     7.9759   112.3824     0.0150     2.4673     0.1274
  217.5000   -58.4292     5.6937     4.2738     7.9759   121.4719     0.0155     2.4617     0.1274
  218.0000   -58.7281     5.8823     4.8318     7.9759   128.6731     0.0164     2.4625     0.1262
  218.5000   -58.8816     6.0740     5.3589     7.9759   129.5531     0.0173     2.4639     0.1250
  219.0000   -58.9201     6.1304     5.8840     7.9757   129.4662     0.0181     2.4653     0.1265
  219.5000   -58.9561     6.1304     6.4607     7.9771   124.5285     0.0193     2.4656     0.1281
  220.0000   -58.9917     6.1304     6.7121     8.0045   119.6219     0.0263     2.4635     0.1296
  220.5000   -59.0273     6.1304     6.9127     8.0317   116.2723     0.0334     2.4611     0.1311
  221.0000   -59.0713     6.1304     7.1069     8.0586   118.5291     0.0350     2.4588     0.1326
  221.5000   -59.2571     6.0653     7.1268     8.0855   122.7576     0.0350     2.4566     0.1451
  222.0000   -58.3428     5.9628     7.1515     8.0881   124.2778     0.0346     2.4386     0.1608
  222.5000   -57.2997     5.6968     7.1763     8.0683   124.0846     0.0482     2.4110     0.1765
  223.0000   -57.1114     5.3920     7.2012     8.0484   124.5078     0.0575     2.3828     0.1822
  223.5000   -56.9272     5.1034     7.2262     8.0286   124.9070     0.0589     2.3721     0.1730
  224.0000   -57.0745     4.9559     7.2395     8.0087   125.3683     0.0463     2.3850     0.1602
  224.5000   -57.3676     4.9570     6.8713     7.9889   121.3869     0.0322     2.4109     0.1470
  225.0000   -57.6646     4.9305     6.5458     7.9690   118.8082     0.0192     2.4357     0.1460
  225.5000   -57.8646     4.9063     6.2356     7.9492   119.3967     0.0184     2.4387     0.1423
  226.0000   -56.9421     4.8822     5.9401     7.9293   118.5928     0.0169     2.4457     0.1349
  226.5000   -55.9181     4.8662     5.6413     7.9097   117.8170     0.0164     2.4595     0.1275
  227.0000   -55.6514     4.9113     5.6413     7.8955   118.3987     0.0160     2.4733     0.1201
  227.5000   -55.4121     5.0824     5.6413     7.8863   119.5161     0.0156     2.4876     0.1126
  228.0000   -55.1324     5.3125     5.6937     7.8571   120.7061     0.0152     2.4905     0.1094
  228.5000   -55.1862     5.5530     5.9089     7.8282   116.1583     0.0149     2.4936     0.1096
  229.0000   -55.3226     5.8045     6.1387     7.7992   110.4867     0.0153     2.4985     0.1122
  229.5000   -55.4610     6.0673     6.3775     7.7702   107.9039     0.0228     2.4891     0.1223
  230.0000   -55.5979     6.3420     6.6256     7.7556   113.4375     0.0304     2.4749     0.1324
  230.5000   -55.6783     6.6296     6.8833     7.7716   123.4117     0.0372     2.4605     0.1350
