~VERSION INFORMATION
 VERS.                2.0:   CWLS LOG ASCII STANDARD - VERSION 2.0
 WRAP.                 NO:   ONE LINE PER DEPTH STEP
~WELL INFORMATION
#MNEM.UNIT      DATA TYPE    INFORMATION
#----------   ------------   ------------------------------
 STRT.F           30.5000:   START DEPTH
 STOP.F          674.0000:   STOP DEPTH
 STEP.F            0.5000:   STEP LENGTH
 NULL.          -999.2500:   NO VALUE
 COMP. FENIX & SCISSON INC:   COMPANY
 WELL. NPR 3 #37 SX 34-34:   WELL
 FLD .        TEAPOT DOME:   FIELD
 LOC .      S34 T39N R78W:   LOCATION
 CNTY.            NATRONA:   COUNTY
 STAT.            WYOMING:   STATE
 CTRY. UNITED STATES OF AMERICA:   COUNTRY
 SRVC.           BIRDWELL:   SERVICE COMPANY
 DATE.        21-JAN-1979:   LOGDATE
 API .       490251074400:   API NUMBER
~CURVE INFORMATION
#MNEM.UNIT       API CODE    CURVE DESCRIPTION
#----------   ------------   ------------------------------
 DEPT.F                  :   
 SPR .MV     05 010 01 00:   SPONTANEOUS POTENTIAL FROM RES.
 SN  .OHMM   05 040 16 00:   SHORT NORMAL 16"
 IL  .OHMM   05 120 00 00:   INDUCTION LOG
 CALD.IN     45 280 60 00:   CALIPER
 GRD .GAPI   45 310 01 00:   GAMMA RAY FROM DENSITY LOG
 RHOB.G/C3   45 350 01 00:   BULK DENSITY
 DPHI.DEC    45 890 12 00:   DENSITY POROSITY SANDSTONE
 CORR.G/C3   45 356 01 00:   DENSITY CORRECTION
~PARAMETER INFORMATION
#MNEM.UNIT          VALUE    DESCRIPTION
#----------   ------------   ------------------------------
 PD  .                 GL:   PERMANENT DATUM
 EPD .F              5175:   ELEVATION PERMANENT DATUM
 LMF .                 KB:   LOG MEASURED FROM
 DAPD.F                 4:   FEET ABOVE PERMANENT DATUM
 DMF .                 KB:   DRILLING MEASURED FROM
 EKB .F              5179:   KELLING BUSHING
 EGL .F              5175:   GROUND LEVEL
 DATE.            1-21-79:   RUN DATE
 RUN .                  1:   RUN NUMBER
 DD  .F               674:   DEPTH DRILLER
 DL  .F               673:   DEPTH LOGGER
 BLI .F               666:   BOTTOM LOG INTERVAL
 TLI .F                40:   TOP LOG INTERVAL
 CS  .IN            8.625:   CASING SIZE
 CBD .F                40:   CASING BOTTOM DRILLER
 CBL .F                30:   CASING BOTTOM LOGGER
 BS  .IN            7.875:   BIT SIZE
 BSD .F               674:   BIT SIZE AT DEPTH
 DFT .                KCL:   DRILLING FLUID TYPE
 DFD .                8.8:   DRILLING FLUID DENSITY
 DFV .                 60:   DRILLING FLUID VISCOSITY
 DFPH.                9.5:   DRILLING FLUID PH
 DFL .                  8:   DRILLING FLUID LOSS
 MSS .           FLOWLINE:   MUD SAMPLE SOURCE
 RMS .OHMM            .23:   RESISTIVITY MUD SAMPLE
 MST .F                56:   MUD SAMPLE TEMPERATURE
 MFSS.           MEASURED:   MUD FILTRATE SAMPLE SOURCE
 MCSS.           MEASURED:   MUD CAKE SAMPLE SOURCE
 RMB .OHMM            .22:   RESISTIVITY MUD AT BHT
 BHT .F                60:   BOTTOM HOLE TEMPERATURE
 TCS .HRS               4:   TIME CURCULATED STOPPED
 MRT .F                60:   MAXIMUM RECORDED TEMPERATURE
 LUN .               3006:   LOGGING UNIT NUMBER
 LUL .             CASPER:   LOGGING UNIT LOCATION
 ENGI.            ROLLINS:   RECORDING ENGINEER
 WITN.           DINSMORE:   WITNESSED BY
 CLNT.            A2DTECH:   CLIENT CODE
 ORIG.       2", 5" PRINT:   ORIGIN OF DATA
 UWI .       490251074400:   UNIQUE WELL ID
 DICO. A2D Technologies, Inc.:   DIGITIZING COMPANY
~OTHER INFORMATION
~A   DEPT      SPR         SN         IL       CALD        GRD       RHOB       DPHI       CORR   
# ...
  516.5000   -40.0040    10.0940    12.1570     7.9940    86.1680     2.4050     0.1640     0.0080
  517.0000   -40.0220    10.0760    12.1570     7.9860    83.3870     2.4070     0.1600     0.0060
  517.5000   -40.0400    10.0580    12.1570     7.9790    84.4690     2.4080     0.1590     0.0040
  518.0000   -40.0570    10.0400    12.1570     7.9720    88.3540     2.4090     0.1600     0.0060
  518.5000   -40.0750    10.0220    12.1570     7.9640    88.3000     2.4110     0.1650     0.0070
  519.0000   -40.0930    10.0030    12.1570     7.9570    87.7430     2.4080     0.1680     0.0130
  519.5000   -40.1100     9.9850    12.1560     7.9550    89.0110     2.4010     0.1640     0.0210
  520.0000   -40.1280     9.9670    12.1570     7.9540    89.6540     2.4020     0.1580     0.0280
  520.5000   -40.1460     9.9490    12.1570     7.9520    89.3130     2.4110     0.1510     0.0290
  521.0000   -40.1640     9.9310    12.0760     7.9510    87.9230     2.4190     0.1470     0.0300
  521.5000   -40.1790     9.9130    11.9190     7.9490    86.0160     2.4280     0.1470     0.0380
  522.0000   -40.1640     9.8950    11.7620     7.9480    85.5240     2.4320     0.1470     0.0460
  522.5000   -40.1490     9.8760    11.6050     7.9460    85.4230     2.4340     0.1460     0.0530
  523.0000   -40.1330     9.8580    11.3970     7.9450    85.3350     2.4350     0.1440     0.0520
  523.5000   -40.1180     9.8400    11.4050     7.9430    85.2490     2.4360     0.1420     0.0450
  524.0000   -40.1030     9.8220    11.4180     7.9410    85.1860     2.4370     0.1410     0.0400
  524.5000   -40.0870     9.8040    11.4300     7.9400    85.2970     2.4400     0.1400     0.0370
  525.0000   -40.0720     9.7860    11.4430     7.9380    85.7030     2.4430     0.1390     0.0340
  525.5000   -40.0570     9.7680    11.4550     7.9360    87.4830     2.4460     0.1390     0.0310
  526.0000   -40.0410     9.7430    11.4680     7.9480    89.0500     2.4480     0.1380     0.0280
  526.5000   -40.0260     9.7450    11.4800     7.9610    89.9590     2.4480     0.1380     0.0260
  527.0000   -40.0100     9.7490    11.4930     7.9740    90.1400     2.4480     0.1390     0.0260
  527.5000   -39.9950     9.7530    11.5050     7.9870    90.2900     2.4480     0.1400     0.0250
  528.0000   -39.9800     9.7560    11.5170     7.9960    90.5830     2.4480     0.1400     0.0250
  528.5000   -39.9640     9.7600    11.5300     7.9880    91.4490     2.4480     0.1390     0.0250
  529.0000   -39.9490     9.7640    11.5420     7.9810    92.1350     2.4480     0.1390     0.0240
  529.5000   -39.9340     9.7670    11.5550     7.9740    90.6750     2.4470     0.1380     0.0240
  530.0000   -39.9180     9.7710    11.5670     7.9660    88.1820     2.4470     0.1390     0.0230
  530.5000   -39.9030     9.7750    11.5800     7.9590    85.6680     2.4460     0.1440     0.0220
  531.0000   -39.8870     9.7780    11.5920     7.9520    84.4880     2.4440     0.1450     0.0210
  531.5000   -39.8720     9.7820    11.6050     7.9440    84.0130     2.4380     0.1410     0.0200
  532.0000   -39.8570     9.7860    11.6090     7.9370    83.5330     2.4370     0.1390     0.0190
  532.5000   -39.8410     9.7890    11.6090     7.9380    83.0030     2.4430     0.1400     0.0180
  533.0000   -39.8260     9.7930    11.6080     7.9390    84.8000     2.4450     0.1410     0.0170
  533.5000   -39.8100     9.7970    11.6090     7.9410    87.1200     2.4430     0.1420     0.0160
  534.0000   -39.7960     9.8000    11.5530     7.9420    88.7070     2.4420     0.1420     0.0150
  534.5000   -39.7830     9.8040    11.4600     7.9440    88.3830     2.4420     0.1410     0.0140
  535.0000   -39.7510     9.8080    11.3660     7.9450    87.8220     2.4420     0.1400     0.0130
  535.5000   -38.9630     9.8110    11.2720     7.9470    87.8570     2.4420     0.1360     0.0120
  536.0000   -38.1550     9.8150    11.1780     7.9480    91.4480     2.4480     0.1280     0.0110
  536.5000   -37.3500     9.8190    11.0850     7.9500    95.1310     2.4560     0.1270     0.0110
  537.0000   -36.5460     9.8230    10.9910     7.9510    97.5260     2.4640     0.1280     0.0190
  537.5000   -35.7420     9.8260    10.8970     7.9530    97.4930     2.4660     0.1300     0.0270
  538.0000   -34.9380     9.8300    10.8670     7.9540    93.8580     2.4640     0.1390     0.0320
  538.5000   -34.1390     9.8340    10.8480     7.9560    93.6240     2.4510     0.1370     0.0350
  539.0000   -33.5500     9.9220    10.8290     7.9600    94.4880     2.4490     0.1370     0.0370
  539.5000   -33.5400    10.0180    10.8100     7.9720    95.6280     2.4500     0.1390     0.0400
  540.0000   -33.5180    10.1140    10.7860     7.9850    99.2810     2.4480     0.1440     0.0420
  540.5000   -33.4950    10.2100    10.9840     7.9970   102.2590     2.4420     0.1470     0.0430
  541.0000   -33.4730    10.2980    11.3010     7.9970   101.9140     2.4350     0.1430     0.0250
  541.5000   -33.4510    10.8440    11.6170     7.9970    96.8080     2.4320     0.1360     0.0080
  542.0000   -33.4300    11.3470    12.2600     7.9970    88.1800     2.4440     0.1300    -0.0040
  542.5000   -33.4080    11.8500    13.5240     7.9970    86.2700     2.4580     0.1230     0.0100
  543.0000   -33.3860    12.3540    14.7880     7.9870    83.7130     2.4640     0.1220     0.0260
  543.5000   -33.3640    12.8570    16.0570     7.9680    76.0420     2.4690     0.1350     0.0140
  544.0000   -33.3420    13.3600    17.3390     7.9500    71.8480     2.4730     0.1560     0.0150
  544.5000   -33.3200    13.7050    18.6200     7.9410    73.6840     2.4550     0.1920     0.0200
  545.0000   -33.2980    13.7050    19.9020     7.9630    75.5900     2.4050     0.2320     0.0240
  545.5000   -33.2770    13.7050    21.0570     7.9840    75.6480     2.3310     0.2440     0.0240
  546.0000   -33.2550    13.7050    21.5310     7.9670    75.9280     2.2780     0.2380     0.0230
  546.5000   -33.2330    13.6830    21.0010     7.8810    76.5730     2.2690     0.2280     0.0230
  547.0000   -33.2110    13.5980    20.4850     7.8470    78.2590     2.2860     0.2210     0.0230
  547.5000   -33.1890    13.5140    19.9690     7.8370    79.8000     2.3020     0.2190     0.0220
  548.0000   -33.1700    13.4290    19.6350     7.8410    84.0190     2.3060     0.2190     0.0220
  548.5000   -33.2770    13.3440    19.7450     7.8440    86.8610     2.3080     0.2210     0.0220
  549.0000   -33.3920    13.2590    19.8260     7.8470    85.1380     2.3070     0.2230     0.0210
  549.5000   -33.5080    13.1750    19.9070     7.8510    83.0080     2.3050     0.2260     0.0210
  550.0000   -33.6230    13.0900    19.9890     7.8540    80.3270     2.3040     0.2240     0.0210
  550.5000   -33.7380    13.0050    20.0700     7.8360    75.0030     2.3050     0.2230     0.0200
  551.0000   -33.8530    12.9570    20.1850     7.7980    70.4270     2.3050     0.2260     0.0200
  551.5000   -33.9690    12.9290    20.0040     7.7770    71.0160     2.2990     0.2340     0.0170
  552.0000   -34.0840    12.9010    19.6940     7.7800    71.5690     2.2920     0.2360     0.0120
  552.5000   -34.2000    12.8720    19.3830     7.7830    72.6450     2.2860     0.2170     0.0130
  553.0000   -34.3150    12.8440    19.0730     7.7860    75.3550     2.2870     0.2030     0.0140
  553.5000   -34.4300    12.8160    18.9060     7.7890    77.8950     2.3180     0.1990     0.0150
  554.0000   -34.5460    12.7880    18.8720     7.7920    83.8020     2.3420     0.2050     0.0160
  554.5000   -34.6610    12.7590    18.8390     7.7950    85.1400     2.3400     0.2120     0.0180
  555.0000   -34.7690    12.7310    18.8050     7.7740    82.8500     2.3240     0.2140     0.0200
  555.5000   -34.8190    12.7030    18.7710     7.7500    80.9810     2.3190     0.2140     0.0220
  556.0000   -34.8650    12.6750    18.7380     7.7310    81.2820     2.3180     0.2140     0.0220
  556.5000   -34.9120    12.6470    18.7040     7.7200    81.6950     2.3180     0.2140     0.0220
