~VERSION INFORMATION
 VERS.                2.0:   CWLS LOG ASCII STANDARD - VERSION 2.0
 WRAP.                 NO:   ONE LINE PER DEPTH STEP
~WELL INFORMATION
#MNEM.UNIT      DATA TYPE    INFORMATION
#----------   ------------   ------------------------------
 STRT.F           33.5000:   START DEPTH
 STOP.F          692.0000:   STOP DEPTH
 STEP.F            0.5000:   STEP LENGTH
 NULL.          -999.2500:   NO VALUE
 COMP. FENIX & SCISSON INC:   COMPANY
 WELL.       NPR-3 #65-34:   WELL
 FLD .  TEAPOT DOME NPR-3:   FIELD
 LOC .      S34 T39N R78W:   LOCATION
 CNTY.            NATRONA:   COUNTY
 STAT.            WYOMING:   STATE
 CTRY. UNITED STATES OF AMERICA:   COUNTRY
 SRVC.           BIRDWELL:   SERVICE COMPANY
 DATE.        14-AUG-1978:   LOGDATE
 API .       490251070400:   API NUMBER
~CURVE INFORMATION
#MNEM.UNIT       API CODE    CURVE DESCRIPTION
#----------   ------------   ------------------------------
 DEPT.F                  :   
 CALD.IN     45 280 60 00:   CALIPER
 GRD .GAPI   45 310 01 00:   GAMMA RAY FROM DENSITY LOG
 RHOB.G/C3   45 350 01 00:   BULK DENSITY
 CORR.G/C3   45 356 01 00:   DENSITY CORRECTION
 DPHI.DEC    45 890 12 00:   DENSITY POROSITY SANDSTONE
 SPR .MV     05 010 01 00:   SPONTANEOUS POTENTIAL
 SN  .OHMM   05 040 16 00:   SHORT NORMAL 16'
 ILD .OHMM   05 120 46 00:   INDUCTION LOG DEEP RESISTIVITY
~PARAMETER INFORMATION
#MNEM.UNIT          VALUE    DESCRIPTION
#----------   ------------   ------------------------------
 PD  .                 GL:   PERMANENT DATUM
 EPD .F              5083:   ELEVATION PERMANENT DATUM
 LMF .                 KB:   LOG MEASURED FROM
 DAPD.F                 4:   FEET ABOVE PERMANENT DATUM
 DMF .                 KB:   DRILLING MEASURED FROM
 EKB .F              5087:   KELLING BUSHING
 EGL .F              5083:   GROUND LEVEL
 DATE.            8-14-78:   RUN DATE
 RUN .                  1:   RUN NUMBER
 DD  .F               675:   DEPTH DRILLER
 DL  .F               682:   DEPTH LOGGER
 BLI .F               676:   BOTTOM LOG INTERVAL
 TLI .F                50:   TOP LOG INTERVAL
 CS  .IN            8.625:   CASING SIZE
 CBD .F                40:   CASING BOTTOM DRILLER
 BS  .IN            7.875:   BIT SIZE
 BSD .F               675:   BIT SIZE AT DEPTH
 DFT .                KCL:   DRILLING FLUID TYPE
 DFD .                8.7:   DRILLING FLUID DENSITY
 DFV .                 31:   DRILLING FLUID VISCOSITY
 DFPH.                  9:   DRILLING FLUID PH
 TCS .HRS               2:   TIME CURCULATED STOPPED
 LUN .               3006:   LOGGING UNIT NUMBER
 LUL .               CASP:   LOGGING UNIT LOCATION
 ENGI.             MILLER:   RECORDING ENGINEER
 WITN.           MCGINLEY:   WITNESSED BY
 CLNT.            A2DTECH:   CLIENT CODE
 ORIG.           5" PRINT:   ORIGIN OF DATA
 UWI .       490251070400:   UNIQUE WELL ID
 DICO. A2D Technologies, Inc.:   DIGITIZING COMPANY
~OTHER INFORMATION
~A   DEPT     CALD         GRD      RHOB       CORR       DPHI        SPR         SN        ILD   
# ...
  236.0000     8.0341    79.8677     2.4820     0.0399     0.1213   -23.9708     5.8681     6.5658
  236.5000     8.0341    77.6228     2.4781     0.0418     0.1205   -23.9492     5.8681     6.5712
  237.0000     8.0341    76.4002     2.4790     0.0437     0.1183   -23.9278     5.8681     6.5766
  237.5000     8.0341    80.9486     2.4827     0.0436     0.1162   -23.9056     5.8681     6.5820
  238.0000     8.0341    82.8605     2.4830     0.0364     0.1289   -23.8372     5.8681     6.5874
  238.5000     8.0341    81.4113     2.4717     0.0294     0.1320   -23.6621     5.8681     6.5928
  239.0000     8.0341    79.8813     2.4578     0.0224     0.1349   -23.4886     5.8677     6.5982
  239.5000     8.0341    79.0205     2.4538     0.0206     0.1349   -23.3151     5.8845     6.6037
  240.0000     8.0341    79.4307     2.4558     0.0215     0.1347   -23.1404     5.9061     6.6091
  240.5000     8.0341    79.8593     2.4550     0.0225     0.1355   -23.0489     5.9278     6.6146
  241.0000     8.0341    81.7923     2.4536     0.0235     0.1368   -22.9953     5.9496     6.6153
  241.5000     8.0340    82.9066     2.4530     0.0245     0.1353   -22.9422     5.9714     6.6153
  242.0000     8.0321    83.7307     2.4550     0.0255     0.1338   -22.8888     5.9934     6.6153
  242.5000     8.0268    84.5634     2.4552     0.0265     0.1333   -22.8355     6.0154     6.6153
  243.0000     8.0216    84.4686     2.4546     0.0274     0.1349   -22.7820     6.0375     6.6153
  243.5000     8.0164    84.4033     2.4539     0.0284     0.1356   -22.7285     6.0596     6.6153
  244.0000     8.0112    85.1870     2.4560     0.0294     0.1320   -22.6800     6.0869     6.6153
  244.5000     8.0059    86.0625     2.4598     0.0296     0.1293   -22.6813     6.0770     6.6153
  245.0000     8.0007    85.6502     2.4626     0.0288     0.1310   -22.6814     6.0604     6.6153
  245.5000     7.9955    83.9678     2.4613     0.0279     0.1312   -22.6814     6.0439     6.6153
  246.0000     7.9902    83.6793     2.4617     0.0271     0.1290   -22.6814     6.0275     6.6153
  246.5000     7.9850    83.9072     2.4650     0.0263     0.1249   -22.6814     6.0111     6.6153
  247.0000     7.9797    84.6533     2.4682     0.0255     0.1268   -22.6815     5.9947     6.6154
  247.5000     7.9742    85.3884     2.4675     0.0246     0.1291   -22.6815     5.9774     6.6156
  248.0000     7.9850    86.1145     2.4663     0.0244     0.1305   -22.6814     5.9244     6.5704
  248.5000     7.9976    86.6139     2.4650     0.0284     0.1274   -22.6791     5.8682     6.5101
  249.0000     8.0102    86.5563     2.4689     0.0323     0.1188   -22.6731     5.8125     6.4502
  249.5000     8.0227    84.9400     2.4757     0.0358     0.1102   -22.6671     5.7609     6.3910
  250.0000     8.0353    81.8897     2.4738     0.0341     0.1074   -22.6611     5.7524     6.3323
  250.5000     8.0478    78.8995     2.4618     0.0324     0.1353   -22.6551     5.7445     6.2736
  251.0000     8.0604    78.1810     2.4546     0.0306     0.1349   -22.6491     5.7365     6.2570
  251.5000     8.0730    80.2048     2.4507     0.0289     0.1393   -22.6431     5.7286     6.2523
  252.0000     8.0855    82.7233     2.4469     0.0296     0.1393   -22.6371     5.7207     6.2480
  252.5000     8.0981    84.6309     2.4440     0.0334     0.1437   -22.6311     5.7128     6.2435
  253.0000     8.1111    84.5875     2.4520     0.0372     0.1370   -22.6251     5.7049     6.2391
  253.5000     8.1153    86.1510     2.4526     0.0410     0.1324   -22.6191     5.6971     6.2346
  254.0000     8.1167    84.3757     2.4552     0.0448     0.1278   -22.6131     5.6892     6.2302
  254.5000     8.1181    82.1412     2.4662     0.0487     0.1268   -22.6071     5.6813     6.2258
  255.0000     8.1196    82.3851     2.4676     0.0499     0.1278   -22.6011     5.6735     6.2213
  255.5000     8.1210    83.1646     2.4672     0.0499     0.1275   -22.5951     5.6657     6.2169
  256.0000     8.1224    82.2669     2.4668     0.0499     0.1263   -22.5891     5.6560     6.2125
  256.5000     8.1239    81.0195     2.4665     0.0499     0.1253   -22.5831     5.6705     6.2081
  257.0000     8.1253    80.5452     2.4661     0.0500     0.1284   -22.5771     5.6914     6.2038
  257.5000     8.1268    80.0453     2.4658     0.0517     0.1305   -22.5711     5.7123     6.2013
  258.0000     8.1282    79.0908     2.4678     0.0534     0.1274   -22.5651     5.7333     6.2713
  258.5000     8.1297    77.4735     2.4751     0.0597     0.1190   -22.5591     5.7543     6.3298
  259.0000     8.1311    76.1493     2.4824     0.0662     0.1190   -22.5531     5.7744     6.3887
  259.5000     8.1325    77.1858     2.4849     0.0673     0.1170   -22.5471     5.7941     6.4482
  260.0000     8.1339    80.1991     2.4898     0.0685     0.1137   -22.5411     5.8139     6.5083
  260.5000     8.1403    82.3188     2.4962     0.0697     0.1110   -22.5351     5.8338     6.5689
  261.0000     8.1479    80.5024     2.4968     0.0710     0.1126   -22.5291     5.8535     6.6153
  261.5000     8.1555    79.7889     2.4958     0.0722     0.1143   -22.5231     5.8681     6.6122
  262.0000     8.1631    81.7067     2.4948     0.0734     0.1142   -22.5171     5.8287     6.6010
  262.5000     8.1707    83.4907     2.4949     0.0746     0.1109   -22.5111     5.7979     6.5897
  263.0000     8.1784    82.0591     2.4958     0.0759     0.1088   -22.5051     5.7673     6.5785
  263.5000     8.1860    80.4005     2.4983     0.0803     0.1043   -22.4991     5.7368     6.5674
  264.0000     8.1936    78.8874     2.5093     0.0851     0.0999   -22.4931     5.7065     6.5571
  264.5000     8.2012    78.7911     2.5177     0.0877     0.0970   -22.4871     5.6760     6.5044
  265.0000     8.2088    82.1149     2.5172     0.0872     0.0970   -22.4810     5.6558     6.4468
  265.5000     8.2164    84.2244     2.5168     0.0867     0.0970   -22.4798     5.6763     6.3894
  266.0000     8.2241    82.4598     2.5143     0.0862     0.1028   -22.4798     5.6923     6.3325
  266.5000     8.2317    79.6382     2.5025     0.0840     0.1104   -22.4798     5.7084     6.2762
  267.0000     8.2344    80.0955     2.4912     0.0744     0.1162   -22.4798     5.7244     6.2203
  267.5000     8.2345    80.5873     2.4865     0.0658     0.1150   -22.4798     5.7405     6.2018
  268.0000     8.2345    80.6870     2.4866     0.0644     0.1144   -22.4798     5.7566     6.2481
  268.5000     8.2345    81.0818     2.4844     0.0609     0.1187   -22.4798     5.7693     6.3404
  269.0000     8.2345    83.1671     2.4816     0.0557     0.1214   -22.4798     5.7808     6.4341
  269.5000     8.2345    85.2398     2.4797     0.0550     0.1203   -22.4798     5.7923     6.5292
  270.0000     8.2345    86.7294     2.4808     0.0541     0.1193   -22.4798     5.8043     6.6256
  270.5000     8.2345    88.0506     2.4819     0.0532     0.1186   -22.4798     5.8148     6.6768
  271.0000     8.2344    88.1672     2.4825     0.0523     0.1196   -22.4798     5.9008     6.6767
  271.5000     8.2318    85.3653     2.4825     0.0514     0.1181   -22.4798     5.9824     6.7696
  272.0000     8.2240    84.3400     2.4826     0.0505     0.1165   -22.4798     6.0511     6.8713
  272.5000     8.2162    85.2917     2.4848     0.0497     0.1163   -22.4799     6.0993     6.9745
  273.0000     8.2084    83.6572     2.4871     0.0488     0.1158   -22.4800     6.1449     6.9915
  273.5000     8.2007    80.7300     2.4859     0.0480     0.1150   -22.4709     6.1309     6.9503
  274.0000     8.1929    78.5101     2.4836     0.0499     0.1170   -22.4593     6.1173     6.9219
  274.5000     8.1851    80.7429     2.4816     0.0520     0.1169   -22.4476     6.1038     6.8937
  275.0000     8.1776    83.0406     2.4834     0.0541     0.1148   -22.4359     6.0905     6.8656
  275.5000     8.1497    82.9910     2.4853     0.0562     0.1138   -22.4242     6.0771     6.8376
  276.0000     8.1101    82.9904     2.4872     0.0578     0.1140   -22.4126     6.0638     6.8098
