~VERSION INFORMATION
 VERS.                2.0:   CWLS LOG ASCII STANDARD - VERSION 2.0
 WRAP.                 NO:   ONE LINE PER DEPTH STEP
~WELL INFORMATION
#MNEM.UNIT      DATA TYPE    INFORMATION
#----------   ------------   ------------------------------
 STRT.F            0.0000:   START DEPTH
 STOP.F          561.0000:   STOP DEPTH
 STEP.F            0.1000:   STEP LENGTH
 NULL.          -999.2500:   NO VALUE
 COMP.       F D SERV INC:   COMPANY
 WELL.  83-1 sx 10 #83-10:   WELL
 FLD .             TEAPOT:   FIELD
 LOC .      S10 T38N R78W:   LOCATION
 CNTY.            NATRONA:   COUNTY
 STAT.            WYOMING:   STATE
 CTRY. UNITED STATES OF AMERICA:   COUNTRY
 SRVC.     Atlas Wireline:   SERVICE COMPANY
 DATE.        10-DEC-1992:   LOGDATE
 API .       490252258000:   API NUMBER
~CURVE INFORMATION
#MNEM.UNIT       API CODE    CURVE DESCRIPTION
#----------   ------------   ------------------------------
 DEPT.F                  :   
 GRR .GAPI   07 310 01 00:   GAMMA RAY
 RILD.OHMM   07 120 46 00:   INDUCTION LOG DEEP RESISTIVITY
 RILM.OHMM   07 120 44 00:   INDUCTION LOG MEDIUM RESISTIVITY
~PARAMETER INFORMATION
#MNEM.UNIT          VALUE    DESCRIPTION
#----------   ------------   ------------------------------
 PD  .                 GL:   PERMANENT DATUM
 EPD .F              5170:   ELEVATION PERMANENT DATUM
 LMF .                 KB:   LOG MEASURED FROM
 DAPD.F                10:   FEET ABOVE PERMANENT DATUM
 DMF .                 KB:   DRILLING MEASURED FROM
 EKB .F              5180:   KELLING BUSHING
 EDF .F              5179:   DRILLING FLOOR
 EGL .F              5170:   GROUND LEVEL
 DATE.        10-DEC-1992:   RUN DATE
 RUN .                  1:   RUN NUMBER
 DD  .F               567:   DEPTH DRILLER
 DL  .F               569:   DEPTH LOGGER
 BLI .F               560:   BOTTOM LOG INTERVAL
 TLI .F                97:   TOP LOG INTERVAL
 CS  .IN            8.625:   CASING SIZE
 CBD .F                97:   CASING BOTTOM DRILLER
 CBL .F                97:   CASING BOTTOM LOGGER
 BS  .IN            7.875:   BIT SIZE
 BSD .F               567:   BIT SIZE AT DEPTH
 DFT .           AIR FOAM:   DRILLING FLUID TYPE
 MRT .F                65:   MAXIMUM RECORDED TEMPERATURE
 LUN .           HL- 6274:   LOGGING UNIT NUMBER
 LUL .             CASPER:   LOGGING UNIT LOCATION
 ENGI.       P. RASMUSSEN:   RECORDING ENGINEER
 WITN.          G. STRONG:   WITNESSED BY
 CLNT.            A2DTECH:   CLIENT CODE
 ORIG.           5" PRINT:   ORIGIN OF DATA
 UWI .       490252258000:   UNIQUE WELL ID
 DICO. A2D Technologies, Inc.:   DIGITIZING COMPANY
~OTHER INFORMATION
~A    DEPT      GRR      RILD       RILM   
# ...
  509.6000   122.9718     9.8193     9.7229
  509.7000   123.2760     9.8853     9.7812
  509.8000   123.2765     9.8856     9.8063
  509.9000   123.4428     9.9284     9.8301
  510.0000   123.5812     9.9883     9.8889
  510.1000   123.5047    10.0485     9.9481
  510.2000   123.2461    10.0966    10.0139
  510.3000   122.9761    10.0992    10.0141
  510.4000   122.4813    10.1683    10.0578
  510.5000   121.5568    10.1686    10.0845
  510.6000   120.8388    10.2114    10.1081
  510.7000   120.3211    10.2730    10.1554
  510.8000   119.8737    10.3129    10.1587
  510.9000   119.5629    10.3248    10.2267
  511.0000   118.7315    10.3870    10.2807
  511.1000   118.2502    10.4593    10.2986
  511.2000   117.7324    10.4597    10.3322
  511.3000   117.5193    10.5025    10.3709
  511.4000   117.4119    10.5658    10.3838
  511.5000   117.2807    10.6081    10.4438
  511.6000   117.5211    10.6191    10.4441
  511.7000   117.5218    10.6834    10.4983
  511.8000   117.7566    10.6839    10.5175
  511.9000   118.0164    10.7371    10.5508
  512.0000   118.4218    10.7596    10.5914
  512.1000   118.7381    10.7913    10.5917
  512.2000   118.8528    10.8359    10.5932
  512.3000   119.3590    10.8458    10.6661
  512.4000   119.6505    10.9127    10.7205
  512.5000   119.8786    10.9133    10.7410
  512.6000   119.9551    10.9137    10.7413
  512.7000   120.0947    10.9141    10.7416
  512.8000   120.3544    10.9146    10.7531
  512.9000   120.5639    10.9150    10.8171
  513.0000   120.5705    10.9236    10.8174
  513.1000   120.8687    10.9924    10.8716
  513.2000   120.8692    10.9929    10.8934
  513.3000   120.8698    10.9934    10.8937
  513.4000   121.0028    11.0343    10.9154
  513.5000   121.0864    11.0713    10.9702
  513.6000   120.7841    11.0718    10.9705
  513.7000   120.2653    11.0792    11.0474
  513.8000   119.6590    11.1503    11.0476
  513.9000   119.2308    11.1508    11.0479
  514.0000   118.5431    11.2023    11.0801
  514.1000   117.8918    11.2698    11.1464
  514.2000   117.3740    11.3090    11.2034
  514.3000   116.7823    11.3095    11.2037
  514.4000   115.7172    11.3157    11.2822
  514.5000   114.8074    11.3897    11.2824
  514.6000   114.1849    11.3902    11.3256
  514.7000   113.8980    11.4414    11.3617
  514.8000   113.7796    11.5104    11.3620
  514.9000   113.5210    11.5518    11.3711
  515.0000   113.2625    11.5685    11.4419
  515.1000   112.9900    11.6337    11.4422
  515.2000   112.7453    11.6343    11.4965
  515.3000   112.4867    11.6970    11.5226
  515.4000   112.2282    11.7675    11.5540
  515.5000   111.9696    11.8384    11.6035
  515.6000   111.7110    11.8825    11.6038
  515.7000   111.4526    11.8982    11.6042
  515.8000   111.1733    11.9667    11.6045
  515.9000   110.9355    11.9673    11.6586
  516.0000   110.6769    12.0304    11.6860
  516.1000   110.5681    12.0521    11.6863
  516.2000   110.5687    12.0911    11.6867
  516.3000   110.6306    12.1376    11.6940
  516.4000   110.8734    12.1522    11.7688
  516.5000   110.8741    12.2237    11.7691
  516.6000   111.1064    12.2242    11.7694
  516.7000   111.3662    12.2247    11.8114
  516.8000   111.7693    12.2252    11.8521
  516.9000   112.1894    12.2257    11.8525
  517.0000   112.5037    12.2262    11.8589
  517.1000   113.0228    12.2267    11.9358
  517.2000   113.6098    12.2272    11.9361
  517.3000   114.0607    12.2278    11.9364
  517.4000   114.5796    12.2283    11.9779
  517.5000   114.9620    12.2288    12.0203
  517.6000   115.3141    12.2654    12.0206
  517.7000   115.7851    12.3155    12.0209
  517.8000   116.0449    12.3160    12.0213
  517.9000   116.3455    12.3165    12.0216
  518.0000   116.3460    12.3172    12.0219
  518.1000   116.1724    12.3176    12.0223
  518.2000   115.9138    12.3181    12.0226
  518.3000   115.7408    12.3186    12.0229
  518.4000   115.7414    12.3191    12.0233
  518.5000   115.7420    12.3196    12.0236
  518.6000   115.4393    12.3202    12.0239
  518.7000   115.2279    12.3917    12.0757
  518.8000   115.1369    12.4075    12.1084
  518.9000   115.0143    12.3621    12.1088
  519.0000   114.7557    12.3222    12.1091
  519.1000   114.4972    12.3227    12.1094
  519.2000   114.2289    12.3232    12.1098
  519.3000   113.9800    12.3238    12.1101
  519.4000   113.7214    12.3243    12.1104
  519.5000   113.4628    12.3248    12.1108
  519.6000   113.2043    12.3253    12.1111
  519.7000   112.9457    12.2942    12.1114
  519.8000   112.6871    12.2406    12.1118
  519.9000   112.4122    12.2411    12.1122
  520.0000   112.1700    12.2416    12.1125
  520.1000   111.9114    12.1750    12.1128
  520.2000   111.6527    12.1574    12.1131
  520.3000   111.2842    12.1579    12.1135
  520.4000   110.8321    12.1585    12.1138
  520.5000   110.5948    12.1590    12.1141
  520.6000   110.8990    12.1595    12.1145
  520.7000   110.8995    12.1600    12.0544
  520.8000   111.2839    12.1605    12.0313
  520.9000   111.6553    12.1610    12.0316
  521.0000   112.0184    12.1615    12.0320
  521.1000   112.4784    12.1337    12.0323
  521.2000   112.7382    12.0779    12.0326
  521.3000   113.0277    12.0784    12.0330
  521.4000   113.2578    12.0790    12.0333
  521.5000   113.5175    12.0794    12.0336
  521.6000   113.7773    12.0799    12.0340
  521.7000   114.0371    12.0415    12.0343
  521.8000   114.2969    11.9969    12.0346
  521.9000   114.5487    11.9974    12.0350
  522.0000   114.5494    11.9979    11.9521
  522.1000   114.5499    11.9984    11.9523
  522.2000   114.5505    11.9989    11.9071
  522.3000   114.5511    11.9994    11.8702
  522.4000   114.5517    11.9999    11.8706
  522.5000   114.5069    12.0004    11.8709
  522.6000   114.2495    12.0009    11.8713
  522.7000   114.2502    12.0014    11.8716
  522.8000   114.0347    11.9185    11.8719
  522.9000   113.9478    11.9189    11.8722
  523.0000   113.9484    11.9194    11.8726
  523.1000   113.9490    11.8844    11.8729
  523.2000   113.9496    11.8374    11.8732
  523.3000   113.9502    11.8266    11.8736
  523.4000   113.9510    11.7560    11.8739
  523.5000   113.9514    11.7566    11.8742
  523.6000   113.9520    11.7570    11.8745
  523.7000   114.0734    11.7575    11.8749
  523.8000   114.3332    11.7580    11.8752
  523.9000   114.6253    11.7585    11.8755
  524.0000   115.1685    11.7590    11.8759
  524.1000   115.9102    11.7595    11.8762
  524.2000   116.4856    11.7601    11.8765
  524.3000   116.8461    11.7605    11.8347
  524.4000   117.2200    11.7610    11.7950
  524.5000   117.6692    11.7615    11.7771
  524.6000   117.9290    11.7620    11.7139
  524.7000   118.2076    11.7624    11.7143
  524.8000   118.4486    11.7630    11.6506
  524.9000   118.7083    11.7634    11.6339
  525.0000   118.8164    11.7639    11.5939
  525.1000   118.9244    11.7644    11.5540
  525.2000   119.1211    11.7341    11.5375
  525.3000   119.1405    11.6835    11.4746
  525.4000   119.4259    11.6771    11.4750
  525.5000   119.6601    11.6032    11.4753
  525.6000   119.9199    11.6037    11.4254
  525.7000   120.1797    11.5517    11.3965
  525.8000   120.4395    11.5239    11.3968
  525.9000   120.6992    11.4956    11.3815
  526.0000   120.9591    11.4447    11.3185
  526.1000   121.2511    11.4452    11.3189
  526.2000   121.2516    11.4457    11.3192
  526.3000   121.2522    11.3842    11.2709
  526.4000   121.2528    11.3670    11.2414
  526.5000   121.1593    11.3289    11.2161
  526.6000   120.9504    11.2620    11.1642
  526.7000   120.9456    11.1954    11.1614
  526.8000   120.6483    11.1331    11.0876
  526.9000   120.4285    11.1337    11.0302
  527.0000   120.1699    11.0752    10.9652
  527.1000   120.0431    11.0098    10.9355
  527.2000   119.9562    10.9448    10.9118
  527.3000   119.7407    10.8801    10.8475
  527.4000   119.7414    10.8292    10.7835
  527.5000   119.4386    10.8272    10.7112
  527.6000   119.2254    10.7548    10.6567
  527.7000   118.7974    10.7552    10.5939
