~VERSION INFORMATION
 VERS.                2.0:   CWLS LOG ASCII STANDARD - VERSION 2.0
 WRAP.                 NO:   ONE LINE PER DEPTH STEP
~WELL INFORMATION
#MNEM.UNIT      DATA TYPE    INFORMATION
#----------   ------------   ------------------------------
 STRT.F           32.0000:   START DEPTH
 STOP.F          517.0000:   STOP DEPTH
 STEP.F            0.5000:   STEP LENGTH
 NULL.          -999.2500:   NO VALUE
 COMP.    FENIX & SCISSON:   COMPANY
 WELL.        NPR #75-S-3:   WELL
 FLD .             TEAPOT:   FIELD
 LOC .       S3 T38N R78W:   LOCATION
 CNTY.            NATRONA:   COUNTY
 STAT.            WYOMING:   STATE
 CTRY. UNITED STATES OF AMERICA:   COUNTRY
 SRVC.              Welex:   SERVICE COMPANY
 DATE.        08-MAR-1977:   LOGDATE
 API .       490251030900:   API NUMBER
~CURVE INFORMATION
#MNEM.UNIT       API CODE    CURVE DESCRIPTION
#----------   ------------   ------------------------------
 DEPT.F                  :   
 SPR .MV     07 010 01 00:   SPONTANEOUS POTENTIAL
 ILD .OHMM   07 120 46 00:   INDUCTION LOG DEEP RES
 ILM .OHMM   07 120 44 00:   INDUCTION LOG MEDIUM RES
 SGRD.OHMM   07 220 05 00:   SHALLOW  GUARD RESISTIVITY
 CALD.IN     45 280 60 00:   CALIPER FROM DENSITY
 GRD .GAPI   45 310 01 00:   GAMMA RAY FROM DENSITY LOG
 CORR.G/C3   45 356 01 00:   DENSITY CORRECTION
 DPHI.DEC    45 890 12 00:   DENSITY POROSITY SANDSTONE
 RHOB.G/C3   45 350 01 00:   BULK DENSITY
~PARAMETER INFORMATION
#MNEM.UNIT          VALUE    DESCRIPTION
#----------   ------------   ------------------------------
 PD  .                 GL:   PERMANENT DATUM
 EPD .F              5141:   ELEVATION PERMANENT DATUM
 LMF .                 GL:   LOG MEASURED FROM
 DMF .                 GL:   DRILLING MEASURED FROM
 EGL .F              5141:   GROUND LEVEL
 DATE.         03-08-1977:   RUN DATE
 RUN .                  1:   RUN NUMBER
 DD  .F               521:   DEPTH DRILLER
 DL  .F               521:   DEPTH LOGGER
 BLI .F               519:   BOTTOM LOG INTERVAL
 TLI .F                35:   TOP LOG INTERVAL
 CS  .IN            8.625:   CASING SIZE
 CBD .F                40:   CASING BOTTOM DRILLER
 CBL .F                42:   CASING BOTTOM LOGGER
 BS  .IN            7.875:   BIT SIZE
 BSD .F               521:   BIT SIZE AT DEPTH
 DFT .            KCL MUD:   DRILLING FLUID TYPE
 DFD .                8.5:   DRILLING FLUID DENSITY
 DFV .                 32:   DRILLING FLUID VISCOSITY
 DFPH.                  8:   DRILLING FLUID PH
 DFL .                8.5:   DRILLING FLUID LOSS
 MSS .            MUD PIT:   MUD SAMPLE SOURCE
 RMS .OHMM            .65:   RESISTIVITY MUD SAMPLE
 MST .F                53:   MUD SAMPLE TEMPERATURE
 RMF .OHMM            .51:   RESISTIVITY MUD FILTRATE SAMPLE
 MFST.F                58:   MUD FILTRATE SAMPLE TEMPERATURE
 RMC .OHMM            .67:   RESISTIVITY MUD CAKE
 MCST.F                54:   MUD CAKE SAMPLE TEMPERATURE
 MFSS.           FANN KIT:   MUD FILTRATE SAMPLE SOURCE
 MCSS.           FANN KIT:   MUD CAKE SAMPLE SOURCE
 RMB .OHMM            .53:   RESISTIVITY MUD AT BHT
 BHT .F                64:   BOTTOM HOLE TEMPERATURE
 TCS .HRS             1.5:   TIME CURCULATED STOPPED
 MRT .F                64:   MAXIMUM RECORDED TEMPERATURE
 LUN .               8611:   LOGGING UNIT NUMBER
 LUL .           GILLETTE:   LOGGING UNIT LOCATION
 ENGI.               DOAK:   RECORDING ENGINEER
 WITN.           S. BURKE:   WITNESSED BY
 CLNT.            A2DTECH:   CLIENT CODE
 ORIG.           5" PRINT:   ORIGIN OF DATA
 UWI .       490251030900:   UNIQUE WELL ID
 DICO. A2D Technologies, Inc.:   DIGITIZING COMPANY
~OTHER INFORMATION
~A   DEPT      SPR        ILD        ILM       SGRD       CALD        GRD        CORR        DPHI       RHOB 
# ...
  324.0000   -35.7051    28.2912    49.4286    57.3428     7.9903    73.8006     0.0893     0.1992     2.3214
  324.5000   -35.6991    28.3070    52.2579    53.5089     7.9909    76.4541     0.0760     0.1941     2.3252
  325.0000   -35.6932    28.3227    49.4832    50.7249     7.9916    78.5186     0.0581     0.2032     2.3080
  325.5000   -35.6873    27.5682    45.5824    57.8560     7.9922    79.3533     0.0507     0.2076     2.2991
  326.0000   -35.6814    26.6496    43.1621    41.5792     7.9928    76.8555     0.0494     0.1984     2.3143
  326.5000   -35.6755    26.1154    40.5898    39.0994     7.9934    79.3484     0.0542     0.1778     2.3490
  327.0000   -35.6695    25.9506    39.7760    41.9132     7.9940    81.8243     0.0650     0.1686     2.3633
  327.5000   -35.6636    25.7903    40.3557    45.2402     7.9947    82.8789     0.0652     0.1678     2.3671
  328.0000   -35.6577    25.8046    41.2211    49.8519     7.9953    83.1609     0.0609     0.1759     2.3548
  328.5000   -35.6518    25.8190    42.3962    50.5720     7.9959    77.6292     0.0535     0.1941     2.3236
  329.0000   -35.7934    25.8333    42.7129    48.2161     7.9965    73.6957     0.0447     0.1990     2.3125
  329.5000   -35.7874    25.3190    42.7365    43.8043     7.9971    74.5512     0.0464     0.1970     2.3180
  330.0000   -35.7815    24.6446    41.3123    40.2320     7.9978    78.8694     0.0496     0.1778     2.3394
  330.5000   -35.9231    23.9881    38.8502    46.9826     7.9984    81.3645     0.0544     0.1661     2.3734
  331.0000   -36.0647    22.8715    36.0350    37.4434     7.9990    82.3968     0.0591     0.1483     2.3959
  331.5000   -36.2062    21.9576    32.9664    32.8647     7.9996    80.1629     0.0623     0.1380     2.4200
  332.0000   -36.3478    21.3118    30.7888    30.2720     8.0002    77.6976     0.0671     0.1305     2.4333
  332.5000   -36.3419    20.4695    29.5585    29.8321     8.0009    80.8644     0.0688     0.1281     2.4333
  333.0000   -36.3364    19.5256    29.1661    30.3055     8.0015    84.5550     0.0660     0.1310     2.4230
  333.5000   -36.4775    18.7667    30.6282    30.9560     8.0021    83.9822     0.0586     0.1400     2.3918
  334.0000   -36.4716    18.2709    30.4347    30.3391     8.0027    80.7438     0.0573     0.1508     2.3825
  334.5000   -36.4660    17.7881    29.4205    29.3273     8.0033    78.2460     0.0621     0.1378     2.4113
  335.0000   -36.4598    17.4379    28.6367    28.5455     8.0040    77.0817     0.0638     0.1351     2.4120
  335.5000   -36.4539    17.2088    28.2566    28.5613     8.0046    76.6578     0.0610     0.1375     2.4004
  336.0000   -36.4479    17.2184    28.6697    28.7748     8.0052    79.9380     0.0537     0.1486     2.3888
  336.5000   -36.4420    17.3487    29.0835    29.3923     8.0058    83.6626     0.0463     0.1545     2.3866
  337.0000   -36.5836    17.5005    29.7072    30.2309     8.0064    86.0537     0.0435     0.1584     2.3836
  337.5000   -36.7252    17.7286    30.5541    30.6675     8.0071    85.6301     0.0392     0.1626     2.3783
  338.0000   -36.7192    17.6163    30.7823    31.1105     8.0076    84.3170     0.0409     0.1647     2.3727
  338.5000   -36.7133    17.8832    30.5836    30.7015     8.0048    85.6716     0.0472     0.1535     2.3894
  339.0000   -36.7074    18.3887    30.1860    29.8830     8.0022    86.4332     0.0534     0.1387     2.4185
  339.5000   -36.7015    19.3078    29.5849    32.4782     7.9995    86.0095     0.0582     0.1252     2.4425
  340.0000   -36.6964    20.4036    34.1844    44.0118     7.9969    83.8081     0.0644     0.1062     2.4903
  340.5000   -36.6904    21.2764    46.8476    54.1539     7.9943    81.0141     0.0691     0.0906     2.5107
  341.0000   -36.6844    21.8830    58.8398    65.7207     7.9916    77.1830     0.0739     0.0797     2.5228
  341.5000   -36.6786    22.5069    62.7767    69.9663     7.9890    75.5733     0.0756     0.0725     2.5244
  342.0000   -36.6727    22.5397    61.9668    50.9806     7.9864    76.6320     0.0758     0.0745     2.5192
  342.5000   -36.6667    22.3767    37.5333    33.0386     7.9837    79.4676     0.0730     0.1009     2.5066
  343.0000   -36.6608    21.9317    26.6902    28.6015     7.9811    81.7106     0.0702     0.1201     2.4383
  343.5000   -36.6546    21.4950    22.1689    27.4577     7.9785    83.5092     0.0599     0.1414     2.4038
  344.0000   -36.6489    20.9224    21.2116    26.3597     7.9758    85.1596     0.0510     0.1504     2.3753
  344.5000   -36.6431    20.0864    22.2891    26.5568     7.9732    83.9952     0.0497     0.1447     2.3844
  345.0000   -36.6371    19.2838    22.7497    28.0781     7.9706    82.9738     0.0560     0.1380     2.4048
  345.5000   -36.6312    18.6413    22.6057    29.6866     7.9679    85.6665     0.0607     0.1449     2.3951
  346.0000   -36.6253    18.0202    22.4629    28.8951     7.9653    87.0206     0.0624     0.1545     2.3922
  346.5000   -36.6193    17.4197    22.3211    26.6156     7.9627    86.8932     0.0656     0.1473     2.3946
  347.0000   -36.6134    17.0729    22.3336    25.9024     7.9600    85.4325     0.0674     0.1412     2.4082
  347.5000   -36.6076    16.9628    22.3459    26.0997     7.9574    85.6015     0.0676     0.1325     2.4211
  348.0000   -36.6023    16.9745    22.3582    26.4767     7.9548    87.6963     0.0678     0.1309     2.4264
  348.5000   -36.7439    16.9840    22.3704    26.1286     7.9521    86.6801     0.0680     0.1342     2.4235
  349.0000   -36.7380    16.9934    22.2291    25.7815     7.9495    83.1453     0.0682     0.1390     2.4146
  349.5000   -36.7321    17.0029    21.9356    25.6185     7.9469    81.8328     0.0654     0.1426     2.4026
  350.0000   -36.8736    17.0100    21.6489    25.0560     7.9438    81.7002     0.0632     0.1473     2.3959
  350.5000   -36.8597    16.9435    21.5301    24.1051     7.9444    82.6151     0.0582     0.1521     2.3975
  351.0000   -36.8446    16.9195    21.2329    22.8243     7.9450    84.1174     0.0599     0.1491     2.3999
  351.5000   -36.8289    16.9324    21.5460    23.6378     7.9457    85.7678     0.0631     0.1484     2.3985
  352.0000   -36.8142    16.9452    21.8600    25.6907     7.9464    87.5664     0.0632     0.1502     2.3940
  352.5000   -36.9469    16.9581    22.3318    26.7905     7.9470    90.8464     0.0634     0.1571     2.3851
  353.0000   -36.9322    16.9710    22.6573    27.7454     7.9477    92.2006     0.0635     0.1610     2.3777
  353.5000   -36.9174    17.1012    23.3063    27.5701     7.9484    91.9251     0.0637     0.1624     2.3732
  354.0000   -36.9027    17.1142    23.9740    25.3951     7.9490    90.6125     0.0638     0.1631     2.3778
  354.5000   -37.0354    17.1272    24.6608    23.7165     7.9497    87.8185     0.0625     0.1582     2.3832
  355.0000   -37.0194    17.0221    25.3673    23.4042     7.9504    88.4319     0.0581     0.1564     2.3831
  355.5000   -37.0059    17.0354    25.3848    25.2626     7.9510    92.8971     0.0522     0.1591     2.3794
  356.0000   -36.9911    16.9173    24.7119    24.9305     7.9517    93.0609     0.0463     0.1620     2.3766
  356.5000   -37.1239    16.5971    23.7276    24.0991     7.9524    90.7165     0.0434     0.1623     2.3776
  357.0000   -37.2566    16.4956    22.9401    22.9765     7.9530    88.3669     0.0451     0.1590     2.3848
  357.5000   -37.2419    16.2659    22.1787    22.3639     7.9537    87.0544     0.0468     0.1460     2.4014
  358.0000   -37.3746    16.1654    21.7400    22.0699     7.9544    87.5196     0.0514     0.1370     2.4112
  358.5000   -37.5074    15.9552    21.1637    21.7767     7.9550    90.3552     0.0546     0.1340     2.4206
  359.0000   -37.6401    15.8566    20.7415    21.3458     7.9557    91.1167     0.0578     0.1333     2.4176
  359.5000   -37.6254    15.7786    20.3313    20.6311     7.9564    88.6190     0.0579     0.1351     2.4140
  360.0000   -37.7581    15.7935    20.2056    21.5172     7.9571    83.1948     0.0581     0.1399     2.4080
