~VERSION INFORMATION
 VERS.                2.0:   CWLS LOG ASCII STANDARD - VERSION 2.0
 WRAP.                 NO:   ONE LINE PER DEPTH STEP
~WELL INFORMATION
#MNEM.UNIT      DATA TYPE    INFORMATION
#----------   ------------   ------------------------------
 STRT.F          276.0000:   START DEPTH
 STOP.F         2768.0000:   STOP DEPTH
 STEP.F            0.5000:   STEP LENGTH
 NULL.          -999.2500:   NO VALUE
 COMP.       TESORD PETRO:   COMPANY
 WELL. AX-20 NPR #3 #83-20:   WELL
 FLD .            WILDCAT:   FIELD
 LOC .      S20 T39N R78W:   LOCATION
 CNTY.            NATRONA:   COUNTY
 STAT.            WYOMING:   STATE
 CTRY. UNITED STATES OF AMERICA:   COUNTRY
 SRVC.       Schlumberger:   SERVICE COMPANY
 DATE.        20-JUL-1971:   LOGDATE
 API .       490251022000:   API NUMBER
~CURVE INFORMATION
#MNEM.UNIT       API CODE    CURVE DESCRIPTION
#----------   ------------   ------------------------------
 DEPT.F                  :   
 SPR .MV     05 010 01 00:   SPONTANEOUS POTENTIAL FROM RES.
 ASN .OHMM   05 041 16 00:   AMPLIFIED SHORT NORMAL 16"
 ILD .OHMM   05 120 46 00:   INDUCTION LOG DEEP
 CALD.IN     45 280 60 00:   CALIPER FROM DENSITY
 CORR.G/C3   45 356 01 00:   DENSITY CORRECTION
 DPHI.DEC    45 890 12 00:   DENSITY POROSITY SANDSTONE
 GRD .GAPI   45 310 01 00:   GAMMA RAY FROM DENSITY LOG
 RHOB.G/C3   45 350 01 00:   BULK DENSITY
 CILD.MMHO   05 110 46 00:   CONDUCTIVITY INDUCTION LOG DEEP
~PARAMETER INFORMATION
#MNEM.UNIT          VALUE    DESCRIPTION
#----------   ------------   ------------------------------
 PD  .                 GL:   PERMANENT DATUM
 EPD .F              4994:   ELEVATION PERMANENT DATUM
 LMF .                 KB:   LOG MEASURED FROM
 DAPD.F                11:   FEET ABOVE PERMANENT DATUM
 DMF .                 KB:   DRILLING MEASURED FROM
 EKB .F              5005:   KELLING BUSHING
 EGL .F              4994:   GROUND LEVEL
 DATE.        20-JUL-1971:   RUN DATE
 RUN .                  1:   RUN NUMBER
 DD  .F              2770:   DEPTH DRILLER
 DL  .F              2769:   DEPTH LOGGER
 BLI .F              2768:   BOTTOM LOG INTERVAL
 TLI .F               276:   TOP LOG INTERVAL
 CS  .IN            10.75:   CASING SIZE
 CBD .F               274:   CASING BOTTOM DRILLER
 CBL .F               276:   CASING BOTTOM LOGGER
 BS  .IN                9:   BIT SIZE
 BSD .F              2770:   BIT SIZE AT DEPTH
 DFT .      FRESH GEL MUD:   DRILLING FLUID TYPE
 DFD .                 10:   DRILLING FLUID DENSITY
 DFV .                 82:   DRILLING FLUID VISCOSITY
 DFPH.                  8:   DRILLING FLUID PH
 DFL .                4.8:   DRILLING FLUID LOSS
 MSS .           FLOWLINE:   MUD SAMPLE SOURCE
 RMS .OHMM            1.8:   RESISTIVITY MUD SAMPLE
 MST .F                73:   MUD SAMPLE TEMPERATURE
 RMF .OHMM            1.4:   RESISTIVITY MUD FILTRATE SAMPLE
 MFST.F                73:   MUD FILTRATE SAMPLE TEMPERATURE
 MFSS.               MEAS:   MUD FILTRATE SAMPLE SOURCE
 RMB .OHMM           1.15:   RESISTIVITY MUD AT BHT
 BHT .F               116:   BOTTOM HOLE TEMPERATURE
 TCS .HRS               2:   TIME CURCULATED STOPPED
 MRT .F               116:   MAXIMUM RECORDED TEMPERATURE
 LUN .               7037:   LOGGING UNIT NUMBER
 LUL .               CSPR:   LOGGING UNIT LOCATION
 ENGI.             JENSEN:   RECORDING ENGINEER
 WITN.                MAY:   WITNESSED BY
 CLNT.            A2DTECH:   CLIENT CODE
 ORIG.     1", 2.5" PRINT:   ORIGIN OF DATA
 UWI .       490251022000:   UNIQUE WELL ID
 DICO. A2D Technologies, Inc.:   DIGITIZING COMPANY
~OTHER INFORMATION
~A   DEPT      SPR          ASN        ILD     CALD       CORR       DPHI        GRD       RHOB       CILD   
# ...
 1955.0000   -29.5075     7.7475     6.0074     9.5299     0.0334     0.0866   129.0674     2.5177  -999.2500
 1955.5000   -29.5191     7.7523     6.1694     9.5291     0.0483     0.0829   123.6832     2.5252  -999.2500
 1956.0000   -29.8280     8.0035     6.3164     9.4985     0.0379     0.0818   126.6088     2.5085  -999.2500
 1956.5000   -29.8384     8.3923     6.6127     9.4615     0.0035     0.1110   132.7702     2.4859  -999.2500
 1957.0000   -30.1473     8.7811     6.9089     9.4074    -0.0039     0.1083   133.9485     2.4638  -999.2500
 1957.5000   -30.4562     9.4692     7.1831     9.3769     0.0050     0.0978   123.4473     2.4962  -999.2500
 1958.0000   -30.7651    10.0077     7.3523     9.3761     0.0169     0.1006   117.7253     2.5101  -999.2500
 1958.5000   -30.7755    10.0495     7.6485     9.3754     0.0109     0.1114   116.8992     2.4752  -999.2500
 1959.0000   -30.7859    10.1005     7.9447     9.3448     0.0050     0.1171   118.0839     2.4647  -999.2500
 1959.5000   -30.7963    10.2759     8.2410     9.3534    -0.0010     0.1208   123.3484     2.4523  -999.2500
 1960.0000   -31.1052    10.4251     8.5373     9.3733     0.0109     0.1132   126.7179     2.4428  -999.2500
 1960.5000   -31.1156    10.7241     8.8336     9.3724     0.0303     0.1024   122.9256     2.4733  -999.2500
 1961.0000   -30.8275    10.8734     9.1299     9.3607     0.0306     0.0947   117.9404     2.4995  -999.2500
 1961.5000   -30.8379    11.0263     9.4261     9.3410     0.0258     0.0996   115.9384     2.5162  -999.2500
 1962.0000   -30.8482    11.1769     9.5732     9.3703     0.0108     0.1125   116.8229     2.4933  -999.2500
 1962.5000   -30.5601    11.3211     9.5336     9.4067     0.0049     0.1149   114.8507     2.4695  -999.2500
 1963.0000   -30.5705    11.3207     9.3418     9.7059     0.0019     0.1116   115.2705     2.4621  -999.2500
 1963.5000   -30.2824    11.3202     9.0784     9.6216     0.0018     0.1019   119.5154     2.4906  -999.2500
 1964.0000   -30.2928    11.3198     9.0328     9.3672     0.0048     0.0991   124.4782     2.5039  -999.2500
 1964.5000   -30.0045    11.3193     8.9216     9.4675     0.0093     0.1003   128.1318     2.4986  -999.2500
 1965.0000   -30.0151    11.3189     8.7687     9.8284     0.0154     0.1027   131.5003     2.4917  -999.2500
 1965.5000   -29.7270    11.3321     8.7649     9.9619     0.0251     0.1063   136.0007     2.4807  -999.2500
 1966.0000   -29.7374    11.4677     8.9110     9.4894     0.0482     0.1124   134.1224     2.4690  -999.2500
 1966.5000   -29.7478    11.6169     8.9067     9.2440     0.0461     0.1225   127.7842     2.4515  -999.2500
 1967.0000   -29.7582    11.6165     8.9030     9.2602     0.0253     0.1358   121.6385     2.4223  -999.2500
 1967.5000   -29.7687    11.6160     8.8992     9.2898     0.0107     0.1479   116.5333     2.3791  -999.2500
 1968.0000   -29.7791    11.5956     8.8955     9.3312     0.0242     0.1360   114.4456     2.3803  -999.2500
 1968.5000   -29.7896    11.4655     9.0417     9.3305     0.0700     0.1192   117.1211     2.4226  -999.2500
 1969.0000   -29.5013    11.4650     9.0373     9.3297     0.1017     0.1066   120.2444     2.4783  -999.2500
 1969.5000   -29.5119    11.4883     9.0918     9.3290     0.0942     0.1162   121.1306     2.4602  -999.2500
 1970.0000   -29.5224    11.6138     9.1798     9.3282     0.1889     0.0983   110.3715     2.5009  -999.2500
 1970.5000   -29.5328    11.7631     9.2365     9.3275     0.2300     0.0966   109.4649     2.5118  -999.2500
 1971.0000   -29.5433    11.9123     9.3209     9.3268     0.2088     0.1432   108.5583     2.4612  -999.2500
 1971.5000   -29.5537    12.0616     9.3172     9.3560     0.1392     0.1719   106.7562     2.3711  -999.2500
 1972.0000   -29.5642    12.0910     9.3134     9.3253     0.0537     0.1799   104.9540     2.3495  -999.2500
 1972.5000   -29.5746    12.3601     9.4589     9.3245     0.0364     0.1534   103.5997     2.3766  -999.2500
 1973.0000   -29.5851    12.5093     9.4552     9.2939     0.0309     0.1384   104.0364     2.4085  -999.2500
 1973.5000   -29.2963    12.5425     9.4515     9.2634     0.0284     0.1151   107.1596     2.4568  -999.2500
 1974.0000   -29.3075    12.6581     9.4478     9.2626     0.0135     0.1139   111.1784     2.4662  -999.2500
 1974.5000   -29.0186    12.6577     9.4440     9.2619     0.0248     0.1169   116.9882     2.4587  -999.2500
 1975.0000   -28.9801    12.6572     9.4403     9.2611     0.0265     0.1307   129.5145     2.4353  -999.2500
 1975.5000   -28.3906    12.6567     9.4366     9.2604     0.0102     0.1391   133.9810     2.4017  -999.2500
 1976.0000   -28.0995    12.6562     9.4328     9.2597     0.0044     0.1475   135.8149     2.3822  -999.2500
 1976.5000   -27.5676    12.6558     9.4291     9.2589     0.0080     0.1379   129.9290     2.4002  -999.2500
 1977.0000   -27.5791    12.6554     9.4254     9.2880     0.0119     0.1271   125.4388     2.4435  -999.2500
 1977.5000   -27.5896    12.6549     9.2724     9.2873     0.0156     0.1194   124.5336     2.4494  -999.2500
 1978.0000   -27.6000    12.6545     9.2686     9.2865     0.0163     0.1200   125.0121     2.4390  -999.2500
 1978.5000   -27.6104    12.5043     9.2649     9.2858     0.0124     0.1248   126.7807     2.4300  -999.2500
 1979.0000   -27.6209    12.5039     9.1120     9.2851     0.0063     0.1326   128.1225     2.4225  -999.2500
 1979.5000   -27.6313    12.5034     9.1082     9.2843     0.0035     0.1368   129.4641     2.4165  -999.2500
 1980.0000   -27.6418    12.4531     8.9545     9.3134     0.0013     0.1386   130.2992     2.4149  -999.2500
 1980.5000   -27.6522    12.3528     8.9508     9.3127     0.0043     0.1331   130.2873     2.4104  -999.2500
 1981.0000   -27.6627    12.3000     8.9471     9.3120     0.0088     0.1235   129.2224     2.4343  -999.2500
 1981.5000   -27.6731    12.1486     8.9433     9.3112     0.0117     0.1168   127.8484     2.4552  -999.2500
 1982.0000   -27.6836    12.0521     8.9396     9.3105     0.0177     0.1099   127.1194     2.4546  -999.2500
 1982.5000   -27.6940    11.9019     8.7867     9.3097     0.0207     0.1117   126.6604     2.4716  -999.2500
 1983.0000   -27.7045    11.6945     8.7830     9.3090     0.0386     0.1001   124.9519     2.4940  -999.2500
 1983.5000   -27.7149    11.4519     8.7792     9.3083     0.0524     0.0859   121.9050     2.5090  -999.2500
 1984.0000   -27.7254    11.3018     8.6263     9.3074     0.0385     0.0862   120.5675     2.4970  -999.2500
 1984.5000   -27.7358    11.0905     8.6226     9.3067     0.0281     0.1096   115.8712     2.4686  -999.2500
 1985.0000   -27.7463    10.8518     8.4696     9.3109     0.0206     0.1215   119.7760     2.4461  -999.2500
 1985.5000   -27.7567    10.7877     8.3166     9.3052     0.0161     0.1242   123.8433     2.4431  -999.2500
 1986.0000   -27.6518    10.6364     8.1637     9.3045     0.0101     0.1321   127.5583     2.4311  -999.2500
 1986.5000   -27.4770    10.4849     8.1599     9.3037     0.0041     0.1293   129.6292     2.4205  -999.2500
 1987.0000   -27.4896    10.3335     8.0070     9.3030     0.0011     0.1251   124.2433     2.4356  -999.2500
 1987.5000   -27.5000    10.2508     8.0033     9.3022     0.0056     0.1167   109.6078     2.4609  -999.2500
 1988.0000   -27.5104    10.1804     7.9996     9.3015     0.0130     0.1050   107.3013     2.4908  -999.2500
 1988.5000   -27.5209    10.1002     7.9958     9.3092     0.0175     0.0925   109.5143     2.5147  -999.2500
 1989.0000   -27.5313    10.0274     7.9921     9.3300     0.0220     0.0809   112.2073     2.5267  -999.2500
 1989.5000   -27.5418     9.9496     7.9884     9.3291     0.0264     0.0759   114.2104     2.5297  -999.2500
 1990.0000   -27.5522     9.9491     7.9847     9.3284     0.0234     0.0741   113.8955     2.5326  -999.2500
 1990.5000   -27.5627     9.9486     8.1302     9.3276     0.0219     0.0780   112.0739     2.4989  -999.2500
 1991.0000   -27.5731     9.9482     8.1265     9.3269     0.0159     0.0950   109.0053     2.4756  -999.2500
