~VERSION INFORMATION
 VERS.                2.0:   CWLS LOG ASCII STANDARD - VERSION 2.0
 WRAP.                 NO:   ONE LINE PER DEPTH STEP
~WELL INFORMATION
#MNEM.UNIT      DATA TYPE    INFORMATION
#----------   ------------   ------------------------------
 STRT.F         1304.0000:   START DEPTH
 STOP.F         2900.0000:   STOP DEPTH
 STEP.F            0.5000:   STEP LENGTH
 NULL.          -999.2500:   NO VALUE
 COMP.   FLUOR DANIEL INC:   COMPANY
 WELL. NAVAL PETROLEUM RESERVE 3 SHX- #18-14:   WELL
 FLD .             TEAPOT:   FIELD
 LOC .      S14 T38N R78W:   LOCATION
 CNTY.            NATRONA:   COUNTY
 STAT.            WYOMING:   STATE
 CTRY. UNITED STATES OF AMERICA:   COUNTRY
 SRVC.            Unknown:   SERVICE COMPANY
 DATE.        17-APR-1995:   LOGDATE
 API .       490252270800:   API NUMBER
~CURVE INFORMATION
#MNEM.UNIT       API CODE    CURVE DESCRIPTION
#----------   ------------   ------------------------------
 DEPT.F                  :   
 ROP .FT/HR  91 810 01 00:   RAT OF DRILLING PENETRATION
 TGAS.TC/CC  91 830 01 00:   TOTAL GAS UNIT
~PARAMETER INFORMATION
#MNEM.UNIT          VALUE    DESCRIPTION
#----------   ------------   ------------------------------
 EKB .F              5271:   KELLING BUSHING
 EGL .F              5281:   GROUND LEVEL
 DATE.        17-APR-1995:   RUN DATE
 RUN .                  1:   RUN NUMBER
 BLI .F              2900:   BOTTOM LOG INTERVAL
 TLI .F              1310:   TOP LOG INTERVAL
 WITN.     C.TOWER/R.HUSK:   WITNESSED BY
 CLNT.            A2DTECH:   CLIENT CODE
 ORIG.           5" PRINT:   ORIGIN OF DATA
 UWI .       490252270800:   UNIQUE WELL ID
 DICO. A2D Technologies, Inc.:   DIGITIZING COMPANY
~OTHER INFORMATION
~A  DEPT         ROP     TGAS   
# ...
 2154.5000     0.5124    43.1906
 2155.0000     0.5119    43.1883
 2155.5000     0.5114    43.1865
 2156.0000     0.5109    43.1846
 2156.5000     0.5104    43.1828
 2157.0000     0.5100    43.1809
 2157.5000     0.5095    43.1791
 2158.0000     0.5090    43.1773
 2158.5000     0.5085    43.1754
 2159.0000     0.5080    43.1736
 2159.5000     0.5075    43.1717
 2160.0000     0.5070    43.1698
 2160.5000     0.5065    43.1679
 2161.0000     0.5061    43.1657
 2161.5000     0.5056    43.1639
 2162.0000     0.5053    43.1620
 2162.5000     0.5052    43.1602
 2163.0000     0.5333    43.1583
 2163.5000     0.5802    43.1565
 2164.0000     0.5895    43.1546
 2164.5000     0.5894    43.1528
 2165.0000     0.5888    43.1509
 2165.5000     0.5876    43.1491
 2166.0000     0.5864    43.1468
 2166.5000     0.5851    43.1450
 2167.0000     0.5839    43.1431
 2167.5000     0.5827    43.1413
 2168.0000     0.5815    43.3286
 2168.5000     0.5803    43.3263
 2169.0000     0.5791    43.3245
 2169.5000     0.5779    43.3226
 2170.0000     0.5767    43.3207
 2170.5000     0.5755    43.3189
 2171.0000     0.5743    43.3170
 2171.5000     0.5731    43.3147
 2172.0000     0.5719    43.3129
 2172.5000     0.5707    43.1224
 2173.0000     0.5695    43.3092
 2173.5000     0.7946    43.2544
 2174.0000     0.7965    43.1168
 2174.5000     0.7984    43.1150
 2175.0000     0.8003    43.1131
 2175.5000     0.8022    43.3000
 2176.0000     0.9538    43.2981
 2176.5000     0.9497    43.2962
 2177.0000     0.9462    43.1053
 2177.5000     0.9426    43.1034
 2178.0000     0.9391    43.1016
 2178.5000     0.9356    43.0998
 2179.0000     0.9320    43.0981
 2179.5000     0.9285    43.0962
 2180.0000     0.9248    43.0942
 2180.5000     0.5765    43.0925
 2181.0000     0.5757    43.0905
 2181.5000     0.5749    43.0887
 2182.0000     0.5741    43.0868
 2182.5000     0.5732    43.0845
 2183.0000     0.5724    43.0827
 2183.5000     0.5716    43.0808
 2184.0000     0.5708    43.0792
 2184.5000     0.5700    43.0771
 2185.0000     0.5691    42.8866
 2185.5000     0.5683    42.6961
 2186.0000     0.5675    42.6943
 2186.5000     0.5667    42.5037
 2187.0000     0.5659    42.5019
 2187.5000     0.5651    42.5000
 2188.0000     0.5642    42.4981
 2188.5000     0.5634    42.3075
 2189.0000     0.5626    42.3054
 2189.5000     0.5618    42.3035
 2190.0000     0.5610    42.4908
 2190.5000     0.5602    42.4887
 2191.0000     0.5593    42.4867
 2191.5000     0.5585    42.4848
 2192.0000     0.5577    42.4830
 2192.5000     0.5569    42.4811
 2193.0000     0.5561    42.3815
 2193.5000     0.6580    42.2887
 2194.0000     0.7140    42.2864
 2194.5000     0.7116    42.2849
 2195.0000     0.7093    42.2830
 2195.5000     0.7069    42.4696
 2196.0000     0.7045    42.6563
 2196.5000     0.7021    42.6547
 2197.0000     0.6998    42.7374
 2197.5000     0.6974    42.8396
 2198.0000     0.6950    42.8462
 2198.5000     0.6927    42.8620
 2199.0000     0.6903    42.8778
 2199.5000     0.6879    42.8935
 2200.0000     0.6863    42.9093
 2200.5000     0.6871    42.9250
 2201.0000     0.6879    42.9408
 2201.5000     0.6887    42.9565
 2202.0000     0.6895    42.9723
 2202.5000     0.6903    42.9880
 2203.0000     0.6911    43.0038
 2203.5000     0.6918    43.0058
 2204.0000     0.6926    43.0034
 2204.5000     0.6934    43.0016
 2205.0000     0.6942    42.9997
 2205.5000     0.6950    42.9979
 2206.0000     0.6958    42.9960
 2206.5000     0.6966    43.1829
 2207.0000     0.6974    43.1810
 2207.5000     0.6982    43.1792
 2208.0000     1.8559    43.3660
 2208.5000     1.8586    43.1755
 2209.0000     1.8614    43.1736
 2209.5000     1.8645    43.1717
 2210.0000     1.0057    42.9808
 2210.5000     0.9997    42.9789
 2211.0000     0.9937    42.9771
 2211.5000     0.9877    43.1639
 2212.0000     0.9817    42.9738
 2212.5000     0.9757    43.1606
 2213.0000     0.9697    43.2368
 2213.5000     0.9637    43.3456
 2214.0000     0.7101    43.3434
 2214.5000     0.7197    43.3415
 2215.0000     0.7200    43.3396
 2215.5000     0.7107    43.3377
 2216.0000     0.7109    43.1472
 2216.5000     0.7205    43.1449
 2217.0000     0.7207    43.1431
 2217.5000     0.6644    43.1412
 2218.0000     0.6647    43.1394
 2218.5000     0.6648    43.1375
 2219.0000     0.6650    43.1357
 2219.5000     0.6652    43.1338
 2220.0000     0.6654    42.9433
 2220.5000     0.6656    42.7019
 2221.0000     0.6658    42.5622
 2221.5000     0.6658    42.4451
 2222.0000     0.6652    42.3698
 2222.5000     0.6646    42.4801
 2223.0000     0.6641    42.5550
 2223.5000     0.6635    42.5528
 2224.0000     0.6629    42.5508
 2224.5000     0.6623    42.5488
 2225.0000     0.6617    42.5469
 2225.5000     0.6611    42.5451
 2226.0000     0.6605    42.5432
 2226.5000     0.6599    42.5414
 2227.0000     0.6594    42.3509
 2227.5000     0.6588    42.3490
 2228.0000     0.6582    42.3472
 2228.5000     0.6576    42.1566
 2229.0000     0.6570    42.1547
 2229.5000     0.6564    42.1525
 2230.0000     0.6558    41.9619
 2230.5000     0.6552    41.7714
 2231.0000     0.6546    41.7695
 2231.5000     0.6541    41.8149
 2232.0000     0.6535    41.9547
 2232.5000     0.6529    41.9528
 2233.0000     0.6523    41.9509
 2233.5000     0.6517    41.7601
 2234.0000     0.7429    41.7585
 2234.5000     0.7385    41.7566
 2235.0000     0.7341    41.7547
 2235.5000     0.7297    41.7528
 2236.0000     0.8970    41.7506
 2236.5000     0.8972    41.7487
 2237.0000     0.8974    41.9360
 2237.5000     0.8976    42.1228
 2238.0000     1.0105    42.3092
 2238.5000     1.0073    42.1187
 2239.0000     1.0038    42.1780
 2239.5000     1.0002    42.3041
 2240.0000     0.9966    42.4905
 2240.5000     0.9927    42.4886
 2241.0000     0.9897    42.4868
 2241.5000     0.9864    42.6736
 2242.0000     0.9305    42.4830
 2242.5000     0.8336    42.4811
 2243.0000     0.8338    42.4792
 2243.5000     0.8340    42.4774
 2244.0000     0.7496    42.4752
 2244.5000     0.7489    42.4736
 2245.0000     0.7480    42.4715
 2245.5000     0.7471    42.4698
 2246.0000     0.7462    42.4679
 2246.5000     0.7453    42.4659
 2247.0000     0.7444    42.4641
 2247.5000     0.7435    42.4622
 2248.0000     0.7426    42.4604
 2248.5000     0.7418    42.4585
 2249.0000     0.7409    42.4566
 2249.5000     0.7400    42.4544
 2250.0000     0.7391    42.4530
 2250.5000     0.7382    42.4530
 2251.0000     0.7373    42.4529
 2251.5000     0.7364    42.4529
 2252.0000     0.7355    42.4529
 2252.5000     0.7350    42.4529
 2253.0000     0.7353    42.4529
 2253.5000     0.7357    42.4528
 2254.0000     0.7361    42.2642
 2254.5000     0.7365    42.2642
 2255.0000     0.7368    42.4528
 2255.5000     0.7372    42.6415
 2256.0000     0.7376    42.4528
 2256.5000     0.7380    42.4528
 2257.0000     0.7383    42.4528
 2257.5000     0.8140    42.4528
 2258.0000     0.8143    42.4528
 2258.5000     0.8147    42.6415
 2259.0000     0.8150    42.8302
 2259.5000     0.8154    42.8302
 2260.0000     0.8158    42.8302
 2260.5000     0.8162    42.8302
 2261.0000     0.8165    42.6415
 2261.5000     0.8169    42.4528
 2262.0000     1.0053    42.2642
 2262.5000     1.0097    42.2483
 2263.0000     1.0146    42.2642
 2263.5000     1.0195    42.2826
 2264.0000     1.0244    42.2642
 2264.5000     0.7064    42.2642
 2265.0000     0.7068    42.2642
 2265.5000     0.7071    42.2642
 2266.0000     0.7075    42.2642
 2266.5000     0.7079    42.2642
 2267.0000     0.7083    42.2642
 2267.5000     0.7086    42.4528
 2268.0000     0.7090    42.2642
 2268.5000     0.7094    42.2642
 2269.0000     0.7098    42.4528
 2269.5000     0.7102    42.4528
 2270.0000     0.7952    42.4528
 2270.5000     0.7941    42.4528
 2271.0000     0.7929    42.4528
 2271.5000     0.7917    42.4528
 2272.0000     0.7905    42.4528
 2272.5000     0.7893    42.4528
 2273.0000     0.7881    42.4528
 2273.5000     0.7869    42.4528
 2274.0000     0.7857    42.4528
 2274.5000     0.7845    42.4528
 2275.0000     0.7833    42.4528
 2275.5000     0.7821    42.4528
