~VERSION INFORMATION
 VERS.                2.0:   CWLS LOG ASCII STANDARD - VERSION 2.0
 WRAP.                 NO:   ONE LINE PER DEPTH STEP
~WELL INFORMATION
#MNEM.UNIT      DATA TYPE    INFORMATION
#----------   ------------   ------------------------------
 STRT.F           17.0000:   START DEPTH
 STOP.F          634.0000:   STOP DEPTH
 STEP.F            0.5000:   STEP LENGTH
 NULL.          -999.2500:   NO VALUE
 COMP. FENIX & SCISSON INC:   COMPANY
 WELL.        NPR 3 #72-3:   WELL
 FLD .             TEAPOT:   FIELD
 LOC .       S3 T38N R78W:   LOCATION
 CNTY.            NATRONA:   COUNTY
 STAT.            WYOMING:   STATE
 CTRY. UNITED STATES OF AMERICA:   COUNTRY
 SRVC.           BIRDWELL:   SERVICE COMPANY
 DATE.        24-SEP-1978:   LOGDATE
 API .       490251069100:   API NUMBER
~CURVE INFORMATION
#MNEM.UNIT       API CODE    CURVE DESCRIPTION
#----------   ------------   ------------------------------
 DEPT.F                  :   
 SPR .MV     05 010 01 00:   SPONTANEOUS POTENTIAL FROM RES.
 SN  .OHMM   05 040 16 00:   SHORT NORMAL 16"
 ILD .OHMM   05 120 46 00:   INDUCTION LOG DEEP
 GRD .GAPI   45 310 01 00:   GAMMA RAY FROM DENSITY LOG
 CALD.IN     45 280 60 00:   CALIPER
 DEN .G/C3   45 350 01 00:   COMPENSATED BULK DENSTIY
 DPHI.DEC    45 890 12 00:   DENSITY POROSITY SANDSTONE
 CORR.G/C3   45 356 01 00:   DENSITY CORRECTION
~PARAMETER INFORMATION
#MNEM.UNIT          VALUE    DESCRIPTION
#----------   ------------   ------------------------------
 PD  .                 GL:   PERMANENT DATUM
 EPD .F              5155:   ELEVATION PERMANENT DATUM
 LMF .                 KB:   LOG MEASURED FROM
 DAPD.F                 4:   FEET ABOVE PERMANENT DATUM
 DMF .                 KB:   DRILLING MEASURED FROM
 EKB .F              5159:   KELLING BUSHING
 EGL .F              5155:   GROUND LEVEL
 DATE.            9-24-78:   RUN DATE
 RUN .                  1:   RUN NUMBER
 DD  .F               635:   DEPTH DRILLER
 DL  .F               634:   DEPTH LOGGER
 BLI .F               627:   BOTTOM LOG INTERVAL
 TLI .F                30:   TOP LOG INTERVAL
 CS  .IN            8.625:   CASING SIZE
 CBD .F                34:   CASING BOTTOM DRILLER
 CBL .F                34:   CASING BOTTOM LOGGER
 BS  .IN            7.875:   BIT SIZE
 BSD .F               635:   BIT SIZE AT DEPTH
 DFT .                KCL:   DRILLING FLUID TYPE
 DFD .                8.7:   DRILLING FLUID DENSITY
 DFV .                 36:   DRILLING FLUID VISCOSITY
 DFPH.                9.5:   DRILLING FLUID PH
 DFL .                8.2:   DRILLING FLUID LOSS
 MSS .          FLOW LINE:   MUD SAMPLE SOURCE
 RMS .OHMM             .2:   RESISTIVITY MUD SAMPLE
 MST .F                68:   MUD SAMPLE TEMPERATURE
 RMF .OHMM            .18:   RESISTIVITY MUD FILTRATE SAMPLE
 MFST.F                76:   MUD FILTRATE SAMPLE TEMPERATURE
 RMC .OHMM            .32:   RESISTIVITY MUD CAKE
 MCST.F                76:   MUD CAKE SAMPLE TEMPERATURE
 MFSS.               MEAS:   MUD FILTRATE SAMPLE SOURCE
 RMB .OHMM             .2:   RESISTIVITY MUD AT BHT
 BHT .F                70:   BOTTOM HOLE TEMPERATURE
 TCS .HRS               3:   TIME CURCULATED STOPPED
 MRT .F                70:   MAXIMUM RECORDED TEMPERATURE
 LUN .               2958:   LOGGING UNIT NUMBER
 LUL .               CASP:   LOGGING UNIT LOCATION
 ENGI.           REYNOLDS:   RECORDING ENGINEER
 WITN.              AMEND:   WITNESSED BY
 CLNT.            A2DTECH:   CLIENT CODE
 ORIG.           5" PRINT:   ORIGIN OF DATA
 UWI .       490251069100:   UNIQUE WELL ID
 DICO. A2D Technologies, Inc.:   DIGITIZING COMPANY
~OTHER INFORMATION
~A   DEPT      SPR         SN        ILD         GRD      CALD        DEN       DPHI       CORR   
# ...
  543.5000   -49.2319     9.9020    11.7465    94.2500     7.5809     2.4300     0.1521     0.0706
  544.0000   -49.2899     9.7559    11.4544    93.7096     7.5850     2.4322     0.1513     0.0715
  544.5000   -49.5719     9.7058    11.4562    93.6942     7.5888     2.4385     0.1468     0.0724
  545.0000   -49.8861     9.7385    11.4557    93.9727     7.5928     2.4451     0.1423     0.0732
  545.5000   -50.2066     9.7610    11.4560    95.7984     7.5968     2.4499     0.1386     0.0741
  546.0000   -50.2267     9.7836    11.4557    97.3328     7.5987     2.4498     0.1377     0.0767
  546.5000   -50.1236     9.7956    11.4577    97.3066     7.5705     2.4495     0.1374     0.0818
  547.0000   -50.0158     9.6348    11.3525    97.4857     7.5416     2.4493     0.1381     0.0869
  547.5000   -49.9042     9.5542    11.2581    98.3957     7.5178     2.4490     0.1389     0.0919
  548.0000   -50.1426     9.4742    11.1639    99.9876     7.5105     2.4504     0.1396     0.0931
  548.5000   -50.4172     9.3949    11.0415   100.4961     7.5030     2.4536     0.1374     0.0943
  549.0000   -50.6920     9.3547    11.1160   100.7929     7.4955     2.4567     0.1333     0.0954
  549.5000   -50.9675     9.4123    11.2248   102.0460     7.4880     2.4590     0.1316     0.0968
  550.0000   -51.1476     9.4572    11.3347   102.9443     7.4805     2.4597     0.1308     0.0854
  550.5000   -51.3248     9.5022    11.4544   101.4065     7.4729     2.4603     0.1306     0.0727
  551.0000   -51.4978     9.5476    11.4325    99.3227     7.4655     2.4609     0.1311     0.0667
  551.5000   -51.5073     9.5931    11.4054    99.2411     7.4651     2.4599     0.1324     0.0643
  552.0000   -51.5053     9.6388    11.3788   100.3786     7.4830     2.4565     0.1346     0.0857
  552.5000   -51.5051     9.6847    11.3514   101.5729     7.5006     2.4558     0.1364     0.1113
  553.0000   -51.5715     9.7058    11.3864   101.7025     7.5181     2.4629     0.1302     0.1110
  553.5000   -52.0393     9.6058    11.4242   101.6972     7.5241     2.4806     0.1186     0.0976
  554.0000   -52.5107     9.5014    11.4559   101.7081     7.5287     2.4929     0.1112     0.0803
  554.5000   -52.7066     9.3982    11.2979   102.4443     7.5334     2.4904     0.1146     0.0633
  555.0000   -52.7109     9.3480    11.1365   106.4451     7.5380     2.4871     0.1168     0.0612
  555.5000   -52.7807     9.3380    10.9770   107.6127     7.5426     2.4855     0.1187     0.0625
  556.0000   -53.1899     9.3274    10.8199   106.9767     7.5473     2.4781     0.1245     0.0638
  556.5000   -53.5234     9.3169    10.6652   106.4954     7.5519     2.4794     0.1252     0.0646
  557.0000   -53.5571     9.3064    10.5292   106.8030     7.5565     2.4907     0.1155     0.0615
  557.5000   -53.5986     9.2958    10.4561   106.8267     7.5598     2.5002     0.1086     0.0565
  558.0000   -53.6407     9.2853    10.3835   106.6859     7.5598     2.4996     0.1057     0.0514
  558.5000   -53.6829     9.2749    10.3115   106.5415     7.5598     2.4988     0.1062     0.0450
  559.0000   -53.7251     9.2672    10.2572   106.5362     7.5598     2.4980     0.1077     0.0368
  559.5000   -53.7672     9.2591    10.2490   106.6626     7.5685     2.4973     0.1092     0.0286
  560.0000   -53.8095     9.2511    10.2410   106.7911     7.5862     2.4965     0.1099     0.0224
  560.5000   -53.8520     9.2431    10.2331   106.9038     7.6038     2.4958     0.1093     0.0225
  561.0000   -53.8934     9.2352    10.2252   106.6318     7.6194     2.4950     0.1107     0.0225
  561.5000   -53.8825     9.2273    10.2173   105.2790     7.6196     2.4943     0.1117     0.0225
  562.0000   -53.7389     9.2193    10.2094   102.1848     7.6195     2.4935     0.1106     0.0225
  562.5000   -53.6005     9.2114    10.2015   100.7045     7.6194     2.4930     0.1095     0.0225
  563.0000   -53.4603     9.2036    10.1936   100.6194     7.6315     2.4932     0.1104     0.0225
  563.5000   -53.3186     9.1956    10.1857   101.0779     7.6575     2.4934     0.1124     0.0225
  564.0000   -53.3839     9.1879    10.1778   102.9609     7.7691     2.4936     0.1125     0.0225
  564.5000   -53.9744     9.1280    10.1699   103.8969     7.8776     2.4937     0.1126     0.0225
  565.0000   -54.5860     9.0230    10.1538   103.4528     7.8534     2.4939     0.1127     0.0225
  565.5000   -54.7174     8.9327    10.0866   103.0911     7.8245     2.4942     0.1129     0.0225
  566.0000   -54.7758     8.9337    10.0201   103.3651     7.7996     2.4948     0.1104     0.0225
  566.5000   -55.1565     8.9337     9.9538   103.7092     7.8051     2.4955     0.1084     0.0225
  567.0000   -55.5387     8.9337     9.8880   102.9950     7.8111     2.4961     0.1093     0.0225
  567.5000   -55.9079     8.9337     9.8227   102.1144     7.8172     2.4968     0.1104     0.0225
  568.0000   -56.0395     8.8558     9.7578   102.1953     7.8115     2.4975     0.1108     0.0225
  568.5000   -56.2038     8.7771     9.7058   102.2322     7.8012     2.4970     0.1108     0.0236
  569.0000   -56.4065     8.6991     9.5084   105.2314     7.7909     2.4965     0.1108     0.0247
  569.5000   -56.6083     8.6218     9.3547   107.2962     7.7806     2.4973     0.1090     0.0258
  570.0000   -56.7609     8.5452     9.2617   107.3107     7.7701     2.4981     0.1080     0.0268
  570.5000   -56.8400     8.4868     9.1486   106.4985     7.7602     2.4935     0.1114     0.0279
  571.0000   -56.9201     8.4155     9.0368   105.2979     7.7833     2.4880     0.1147     0.0285
  571.5000   -56.9999     8.3448     8.9265   104.6485     7.8105     2.4852     0.1172     0.0285
  572.0000   -57.0798     8.2747     8.8174   107.4467     7.8377     2.4920     0.1158     0.0285
  572.5000   -57.1597     8.2051     8.7098   111.3412     7.8649     2.4987     0.1101     0.0311
  573.0000   -57.2397     8.1362     8.6105   113.3962     7.8732     2.5055     0.1048     0.0341
  573.5000   -57.3182     8.0678     8.5538   113.7356     7.8626     2.5089     0.1033     0.0345
  574.0000   -57.3761     8.0000     8.5010   114.0889     7.8520     2.5085     0.1024     0.0351
  574.5000   -57.4294     7.9327     8.4534   112.9488     7.8414     2.5080     0.1035     0.0375
  575.0000   -57.4823     7.7630     8.0729   111.3155     7.8308     2.5087     0.1036     0.0399
  575.5000   -57.5324     7.5849     7.7096   110.4142     7.8202     2.5119     0.1023     0.0405
  576.0000   -57.6136     7.4109     7.2558   115.0797     7.8096     2.5161     0.0998     0.0363
  576.5000   -57.7103     7.2411     6.6810   121.5203     7.7990     2.5171     0.0974     0.0305
  577.0000   -57.4771     7.0746     6.1518   126.1784     7.7884     2.5171     0.0952     0.0309
  577.5000   -56.9989     6.8502     5.6368   125.8705     7.7800     2.5123     0.1032     0.0311
  578.0000   -56.5187     6.5122     5.5851   125.4960     7.7898     2.4862     0.1177     0.0314
  578.5000   -56.0248     6.1917     5.6311   128.0470     7.7998     2.4556     0.1390     0.0316
  579.0000   -55.9145     5.8871     5.7524   131.1215     7.8098     2.4238     0.1603     0.0318
  579.5000   -55.8852     5.5350     5.8196   136.7508     7.8198     2.3951     0.1716     0.0321
  580.0000   -55.8589     5.6345     5.8860   143.2408     7.8309     2.4185     0.1718     0.0323
  580.5000   -55.8318     5.7645     6.1190   144.0374     7.8420     2.4558     0.1416     0.0330
  581.0000   -55.8044     5.9031     6.4131   129.2802     7.8530     2.4932     0.1168     0.0355
  581.5000   -55.7771     6.4284     7.1760   116.3224     7.8548     2.5247     0.0996     0.0381
  582.0000   -55.7508     7.0036     8.0373   112.2998     7.8471     2.5292     0.0940     0.0405
  582.5000   -55.7332     7.5064     9.0057   113.5644     7.8394     2.5332     0.0912     0.0402
  583.0000   -55.3593     7.8538     9.2846   114.5175     7.8245     2.5339     0.0891     0.0397
  583.5000   -54.9176     8.0285     9.3672   115.0347     7.8088     2.5347     0.0882     0.0393
