~VERSION INFORMATION
 VERS.                2.0:   CWLS LOG ASCII STANDARD - VERSION 2.0
 WRAP.                 NO:   ONE LINE PER DEPTH STEP
~WELL INFORMATION
#MNEM.UNIT      DATA TYPE    INFORMATION
#----------   ------------   ------------------------------
 STRT.F            0.0000:   START DEPTH
 STOP.F          649.0000:   STOP DEPTH
 STEP.F            0.1000:   STEP LENGTH
 NULL.          -999.2500:   NO VALUE
 COMP.   FLUOR DANIEL INC:   COMPANY
 WELL.     17-1 X 2 #17-2:   WELL
 FLD .             TEAPOT:   FIELD
 LOC .       S2 T38N R78W:   LOCATION
 CNTY.            NATRONA:   COUNTY
 STAT.            WYOMING:   STATE
 CTRY. UNITED STATES OF AMERICA:   COUNTRY
 SRVC.      Western Atlas:   SERVICE COMPANY
 DATE.        20-MAY-1995:   LOGDATE
 API .       490252271000:   API NUMBER
~CURVE INFORMATION
#MNEM.UNIT       API CODE    CURVE DESCRIPTION
#----------   ------------   ------------------------------
 DEPT.F                  :   
 GRR .GAPI   07 310 01 00:   GAMMA RAY
 RILD.OHMM   07 120 46 00:   INDUCTION LOG DEEP RESISTIVITY
 RILM.OHMM   07 120 44 00:   RESITIVITY LOG MEDIUM
~PARAMETER INFORMATION
#MNEM.UNIT          VALUE    DESCRIPTION
#----------   ------------   ------------------------------
 PD  .                 GL:   PERMANENT DATUM
 EPD .F              5145:   ELEVATION PERMANENT DATUM
 LMF .                 KB:   LOG MEASURED FROM
 DAPD.F                10:   FEET ABOVE PERMANENT DATUM
 DMF .                 KB:   DRILLING MEASURED FROM
 EKB .F              5155:   KELLING BUSHING
 EDF .F              5154:   DRILLING FLOOR
 EGL .F              5145:   GROUND LEVEL
 DATE.        20-MAY-1995:   RUN DATE
 RUN .                  1:   RUN NUMBER
 DD  .F               657:   DEPTH DRILLER
 DL  .F               657:   DEPTH LOGGER
 BLI .F               649:   BOTTOM LOG INTERVAL
 CS  .IN            9.625:   CASING SIZE
 CBD .F                82:   CASING BOTTOM DRILLER
 CBL .F                82:   CASING BOTTOM LOGGER
 BS  .IN             8.75:   BIT SIZE
 BSD .F               657:   BIT SIZE AT DEPTH
 DFT .                AIR:   DRILLING FLUID TYPE
 MRT .F                92:   MAXIMUM RECORDED TEMPERATURE
 LUN .            HL 6530:   LOGGING UNIT NUMBER
 LUL .             CASPER:   LOGGING UNIT LOCATION
 ENGI.        VERN RAUTIO:   RECORDING ENGINEER
 WITN.        STEVE HARDY:   WITNESSED BY
 CLNT.            A2DTECH:   CLIENT CODE
 ORIG.           5" PRINT:   ORIGIN OF DATA
 UWI .       490252271000:   UNIQUE WELL ID
 DICO. A2D Technologies, Inc.:   DIGITIZING COMPANY
~OTHER INFORMATION
~A    DEPT      GRR      RILD       RILM   
# ...
  491.4000    93.1037    13.9914    13.9225
  491.5000    92.6104    13.9920    13.9233
  491.6000    92.0547    13.9926    13.9242
  491.7000    92.7077    13.9183    13.8611
  491.8000    93.4551    13.8970    13.7833
  491.9000    94.2026    13.8976    13.7344
  492.0000    94.8939    13.8751    13.7238
  492.1000    95.3905    13.8026    13.6410
  492.2000    95.6417    13.8033    13.5701
  492.3000    96.0903    13.8038    13.5481
  492.4000    96.3017    13.7540    13.5116
  492.5000    96.3952    13.7096    13.4559
  492.6000    96.6093    13.7101    13.4533
  492.7000    96.6126    13.7107    13.3644
  492.8000    96.6154    13.6340    13.3650
  492.9000    96.4402    13.6171    13.3201
  493.0000    96.3198    13.5744    13.2453
  493.1000    96.3228    13.5241    13.1829
  493.2000    96.3435    13.5247    13.1838
  493.3000    96.6309    13.5253    13.1845
  493.4000    96.8459    13.4559    13.1852
  493.5000    97.0971    13.3799    13.1485
  493.6000    97.3482    13.3406    13.0954
  493.7000    97.5994    13.3214    13.0962
  493.8000    97.8522    13.2495    13.0970
  493.9000    98.1017    13.2501    13.0354
  494.0000    98.1599    13.1883    13.0078
  494.1000    98.1629    13.1595    13.0085
  494.2000    98.1659    13.1306    12.9961
  494.3000    98.1689    13.0565    12.9200
  494.4000    98.1722    12.9799    12.9207
  494.5000    97.7204    12.9804    12.9214
  494.6000    97.2271    12.9261    12.8843
  494.7000    96.6136    12.8531    12.8334
  494.8000    95.9389    12.8032    12.8341
  494.9000    95.4323    12.7968    12.8350
  495.0000    94.5706    12.7159    12.8356
  495.1000    94.5732    12.6529    12.7902
  495.2000    94.5762    12.6290    12.7482
  495.3000    94.5792    12.5975    12.7350
  495.4000    94.5822    12.5264    12.6615
  495.5000    94.5853    12.4565    12.6621
  495.6000    95.5568    12.4571    12.6089
  495.7000    96.7410    12.4013    12.5381
  495.8000    97.5795    12.3313    12.4897
  495.9000    98.0788    12.2870    12.4904
  496.0000    98.6062    12.2773    12.4911
  496.1000    99.4302    12.2031    12.4302
  496.2000   100.1012    12.2036    12.3604
  496.3000   101.0183    12.1547    12.3209
  496.4000   102.0140    12.1203    12.3070
  496.5000   103.0095    12.1208    12.2371
  496.6000   103.9787    12.1213    12.2377
  496.7000   104.2751    12.1219    12.1852
  496.8000   104.2775    12.1223    12.1544
  496.9000   103.6805    12.0794    12.1326
  497.0000   102.4980    12.0395    12.0716
  497.1000   101.1410    12.0400    12.0724
  497.2000   100.3681    12.0405    12.0125
  497.3000    99.8955    12.0410    11.9902
  497.4000    99.4023    12.0415    11.9909
  497.5000    99.1704    12.0420    11.9915
  497.6000    99.2507    12.0425    11.9922
  497.7000    99.4781    12.0430    11.9247
  497.8000    99.4815    12.0436    11.9106
  497.9000    99.9209    12.0440    11.9112
  498.0000   100.4202    12.0445    11.9119
  498.1000   100.6968    12.0450    11.9126
  498.2000   100.6998    12.0455    11.9133
  498.3000   100.7073    12.0460    11.9139
  498.4000   101.0081    12.0466    11.9145
  498.5000   101.0106    12.0470    11.9152
  498.6000   101.0136    12.0475    11.9159
  498.7000   101.0166    12.0480    11.9165
  498.8000   100.9810    12.0485    11.9172
  498.9000   100.7211    12.0490    11.9179
  499.0000   100.0242    12.0495    11.9185
  499.1000    99.2827    12.0500    11.9192
  499.2000    98.5412    12.0505    11.9198
  499.3000    97.7997    12.0510    11.9206
  499.4000    97.0391    12.0515    11.9212
  499.5000    95.9129    12.0521    11.9218
  499.6000    95.4875    12.0525    11.9225
  499.7000    94.6733    12.0530    11.9231
  499.8000    93.7907    12.0442    11.9238
  499.9000    93.1562    12.0232    11.9246
  500.0000    92.9110    12.0023    11.9251
  500.1000    92.6659    11.9813    11.9258
  500.2000    92.6154    11.9603    11.9265
  500.3000    92.6184    11.9393    11.9271
  500.4000    92.7091    11.9183    11.9278
  500.5000    92.9261    11.8973    11.9284
  500.6000    92.9293    11.8914    11.9291
  500.7000    93.3899    11.8919    11.8966
  500.8000    93.5385    11.8924    11.8479
  500.9000    93.9071    11.8906    11.8486
  501.0000    94.5863    11.8113    11.8493
  501.1000    95.0856    11.8117    11.8499
  501.2000    95.6626    11.8122    11.8505
  501.3000    96.0842    11.8127    11.8512
  501.4000    96.7396    11.8132    11.8519
  501.5000    97.3846    11.8137    11.8526
  501.6000    97.8841    11.8142    11.8532
  501.7000    98.3922    11.8147    11.8050
  501.8000    99.1264    11.8152    11.7641
  501.9000    99.8740    11.8157    11.7483
  502.0000   100.6215    11.8140    11.7324
  502.1000   101.3690    11.7351    11.7166
  502.2000   102.0272    11.7355    11.7007
  502.3000   102.0305    11.7359    11.6849
  502.4000   102.0332    11.7364    11.6690
  502.5000   102.2071    11.7369    11.6532
  502.6000   102.3409    11.7374    11.6373
  502.7000   102.4079    11.6768    11.6215
  502.8000   102.6591    11.6573    11.6056
  502.9000   102.9538    11.6577    11.5898
  503.0000   103.3687    11.6416    11.5739
  503.1000   103.8707    11.5781    11.5580
  503.2000   104.3726    11.5787    11.5422
  503.3000   104.8746    11.5791    11.5263
  503.4000   105.3765    11.5413    11.5105
  503.5000   105.8785    11.5000    11.4946
  503.6000   106.3804    11.5005    11.4788
  503.7000   107.0503    11.5010    11.4629
  503.8000   107.6730    11.5015    11.4471
  503.9000   108.0410    11.4567    11.4312
  504.0000   108.0422    11.4229    11.4154
  504.1000   108.0437    11.4234    11.3995
  504.2000   107.8451    11.4221    11.3837
  504.3000   107.4554    11.3455    11.3678
  504.4000   106.9636    11.3459    11.3519
  504.5000   106.4716    11.3463    11.3361
  504.6000   105.9380    11.3468    11.3202
  504.7000   105.7134    11.3473    11.3044
  504.8000   105.6386    11.3478    11.2885
  504.9000   105.5244    11.3482    11.2727
  505.0000   105.2790    11.3487    11.2568
  505.1000   105.0389    11.3492    11.2410
  505.2000   105.0401    11.3496    11.2251
  505.3000   105.0413    11.3501    11.2093
  505.4000   105.0425    11.3507    11.1934
  505.5000   105.0437    11.3510    11.1767
  505.6000   105.0136    11.3143    11.1775
  505.7000   104.7446    11.2735    11.1330
  505.8000   104.5229    11.2740    11.1334
  505.9000   104.4452    11.2745    11.1631
  506.0000   104.3338    11.2749    11.1039
  506.1000   104.0309    11.2754    11.1050
  506.2000   103.5414    11.2461    11.1058
  506.3000   103.2961    11.1984    11.0689
  506.4000   103.2446    11.1989    11.0308
  506.5000   103.1071    11.1994    11.0317
  506.6000   102.8617    11.1998    11.0327
  506.7000   102.6164    11.1637    10.9754
  506.8000   102.3446    11.1233    10.9581
  506.9000   102.3457    11.1154    10.9591
  507.0000   102.3469    11.0474    10.9600
  507.1000   102.6776    11.0478    10.9609
  507.2000   103.3090    11.0483    10.9620
  507.3000   103.5572    11.0197    10.9627
  507.4000   104.2968    10.9728    10.9270
  507.5000   104.8467    10.9720    10.8887
  507.6000   105.3409    10.9104    10.8808
  507.7000   105.9968    10.8984    10.8153
  507.8000   106.9587    10.8988    10.7598
  507.9000   107.7878    10.8993    10.6999
  508.0000   108.6578    10.8917    10.6688
  508.1000   109.6451    10.8249    10.6546
  508.2000   110.4185    10.8253    10.5967
  508.3000   110.8609    10.8257    10.5978
  508.4000   111.1119    10.8262    10.5504
  508.5000   111.3565    10.8119    10.5261
  508.6000   111.6042    10.7523    10.5058
  508.7000   111.5858    10.7527    10.4549
  508.8000   111.4184    10.7532    10.4559
  508.9000   111.4196    10.7536    10.4567
  509.0000   111.4210    10.7327    10.4576
  509.1000   111.2076    10.6801    10.4585
  509.2000   110.8030    10.6807    10.4594
  509.3000   109.3736    10.6811    10.4602
  509.4000   106.9080    10.6815    10.4611
  509.5000   105.3937    10.6819    10.4620
