~VERSION INFORMATION
 VERS.                2.0:   CWLS LOG ASCII STANDARD - VERSION 2.0
 WRAP.                 NO:   ONE LINE PER DEPTH STEP
~WELL INFORMATION
#MNEM.UNIT      DATA TYPE    INFORMATION
#----------   ------------   ------------------------------
 STRT.F           21.0000:   START DEPTH
 STOP.F          484.0000:   STOP DEPTH
 STEP.F            0.5000:   STEP LENGTH
 NULL.          -999.2500:   NO VALUE
 COMP.       F D SERV INC:   COMPANY
 WELL. N P R 3 SX-3 #78-3:   WELL
 FLD .             TEAPOT:   FIELD
 LOC .       S3 T38N R78W:   LOCATION
 CNTY.            NATRONA:   COUNTY
 STAT.            WYOMING:   STATE
 CTRY. UNITED STATES OF AMERICA:   COUNTRY
 SRVC.     Atlas Wireline:   SERVICE COMPANY
 DATE.        04-DEC-1992:   LOGDATE
 API .       490252254500:   API NUMBER
~CURVE INFORMATION
#MNEM.UNIT       API CODE    CURVE DESCRIPTION
#----------   ------------   ------------------------------
 DEPT.F                  :   
 DPHI.DEC    45 890 12 00:   DENSITY POROSITY SANDSTONE
 NPHI.DEC    42 890 03 00:   NEUTRON POROSITY SANDSTONE
 C13 .IN     45 280 13 00:   CALIPER 1 - 3
 GRD .GAPI   45 310 01 00:   GAMMA RAY FROM DENSITY LOG
 ZCOR.G/C3   45 356 01 00:   DENSITY CORRECTION
 ZDEN.G/C3   45 350 01 00:   BULK DENSITY
 RILD.OHMM   07 120 46 00:   INDUCTION LOG DEEP RESISTIVITY
 RILM.OHMM   07 120 44 00:   INDUCTION LOG MEDIUM RESISTIVITY
~PARAMETER INFORMATION
#MNEM.UNIT          VALUE    DESCRIPTION
#----------   ------------   ------------------------------
 PD  .                 GL:   PERMANENT DATUM
 EPD .F              5120:   ELEVATION PERMANENT DATUM
 LMF .                 KB:   LOG MEASURED FROM
 DAPD.F                10:   FEET ABOVE PERMANENT DATUM
 DMF .                 KB:   DRILLING MEASURED FROM
 EKB .F              5130:   KELLING BUSHING
 EDF .F              5129:   DRILLING FLOOR
 EGL .F              5120:   GROUND LEVEL
 DATE.        04-DEC-1992:   RUN DATE
 RUN .                  1:   RUN NUMBER
 DD  .F               488:   DEPTH DRILLER
 DL  .F               488:   DEPTH LOGGER
 BLI .F               479:   BOTTOM LOG INTERVAL
 CS  .IN            8.625:   CASING SIZE
 CBD .F                50:   CASING BOTTOM DRILLER
 CBL .F                54:   CASING BOTTOM LOGGER
 BS  .IN            7.875:   BIT SIZE
 BSD .F               488:   BIT SIZE AT DEPTH
 DFT .           AIR FOAM:   DRILLING FLUID TYPE
 MRT .F                66:   MAXIMUM RECORDED TEMPERATURE
 LUN .           HL- 6274:   LOGGING UNIT NUMBER
 LUL .             CASPER:   LOGGING UNIT LOCATION
 ENGI.             RAUTIO:   RECORDING ENGINEER
 WITN.        GARY STRONG:   WITNESSED BY
 CLNT.            A2DTECH:   CLIENT CODE
 ORIG.           5" PRINT:   ORIGIN OF DATA
 UWI .       490252254500:   UNIQUE WELL ID
 DICO. A2D Technologies, Inc.:   DIGITIZING COMPANY
~OTHER INFORMATION
~A   DEPT     DPHI       NPHI        C13        GRD       ZCOR       ZDEN       RILD       RILM   
# ...
  142.5000     0.1111     0.2886     8.1123   143.0438     0.0092     2.4641     8.6329     8.5663
  143.0000     0.1157     0.2908     8.0957   146.6595    -0.0060     2.4535     8.5729     8.5669
  143.5000     0.1236     0.2950     8.1100   150.8813     0.0082     2.4419     8.5729     8.5676
  144.0000     0.1285     0.3014     8.1085   154.5051     0.0317     2.4337     8.3954     8.5083
  144.5000     0.1318     0.3026     8.1073   155.0825     0.0271     2.4314     8.2792     8.3322
  145.0000     0.1340     0.3032     8.1061   153.8445     0.0180     2.4291     8.0515     8.1597
  145.5000     0.1366     0.3033     8.1050   154.1321     0.0073     2.4283     7.8300     7.9350
  146.0000     0.1351     0.3042     8.1038   155.3184     0.0027     2.4283     7.5618     7.7164
  146.5000     0.1321     0.3066     8.1026   156.2068     0.0072     2.4298     7.3483     7.4516
  147.0000     0.1306     0.3103     8.0860   157.3983     0.0117     2.4335     7.1515     7.3485
  147.5000     0.1309     0.3151     8.0848   158.2919     0.0132     2.4350     7.1018     7.2976
  148.0000     0.1345     0.3194     8.0836   155.2358     0.0116     2.4251     7.0525     7.2473
  148.5000     0.1400     0.3224     8.0979   150.3636     0.0130     2.4205     7.0035     7.1973
  149.0000     0.1391     0.3185     8.0964   147.2808     0.0145     2.4251     7.0035     7.1978
  149.5000     0.1342     0.3142     8.0953   148.8051     0.0160     2.4364     7.0035     7.1481
  150.0000     0.1276     0.3121     8.0941   151.4941     0.0144     2.4424     7.1018     7.0988
  150.5000     0.1273     0.3127     8.0946   155.4511     0.0189     2.4416     7.1515     7.4541
  151.0000     0.1264     0.3158     8.0952   156.6602     0.0203     2.4424     7.4033     7.5054
  151.5000     0.1243     0.3182     8.0957   157.8694     0.0202     2.4461     7.4020     7.5044
  152.0000     0.1204     0.3158     8.0963   158.4725     0.0172     2.4514     7.4010     7.5033
  152.5000     0.1170     0.3125     8.0969   157.8634     0.0141     2.4560     7.4000     7.5023
  153.0000     0.1146     0.3092     8.0974   155.4362     0.0155     2.4612     7.4510     7.5012
  153.5000     0.1122     0.3071     8.0980   152.7060     0.0230     2.4659     7.5021     7.5000
  154.0000     0.1110     0.3087     8.0985   152.0969     0.0290     2.4694     7.5533     7.6049
  154.5000     0.1150     0.3108     8.0991   155.1455     0.0273     2.4618     7.6583     7.9297
  155.0000     0.1195     0.3098     8.0996   156.9697     0.0211     2.4549     7.7108     8.0407
  155.5000     0.1238     0.3068     8.1002   157.2395     0.0197     2.4481     7.7637     8.0393
  156.0000     0.1262     0.3041     8.1007   156.3267     0.0167     2.4427     7.8170     8.0382
  156.5000     0.1257     0.3047     8.1013   155.7177     0.0045     2.4427     7.8244     8.0371
  157.0000     0.1228     0.3047     8.1018   155.1087    -0.0016     2.4480     7.8695     8.0360
  157.5000     0.1205     0.3053     8.1024   155.7117     0.0044     2.4525     7.8681     8.0349
  158.0000     0.1209     0.3057     8.1020   156.9209     0.0225     2.4517     7.9224     8.0338
  158.5000     0.1230     0.3051     8.1015   157.8277     0.0270     2.4478     7.9210     8.0327
  159.0000     0.1245     0.3045     8.1011   157.5210     0.0163     2.4455     7.8102     8.0315
  159.5000     0.1236     0.3048     8.1158   157.8210    -0.0019     2.4494     7.7549     7.9676
  160.0000     0.1170     0.3048     8.1152   160.2423     0.0026     2.4626     7.7000     7.8074
  160.5000     0.1085     0.3051     8.1148   162.3606     0.0207     2.4848     7.6989     7.8063
  161.0000     0.0988     0.3078     8.1144   162.3515     0.0143     2.4923     7.7517     7.8053
  161.5000     0.0946     0.3148     8.1139   159.8424     0.0004     2.4961     7.7507     7.8042
  162.0000     0.1028     0.3194     8.1135   156.1859    -0.0052     2.4847     7.7496     7.8031
  162.5000     0.1140     0.3172     8.1130   154.7729     0.0098     2.4657     7.7485     7.8571
  163.0000     0.1298     0.3142     8.1126   159.3147     0.0188     2.4407     7.6936     7.8558
  163.5000     0.1362     0.3128     8.1121   162.3420     0.0188     2.4278     7.6926     7.8547
  164.0000     0.1350     0.3143     8.1117   161.4299     0.0203     2.4270     7.6915     7.8536
  164.5000     0.1313     0.3149     8.1112   157.1845     0.0202     2.4360     7.6904     7.8525
  165.0000     0.1250     0.3158     8.1108   154.7573     0.0201     2.4436     7.7432     7.8515
  165.5000     0.1211     0.3161     8.1103   154.1483     0.0216     2.4511     7.7419     7.8504
  166.0000     0.1205     0.3159     8.1098   153.5392     0.0215     2.4548     7.7408     7.8493
  166.5000     0.1184     0.3156     8.1093   152.3241     0.0199     2.4564     7.7398     7.8480
  167.0000     0.1191     0.3147     8.1089   152.9272     0.0169     2.4561     7.7387     7.8469
  167.5000     0.1230     0.3135     8.1084   155.6667     0.0153     2.4502     7.7376     7.8458
  168.0000     0.1199     0.3119     8.1080   159.0384     0.0152     2.4494     7.7366     7.8447
  168.5000     0.1142     0.3101     8.1075   160.1910     0.0091     2.4569     7.6818     7.8436
  169.0000     0.1115     0.3090     8.1071   156.8540     0.0030     2.4652     7.6807     7.7879
  169.5000     0.1103     0.3093     8.1219   154.7298     0.0014     2.4712     7.6263     7.7325
  170.0000     0.1100     0.3056     8.1214   153.8177     0.0089     2.4742     7.5723     7.6240
  170.5000     0.1103     0.3029     8.1209   155.3299     0.0179     2.4697     7.4664     7.4645
  171.0000     0.1134     0.3032     8.1205   156.8428     0.0194     2.4643     7.3620     7.3598
  171.5000     0.1158     0.3096     8.1200   155.9300     0.0193     2.4597     7.2590     7.2565
  172.0000     0.1125     0.3148     8.1195   154.4119     0.0193     2.4612     7.1515     7.1027
  172.5000     0.1064     0.3154     8.1190   154.1059     0.0192     2.4733     6.9906     6.9561
  173.0000     0.1040     0.3145     8.1186   153.1938     0.0192     2.4786     6.7201     6.6690
  173.5000     0.1086     0.3169     8.1181   148.9484     0.0176     2.4783     6.4890     6.4387
  174.0000     0.1138     0.3212     8.1177   147.7333     0.0160     2.4656     6.2658     6.3041
  174.5000     0.1159     0.3264     8.1173   152.1365     0.0144     2.4618     6.0503     6.1723
  175.0000     0.1156     0.3318     8.1321   157.6263     0.0144     2.4595     5.8831     6.0856
  175.5000     0.1140     0.3309     8.1315   160.4517     0.0204     2.4617     6.0066     6.0002
  176.0000     0.1052     0.3225     8.1159   153.1752     0.0263     2.4715     6.0480     5.9575
  176.5000     0.1012     0.3116     8.1155   148.3238     0.0248     2.4828     6.0894     5.9988
  177.0000     0.0990     0.3054     8.1150   146.8064     0.0141     2.4881     6.1312     6.1250
  177.5000     0.1024     0.3037     8.0994   149.8330     0.0065     2.4797     6.2597     6.2980
  178.0000     0.1105     0.3139     8.0989   151.9512     0.0004     2.4691     6.3470     6.4308
  178.5000     0.1163     0.3231     8.0984   151.9483    -0.0012     2.4607     6.4802     6.6141
  179.0000     0.1188     0.3238     8.0979   153.4604     0.0003     2.4554     6.6624     6.8101
  179.5000     0.1191     0.3201     8.1127   155.5787     0.0064     2.4553     6.8023     7.0896
  180.0000     0.1142     0.3171     8.1122   155.5960     0.0140     2.4622     6.9451     7.2391
  180.5000     0.1106     0.3150     8.1270   151.9273     0.0182     2.4675     7.0417     7.2381
  181.0000     0.1091     0.3150     8.1265   150.7212     0.0182     2.4711     7.0899     7.2371
  181.5000     0.1070     0.3159     8.1261   150.6687     0.0196     2.4734     7.0890     7.2361
  182.0000     0.1064     0.3178     8.1256   149.5025     0.0211     2.4749     7.0880     7.1846
  182.5000     0.1067     0.3202     8.1100   151.3177     0.0210     2.4748     7.0378     7.0838
