~VERSION INFORMATION
 VERS.                2.0:   CWLS LOG ASCII STANDARD - VERSION 2.0
 WRAP.                 NO:   ONE LINE PER DEPTH STEP
~WELL INFORMATION
#MNEM.UNIT      DATA TYPE    INFORMATION
#----------   ------------   ------------------------------
 STRT.F           20.0000:   START DEPTH
 STOP.F          698.0000:   STOP DEPTH
 STEP.F            0.5000:   STEP LENGTH
 NULL.          -999.2500:   NO VALUE
 COMP. FENIX & SCISSON INC:   COMPANY
 WELL.    52 SX 34 #52-34:   WELL
 FLD .             TEAPOT:   FIELD
 LOC .      S34 T39N R78W:   LOCATION
 CNTY.            NATRONA:   COUNTY
 STAT.            WYOMING:   STATE
 CTRY. UNITED STATES OF AMERICA:   COUNTRY
 SRVC.            Unknown:   SERVICE COMPANY
 DATE.        26-JAN-1979:   LOGDATE
 API .       490251077100:   API NUMBER
~CURVE INFORMATION
#MNEM.UNIT       API CODE    CURVE DESCRIPTION
#----------   ------------   ------------------------------
 DEPT.F                  :   
 SPR .MV     05 010 01 00:   SPONTANEOUS POTENTIAL FROM RES.
 CALD.IN     45 280 60 00:   CALIPER
 GRD .GAPI   45 310 01 00:   GAMMA RAY FROM DENSITY LOG
 CORR.G/C3   45 356 01 00:   DENSITY CORRECTION
 RHOB.G/C3   45 350 01 00:   BULK DENSITY
 ILD .OHMM   05 120 46 00:   INDUCTION LOG DEEP
 SN  .OHMM   05 040 16 00:   SHORT NORMAL 16"
 DPHI.DEC    45 890 12 00:   DENSITY POROSITY SANDSTONE
~PARAMETER INFORMATION
#MNEM.UNIT          VALUE    DESCRIPTION
#----------   ------------   ------------------------------
 PD  .                 GL:   PERMANENT DATUM
 EPD .F              5072:   ELEVATION PERMANENT DATUM
 LMF .                 KB:   LOG MEASURED FROM
 DAPD.F                 4:   FEET ABOVE PERMANENT DATUM
 DMF .                 KB:   DRILLING MEASURED FROM
 EKB .F              5076:   KELLING BUSHING
 EGL .F              5072:   GROUND LEVEL
 DATE.            1-26-79:   RUN DATE
 RUN .                  1:   RUN NUMBER
 DD  .F               688:   DEPTH DRILLER
 DL  .F               698:   DEPTH LOGGER
 BLI .F               691:   BOTTOM LOG INTERVAL
 TLI .F                30:   TOP LOG INTERVAL
 CS  .IN            8.625:   CASING SIZE
 CBD .F                40:   CASING BOTTOM DRILLER
 CBL .F                20:   CASING BOTTOM LOGGER
 BS  .IN            7.875:   BIT SIZE
 BSD .F               688:   BIT SIZE AT DEPTH
 DFT .                KCL:   DRILLING FLUID TYPE
 DFD .                8.9:   DRILLING FLUID DENSITY
 DFV .                 39:   DRILLING FLUID VISCOSITY
 DFPH.                 10:   DRILLING FLUID PH
 DFL .                 10:   DRILLING FLUID LOSS
 MSS .           FLOWLINE:   MUD SAMPLE SOURCE
 RMS .OHMM             .3:   RESISTIVITY MUD SAMPLE
 MST .F                60:   MUD SAMPLE TEMPERATURE
 RMF .OHMM            .22:   RESISTIVITY MUD FILTRATE SAMPLE
 MFST.F                66:   MUD FILTRATE SAMPLE TEMPERATURE
 MFSS.           MEASURED:   MUD FILTRATE SAMPLE SOURCE
 MCSS.           MEASURED:   MUD CAKE SAMPLE SOURCE
 RMB .OHMM            .25:   RESISTIVITY MUD AT BHT
 BHT .F                70:   BOTTOM HOLE TEMPERATURE
 TCS .HRS               7:   TIME CURCULATED STOPPED
 MRT .F                70:   MAXIMUM RECORDED TEMPERATURE
 LUN .               3006:   LOGGING UNIT NUMBER
 LUL .             CASPER:   LOGGING UNIT LOCATION
 ENGI.            ROLLINS:   RECORDING ENGINEER
 WITN.              AMEND:   WITNESSED BY
 CLNT.            A2DTECH:   CLIENT CODE
 ORIG.       2", 5" PRINT:   ORIGIN OF DATA
 UWI .       490251077100:   UNIQUE WELL ID
 DICO. A2D Technologies, Inc.:   DIGITIZING COMPANY
~OTHER INFORMATION
~A   DEPT      SPR         CALD       GRD      CORR       RHOB        ILD         SN       DPHI   
# ...
  263.0000   -47.3841     8.1313    99.7528     0.0233     2.4655     7.7592     8.0462     0.1261
  263.5000   -47.3841     8.0985   103.6030     0.0196     2.4718     7.8594     8.1559     0.1238
  264.0000   -47.3841     8.0950   104.8451     0.0161     2.4780     7.8744     8.1714     0.1214
  264.5000   -47.3841     8.0973   105.0709     0.0143     2.4780     7.8893     8.1869     0.1214
  265.0000   -47.3841     8.0999   104.7772     0.0114     2.4766     7.9043     8.2025     0.1221
  265.5000   -47.3841     8.1024   100.9041     0.0064     2.4751     7.9254     8.2243     0.1228
  266.0000   -47.3841     8.1048    97.9536     0.0055     2.4747     7.9188     8.2173     0.1220
  266.5000   -47.3841     8.1073   100.7143     0.0055     2.4793     7.9079     8.2063     0.1183
  267.0000   -47.3841     8.1099   103.4432     0.0055     2.4837     7.8970     8.1949     0.1187
  267.5000   -47.3841     8.1124   103.1762     0.0052     2.4803     7.8861     8.1836     0.1205
  268.0000   -47.3841     8.1042   100.1580     0.0140     2.4764     7.8753     8.1723     0.1228
  268.5000   -47.3841     8.0936   100.6413     0.0195     2.4726     7.8643     8.1612     0.1252
  269.0000   -47.3841     8.1156   100.8452     0.0196     2.4696     7.8535     8.1499     0.1259
  269.5000   -47.3841     8.1283   101.0250     0.0198     2.4701     7.8735     8.1707     0.1237
  270.0000   -47.3841     8.1188   104.4536     0.0200     2.4754     7.8975     8.1954     0.1219
  270.5000   -47.3841     8.1206   103.5631     0.0201     2.4759     7.9215     8.2204     0.1223
  271.0000   -47.3841     8.1433   102.3462     0.0202     2.4746     7.9457     8.2454     0.1227
  271.5000   -47.3841     8.1667   102.4411     0.0204     2.4742     7.9698     8.2704     0.1226
  272.0000   -47.3841     8.1555   105.0008     0.0205     2.4774     7.9941     8.2956     0.1223
  272.5000   -47.3841     8.1334   107.5392     0.0206     2.4757     8.0183     8.3209     0.1224
  273.0000   -47.3841     8.1130   109.7820     0.0208     2.4732     8.0427     8.3462     0.1227
  273.5000   -47.3841     8.1126   110.2552     0.0209     2.4787     8.0735     8.3779     0.1168
  274.0000   -47.3841     8.1126   108.7921     0.0211     2.4837     8.0679     8.3726     0.1178
  274.5000   -47.3841     8.1126   107.4754     0.0212     2.4838     8.0604     8.3647     0.1164
  275.0000   -47.3841     8.1126   106.1245     0.0214     2.4906     8.0529     8.3571     0.1120
  275.5000   -47.3842     8.1126   102.8156     0.0214     2.4928     8.0454     8.3495     0.1114
  276.0000   -47.3842     8.1126   103.3439     0.0154     2.4917     8.0379     8.3419     0.1113
  276.5000   -47.3837     8.1129   104.0848     0.0085     2.4952     8.0305     8.3343     0.1094
  277.0000   -47.3830     8.1149   101.2240     0.0075     2.4984     8.0230     8.3267     0.1125
  277.5000   -47.2801     8.1168    99.3226     0.0075     2.4953     8.0156     8.3191     0.1165
  278.0000   -47.0326     8.1188   100.9835     0.0075     2.4866     8.0081     8.3115     0.1211
  278.5000   -46.9768     8.1207   104.2353     0.0074     2.4781     8.0010     8.3037     0.1219
  279.0000   -46.9627     8.1226   105.2801     0.0072     2.4755     7.9818     8.2887     0.1218
  279.5000   -46.9497     8.1246   105.8716     0.0069     2.4741     7.9594     8.2688     0.1216
  280.0000   -46.9366     8.1265   104.6164     0.0066     2.4752     7.9372     8.2487     0.1211
  280.5000   -46.9233     8.1285   103.0234     0.0063     2.4762     7.9151     8.2286     0.1218
  281.0000   -46.9101     8.1305   103.0300     0.0061     2.4764     7.8931     8.2085     0.1226
  281.5000   -46.8969     8.1321   101.7758     0.0058     2.4744     7.8711     8.1885     0.1235
  282.0000   -46.8837     8.1221   100.9530     0.0055     2.4726     7.8492     8.1686     0.1235
  282.5000   -46.8705     8.1112   108.1142     0.0058     2.4753     7.8273     8.1487     0.1208
  283.0000   -46.8573     8.1005   114.0343     0.0061     2.4801     7.8055     8.1289     0.1175
  283.5000   -46.8441     8.0919   113.7468     0.0064     2.4843     7.7838     8.1089     0.1171
  284.0000   -46.8309     8.0888   107.3261     0.0067     2.4848     7.7764     8.0891     0.1181
  284.5000   -46.8177     8.0857   109.0131     0.0070     2.4811     7.7720     8.0736     0.1201
  285.0000   -46.8045     8.0826   110.1384     0.0074     2.4772     7.7677     8.0859     0.1226
  285.5000   -46.7907     8.0794   108.8469     0.0079     2.4734     7.7633     8.0965     0.1247
  286.0000   -46.8002     8.0764   109.4946     0.0086     2.4711     7.7589     8.1071     0.1244
  286.5000   -46.8158     8.0728   110.9030     0.0092     2.4720     7.7546     8.1177     0.1240
  287.0000   -46.8316     8.0560   111.1197     0.0136     2.4727     7.7502     8.1283     0.1236
  287.5000   -46.8474     8.0870   110.7542     0.0173     2.4734     7.7459     8.1389     0.1231
  288.0000   -46.8631     8.1305   105.9646     0.0162     2.4741     7.7415     8.1495     0.1227
  288.5000   -46.8789     8.1327   100.8129     0.0152     2.4753     7.7371     8.1601     0.1186
  289.0000   -46.8947     8.1326   103.0206     0.0142     2.4859     7.7328     8.1707     0.1143
  289.5000   -46.9104     8.1253   106.2095     0.0131     2.4964     7.7284     8.1813     0.1102
  290.0000   -46.9262     8.1153   108.6775     0.0121     2.4970     7.7241     8.1920     0.1116
  290.5000   -46.9420     8.1048   108.4575     0.0111     2.4959     7.7197     8.2027     0.1117
  291.0000   -46.9578     8.0923   104.0772     0.0101     2.4951     7.7155     8.2133     0.1112
  291.5000   -46.9734     8.1601   103.1505     0.0095     2.4957     7.7089     8.2243     0.1107
  292.0000   -46.9851     8.1905   102.4147     0.0096     2.4964     7.7401     8.2649     0.1102
  292.5000   -46.9711     8.1913   100.7269     0.0142     2.4968     7.8288     8.3068     0.1130
  293.0000   -46.9574     8.1137    99.0542     0.0191     2.4911     7.9184     8.3489     0.1186
  293.5000   -46.9439     8.0632    96.8128     0.0234     2.4776     8.0091     8.3913     0.1240
  294.0000   -46.9303     7.9769    98.3902     0.0236     2.4677     8.1008     8.4339     0.1247
  294.5000   -46.9167     7.9442   102.8285     0.0195     2.4728     8.1486     8.4559     0.1194
  295.0000   -46.9031     8.1094   106.1762     0.0138     2.4838     8.1486     8.4559     0.1130
  295.5000   -46.8896     8.1050   107.3441     0.0094     2.4969     8.1486     8.4559     0.1054
  296.0000   -46.8760     7.9436   107.8631     0.0095     2.5073     8.1487     8.4559     0.1038
  296.5000   -46.8624     8.0340   108.1322     0.0095     2.5069     8.1486     8.4559     0.1095
  297.0000   -46.8488     8.1069   111.5164     0.0107     2.4988     8.1071     8.4128     0.1190
  297.5000   -46.8353     8.0660   112.0265     0.0154     2.4780     8.0389     8.3422     0.1277
  298.0000   -46.8217     8.0376   110.2523     0.0174     2.4575     7.9714     8.2721     0.1324
  298.5000   -46.8082     8.0717   108.9000     0.0175     2.4548     7.9045     8.2026     0.1328
  299.0000   -46.7946     8.1079   110.1183     0.0175     2.4581     7.8381     8.1338     0.1302
  299.5000   -46.7882     7.9929   111.1836     0.0175     2.4619     7.7748     8.0681     0.1222
  300.0000   -46.7881     7.9928   110.3692     0.0175     2.4767     7.7307     8.0223     0.1175
  300.5000   -46.7881     8.0423   108.3734     0.0175     2.4849     7.6869     7.9768     0.1164
  301.0000   -46.7881     8.0944   102.8235     0.0175     2.4876     7.6433     7.9316     0.1153
  301.5000   -46.7881     8.1103    99.4812     0.0173     2.4878     7.5580     7.8889     0.1143
  302.0000   -46.7881     8.1074    97.7548     0.0224     2.4873     7.4667     7.8470     0.1133
  302.5000   -46.7881     8.1042    99.7449     0.0226     2.4878     7.3766     7.7800     0.1119
  303.0000   -46.7881     8.1010   101.9147     0.0214     2.4927     7.3593     7.7883     0.1094
