~VERSION INFORMATION
 VERS.                2.0:   CWLS LOG ASCII STANDARD - VERSION 2.0
 WRAP.                 NO:   ONE LINE PER DEPTH STEP
~WELL INFORMATION
#MNEM.UNIT      DATA TYPE    INFORMATION
#----------   ------------   ------------------------------
 STRT.F           26.0000:   START DEPTH
 STOP.F         1071.0000:   STOP DEPTH
 STEP.F            0.5000:   STEP LENGTH
 NULL.          -999.2500:   NO VALUE
 COMP. FENIX & SCISSON INC:   COMPANY
 WELL.       NRP 3 #61-14:   WELL
 FLD .        TEAPOT DOME:   FIELD
 LOC .      S14 T38N R78W:   LOCATION
 CNTY.            NATRONA:   COUNTY
 STAT.            WYOMING:   STATE
 CTRY. UNITED STATES OF AMERICA:   COUNTRY
 SRVC.            Unknown:   SERVICE COMPANY
 DATE.        09-JAN-1979:   LOGDATE
 API .       490251076300:   API NUMBER
~CURVE INFORMATION
#MNEM.UNIT       API CODE    CURVE DESCRIPTION
#----------   ------------   ------------------------------
 DEPT.F                  :   
 SPR .MV     05 010 01 00:   SPONTANEOUS POTENTIAL FROM RES.
 SN  .OHMM   05 040 16 00:   SHORT NORMAL 16"
 IL  .OHMM   05 120 00 00:   INDUCTION LOG
 CALD.IN     45 280 60 00:   CALIPER
 GRD .GAPI   45 310 01 00:   GAMMA RAY FROM DENSITY LOG
 RHOB.G/C3   45 350 01 00:   BULK DENSITY
 DPHI.DEC    45 890 12 00:   DENSITY POROSITY SANDSTONE
 CORR.G/C3   45 356 01 00:   DENSITY CORRECTION
~PARAMETER INFORMATION
#MNEM.UNIT          VALUE    DESCRIPTION
#----------   ------------   ------------------------------
 PD  .                 GL:   PERMANENT DATUM
 EPD .F              5240:   ELEVATION PERMANENT DATUM
 LMF .                 KB:   LOG MEASURED FROM
 DAPD.F                 4:   FEET ABOVE PERMANENT DATUM
 DMF .                 KB:   DRILLING MEASURED FROM
 EKB .F              5244:   KELLING BUSHING
 EGL .F              5240:   GROUND LEVEL
 DATE.             1-9-79:   RUN DATE
 RUN .                  1:   RUN NUMBER
 DD  .F              1061:   DEPTH DRILLER
 DL  .F              1071:   DEPTH LOGGER
 BLI .F              1064:   BOTTOM LOG INTERVAL
 TLI .F                50:   TOP LOG INTERVAL
 CS  .IN            8.625:   CASING SIZE
 CBD .F                40:   CASING BOTTOM DRILLER
 CBL .F                38:   CASING BOTTOM LOGGER
 BS  .IN            7.875:   BIT SIZE
 BSD .F              1061:   BIT SIZE AT DEPTH
 DFT .                KCL:   DRILLING FLUID TYPE
 DFD .                8.8:   DRILLING FLUID DENSITY
 DFV .                 36:   DRILLING FLUID VISCOSITY
 DFPH.                9.2:   DRILLING FLUID PH
 MSS .           FLOWLINE:   MUD SAMPLE SOURCE
 RMS .OHMM             .3:   RESISTIVITY MUD SAMPLE
 MST .F                58:   MUD SAMPLE TEMPERATURE
 RMF .OHMM             .3:   RESISTIVITY MUD FILTRATE SAMPLE
 MFST.F                58:   MUD FILTRATE SAMPLE TEMPERATURE
 RMC .OHMM            .34:   RESISTIVITY MUD CAKE
 MCST.F                62:   MUD CAKE SAMPLE TEMPERATURE
 MFSS.           MEASURED:   MUD FILTRATE SAMPLE SOURCE
 MCSS.           MEASURED:   MUD CAKE SAMPLE SOURCE
 RMB .OHMM            .29:   RESISTIVITY MUD AT BHT
 BHT .F                61:   BOTTOM HOLE TEMPERATURE
 TCS .HRS               4:   TIME CURCULATED STOPPED
 MRT .F                61:   MAXIMUM RECORDED TEMPERATURE
 LUN .               3006:   LOGGING UNIT NUMBER
 LUL .             CASPER:   LOGGING UNIT LOCATION
 ENGI.            ROLLINS:   RECORDING ENGINEER
 WITN.           DINSMORE:   WITNESSED BY
 CLNT.            A2DTECH:   CLIENT CODE
 ORIG.           5" PRINT:   ORIGIN OF DATA
 UWI .       490251076300:   UNIQUE WELL ID
 DICO. A2D Technologies, Inc.:   DIGITIZING COMPANY
~OTHER INFORMATION
~A   DEPT      SPR         SN         IL       CALD         GRD      RHOB       DPHI       CORR   
# ...
  714.5000   -66.8590     9.4540    10.1410     7.8460   111.6330     2.4610     0.1370     0.1820
  715.0000   -66.8840     9.5210    10.2740     7.8420   112.6710     2.4590     0.1350     0.1850
  715.5000   -66.9090     9.5880    10.4070     7.8380   111.6550     2.4590     0.1300     0.1850
  716.0000   -66.9340     9.6550    10.5410     7.8350   109.3310     2.4680     0.1220     0.1700
  716.5000   -66.9590     9.7220    10.6740     7.8310   108.2950     2.4770     0.1130     0.1480
  717.0000   -66.9840     9.7880    10.8070     7.8270   108.1300     2.4850     0.1050     0.1300
  717.5000   -67.0090     9.8720    10.9410     7.8070   106.7310     2.4940     0.0960     0.1310
  718.0000   -67.0340     9.8120    11.0280     7.7860   105.2510     2.5090     0.0990     0.1310
  718.5000   -67.0590     9.7300    10.9270     7.7670   103.7850     2.5210     0.1080     0.1320
  719.0000   -67.0830     9.6490    10.8470     7.7680   102.9910     2.5190     0.1170     0.1320
  719.5000   -67.1080     9.5680    10.7610     7.7820   103.9190     2.4990     0.1260     0.1320
  720.0000   -67.1330     9.4870    10.6750     7.8290   105.9710     2.4800     0.1340     0.1310
  720.5000   -67.1580     9.4060    10.5880     7.8760   107.4580     2.4600     0.1360     0.1220
  721.0000   -67.1830     9.3250    10.5020     7.8830   107.6640     2.4520     0.1390     0.1140
  721.5000   -67.2080     9.2440    10.4160     7.8790   107.8480     2.4510     0.1400     0.1110
  722.0000   -67.2330     9.1620    10.3300     7.8750   110.0370     2.4500     0.1390     0.1100
  722.5000   -67.2580     9.0850    10.2430     7.8710   112.6410     2.4490     0.1370     0.1090
  723.0000   -67.2830     9.0740    10.1570     7.8680   112.9080     2.4480     0.1400     0.1090
  723.5000   -67.3080     9.0620    10.0560     7.8740   109.9600     2.4450     0.1420     0.1080
  724.0000   -67.3330     9.0510    10.0620     7.8800   106.2940     2.4430     0.1440     0.1080
  724.5000   -67.3570     9.0400    10.0700     7.8860   105.9630     2.4410     0.1440     0.1070
  725.0000   -67.3820     9.0290    10.0770     7.8920   108.7560     2.4410     0.1440     0.1070
  725.5000   -67.4070     9.0170    10.0850     7.8980   111.5700     2.4410     0.1440     0.1070
  726.0000   -67.4320     9.0060    10.0920     7.9040   111.7230     2.4400     0.1440     0.1070
  726.5000   -67.4570     8.9950    10.1000     7.8990   111.5740     2.4400     0.1470     0.1070
  727.0000   -67.4820     8.9830    10.1070     7.8820   108.8830     2.4400     0.1490     0.1070
  727.5000   -67.5070     8.9720    10.1140     7.8660   105.3650     2.4400     0.1470     0.1070
  728.0000   -67.5320     8.9610    10.1220     7.8490   101.8650     2.4430     0.1390     0.1070
  728.5000   -67.5570     8.9500    10.1290     7.8320   100.7590     2.4510     0.1300     0.1070
  729.0000   -67.5820     8.9380    10.1370     7.8330   100.0300     2.4590     0.1220     0.1060
  729.5000   -67.6070     8.9270    10.1520     7.8400    98.7950     2.4680     0.1230     0.1060
  730.0000   -67.6310     8.8990    10.1010     7.8470    92.8290     2.4720     0.1240     0.1050
  730.5000   -67.6560     8.8370     9.9400     7.8540    90.9850     2.4700     0.1260     0.1050
  731.0000   -67.6810     8.6800     9.7800     7.8610    98.9980     2.4680     0.1320     0.1050
  731.5000   -67.7060     8.5360     9.6200     7.8680   106.3560     2.4620     0.1390     0.1080
  732.0000   -67.7310     8.3920     9.4590     7.8760   110.4860     2.4510     0.1440     0.1110
  732.5000   -67.7560     8.2700     9.2990     7.8830   109.5060     2.4380     0.1440     0.1140
  733.0000   -67.7810     8.2130     9.1380     7.8920   107.3080     2.4370     0.1460     0.1170
  733.5000   -67.8050     8.1560     8.9780     7.9040   105.1230     2.4360     0.1500     0.1170
  734.0000   -67.8360     8.0990     8.8180     7.9370   103.3230     2.4340     0.1490     0.1190
  734.5000   -67.9800     8.0420     8.7160     7.9720   103.2510     2.4340     0.1470     0.1210
  735.0000   -68.1220     7.9850     8.6500     8.0080   103.1380     2.4380     0.1450     0.1240
  735.5000   -68.2620     7.9280     8.5850     8.0430   103.0120     2.4420     0.1430     0.1280
  736.0000   -68.4030     7.8710     8.5190     8.0240   103.2490     2.4470     0.1420     0.1320
  736.5000   -68.5440     7.8140     8.4540     7.9290   103.5510     2.4480     0.1440     0.1350
  737.0000   -68.6840     7.7630     8.4230     7.9260   103.9570     2.4480     0.1450     0.1380
  737.5000   -68.8250     7.7420     8.4010     7.9270   104.7870     2.4470     0.1460     0.1430
  738.0000   -68.9650     7.7210     8.3800     7.9270   105.6360     2.4470     0.1450     0.1470
  738.5000   -69.1040     7.6990     8.3590     7.9270   105.8620     2.4470     0.1440     0.1480
  739.0000   -69.2340     7.6780     8.3380     7.9270   104.0020     2.4470     0.1430     0.1480
  739.5000   -69.2730     7.6570     8.3170     7.9270   101.9510     2.4480     0.1420     0.1460
  740.0000   -69.3160     7.6360     8.2960     7.9230   101.5860     2.4500     0.1380     0.1420
  740.5000   -69.3580     7.6150     8.2750     7.9130   101.3500     2.4560     0.1350     0.1370
  741.0000   -69.4010     7.5940     8.2540     7.9030   101.0860     2.4620     0.1330     0.1370
  741.5000   -69.4440     7.5730     8.2320     7.8930   100.8300     2.4640     0.1310     0.1380
  742.0000   -69.4870     7.5520     8.2110     7.8830   101.0060     2.4660     0.1270     0.1390
  742.5000   -69.5300     7.5310     8.1380     7.8740   101.2040     2.4690     0.1230     0.1400
  743.0000   -69.5720     7.5090     8.0560     7.8670   101.4200     2.4730     0.1220     0.1400
  743.5000   -69.6150     7.4880     7.9750     7.8670   102.3750     2.4710     0.1280     0.1360
  744.0000   -69.6580     7.4040     7.8840     7.8670   104.6420     2.4670     0.1380     0.1290
  744.5000   -69.7010     7.3070     7.7610     7.8860   106.1960     2.4560     0.1470     0.1220
  745.0000   -69.7440     7.2100     7.6380     7.9100   106.2840     2.4440     0.1470     0.1170
  745.5000   -69.7860     7.1130     7.5150     7.9350   107.1030     2.4410     0.1420     0.1170
  746.0000   -69.8170     7.0160     7.3920     7.9480   107.9500     2.4430     0.1380     0.1170
  746.5000   -69.7900     6.9190     7.2690     7.9520   108.1480     2.4440     0.1420     0.1180
  747.0000   -69.7640     6.8220     7.1460     7.9560   108.1400     2.4420     0.1480     0.1180
  747.5000   -69.7380     6.7000     7.0160     7.9590   107.3240     2.4370     0.1510     0.1180
  748.0000   -69.7120     6.7190     7.0500     7.9630   106.4040     2.4320     0.1530     0.1180
  748.5000   -69.6860     6.7550     7.0840     7.9670   106.1790     2.4320     0.1540     0.1170
  749.0000   -69.6600     6.7900     7.1190     7.9700   106.1690     2.4320     0.1510     0.1160
  749.5000   -69.6340     6.8260     7.1540     7.9740   106.1710     2.4320     0.1500     0.1160
  750.0000   -69.6250     6.8610     7.1890     7.9780   105.7830     2.4310     0.1500     0.1150
  750.5000   -69.6300     6.8970     7.2240     7.9810   105.4230     2.4310     0.1510     0.1140
  751.0000   -69.6360     6.9320     7.2590     7.9850   105.8270     2.4310     0.1520     0.1130
  751.5000   -69.6420     6.9680     7.2930     7.9890   107.8940     2.4310     0.1530     0.1120
  752.0000   -69.6480     7.0030     7.3280     7.9920   111.8280     2.4310     0.1510     0.1110
  752.5000   -69.6530     7.0390     7.3630     7.9960   111.8730     2.4340     0.1480     0.1110
  753.0000   -69.6590     7.0740     7.3980     8.0000   111.1340     2.4370     0.1480     0.1160
  753.5000   -69.6650     7.1040     7.4330     8.0030   110.3690     2.4370     0.1480     0.1220
  754.0000   -69.6710     7.1320     7.4670     8.0070   110.3330     2.4370     0.1490     0.1270
  754.5000   -69.6760     7.1600     7.5020     8.0080   110.3250     2.4370     0.1490     0.1300
