~VERSION INFORMATION
 VERS.                2.0:   CWLS LOG ASCII STANDARD - VERSION 2.0
 WRAP.                 NO:   ONE LINE PER DEPTH STEP
~WELL INFORMATION
#MNEM.UNIT      DATA TYPE    INFORMATION
#----------   ------------   ------------------------------
 STRT.F           24.5000:   START DEPTH
 STOP.F          506.0000:   STOP DEPTH
 STEP.F            0.5000:   STEP LENGTH
 NULL.          -999.2500:   NO VALUE
 COMP. FENIX & SCISSON INC:   COMPANY
 WELL.    NPR 3 SX #44-10:   WELL
 FLD .        TEAPOT DOME:   FIELD
 LOC .      S10 T38N R78W:   LOCATION
 CNTY.            NATRONA:   COUNTY
 STAT.            WYOMING:   STATE
 CTRY. UNITED STATES OF AMERICA:   COUNTRY
 SRVC.           BIRDWELL:   SERVICE COMPANY
 DATE.        14-NOV-1978:   LOGDATE
 API .       490251074700:   API NUMBER
~CURVE INFORMATION
#MNEM.UNIT       API CODE    CURVE DESCRIPTION
#----------   ------------   ------------------------------
 DEPT.F                  :   
 SPR .MV     05 010 01 00:   SPONTANEOUS POTENTIAL FROM RES.
 IL  .OHMM   05 120 00 00:   INDUCTION LOG
 SN  .OHMM   05 040 16 00:   SHORT NORMAL 16"
 CALD.IN     45 280 60 00:   CALIPER
 GRD .GAPI   45 310 01 00:   GAMMA RAY FROM DENSITY LOG
 RHOB.G/C3   45 350 01 00:   BULK DENSITY
 DPHI.DEC    45 890 12 00:   DENSITY POROSITY SANDSTONE
 DRHO.G/C3   45 356 01 00:   DENSITY CORRECTION
~PARAMETER INFORMATION
#MNEM.UNIT          VALUE    DESCRIPTION
#----------   ------------   ------------------------------
 PD  .                 GL:   PERMANENT DATUM
 EPD .F              5211:   ELEVATION PERMANENT DATUM
 LMF .                 KB:   LOG MEASURED FROM
 DAPD.F                 4:   FEET ABOVE PERMANENT DATUM
 DMF .                 KB:   DRILLING MEASURED FROM
 EKB .F              5215:   KELLING BUSHING
 EGL .F              5211:   GROUND LEVEL
 DATE.           11-14-78:   RUN DATE
 RUN .                  1:   RUN NUMBER
 DD  .F               510:   DEPTH DRILLER
 DL  .F               506:   DEPTH LOGGER
 BLI .F               500:   BOTTOM LOG INTERVAL
 TLI .F                45:   TOP LOG INTERVAL
 CS  .IN            8.625:   CASING SIZE
 CBD .F                40:   CASING BOTTOM DRILLER
 CBL .F                40:   CASING BOTTOM LOGGER
 BS  .IN            7.875:   BIT SIZE
 BSD .F               510:   BIT SIZE AT DEPTH
 DFT .            SEA MUD:   DRILLING FLUID TYPE
 DFD .                8.7:   DRILLING FLUID DENSITY
 DFV .                 35:   DRILLING FLUID VISCOSITY
 DFPH.               10.5:   DRILLING FLUID PH
 MSS .            MUD PIT:   MUD SAMPLE SOURCE
 RMS .OHMM            .51:   RESISTIVITY MUD SAMPLE
 MST .F                54:   MUD SAMPLE TEMPERATURE
 RMF .OHMM            .45:   RESISTIVITY MUD FILTRATE SAMPLE
 MFST.F                54:   MUD FILTRATE SAMPLE TEMPERATURE
 RMC .OHMM             .5:   RESISTIVITY MUD CAKE
 MCST.F                60:   MUD CAKE SAMPLE TEMPERATURE
 MFSS.           MEASURED:   MUD FILTRATE SAMPLE SOURCE
 MCSS.           MEASURED:   MUD CAKE SAMPLE SOURCE
 RMB .OHMM            .49:   RESISTIVITY MUD AT BHT
 BHT .F                56:   BOTTOM HOLE TEMPERATURE
 TCS .HRS               2:   TIME CURCULATED STOPPED
 MRT .F                56:   MAXIMUM RECORDED TEMPERATURE
 LUN .               2958:   LOGGING UNIT NUMBER
 LUL .               CASP:   LOGGING UNIT LOCATION
 ENGI.             MILLER:   RECORDING ENGINEER
 WITN.           DINSMORE:   WITNESSED BY
 CLNT.            A2DTECH:   CLIENT CODE
 ORIG.       2", 5" PRINT:   ORIGIN OF DATA
 UWI .       490251074700:   UNIQUE WELL ID
 DICO. A2D Technologies, Inc.:   DIGITIZING COMPANY
~OTHER INFORMATION
~A   DEPT      SPR         IL         SN       CALD         GRD      RHOB       DPHI       DRHO   
# ...
  146.0000   -19.5840     9.4000    11.1650     8.1770    93.1440     2.4860     0.1150     0.0280
  146.5000   -19.4690     9.3050    11.0170     8.1520    93.9020     2.4930     0.1120     0.0310
  147.0000   -19.3570     9.3050    10.8690     8.1270    94.0830     2.4950     0.1100     0.0310
  147.5000   -19.3960     9.3050    10.7220     8.1030    94.0600     2.4910     0.1140     0.0310
  148.0000   -19.8010     9.3050    10.5870     8.0780    92.9480     2.4880     0.1150     0.0300
  148.5000   -20.1980     9.3050    10.6050     8.0530    90.1070     2.4890     0.1130     0.0300
  149.0000   -20.5920     9.3050    10.6210     8.0280    87.2540     2.4920     0.1110     0.0300
  149.5000   -20.9870     9.3050    10.6380     8.0020    86.2560     2.4950     0.1100     0.0300
  150.0000   -21.3820     9.3050    10.6550     7.9770    89.4200     2.4930     0.1120     0.0250
  150.5000   -21.7790     9.3050    10.6720     7.9640    93.7660     2.4860     0.1180     0.0190
  151.0000   -22.1740     9.3050    10.6880     7.9540    97.0420     2.4800     0.1200     0.0130
  151.5000   -22.4580     9.3050    10.7050     7.9450    97.0410     2.4780     0.1200     0.0090
  152.0000   -21.2760     9.3050    10.7220     7.9360    95.7740     2.4810     0.1190     0.0090
  152.5000   -20.7730     9.3050    10.7390     7.9260    94.5400     2.4840     0.1150     0.0080
  153.0000   -20.8910     9.3050    10.7550     7.9170    93.8970     2.4890     0.1100     0.0080
  153.5000   -21.0040     9.3050    10.7720     7.9080    94.0920     2.4970     0.1030     0.0070
  154.0000   -21.0450     9.3050    10.7890     7.8990    97.8380     2.5050     0.1010     0.0070
  154.5000   -20.5440     9.3050    10.8060     7.8910   101.5230     2.5070     0.1010     0.0060
  155.0000   -20.0910     9.3050    10.8220     7.8990   103.8750     2.5040     0.1010     0.0060
  155.5000   -19.5260     9.3050    10.8390     7.9080   102.6500     2.5010     0.1020     0.0050
  156.0000   -18.9560     9.3050    10.8560     7.9170   100.3410     2.4980     0.1060     0.0050
  156.5000   -18.6880     9.3050    10.8730     7.9260   100.4260     2.4940     0.1100     0.0050
  157.0000   -18.6890     9.3050    10.9350     7.9350   100.0570     2.4860     0.1160     0.0040
  157.5000   -18.6880     9.3050    11.0820     7.9430    98.0400     2.4770     0.1220     0.0040
  158.0000   -18.6870     9.3050    11.2920     7.9470    96.8930     2.4690     0.1280     0.0060
  158.5000   -18.6860     9.3050    11.2810     7.8560    97.3010     2.4600     0.1340     0.0180
  159.0000   -18.6830     9.3050    11.2610     7.7640    97.9090     2.4540     0.1250     0.0370
  159.5000   -18.6740     9.3050    11.2410     7.7690    98.4850     2.4750     0.1160     0.0520
  160.0000   -18.4140     9.3050    11.2210     7.9120    98.4610     2.4990     0.1070     0.0590
  160.5000   -17.4740     9.3040    11.2010     8.0460    97.4850     2.5120     0.0970     0.0670
  161.0000   -16.6980     9.3050    11.1810     8.0400    96.5300     2.5170     0.0950     0.0690
  161.5000   -17.1070     9.2860    11.1600     8.0270    96.4910     2.5200     0.0950     0.0630
  162.0000   -17.4860     9.1910    11.1400     8.0140    96.2200     2.5130     0.0980     0.0520
  162.5000   -20.3110     9.0950    11.1200     8.0010    95.1450     2.5060     0.1020     0.0400
  163.0000   -19.2520     8.9990    11.1000     7.9890    92.3310     2.4990     0.1050     0.0320
  163.5000   -17.1960     8.9040    11.0800     7.9760    89.5090     2.4920     0.1090     0.0290
  164.0000   -17.4310     8.8830    11.0600     7.9630    87.8560     2.4840     0.1120     0.0270
  164.5000   -17.6200     8.8730    11.0400     7.9510    87.0240     2.4800     0.1160     0.0250
  165.0000   -17.7460     8.8630    11.0200     7.9380    89.0500     2.4760     0.1180     0.0230
  165.5000   -22.0060     8.8530    11.0000     7.9290    91.0520     2.4780     0.1180     0.0210
  166.0000   -19.8380     8.8430    10.9680     7.9260    93.0490     2.4880     0.1150     0.0190
  166.5000   -15.8740     8.8320    10.8970     7.9230    95.0510     2.4950     0.1120     0.0160
  167.0000   -15.4440     8.8220    10.8260     7.9190    96.2400     2.4890     0.1150     0.0150
  167.5000   -16.0600     8.8120    10.7550     7.9160    95.9830     2.4810     0.1190     0.0140
  168.0000   -16.6890     8.8020    10.6840     7.9130    95.6990     2.4730     0.1240     0.0160
  168.5000   -17.3220     8.7920    10.6130     7.9090    95.9850     2.4650     0.1280     0.0220
  169.0000   -17.9520     8.7810    10.5420     7.9060    96.2870     2.4640     0.1200     0.0280
  169.5000   -18.4980     8.7710    10.4890     7.9030    96.3590     2.4730     0.1130     0.0320
  170.0000   -18.3950     8.7610    10.5370     7.9000    96.4230     2.4850     0.1150     0.0310
  170.5000   -17.8560     8.7510    10.5740     7.8960    96.4910     2.4860     0.1170     0.0310
  171.0000   -17.3200     8.7410    10.6120     7.8930    96.2420     2.4840     0.1160     0.0310
  171.5000   -16.7860     8.7300    10.6500     7.8900    95.9010     2.4820     0.1150     0.0310
  172.0000   -16.2520     8.7230    10.6850     7.8860    95.5580     2.4820     0.1140     0.0370
  172.5000   -15.7160     8.5700    10.4350     7.8830    95.2150     2.4890     0.1100     0.0440
  173.0000   -15.1780     8.3960    10.2030     7.8800    94.8650     2.4960     0.1080     0.0440
  173.5000   -14.7220     8.2220     9.9710     7.8760    94.6730     2.4980     0.1080     0.0480
  174.0000   -16.3070     8.0280     9.7390     7.8730    95.9520     2.4970     0.1110     0.0520
  174.5000   -18.1000     8.0280     9.5070     7.8690    97.1110     2.4910     0.1150     0.0600
  175.0000   -15.1350     8.0270     9.3590     7.8440    96.0670     2.4830     0.1190     0.0670
  175.5000   -15.1280     8.0230     9.2960     7.8210    94.7500     2.4800     0.1170     0.0730
  176.0000   -15.6490     8.0190     9.2330     7.7980    93.4430     2.4840     0.1140     0.0710
  176.5000   -16.1590     8.0150     9.1700     7.7740    92.4760     2.4900     0.1120     0.0680
  177.0000   -16.6680     8.0120     9.1060     7.7510    92.5090     2.4890     0.1150     0.0650
  177.5000   -16.2190     8.0080     9.0510     7.7280    93.5620     2.4850     0.1170     0.0660
  178.0000   -14.6030     8.0040     9.2330     7.7040    94.7580     2.4820     0.1130     0.0790
  178.5000   -13.0650     8.0000     9.4850     7.6810    95.9340     2.4880     0.1090     0.0900
  179.0000   -13.4800     7.9960     9.6540     7.6570    95.1400     2.4940     0.1050     0.1020
  179.5000   -14.0250     7.9930     9.7690     7.6500    94.0580     2.5000     0.1010     0.1170
  180.0000   -14.5720     7.9890     9.8460     7.6500    94.8490     2.5050     0.0990     0.1300
  180.5000   -15.1110     7.9850     9.9230     7.6500    96.9230     2.5090     0.0970     0.1440
  181.0000   -15.6050     7.9810    10.0000     7.6500    99.6620     2.5140     0.0950     0.1530
  181.5000   -16.0840     7.9780    10.0770     7.6500    98.1780     2.5180     0.0990     0.1510
  182.0000   -16.1070     7.9740    10.1540     7.6500    96.0970     2.5200     0.1030     0.1440
  182.5000   -16.1450     7.9700    10.2030     7.6580    95.6310     2.5090     0.1080     0.1400
  183.0000   -16.1840     7.9660    10.1180     7.6930    93.7600     2.4970     0.1110     0.1370
  183.5000   -16.2230     7.9630    10.0290     7.7280    93.5300     2.4860     0.1130     0.1490
  184.0000   -16.3060     7.9590     9.9410     7.7630    93.3470     2.4910     0.1110     0.1640
  184.5000   -17.3660     7.9550     9.8520     7.7970    94.1540     2.5010     0.1070     0.1970
  185.0000   -18.4490     7.8170     9.7630     7.8320    95.4930     2.5110     0.1020     0.2290
  185.5000   -19.5980     7.6760     9.6150     7.8670    96.8240     2.5210     0.0980     0.2580
  186.0000   -18.4180     7.5350     9.3930     7.9020    97.9290     2.5310     0.0930     0.2750
