~VERSION INFORMATION
 VERS.                2.0:   CWLS LOG ASCII STANDARD - VERSION 2.0
 WRAP.                 NO:   ONE LINE PER DEPTH STEP
~WELL INFORMATION
#MNEM.UNIT      DATA TYPE    INFORMATION
#----------   ------------   ------------------------------
 STRT.F            9.0000:   START DEPTH
 STOP.F          512.0000:   STOP DEPTH
 STEP.F            0.5000:   STEP LENGTH
 NULL.          -999.2500:   NO VALUE
 COMP. LAWRENCE-ALLISON &AS:   COMPANY
 WELL. NPR 3 #61-21SX10UP2:   WELL
 FLD .             TEAPOT:   FIELD
 LOC .      S10 T38N R78W:   LOCATION
 CNTY.            NATRONA:   COUNTY
 STAT.            WYOMING:   STATE
 CTRY. UNITED STATES OF AMERICA:   COUNTRY
 SRVC.      Dresser Atlas:   SERVICE COMPANY
 DATE.        13-DEC-1984:   LOGDATE
 API .       490251100500:   API NUMBER
~CURVE INFORMATION
#MNEM.UNIT       API CODE    CURVE DESCRIPTION
#----------   ------------   ------------------------------
 DEPT.F                  :   
 PORD.DEC    45 890 12 00:   POROSITY DENSITY SANDSTONE
 CNCF.DEC    42 890 03 00:   NEUTRON POROSITY SANDSTONE
 GRD .GAPI   45 310 01 00:   GAMMA RAY FROM DENSITY LOG
 CALD.IN     45 280 60 00:   CALIPER FROM DENSITY LOG
 CORR.G/C3   45 356 01 00:   DENSITY CORRECTION
 DEN .G/C3   45 350 01 00:   COMPENSATED BULK DENSTIY
 AC  .US/F   60 520 00 00:   ACCOUSTIC
 RILD.OHMM   07 120 46 00:   INDUCTION LOG DEEP RESISTIVITY
 RILM.OHMM   07 120 44 00:   INDUCTION LOG MEDIUM RESISTIVITY
 RFOC.OHMM   07 220 04 00:   RESISTIVITY FOCUSED LOG
 SPR .MV     11 010 01 00:   SPONTANEOUS POTENTIAL FROM RES.
 RS  .OHMM   11 220 09 00:   RESISTIVITY SHALLOW
 RD  .OHMM   11 220 10 00:   RESISTIVITY DEEP
~PARAMETER INFORMATION
#MNEM.UNIT          VALUE    DESCRIPTION
#----------   ------------   ------------------------------
 PD  .                 GL:   PERMANENT DATUM
 EPD .F              5157:   ELEVATION PERMANENT DATUM
 LMF .                 GL:   LOG MEASURED FROM
 DMF .                 GL:   DRILLING MEASURED FROM
 EGL .F              5157:   GROUND LEVEL
 DATE.         12-13-1984:   RUN DATE
 RUN .                  1:   RUN NUMBER
 DD  .F               514:   DEPTH DRILLER
 DL  .F               513:   DEPTH LOGGER
 BLI .F               512:   BOTTOM LOG INTERVAL
 TLI .F                20:   TOP LOG INTERVAL
 CS  .IN            8.625:   CASING SIZE
 CBD .F                20:   CASING BOTTOM DRILLER
 CBL .F                20:   CASING BOTTOM LOGGER
 BS  .IN            7.875:   BIT SIZE
 BSD .F               514:   BIT SIZE AT DEPTH
 DFT .          KCL WATER:   DRILLING FLUID TYPE
 MSS .           FLOWLINE:   MUD SAMPLE SOURCE
 RMS .OHMM            .17:   RESISTIVITY MUD SAMPLE
 MST .F                95:   MUD SAMPLE TEMPERATURE
 RMF .OHMM            .08:   RESISTIVITY MUD FILTRATE SAMPLE
 MFST.F                95:   MUD FILTRATE SAMPLE TEMPERATURE
 RMC .OHMM            .14:   RESISTIVITY MUD CAKE
 MCST.F                95:   MUD CAKE SAMPLE TEMPERATURE
 MFSS.               CALC:   MUD FILTRATE SAMPLE SOURCE
 MCSS.               CALC:   MUD CAKE SAMPLE SOURCE
 TCS .HRS              10:   TIME CURCULATED STOPPED
 MRT .F               100:   MAXIMUM RECORDED TEMPERATURE
 LUN .               6270:   LOGGING UNIT NUMBER
 LUL .                 FM:   LOGGING UNIT LOCATION
 ENGI.            LEBSOCK:   RECORDING ENGINEER
 WITN.        GREG GROOMS:   WITNESSED BY
 CLNT.            A2DTECH:   CLIENT CODE
 ORIG.           5" PRINT:   ORIGIN OF DATA
 UWI .       490251100500:   UNIQUE WELL ID
 DICO. A2D Technologies, Inc.:   DIGITIZING COMPANY
~OTHER INFORMATION
~A    DEPT    PORD       CNCF        GRD       CALD       CORR        DEN          AC      RILD       RILM       RFOC        SPR         RS         RD   
# ...
  295.0000     0.1913     0.2393    83.5841     7.7873     0.0250     2.3589    95.7669    28.4762    17.3614    19.7640   -58.1109    22.3944    25.2553
  295.5000     0.1883     0.2231    81.4697     7.7843     0.0188     2.3634    92.9072    29.6737    17.2325    19.4800   -58.1169    22.8530    25.2449
  296.0000     0.1763     0.2125    79.3683     7.7707     0.0142     2.3921    88.3116    30.4943    16.8678    19.8802   -58.1241    23.6470    25.2345
  296.5000     0.1394     0.2008    78.0921     7.7549     0.0112     2.4472    82.8104    30.0565    15.7250    23.4803   -58.1300    24.8106    26.0739
  297.0000     0.1123     0.1945    77.3406     7.7540     0.0081     2.4940    77.4601    29.4197    14.4568    25.3350   -58.1359    26.0315    29.5913
  297.5000     0.0972     0.1966    76.8899     7.7532     0.0064     2.5122    76.7116    28.3985    13.2908    26.9582   -58.4417    27.1273    32.1674
  298.0000     0.0996     0.2012    77.7954     7.7678     0.0033     2.5205    77.7784    28.0872    12.7405    27.7079   -58.5975    27.2005    32.8049
  298.5000     0.1105     0.2136    80.2066     7.7821    -0.0026     2.4932    82.3904    26.5528    12.5581    22.3139   -58.7534    25.4531    29.5438
  299.0000     0.1377     0.2215    81.5635     7.7962    -0.0071     2.4532    86.7760    25.4542    12.6397    20.5142   -58.7593    23.4061    27.1699
  299.5000     0.1671     0.2269    82.1674     7.8108    -0.0026     2.4056    91.5389    24.4010    12.7234    19.3921   -58.9151    21.5238    24.9868
  300.0000     0.1788     0.2344    83.2231     7.8100     0.0109     2.3822    96.2276    22.9080    12.8957    18.7183   -59.0853    20.4918    23.7367
  300.5000     0.1791     0.2481    84.1283     7.8097     0.0247     2.3806    97.0628    21.3541    13.1601    18.3213   -59.1818    19.7929    23.0465
  301.0000     0.1735     0.2554    83.2262     7.7943     0.0406     2.3904    96.6940    20.4619    13.4315    17.8082   -59.2783    19.2308    22.3562
  301.5000     0.1642     0.2560    81.8722     7.7940     0.0561     2.4010    96.1725    19.7552    13.7085    17.6749   -59.3748    18.9565    21.8535
  302.0000     0.1615     0.2533    80.6689     7.7937     0.0513     2.4078    95.6510    19.4698    14.1875    17.6651   -59.5628    18.8163    21.2547
  302.5000     0.1607     0.2464    80.8210     7.7934     0.0375     2.4093    95.2804    19.3360    14.7860    17.6553   -59.7232    18.8072    21.0988
  303.0000     0.1611     0.2413    81.4249     7.7931     0.0174     2.4085    95.0591    19.3265    15.4097    17.6455   -59.7336    18.7981    20.9440
  303.5000     0.1623     0.2386    82.9325     7.7928     0.0017     2.4069    95.2185    19.3172    16.0597    17.6357   -59.8940    18.6590    20.9353
  304.0000     0.1648     0.2498    84.1388     7.7925     0.0082     2.4031    95.3763    19.3077    16.7371    17.7490   -60.0544    18.6500    21.0728
  304.5000     0.1683     0.2610    82.7849     7.7921     0.0205     2.4001    95.4585    19.2984    17.6878    17.6161   -60.0648    18.6410    21.0901
  305.0000     0.1689     0.2614    80.9791     7.7918     0.0288     2.4001    95.4653    19.1533    18.6925    17.7318   -60.2252    18.6320    21.3499
  305.5000     0.1696     0.2560    78.5710     7.8067     0.0242     2.3955    95.3950    19.0112    19.3457    17.7195   -60.3855    18.4942    21.4898
  306.0000     0.1723     0.2484    78.4215     7.8214     0.0060     2.3902    95.1770    19.0019    19.4739    17.5868   -60.3959    18.4852    21.4786
  306.5000     0.1747     0.2370    78.7246     7.8211    -0.0091     2.3872    95.0312    18.8610    19.0595    17.5770   -60.4064    18.3485    21.1735
  307.0000     0.1763     0.2268    77.9731     7.8057    -0.0257     2.3849    94.7378    18.5912    18.5267    17.5673   -60.4168    18.2128    21.0182
  307.5000     0.1769     0.2226    77.3722     7.8054    -0.0318     2.3841    94.4427    18.3252    18.0087    17.3148   -60.4273    17.7056    20.7197
  308.0000     0.1766     0.2274    77.8255     7.8051    -0.0303     2.3841    94.1476    18.0631    17.7509    17.1851   -60.4377    17.3323    20.2840
  308.5000     0.1727     0.2492    79.1824     7.8048    -0.0137     2.3880    93.7771    17.8047    17.3753    16.8206   -60.2982    16.9669    19.8574
  309.0000     0.1650     0.2583    81.7442     7.8045     0.0059     2.3971    93.4048    17.6726    17.1265    16.4638   -60.1587    16.7250    19.4399
  309.5000     0.1582     0.2541    83.8541     7.8042     0.0074     2.4070    93.4888    17.4198    16.9994    16.1146   -60.1694    16.3724    19.7036
  310.0000     0.1570     0.2463    84.4577     7.8039     0.0134     2.4142    93.6465    17.2905    16.6396    15.8829   -60.1799    16.3645    19.8348
  310.5000     0.1649     0.2505    82.9535     7.8036     0.0148     2.4117    93.8043    17.1623    16.4014    15.8741   -60.1904    16.4725    19.8245
  311.0000     0.1691     0.2512    80.3948     7.8033     0.0088     2.4032    93.6601    16.9168    16.0544    15.9783   -60.2009    16.4625    19.6791
  311.5000     0.1694     0.2490    79.4923     7.8030     0.0042     2.3952    93.3650    16.9086    15.8245    15.8565   -60.5133    16.3408    19.3996
  312.0000     0.1673     0.2445    83.1086     7.8027     0.0072     2.4020    93.0700    16.7831    15.4897    15.6286   -60.8236    16.1077    19.1240
  312.5000     0.1543     0.2397    86.1222     7.8175     0.0238     2.4141    92.6977    16.7750    15.3746    15.5115   -60.8340    15.8780    18.7219
  313.0000     0.1474     0.2371    87.3285     7.8172     0.0313     2.4261    92.4043    16.6505    15.2605    15.2886   -60.9944    15.5433    18.5846
  313.5000     0.1447     0.2378    88.0830     7.8018     0.0222     2.4352    92.4866    16.6425    15.2530    15.2801   -61.1548    15.3216    18.4483
  314.0000     0.1444     0.2430    88.3857     7.8015    -0.0020     2.4359    92.8707    16.6344    15.1398    15.2716   -61.3151    15.3142    18.4407
  314.5000     0.1456     0.2515    86.7306     7.7861    -0.0186     2.4344    93.1039    16.7445    15.0274    15.2631   -61.3256    15.3068    18.5634
  315.0000     0.1460     0.2504    85.0755     7.7858    -0.0141     2.4329    93.4881    16.7344    15.0200    15.3634   -61.1861    15.4059    18.6851
  315.5000     0.1484     0.2384    86.5830     7.7855    -0.0066     2.4313    93.7968    16.7262    15.0127    15.5680   -61.0440    15.6138    18.8075
  316.0000     0.1505     0.2303    89.1447     7.7852    -0.0006     2.4283    94.1809    16.8370    14.9013    15.7775   -60.9045    15.8243    19.0627
  316.5000     0.1536     0.2279    88.0920     7.7849     0.0054     2.4237    94.4142    17.0627    14.8940    15.9920   -60.7650    16.0378    19.1876
  317.0000     0.1563     0.2325    85.0815     7.7846     0.0129     2.4184    94.5719    17.2935    14.7827    16.2050   -60.4756    16.2541    19.5815
  317.5000     0.1566     0.2325    83.2758     7.7843     0.0189     2.4161    94.8051    17.5275    14.5701    16.1960   -60.3361    16.3631    19.7118
  318.0000     0.1551     0.2329    82.9757     7.7840     0.0280     2.4184    94.9628    17.7646    14.1618    16.1870   -60.0493    16.4654    19.7016
  318.5000     0.1548     0.2365    83.4294     7.7988     0.0385     2.4176    94.8942    17.8822    13.6692    16.1780   -59.7572    16.4573    19.6934
  319.0000     0.1555     0.2522    82.0755     7.8136     0.0460     2.4153    94.6746    17.6243    13.0982    16.1691   -59.3205    16.4493    19.6853
  319.5000     0.1591     0.2571    79.0649     7.8133     0.0339     2.4107    94.3795    17.2517    12.5542    16.1601   -58.7312    16.4413    19.6771
  320.0000     0.1639     0.2541    78.4636     7.7979     0.0128     2.4077    94.1283    16.8869    12.1278    16.1511   -58.1420    16.3196    19.3976
  320.5000     0.1612     0.2460    79.9715     7.7976    -0.0084     2.4069    93.8337    16.5299    12.0378    16.0302   -57.4028    16.1989    19.1221
