~VERSION INFORMATION
 VERS.                2.0:   CWLS LOG ASCII STANDARD - VERSION 2.0
 WRAP.                 NO:   ONE LINE PER DEPTH STEP
~WELL INFORMATION
#MNEM.UNIT      DATA TYPE    INFORMATION
#----------   ------------   ------------------------------
 STRT.F            0.0000:   START DEPTH
 STOP.F          404.0000:   STOP DEPTH
 STEP.F            0.1000:   STEP LENGTH
 NULL.          -999.2500:   NO VALUE
 COMP.   FLUOR DANIEL INC:   COMPANY
 WELL.   62-1 X 10 #62-10:   WELL
 FLD .             TEAPOT:   FIELD
 LOC .      S10 T38N R78W:   LOCATION
 CNTY.            NATRONA:   COUNTY
 STAT.            WYOMING:   STATE
 CTRY. UNITED STATES OF AMERICA:   COUNTRY
 SRVC.      Western Atlas:   SERVICE COMPANY
 DATE.        29-MAR-1995:   LOGDATE
 API .       490252270300:   API NUMBER
~CURVE INFORMATION
#MNEM.UNIT       API CODE    CURVE DESCRIPTION
#----------   ------------   ------------------------------
 DEPT.F                  :   
 GRR .GAPI   07 310 01 00:   GAMMA RAY
 RILD.OHMM   07 120 46 00:   INDUCTION LOG DEEP RESISTIVITY
 RILM.OHMM   07 120 44 00:   RESITIVITY LONG MEDIUM
~PARAMETER INFORMATION
#MNEM.UNIT          VALUE    DESCRIPTION
#----------   ------------   ------------------------------
 PD  .                 GL:   PERMANENT DATUM
 EPD .F              5160:   ELEVATION PERMANENT DATUM
 LMF .                 KB:   LOG MEASURED FROM
 DAPD.F                10:   FEET ABOVE PERMANENT DATUM
 DMF .                 KB:   DRILLING MEASURED FROM
 EKB .F              5170:   KELLING BUSHING
 EDF .F              5169:   DRILLING FLOOR
 EGL .F              5160:   GROUND LEVEL
 DATE.        29-MAR-1995:   RUN DATE
 RUN .                  1:   RUN NUMBER
 DD  .F               455:   DEPTH DRILLER
 DL  .F               416:   DEPTH LOGGER
 BLI .F               408:   BOTTOM LOG INTERVAL
 TLI .F                95:   TOP LOG INTERVAL
 CS  .IN            9.625:   CASING SIZE
 CBD .F                95:   CASING BOTTOM DRILLER
 CBL .F                95:   CASING BOTTOM LOGGER
 BS  .IN             8.75:   BIT SIZE
 BSD .F               455:   BIT SIZE AT DEPTH
 DFT .                AIR:   DRILLING FLUID TYPE
 MRT .F               204:   MAXIMUM RECORDED TEMPERATURE
 LUN .            HL 6530:   LOGGING UNIT NUMBER
 LUL .             CASPER:   LOGGING UNIT LOCATION
 ENGI.        VERN RAUTIO:   RECORDING ENGINEER
 WITN.        GARY STRONG:   WITNESSED BY
 CLNT.            A2DTECH:   CLIENT CODE
 ORIG.           5" PRINT:   ORIGIN OF DATA
 UWI .       490252270300:   UNIQUE WELL ID
 DICO. A2D Technologies, Inc.:   DIGITIZING COMPANY
~OTHER INFORMATION
~A    DEPT      GRR      RILD       RILM   
# ...
  364.0000    87.4331     5.0301     5.0178
  364.1000    86.9939     5.0301     5.0179
  364.2000    86.3192     5.0302     5.0180
  364.3000    85.5632     5.0303     5.0181
  364.4000    84.8805     5.0303     5.0181
  364.5000    84.3530     5.0517     5.0182
  364.6000    83.5224     5.0655     5.0455
  364.7000    83.0687     5.0656     5.0533
  364.8000    82.3867     5.0657     5.0534
  364.9000    81.8898     5.0658     5.0534
  365.0000    81.5585     5.0658     5.0582
  365.1000    81.0552     5.0659     5.0888
  365.2000    80.5166     5.0828     5.0888
  365.3000    80.0484     5.1013     5.0889
  365.4000    79.5451     5.1014     5.0890
  365.5000    79.0418     5.1015     5.0890
  365.6000    78.5384     5.1016     5.0950
  365.7000    78.0736     5.1016     5.1246
  365.8000    77.8124     5.1017     5.1247
  365.9000    77.3300     5.1018     5.1248
  366.0000    77.0196     5.1018     5.1248
  366.1000    76.7688     5.1019     5.1122
  366.2000    76.7079     5.1020     5.0895
  366.3000    76.9164     5.1021     5.0896
  366.4000    76.9183     5.1021     5.0897
  366.5000    77.1695     5.1022     5.0898
  366.6000    77.4238     5.1023     5.0898
  366.7000    77.6782     5.1023     5.0899
  366.8000    77.9326     5.1024     5.0900
  366.9000    78.1871     5.1025     5.0876
  367.0000    78.4374     5.1025     5.0549
  367.1000    78.4395     5.1026     5.0550
  367.2000    78.4410     5.1027     5.0550
  367.3000    78.4428     5.1012     5.0551
  367.4000    78.5541     5.0864     5.0460
  367.5000    78.7481     5.0717     5.0203
  367.6000    78.7499     5.0677     5.0204
  367.7000    78.7520     5.0677     5.0204
  367.8000    78.7535     5.0678     5.0205
  367.9000    78.7554     5.0679     5.0206
  368.0000    78.8738     5.0679     5.0206
  368.1000    79.1282     5.0680     5.0161
  368.2000    79.3826     5.0681     4.9861
  368.3000    79.6678     5.0681     4.9861
  368.4000    79.8914     5.0682     4.9862
  368.5000    80.1458     5.0629     4.9863
  368.6000    80.5241     5.0333     4.9863
  368.7000    80.9563     5.0044     4.9864
  368.8000    81.2106     4.9986     4.9865
  368.9000    81.4885     4.9811     4.9865
  369.0000    81.9488     4.9641     4.9632
  369.1000    82.2755     4.9578     4.9522
  369.2000    82.6610     4.9299     4.9522
  369.3000    83.0860     4.9300     4.9523
  369.4000    83.3734     4.9300     4.9512
  369.5000    83.9126     4.9301     4.9182
  369.6000    84.1508     4.9302     4.9183
  369.7000    84.4052     4.9228     4.9183
  369.8000    84.5213     4.8962     4.9184
  369.9000    84.5231     4.8962     4.9107
  370.0000    84.4445     4.8715     4.8845
  370.1000    83.9234     4.8625     4.8846
  370.2000    83.6814     4.8487     4.8847
  370.3000    83.4307     4.8290     4.8650
  370.4000    83.1799     4.8290     4.8510
  370.5000    82.8326     4.8291     4.8511
  370.6000    82.3767     4.8292     4.8478
  370.7000    82.1243     4.8090     4.8177
  370.8000    82.1261     4.7959     4.8177
  370.9000    81.9260     4.7959     4.7973
  371.0000    81.8281     4.7960     4.7845
  371.1000    81.8299     4.7961     4.7749
  371.2000    81.8317     4.7697     4.7516
  371.3000    81.8391     4.7630     4.7516
  371.4000    82.1373     4.7474     4.7517
  371.5000    82.3479     4.7302     4.7305
  371.6000    82.6023     4.7302     4.7190
  371.7000    82.8567     4.7303     4.7190
  371.8000    83.1111     4.7032     4.7138
  371.9000    83.3526     4.6977     4.6865
  372.0000    83.3547     4.6977     4.6866
  372.1000    83.5726     4.6978     4.6646
  372.2000    83.4924     4.6979     4.6543
  372.3000    83.3599     4.6979     4.6544
  372.4000    83.3617     4.6980     4.6544
  372.5000    83.3635     4.6981     4.6545
  372.6000    83.3655     4.6806     4.6546
  372.7000    83.3671     4.6657     4.6317
  372.8000    83.3689     4.6657     4.6225
  372.9000    83.3707     4.6658     4.6226
  373.0000    83.3726     4.6659     4.6226
  373.1000    83.4017     4.6659     4.6227
  373.2000    83.6780     4.6660     4.6228
  373.3000    83.9105     4.6661     4.6228
  373.4000    84.1649     4.6661     4.6229
  373.5000    84.2866     4.6662     4.6229
  373.6000    84.3720     4.6663     4.6230
  373.7000    84.6264     4.6663     4.6231
  373.8000    84.8954     4.6664     4.6231
  373.9000    84.8971     4.6665     4.6232
  374.0000    85.0880     4.6665     4.6233
  374.1000    85.3424     4.6666     4.6233
  374.2000    85.5059     4.6667     4.6234
  374.3000    85.5077     4.6667     4.6235
  374.4000    85.5096     4.6668     4.6235
  374.5000    85.7567     4.6669     4.6236
  374.6000    85.8148     4.6669     4.6236
  374.7000    85.8166     4.6670     4.6237
  374.8000    85.8184     4.6670     4.6135
  374.9000    85.8202     4.6671     4.5918
  375.0000    85.8220     4.6672     4.5919
  375.1000    85.8242     4.6509     4.5920
  375.2000    85.8256     4.6350     4.5921
  375.3000    85.8274     4.6351     4.5921
  375.4000    85.8293     4.6351     4.5922
  375.5000    85.7747     4.6352     4.5922
  375.6000    85.5240     4.6128     4.5923
  375.7000    85.2317     4.6032     4.5924
  375.8000    85.0224     4.6033     4.5924
  375.9000    84.9333     4.6034     4.5925
  376.0000    84.9351     4.6051     4.5926
  376.1000    84.9370     4.6356     4.5926
  376.2000    84.9388     4.6356     4.5927
  376.3000    84.9408     4.6357     4.5928
  376.4000    84.9424     4.6358     4.5928
  376.5000    85.1131     4.6438     4.6114
  376.6000    85.3676     4.6682     4.6249
  376.7000    85.6219     4.6683     4.6250
  376.8000    85.8763     4.6745     4.6282
  376.9000    86.1583     4.6814     4.6573
  377.0000    86.1599     4.6883     4.6574
  377.1000    85.9855     4.6952     4.6575
  377.2000    85.6077     4.7011     4.6721
  377.3000    85.1042     4.7012     4.6900
  377.4000    84.5718     4.7013     4.6901
  377.5000    83.7558     4.7221     4.6902
  377.6000    82.5950     4.7342     4.7034
  377.7000    81.5174     4.7342     4.7172
  377.8000    80.5089     4.7343     4.7230
  377.9000    79.8413     4.7344     4.7231
  378.0000    79.8431     4.7344     4.7284
  378.1000    79.8450     4.7565     4.7561
  378.2000    80.3262     4.7676     4.7562
  378.3000    80.8332     4.7676     4.7563
  378.4000    81.4818     4.7697     4.7563
  378.5000    82.1488     4.7791     4.7681
  378.6000    82.6559     4.7884     4.7896
  378.7000    83.1741     4.7978     4.7896
  378.8000    83.6698     4.8012     4.7897
  378.9000    83.9789     4.8013     4.7898
  379.0000    84.2333     4.8013     4.8081
  379.1000    84.3879     4.8031     4.8233
  379.2000    84.3897     4.8349     4.8233
  379.3000    84.3931     4.8350     4.8255
  379.4000    84.6954     4.8351     4.8571
  379.5000    84.6968     4.8351     4.8571
  379.6000    84.6986     4.8352     4.8572
  379.7000    84.7004     4.8353     4.8573
  379.8000    84.7023     4.8353     4.8660
  379.9000    84.7041     4.8354     4.8912
  380.0000    84.7062     4.8456     4.8913
  380.1000    84.4954     4.8598     4.8914
  380.2000    84.2446     4.8693     4.8914
  380.3000    83.9937     4.8694     4.8915
  380.4000    83.7430     4.8694     4.8916
  380.5000    83.5082     4.8695     4.8916
  380.6000    83.5103     4.8910     4.8917
  380.7000    83.5119     4.9036     4.8918
  380.8000    83.5137     4.9037     4.8918
  380.9000    83.5155     4.9037     4.8919
  381.0000    83.5897     4.9038     4.8920
  381.1000    83.8442     4.9039     4.8921
  381.2000    84.1245     4.9039     4.8921
  381.3000    84.3529     4.9040     4.8922
  381.4000    84.4296     4.9041     4.8923
  381.5000    84.5601     4.9041     4.8923
  381.6000    84.8145     4.9042     4.8924
  381.7000    85.0383     4.9043     4.8925
  381.8000    85.0403     4.9043     4.8925
  381.9000    85.2760     4.9044     4.8926
  382.0000    85.5304     4.9045     4.8927
  382.1000    85.6489     4.9045     4.8927
