~VERSION INFORMATION
 VERS.                2.0:   CWLS LOG ASCII STANDARD - VERSION 2.0
 WRAP.                 NO:   ONE LINE PER DEPTH STEP
~WELL INFORMATION
#MNEM.UNIT      DATA TYPE    INFORMATION
#----------   ------------   ------------------------------
 STRT.F           33.0000:   START DEPTH
 STOP.F          694.0000:   STOP DEPTH
 STEP.F            0.5000:   STEP LENGTH
 NULL.          -999.2500:   NO VALUE
 COMP. FENIX & SCISSON INC:   COMPANY
 WELL.  NPR 3 #64 S 34-34:   WELL
 FLD .             TEAPOT:   FIELD
 LOC .      S34 T39N R78W:   LOCATION
 CNTY.            NATRONA:   COUNTY
 STAT.            WYOMING:   STATE
 CTRY. UNITED STATES OF AMERICA:   COUNTRY
 SRVC.              Welex:   SERVICE COMPANY
 DATE.        28-APR-1977:   LOGDATE
 API .       490251034600:   API NUMBER
~CURVE INFORMATION
#MNEM.UNIT       API CODE    CURVE DESCRIPTION
#----------   ------------   ------------------------------
 DEPT.F                  :   
 CALD.IN     45 280 60 00:   CALIPER FROM DENSITY LOG
 GRD .GAPI   45 310 01 00:   GAMMA RAY FROM DENSITY LOG
 CORR.G/C3   45 356 01 00:   DENSITY CORRECTION
 DPHI.DEC    45 890 12 00:   DENSITY POROSITY SANDSTONE
 RHOB.G/C3   45 350 01 00:   BULK DENSITY
 SPR .MV     07 010 01 00:   SPONTANEOUS POTENTIAL
 ILD .OHMM   07 120 46 00:   INDUCTION LOG DEEP
 ILM .OHMM   07 120 44 00:   INDUCTION LOG MEDIUM
 SGRD.OHMM   07 221 05 00:   SHALLOW SHORT GUARD RESISTIVITY
~PARAMETER INFORMATION
#MNEM.UNIT          VALUE    DESCRIPTION
#----------   ------------   ------------------------------
 PD  .                 GL:   PERMANENT DATUM
 EPD .F              5079:   ELEVATION PERMANENT DATUM
 LMF .                 GL:   LOG MEASURED FROM
 DMF .                 GL:   DRILLING MEASURED FROM
 EGL .F              5079:   GROUND LEVEL
 DATE.        28-APR-1977:   RUN DATE
 RUN .                  1:   RUN NUMBER
 DD  .F               735:   DEPTH DRILLER
 DL  .F               697:   DEPTH LOGGER
 BLI .F               695:   BOTTOM LOG INTERVAL
 TLI .F                32:   TOP LOG INTERVAL
 CS  .IN            8.625:   CASING SIZE
 BS  .IN               12:   BIT SIZE
 BSD .F               735:   BIT SIZE AT DEPTH
 DFT .            KCL MUD:   DRILLING FLUID TYPE
 DFD .                9.0:   DRILLING FLUID DENSITY
 BHT .F                74:   BOTTOM HOLE TEMPERATURE
 TCS .HRS            0100:   TIME CURCULATED STOPPED
 MRT .F                74:   MAXIMUM RECORDED TEMPERATURE
 ENGI.            C. DOAK:   RECORDING ENGINEER
 WITN.           ROB LYON:   WITNESSED BY
 CLNT.            A2DTECH:   CLIENT CODE
 ORIG.           5" PRINT:   ORIGIN OF DATA
 UWI .       490251034600:   UNIQUE WELL ID
 DICO. A2D Technologies, Inc.:   DIGITIZING COMPANY
~OTHER INFORMATION
~A   DEPT     CALD        GRD       CORR       DPHI       RHOB        SPR        ILD        ILM       SGRD   
# ...
  580.5000     7.9602    85.2120     0.0075     0.1929     2.3473   -39.6537    12.0212    13.4166    15.3639
  581.0000     7.9601    82.8560     0.0152     0.1881     2.3602   -39.7856    12.0287    12.8754    15.0759
  581.5000     7.9600    82.2760     0.0198     0.1782     2.3752   -39.7672    11.8721    13.0641    15.0824
  582.0000     7.9599    83.7821     0.0245     0.1719     2.3791   -39.7493    11.7160    13.0713    15.0899
  582.5000     7.9599    85.8772     0.0291     0.1669     2.3926   -39.8814    11.7233    13.1695    15.0961
  583.0000     7.9598    88.2690     0.0277     0.1627     2.4047   -39.8592    11.6477    13.1768    15.1023
  583.5000     7.9597    91.4026     0.0233     0.1601     2.4079   -39.8413    11.6568    13.1840    15.0027
  584.0000     7.9596    93.0526     0.0205     0.1600     2.4049   -39.8235    11.6640    13.0984    14.9052
  584.5000     7.9596    91.8836     0.0251     0.1462     2.4169   -39.6565    11.6712    12.6610    14.7061
  585.0000     7.9595    90.1211     0.0313     0.1411     2.4365   -39.6387    11.6784    12.1520    14.6105
  585.5000     7.9594    87.9135     0.0359     0.1396     2.4463   -39.6239    11.5249    11.8263    14.6181
  586.0000     7.9593    83.4804     0.0361     0.1381     2.4471   -39.4538    11.4507    11.5877    14.8282
  586.5000     7.9593    82.3069     0.0392     0.1371     2.4464   -39.4360    11.3019    11.3571    14.9375
  587.0000     7.9592    85.4450     0.0375     0.1521     2.4323   -39.4182    11.1516    11.1296    14.5350
  587.5000     7.9591    88.1336     0.0302     0.1598     2.4129   -39.4004    10.7061    11.1357    13.8524
  588.0000     7.9591    90.6737     0.0229     0.1630     2.4025   -39.5363    10.1353    11.0649    13.9545
  588.5000     7.9590    88.9112     0.0185     0.1531     2.4086   -39.5140    10.0006    11.0710    14.0574
  589.0000     7.9580    85.8134     0.0188     0.1492     2.4214   -39.4962    10.0083    11.0771    13.9660
  589.5000     7.9569    83.7542     0.0190     0.1486     2.4267   -39.4784    10.0145    11.1603    13.8753
  590.0000     7.9559    83.4709     0.0206     0.1524     2.4186   -39.6143    10.0207    11.1665    13.8810
  590.5000     7.9549    85.2501     0.0222     0.1557     2.4134   -39.5921    10.0269    11.2503    13.8867
  591.0000     7.9539    87.4519     0.0239     0.1479     2.4173   -39.7235    10.1028    11.2565    13.8924
  591.5000     7.9528    89.1810     0.0270     0.1428     2.4316   -39.7057    10.0390    11.1848    13.8981
  592.0000     7.9518    89.9224     0.0302     0.1406     2.4391   -39.8416    10.1153    11.1911    13.9039
  592.5000     7.9508    85.1432     0.0303     0.1433     2.4422   -39.8277    10.1216    11.1973    13.9096
  593.0000     7.9498    82.9672     0.0304     0.1451     2.4318   -39.8265    10.1278    11.1261    13.7138
  593.5000     7.9488    80.9157     0.0306     0.1414     2.4364   -39.8253    10.1346    11.1323    13.5404
  594.0000     7.9477    78.7182     0.0292     0.1396     2.4402   -39.8240    10.1404    11.1384    13.5463
  594.5000     7.9467    83.4839     0.0248     0.1500     2.4238   -39.8228    10.1467    11.1505    13.7422
  595.0000     7.9457    85.7273     0.0205     0.1560     2.4141   -39.8216    10.1530    11.2283    13.9397
  595.5000     7.9447    87.5256     0.0206     0.1496     2.4202   -39.8204    10.1593    11.2346    14.0424
  596.0000     7.9437    86.8017     0.0237     0.1446     2.4293   -39.8191    10.0954    11.2408    14.1459
  596.5000     7.9133    83.7039     0.0284     0.1390     2.4399   -39.8179    10.1018    11.0792    13.7648
  597.0000     7.9123    85.5023     0.0345     0.1328     2.4512   -39.8167    10.1078    10.9453    13.4871
  597.5000     7.9113    89.0810     0.0392     0.1292     2.4603   -39.8154    10.0443    10.8757    13.3056
  598.0000     7.9102    91.6212     0.0408     0.1255     2.4521   -39.8142    10.0521    10.8832    13.2191
  598.5000     7.9092    92.2326     0.0394     0.1195     2.4672   -39.8130    10.0583    10.9649    13.4105
  599.0000     7.9082    91.9493     0.0366     0.1177     2.4770   -39.8117    10.0645    11.0457    13.2849
  599.5000     7.9072    93.0103     0.0262     0.1266     2.4621   -39.8105    10.0707    10.8079    13.2309
  600.0000     7.9355    92.2864     0.0158     0.1362     2.4434   -39.8093    10.0141    10.6804    13.2435
  600.5000     7.9406    88.2984     0.0159     0.1400     2.4458   -39.8081     9.9135    10.5415    13.3082
  601.0000     7.9456    87.8667     0.0176     0.1322     2.4458   -39.8068     9.8838    10.4787    13.2526
  601.5000     7.9507    89.5371     0.0222     0.1229     2.4736   -39.8087     9.9629    10.4867    13.1876
  602.0000     7.9558    92.4769     0.0257     0.1199     2.4757   -39.8135    10.0405    10.4202    13.1952
  602.5000     7.9608    93.4545     0.0209     0.1291     2.4588   -39.8183    10.0488    10.4301    13.1133
  603.0000     7.9648    93.7537     0.0180     0.1314     2.4528   -39.8230     9.9857    10.4381    13.1224
  603.5000     7.9516    93.7757     0.0166     0.1341     2.4469   -39.8278     9.9961    10.5187    13.1315
  604.0000     7.9355    90.6624     0.0152     0.1400     2.4447   -39.8326    10.0044    10.5267    13.1406
  604.5000     7.9396    89.0569     0.0184     0.1364     2.4471   -39.8374     9.8750    10.6080    12.9690
  605.0000     7.9408    90.5790     0.0230     0.1339     2.4501   -39.8422     9.8151    10.6161    12.7994
  605.5000     7.9420    90.6326     0.0231     0.1376     2.4502   -39.8470     9.8232    10.6981    12.8085
  606.0000     7.9432    88.9919     0.0217     0.1375     2.4443   -39.8517     9.8314    10.7063    12.9960
  606.5000     7.9444    87.3813     0.0174     0.1396     2.4383   -39.8565     9.8396    10.7890    13.2778
  607.0000     7.9304    87.5532     0.0144     0.1446     2.4317   -39.8613     9.8478    10.7972    13.3792
  607.5000     7.9319    84.4600     0.0101     0.1490     2.4235   -39.8661     9.8560    10.8061    13.8599
  608.0000     7.9331    86.7080     0.0072     0.1538     2.4168   -39.8709     9.8642    10.7390    13.7738
  608.5000     7.9343    83.9114     0.0058     0.1597     2.4115   -39.8756     9.8724    10.6709    13.4071
  609.0000     7.9355    84.5274     0.0044     0.1615     2.4077   -39.8804     9.8806    10.6053    13.2317
  609.5000     7.9365    84.4015     0.0030     0.1552     2.4143   -39.8852     9.8889    10.5401    13.3331
  610.0000     7.9377    83.3854     0.0077     0.1524     2.4171   -39.8900     9.8971    10.4050    13.5283
  610.5000     7.9389    89.0459     0.0123     0.1464     2.4225   -39.8948     9.9053    10.3390    13.2595
  611.0000     7.9401    90.2553     0.0109     0.1407     2.4374   -39.8996     9.9136    10.3489    12.9961
  611.5000     7.9412    92.3549     0.0113     0.1416     2.4384   -39.9043     9.9887    10.3568    12.9151
  612.0000     7.9424    95.3448     0.0129     0.1376     2.4391   -39.9091     9.9280    10.3647    12.7468
  612.5000     7.9288    93.8836     0.0189     0.1319     2.4526   -39.9139     9.8017    10.3726    12.6673
  613.0000     7.9300    95.2414     0.0280     0.1259     2.4632   -39.9187     9.7401    10.3069    12.6764
  613.5000     7.9312    97.0443     0.0371     0.1223     2.4670   -39.9235     9.6830    10.3167    12.6852
  614.0000     7.9173    98.6932     0.0447     0.1127     2.4775   -39.9283     9.5577    10.2533    12.6940
  614.5000     7.9188    97.0836     0.0509     0.1019     2.4978   -39.9330     9.4341    10.2611    12.7028
  615.0000     7.9051    99.5401     0.0570     0.0985     2.5069   -39.9378     9.3768    10.1961    12.7116
  615.5000     7.9063   101.0005     0.0586     0.0982     2.5107   -39.9426     9.4498    10.2058    12.7204
  616.0000     7.8924    94.2692     0.0542     0.1015     2.5055   -39.9474     9.5234    10.2136    12.7292
  616.5000     7.8939    91.3853     0.0498     0.1077     2.4884   -39.9522     9.5976    10.2214    12.6502
