~VERSION INFORMATION
 VERS.                2.0:   CWLS LOG ASCII STANDARD - VERSION 2.0
 WRAP.                 NO:   ONE LINE PER DEPTH STEP
~WELL INFORMATION
#MNEM.UNIT      DATA TYPE    INFORMATION
#----------   ------------   ------------------------------
 STRT.F           64.0000:   START DEPTH
 STOP.F          532.0000:   STOP DEPTH
 STEP.F            0.5000:   STEP LENGTH
 NULL.          -999.2500:   NO VALUE
 COMP.       F D SERV INC:   COMPANY
 WELL.  81-3 SX 10 #81-10:   WELL
 FLD .             TEAPOT:   FIELD
 LOC .      S10 T38N R78W:   LOCATION
 CNTY.            NATRONA:   COUNTY
 STAT.            WYOMING:   STATE
 CTRY. UNITED STATES OF AMERICA:   COUNTRY
 SRVC.     Atlas Wireline:   SERVICE COMPANY
 DATE.        29-JAN-1993:   LOGDATE
 API .       490252258400:   API NUMBER
~CURVE INFORMATION
#MNEM.UNIT       API CODE    CURVE DESCRIPTION
#----------   ------------   ------------------------------
 DEPT.F                  :   
 C13 .IN     45 280 13 00:   
 ZCOR.G/C3   45 356 01 00:   DENSITY CORRECTION
 ZDEN.G/C3   45 350 01 00:   BULK DENSITY
 GRD .GAPI   45 310 01 00:   GAMMA RAY FROM DENSITY LOG
 PORS.DEC    42 890 00 00:   
 PORZ.DEC    45 890 00 00:   DENSITY POROSITY
 RILD.OHMM   07 120 46 00:   INDUCTION LOG DEEP RESISTIVITY
 RILM.OHMM   07 120 44 00:   INDUCTION LOG MEDIUM RESISTIVITY
~PARAMETER INFORMATION
#MNEM.UNIT          VALUE    DESCRIPTION
#----------   ------------   ------------------------------
 PD  .                 GL:   PERMANENT DATUM
 EPD .F              5161:   ELEVATION PERMANENT DATUM
 LMF .                 KB:   LOG MEASURED FROM
 DAPD.F                10:   FEET ABOVE PERMANENT DATUM
 DMF .                 KB:   DRILLING MEASURED FROM
 EKB .F              5171:   KELLING BUSHING
 EDF .F              5170:   DRILLING FLOOR
 EGL .F              5161:   GROUND LEVEL
 DATE.        29-JAN-1993:   RUN DATE
 RUN .                  1:   RUN NUMBER
 DD  .F               536:   DEPTH DRILLER
 DL  .F               536:   DEPTH LOGGER
 BLI .F               527:   BOTTOM LOG INTERVAL
 TLI .F                96:   TOP LOG INTERVAL
 CS  .IN            8.625:   CASING SIZE
 CBD .F                96:   CASING BOTTOM DRILLER
 CBL .F                96:   CASING BOTTOM LOGGER
 BS  .IN            7.875:   BIT SIZE
 BSD .F               536:   BIT SIZE AT DEPTH
 DFT .                AIR:   DRILLING FLUID TYPE
 MRT .F                65:   MAXIMUM RECORDED TEMPERATURE
 LUN .            HL-6274:   LOGGING UNIT NUMBER
 LUL .             CASPER:   LOGGING UNIT LOCATION
 ENGI.        P.RASMUSSEN:   RECORDING ENGINEER
 WITN.           G.STRONG:   WITNESSED BY
 CLNT.            A2DTECH:   CLIENT CODE
 ORIG.           5" PRINT:   ORIGIN OF DATA
 UWI .       490252258400:   UNIQUE WELL ID
 DICO. A2D Technologies, Inc.:   DIGITIZING COMPANY
~OTHER INFORMATION
~A   DEPT      C13       ZCOR       ZDEN        GRD       PORS       PORZ       RILD       RILM   
# ...
  145.0000     8.3003    -0.0003     2.4611   150.9926     0.2569     0.1164    11.7715    11.6740
  145.5000     8.3000    -0.0033     2.4596   152.1910     0.2572     0.1176    11.4509    11.5959
  146.0000     8.2847    -0.0049     2.4581   150.3732     0.2575     0.1182    11.3725    11.5182
  146.5000     8.2844    -0.0079     2.4573   150.0632     0.2576     0.1188    11.3734    11.4416
  147.0000     8.2991    -0.0124     2.4522   149.7518     0.2585     0.1203    11.2958    11.3649
  147.5000     8.2988    -0.0185     2.4447   149.1409     0.2600     0.1239    11.2967    11.2888
  148.0000     8.2985    -0.0215     2.4409   148.5300     0.2627     0.1278    11.2193    11.2131
  148.5000     8.2982    -0.0185     2.4485   148.5194     0.2648     0.1236    11.1427    11.2938
  149.0000     8.2979    -0.0156     2.4568   149.1133     0.2657     0.1185    11.0668    11.2960
  149.5000     8.3127    -0.0127     2.4575   150.3097     0.2636     0.1188    10.9821    11.2982
  150.0000     8.3123    -0.0112     2.4470   150.3012     0.2618     0.1211    10.9161    11.3005
  150.5000     8.2969    -0.0097     2.4433   149.6918     0.2594     0.1233    11.1017    11.2247
  151.0000     8.2967    -0.0097     2.4433   149.3850     0.2588     0.1248    11.0251    11.1495
  151.5000     8.3114    -0.0082     2.4433   149.6806     0.2612     0.1248    11.0039    11.0754
  152.0000     8.2960    -0.0097     2.4434   152.9869     0.2627     0.1248    10.9490    11.0012
  152.5000     8.3108    -0.0157     2.4441   154.7899     0.2637     0.1242    10.7984    10.9315
  153.0000     8.3105    -0.0247     2.4449   153.2769     0.2655     0.1239    10.7984    10.8545
  153.5000     8.3102    -0.0232     2.4449   151.7279     0.2664     0.1239    10.6499    10.8528
  154.0000     8.3099    -0.0142     2.4457   151.1558     0.2673     0.1239    10.5764    10.7765
  154.5000     8.3096    -0.0159     2.4435   153.2587     0.2676     0.1252    10.5034    10.7005
  155.0000     8.3093    -0.0202     2.4389   155.9839     0.2679     0.1281    10.4309    10.6128
  155.5000     8.2939    -0.0217     2.4375   157.7655     0.2691     0.1290    10.3589    10.5500
  156.0000     8.2937    -0.0170     2.4383   155.3489     0.2721     0.1281    10.2165    10.4034
  156.5000     8.2934    -0.0052     2.4398   152.9337     0.2743     0.1272    10.1460    10.3298
  157.0000     8.2931    -0.0037     2.4353   150.8182     0.2743     0.1284    10.0759    10.2571
  157.5000     8.2927    -0.0022     2.4316   150.2102     0.2749     0.1317    10.0064    10.2558
  158.0000     8.2925    -0.0022     2.4308   152.0118     0.2764     0.1308     9.9374    10.1131
  158.5000     8.2922    -0.0037     2.4392   153.5123     0.2782     0.1251     9.8007    10.0417
  159.0000     8.2768    -0.0097     2.4467   153.2041     0.2794     0.1212     9.6659     9.9710
  159.5000     8.2765    -0.0112     2.4542   152.5961     0.2809     0.1197     9.5329     9.8323
  160.0000     8.2763    -0.0082     2.4497   153.7953     0.2819     0.1210     9.4671     9.6953
  160.5000     8.2760    -0.0052     2.4438   152.8847     0.2812     0.1254     9.4018     9.6271
  161.0000     8.2756    -0.0052     2.4385   151.6743     0.2806     0.1278     9.2725     9.5593
  161.5000     8.2753    -0.0037     2.4340   150.7650     0.2798     0.1299     9.2085     9.4917
  162.0000     8.2821     0.0007     2.4393   150.1556     0.2798     0.1281     9.1449     9.4249
  162.5000     8.2898     0.0082     2.4453   149.8488     0.2807     0.1251     9.0766     9.4237
  163.0000     8.2895    -0.0007     2.4484   152.2529     0.2822     0.1227     9.0191     9.3573
  163.5000     8.2892    -0.0112     2.4394   156.4627     0.2831     0.1249     8.9569     9.3558
  164.0000     8.2889    -0.0187     2.4259   158.5670     0.2843     0.1341     8.9569     9.2903
  164.5000     8.2885    -0.0202     2.4266   155.2467     0.2852     0.1353     8.8951     9.2888
  165.0000     8.3033    -0.0127     2.4334   152.1385     0.2843     0.1314     8.8951     9.2875
  165.5000     8.3030    -0.0142     2.4372   148.6076     0.2818     0.1287     8.9569     9.2861
  166.0000     8.2877    -0.0157     2.4395   147.9996     0.2801     0.1284     8.9569     9.2849
  166.5000     8.2873    -0.0217     2.4380   149.2018     0.2795     0.1281     8.9569     9.2192
  167.0000     8.2871    -0.0262     2.4320   148.8906     0.2790     0.1302     8.9569     9.1543
  167.5000     8.2964    -0.0291     2.4238   147.0778     0.2796     0.1353     8.9569     9.1531
  168.0000     8.3015    -0.0187     2.4283   145.5661     0.2799     0.1344     8.8951     9.1519
  168.5000     8.3012    -0.0097     2.4351   145.2579     0.2799     0.1281     8.7727     9.0872
  169.0000     8.3009    -0.0099     2.4419   146.4572     0.2802     0.1251     8.5924     8.8990
  169.5000     8.3006    -0.0157     2.4427   150.3672     0.2802     0.1254     8.3576     8.6524
  170.0000     8.3003    -0.0217     2.4412   155.6425     0.2820     0.1269     8.1293     8.3581
  170.5000     8.3151    -0.0232     2.4397   161.1980     0.2862     0.1287     7.9621     8.0721
  171.0000     8.2997    -0.0202     2.4382   159.9876     0.2971     0.1308     7.7916     7.9049
  171.5000     8.2994    -0.0097     2.4337   155.1235     0.3004     0.1311     7.5854     7.7409
  172.0000     8.3072     0.0052     2.4338   152.4449     0.2992     0.1293     7.5330     7.6333
  172.5000     8.3138     0.0022     2.4383   151.5371     0.2908     0.1272     7.4294     7.5795
  173.0000     8.3285    -0.0067     2.4413   152.4337     0.2854     0.1263     7.3781     7.5785
  173.5000     8.2982    -0.0127     2.4413   152.1255     0.2857     0.1266     7.3781     7.6832
  174.0000     8.2979    -0.0142     2.4376   152.1199     0.2866     0.1281     7.4810     7.7359
  174.5000     8.2975    -0.0082     2.4354   154.2227     0.2869     0.1290     7.6381     7.8427
  175.0000     8.2973    -0.0097     2.4399   158.1314     0.2869     0.1251     7.7446     7.8962
  175.5000     8.2970    -0.0082     2.4474   161.4390     0.2866     0.1203     7.7984     7.9502
  176.0000     8.2967    -0.0052     2.4528   163.2406     0.2845     0.1185     7.8526     7.9489
  176.5000     8.2964    -0.0022     2.4520   163.2118     0.2815     0.1203     7.8526     8.0031
  177.0000     8.2961     0.0009     2.4490   161.1196     0.2800     0.1221     7.9072     8.0577
  177.5000     8.2958     0.0037     2.4467   157.8008     0.2794     0.1233     7.9621     8.1693
  178.0000     8.2955     0.0007     2.4460   155.6867     0.2795     0.1215     8.0175     8.2084
  178.5000     8.2952    -0.0067     2.4476   155.0773     0.2792     0.1194     8.0732     8.2810
  179.0000     8.2949    -0.0127     2.4513   153.2645     0.2786     0.1173     8.1858     8.3376
  179.5000     8.2945    -0.0082     2.4544   152.0541     0.2780     0.1176     8.2999     8.3962
  180.0000     8.3094    -0.0036     2.4514   151.7473     0.2771     0.1203     8.4157     8.5694
  180.5000     8.2940    -0.0082     2.4507   154.4511     0.2759     0.1212     8.5331     8.6282
  181.0000     8.3087    -0.0097     2.4522   157.4576     0.2756     0.1191     8.5366     8.6868
  181.5000     8.3084    -0.0097     2.4537   157.3855     0.2762     0.1181     8.5924     8.7461
  182.0000     8.3081    -0.0082     2.4552   155.0353     0.2774     0.1191     8.6521     8.7447
  182.5000     8.3228    -0.0127     2.4568   154.4273     0.2783     0.1179     8.5924     8.6832
  183.0000     8.3225    -0.0187     2.4560   154.4217     0.2798     0.1164     8.5331     8.6820
  183.5000     8.3222    -0.0187     2.4523   156.8244     0.2820     0.1188     8.4742     8.6207
  184.0000     8.3219    -0.0112     2.4485   159.5296     0.2841     0.1215     8.4157     8.5600
  184.5000     8.3216    -0.0037     2.4471   162.2348     0.2853     0.1224     8.2999     8.4410
  185.0000     8.3213     0.0052     2.4539   164.9387     0.2862     0.1209     8.2427     8.3233
