~VERSION INFORMATION
 VERS.                2.0:   CWLS LOG ASCII STANDARD - VERSION 2.0
 WRAP.                 NO:   ONE LINE PER DEPTH STEP
~WELL INFORMATION
#MNEM.UNIT      DATA TYPE    INFORMATION
#----------   ------------   ------------------------------
 STRT.F           29.0000:   START DEPTH
 STOP.F          503.0000:   STOP DEPTH
 STEP.F            0.5000:   STEP LENGTH
 NULL.          -999.2500:   NO VALUE
 COMP. FENIX & SCISSON INC:   COMPANY
 WELL.      78 SX 3 #78-3:   WELL
 FLD .             TEAPOT:   FIELD
 LOC .       S3 T38N R78W:   LOCATION
 CNTY.            NATRONA:   COUNTY
 STAT.            WYOMING:   STATE
 CTRY. UNITED STATES OF AMERICA:   COUNTRY
 SRVC.            Unknown:   SERVICE COMPANY
 DATE.        17-OCT-1978:   LOGDATE
 API .       490251072400:   API NUMBER
~CURVE INFORMATION
#MNEM.UNIT       API CODE    CURVE DESCRIPTION
#----------   ------------   ------------------------------
 DEPT.F                  :   
 CALD.IN     45 280 60 00:   CALIPER
 GRD .GAPI   45 310 01 00:   GAMMA RAY FROM DENSITY LOG
 CORR.G/C3   45 356 01 00:   DENSITY CORRECTION
 RHOB.G/C3   45 350 01 00:   BULK DENSITY
 DPHI.DEC    45 890 12 00:   DENSITY POROSITY SANDSTONE
 SPR .MV     05 010 01 00:   SPONTANEOUS POTENTIAL FROM RES.
 IL  .OHMM   05 120 00 00:   INDUCTION LOG
 SN  .OHMM   05 040 16 00:   SHORT NORMAL 16"
~PARAMETER INFORMATION
#MNEM.UNIT          VALUE    DESCRIPTION
#----------   ------------   ------------------------------
 PD  .                 GL:   PERMANENT DATUM
 EPD .F              5154:   ELEVATION PERMANENT DATUM
 LMF .                 KB:   LOG MEASURED FROM
 DAPD.F                 4:   FEET ABOVE PERMANENT DATUM
 DMF .                 KB:   DRILLING MEASURED FROM
 EKB .F              5158:   KELLING BUSHING
 EGL .F              5154:   GROUND LEVEL
 DATE.           10-17-78:   RUN DATE
 RUN .                  1:   RUN NUMBER
 DD  .F               498:   DEPTH DRILLER
 DL  .F               503:   DEPTH LOGGER
 BLI .F               497:   BOTTOM LOG INTERVAL
 TLI .F                46:   TOP LOG INTERVAL
 CS  .IN            8.625:   CASING SIZE
 CBD .F                40:   CASING BOTTOM DRILLER
 BS  .IN            7.875:   BIT SIZE
 BSD .F               498:   BIT SIZE AT DEPTH
 DFT .                KCL:   DRILLING FLUID TYPE
 DFD .                8.7:   DRILLING FLUID DENSITY
 DFV .                 38:   DRILLING FLUID VISCOSITY
 DFPH.                  9:   DRILLING FLUID PH
 DFL .                9.6:   DRILLING FLUID LOSS
 MSS .          FLOW LINE:   MUD SAMPLE SOURCE
 RMS .OHMM             .2:   RESISTIVITY MUD SAMPLE
 MST .F                52:   MUD SAMPLE TEMPERATURE
 RMF .OHMM            .18:   RESISTIVITY MUD FILTRATE SAMPLE
 MFST.F                58:   MUD FILTRATE SAMPLE TEMPERATURE
 RMC .OHMM            .16:   RESISTIVITY MUD CAKE
 MCST.F                64:   MUD CAKE SAMPLE TEMPERATURE
 MFSS.               MEAS:   MUD FILTRATE SAMPLE SOURCE
 MCSS.               MEAS:   MUD CAKE SAMPLE SOURCE
 TCS .HRS               1:   TIME CURCULATED STOPPED
 MRT .F                72:   MAXIMUM RECORDED TEMPERATURE
 LUN .               2958:   LOGGING UNIT NUMBER
 LUL .               CASP:   LOGGING UNIT LOCATION
 ENGI.             MILLER:   RECORDING ENGINEER
 WITN.           DINSMORE:   WITNESSED BY
 CLNT.            A2DTECH:   CLIENT CODE
 ORIG.           5" PRINT:   ORIGIN OF DATA
 UWI .       490251072400:   UNIQUE WELL ID
 DICO. A2D Technologies, Inc.:   DIGITIZING COMPANY
~OTHER INFORMATION
~A   DEPT     CALD         GRD      CORR       RHOB       DPHI        SPR         IL         SN   
   29.0000  -999.2500    68.3000  -999.2500  -999.2500  -999.2500  -999.2500  -999.2500  -999.2500
   29.5000  -999.2500    68.3048  -999.2500  -999.2500  -999.2500  -999.2500  -999.2500  -999.2500
   30.0000  -999.2500    68.3505  -999.2500  -999.2500  -999.2500  -999.2500  -999.2500  -999.2500
   30.5000  -999.2500    68.3837  -999.2500  -999.2500  -999.2500  -999.2500  -999.2500  -999.2500
   31.0000  -999.2500    68.4605  -999.2500  -999.2500  -999.2500  -999.2500  -999.2500  -999.2500
   31.5000  -999.2500    68.4817  -999.2500  -999.2500  -999.2500  -999.2500  -999.2500  -999.2500
   32.0000  -999.2500    72.1716  -999.2500  -999.2500  -999.2500  -999.2500  -999.2500  -999.2500
   32.5000  -999.2500    72.3106  -999.2500  -999.2500  -999.2500  -999.2500  -999.2500  -999.2500
   33.0000  -999.2500    72.0875  -999.2500  -999.2500  -999.2500  -999.2500  -999.2500  -999.2500
   33.5000  -999.2500    71.8754  -999.2500  -999.2500  -999.2500  -999.2500  -999.2500  -999.2500
   34.0000  -999.2500    72.3263  -999.2500  -999.2500  -999.2500  -999.2500  -999.2500  -999.2500
   34.5000  -999.2500    76.8687  -999.2500  -999.2500  -999.2500  -999.2500  -999.2500  -999.2500
   35.0000  -999.2500    81.4060  -999.2500  -999.2500  -999.2500  -999.2500  -999.2500  -999.2500
   35.5000  -999.2500    85.9363  -999.2500  -999.2500  -999.2500  -999.2500  -999.2500  -999.2500
   36.0000  -999.2500    90.7076  -999.2500  -999.2500  -999.2500  -999.2500  -999.2500  -999.2500
   36.5000  -999.2500    91.9525  -999.2500  -999.2500  -999.2500  -999.2500  -999.2500  -999.2500
   37.0000  -999.2500    94.5866  -999.2500  -999.2500  -999.2500  -999.2500  -999.2500  -999.2500
   37.5000  -999.2500    95.8880  -999.2500  -999.2500  -999.2500  -999.2500  -999.2500  -999.2500
   38.0000  -999.2500    94.5919  -999.2500  -999.2500  -999.2500  -999.2500  -999.2500  -999.2500
   38.5000  -999.2500    92.3905  -999.2500  -999.2500  -999.2500  -999.2500  -999.2500  -999.2500
   39.0000  -999.2500    89.3168  -999.2500  -999.2500  -999.2500  -999.2500  -999.2500  -999.2500
   39.5000  -999.2500    85.5700  -999.2500  -999.2500  -999.2500  -999.2500  -999.2500  -999.2500
   40.0000  -999.2500    79.5676  -999.2500  -999.2500  -999.2500  -999.2500  -999.2500  -999.2500
   40.5000  -999.2500    77.4089  -999.2500  -999.2500  -999.2500  -999.2500  -999.2500  -999.2500
   41.0000  -999.2500    76.9024  -999.2500  -999.2500  -999.2500  -999.2500  -999.2500  -999.2500
   41.5000  -999.2500    76.9397  -999.2500  -999.2500  -999.2500  -999.2500  -999.2500  -999.2500
   42.0000  -999.2500    75.2519  -999.2500  -999.2500  -999.2500  -999.2500  -999.2500  -999.2500
   42.5000  -999.2500    73.2573  -999.2500  -999.2500  -999.2500  -999.2500  -999.2500  -999.2500
   43.0000  -999.2500    72.0783  -999.2500  -999.2500  -999.2500  -999.2500  -999.2500  -999.2500
   43.5000  -999.2500    72.6434  -999.2500  -999.2500  -999.2500  -999.2500  -999.2500  -999.2500
   44.0000     8.0389    73.6287    -0.1161     2.0025     0.1192  -999.2500  -999.2500  -999.2500
   44.5000     8.0913    77.3747     0.0135     2.2313     0.1192  -999.2500  -999.2500  -999.2500
   45.0000     7.9969    84.0381     0.0794     2.4757     0.1192  -999.2500  -999.2500  -999.2500
   45.5000     7.9211    96.2741     0.0813     2.4785     0.1232  -999.2500  -999.2500  -999.2500
   46.0000     7.8254   112.2969     0.0932     2.4708     0.1160   -24.7024     0.8360     6.8698
   46.5000     7.8697   128.4725     0.1148     2.5350     0.1025   -24.7024     1.2639     7.0024
   47.0000     7.8583   144.6345     0.1245     2.5359     0.0889   -24.7348     1.8420     7.3926
   47.5000     7.8258   160.7606     0.1032     2.5359     0.0876   -24.8352     2.2831     8.0655
   48.0000     7.7253   169.5171     0.0824     2.5338     0.0892   -24.9588     6.3221     8.8334
   48.5000     7.6293   168.8517     0.0617     2.5224     0.1012   -25.1293     7.0622     9.5663
   49.0000     7.6197   159.6817     0.0410     2.5000     0.1132   -26.7104     7.4113    10.0859
   49.5000     7.6089   151.1145     0.0244     2.4795     0.1185   -27.6245     7.4522    10.3874
   50.0000     7.5982   142.5521     0.0184     2.4727     0.1232   -27.9353     7.5503    10.5579
   50.5000     7.5874   138.1586     0.0123     2.4659     0.1269   -28.2307     7.6742    10.7834
   51.0000     7.5764   138.7850     0.0060     2.4593     0.1288   -28.5262     7.8001    10.7804
   51.5000     7.5615   140.4772     0.0046     2.4551     0.1281   -28.7256     7.8861    10.7816
   52.0000     7.5447   138.9040     0.0047     2.4573     0.1271   -28.8534     7.8629    10.7815
   52.5000     7.5279   136.1447     0.0049     2.4604     0.1262   -28.2644     7.8457    10.7813
   53.0000     7.5111   135.9612     0.0051     2.4606     0.1252   -28.0511     7.8282    10.7810
   53.5000     7.4943   135.7505     0.0052     2.4608     0.1230   -28.0076     7.8109    10.7800
   54.0000     7.4775   135.5347     0.0054     2.4652     0.1198   -27.9707     7.7937    10.8545
   54.5000     7.4606   136.8990     0.0055     2.4696     0.1167   -27.9311     7.7766    10.9304
   55.0000     7.4567   139.4037     0.0057     2.4740     0.1135   -27.8891     7.7599    11.0069
   55.5000     7.4624   141.5963     0.0058     2.4784     0.1172   -28.2700     7.7423    11.0830
   56.0000     7.4684   141.6568     0.0060     2.4815     0.1249   -31.2795     7.8420    11.4799
   56.5000     7.4757   139.7851     0.0061     2.4644     0.1325   -31.8712     7.9420    11.7782
   57.0000     7.4901   137.5185     0.0063     2.4463     0.1340   -32.1386     7.9589    11.9293
   57.5000     7.5050   137.8087     0.0065     2.4451     0.1329   -32.4507     7.9589    12.2701
   58.0000     7.5408   138.9899     0.0066     2.4492     0.1304   -33.7105     7.9589    12.7226
   58.5000     7.6115   140.1796     0.0068     2.4593     0.1278   -35.0003     7.9579    12.6871
   59.0000     7.6653   140.7876     0.0069     2.4595     0.1253   -35.1034     7.9534    12.6336
   59.5000     7.6930   140.4753     0.0071     2.4599     0.1228   -35.3368     7.9489    12.6062
   60.0000     7.7211   140.1755     0.0072     2.4611     0.1203   -35.5617     7.9446    12.8084
   60.5000     7.7491   139.8629     0.0074     2.4666     0.1177   -36.0047     7.9402    12.9588
   61.0000     7.7678   139.0532     0.0076     2.4742     0.1152   -36.4528     7.9358    12.7954
   61.5000     7.7846   137.5436     0.0077     2.4790     0.1145   -36.6154     7.9314    12.6062
   62.0000     7.8014   136.0895     0.0079     2.4801     0.1148   -36.6305     7.9270    11.7129
   62.5000     7.8182   139.7830     0.0080     2.4801     0.1151   -36.6492     7.9226    10.7814
   63.0000     7.8350   143.8174     0.0082     2.4797     0.1154   -36.6683     7.9183    10.4303
   63.5000     7.8519   139.9939     0.0083     2.4785     0.1157   -36.6874     7.9139    10.0731
   64.0000     7.8681   136.6431     0.0085     2.4773     0.1160   -36.7066     7.9095     9.7283
   64.5000     7.9153   138.5483     0.0086     2.4761     0.1149   -36.7257     7.9051     9.3930
   65.0000     7.9759   141.5419     0.0088     2.4767     0.1138   -36.7449     7.9008     9.3515
   65.5000     7.9946   141.6113     0.0089     2.4802     0.1125   -36.7640     7.8964     9.3142
   66.0000     7.9955   141.2721     0.0091     2.4847     0.1134   -36.7830     7.8920     9.1718
   66.5000     7.9960   140.9184     0.0093     2.4811     0.1144   -36.8008     7.8875     9.0096
   67.0000     7.9965   141.4821     0.0094     2.4775     0.1145   -36.8693     7.8610     8.8225
   67.5000     7.9970   142.1315     0.0096     2.4762     0.1128   -36.9458     7.8222     8.6657
   68.0000     7.9976   142.7883     0.0097     2.4790     0.1110   -37.0226     7.7834     8.5733
   68.5000     7.9981   142.9329     0.0099     2.4821     0.1100   -37.0992     7.7447     8.4819
   69.0000     7.9987   142.6254     0.0100     2.4848     0.1109   -37.1766     7.7063     8.3915
