~VERSION INFORMATION
 VERS.                2.0:   CWLS LOG ASCII STANDARD - VERSION 2.0
 WRAP.                 NO:   ONE LINE PER DEPTH STEP
~WELL INFORMATION
#MNEM.UNIT      DATA TYPE    INFORMATION
#----------   ------------   ------------------------------
 STRT.F            6.0000:   START DEPTH
 STOP.F          765.0000:   STOP DEPTH
 STEP.F            0.5000:   STEP LENGTH
 NULL.          -999.2500:   NO VALUE
 COMP. FENIX & SCISSON INC:   COMPANY
 WELL.      24 SX 2 #24-2:   WELL
 FLD .        TEAPOT DOME:   FIELD
 LOC .       S2 T38N R78W:   LOCATION
 CNTY.            NATRONA:   COUNTY
 STAT.            WYOMING:   STATE
 CTRY. UNITED STATES OF AMERICA:   COUNTRY
 SRVC.           BIRDWELL:   SERVICE COMPANY
 DATE.        20-JAN-1978:   LOGDATE
 API .       490251055700:   API NUMBER
~CURVE INFORMATION
#MNEM.UNIT       API CODE    CURVE DESCRIPTION
#----------   ------------   ------------------------------
 DEPT.F                  :   
 SPR .MV     05 010 01 00:   SPONTANEOUS POTENTIAL FROM RES.
 SN  .OHMM   05 040 16 00:   SHORT NORMAL 16"
 ILD .OHMM   05 120 46 00:   INDUCTION LOG DEEP
 CALD.IN     45 280 60 00:   CALIPER FROM DENSITY LOG
 CORR.G/C3   45 356 01 00:   DENSITY CORRECTION
 DEN .G/C3   45 350 01 00:   COMPENSATED BULK DENSTIY
 DPHI.DEC    45 890 12 00:   DENSITY POROSITY SANDSTONE
 GRD .GAPI   45 310 01 00:   GAMMA RAY FROM DENSITY LOG
~PARAMETER INFORMATION
#MNEM.UNIT          VALUE    DESCRIPTION
#----------   ------------   ------------------------------
 PD  .                 GL:   PERMANENT DATUM
 EPD .F              5131:   ELEVATION PERMANENT DATUM
 LMF .                 KB:   LOG MEASURED FROM
 DMF .                 KB:   DRILLING MEASURED FROM
 EKB .F              5134:   KELLING BUSHING
 EGL .F              5131:   GROUND LEVEL
 DATE.        20-JAN-1978:   RUN DATE
 RUN .                  1:   RUN NUMBER
 DD  .F               775:   DEPTH DRILLER
 DL  .F               770:   DEPTH LOGGER
 BLI .F               770:   BOTTOM LOG INTERVAL
 TLI .F                40:   TOP LOG INTERVAL
 CS  .IN            8.625:   CASING SIZE
 CBD .F                39:   CASING BOTTOM DRILLER
 CBL .F                39:   CASING BOTTOM LOGGER
 BS  .IN            7.875:   BIT SIZE
 BSD .F               775:   BIT SIZE AT DEPTH
 DFT .                KCL:   DRILLING FLUID TYPE
 DFD .                8.6:   DRILLING FLUID DENSITY
 DFV .                 33:   DRILLING FLUID VISCOSITY
 DFPH.                9.5:   DRILLING FLUID PH
 DFL .                  8:   DRILLING FLUID LOSS
 MSS .           FLOWLINE:   MUD SAMPLE SOURCE
 RMS .OHMM            .31:   RESISTIVITY MUD SAMPLE
 MST .F                54:   MUD SAMPLE TEMPERATURE
 RMF .OHMM            .28:   RESISTIVITY MUD FILTRATE SAMPLE
 MFST.F                64:   MUD FILTRATE SAMPLE TEMPERATURE
 RMC .OHMM             .8:   RESISTIVITY MUD CAKE
 MCST.F                64:   MUD CAKE SAMPLE TEMPERATURE
 MFSS.               MEAS:   MUD FILTRATE SAMPLE SOURCE
 MCSS.               MEAS:   MUD CAKE SAMPLE SOURCE
 RMB .OHMM            .22:   RESISTIVITY MUD AT BHT
 BHT .F                76:   BOTTOM HOLE TEMPERATURE
 TCS .HRS            0400:   TIME CURCULATED STOPPED
 MRT .F                76:   MAXIMUM RECORDED TEMPERATURE
 LUN .               2958:   LOGGING UNIT NUMBER
 LUL .             CASPER:   LOGGING UNIT LOCATION
 ENGI.            POINTER:   RECORDING ENGINEER
 WITN.           MCGINLEY:   WITNESSED BY
 CLNT.            A2DTECH:   CLIENT CODE
 ORIG.           5" PRINT:   ORIGIN OF DATA
 UWI .       490251055700:   UNIQUE WELL ID
 DICO. A2D Technologies, Inc.:   DIGITIZING COMPANY
~OTHER INFORMATION
~A    DEPT     SPR         SN        ILD       CALD       CORR        DEN       DPHI         GRD  
# ...
  330.0000   -44.3678     9.9835     8.5928     8.1067     0.0993     2.4930     0.1047    88.5537
  330.5000   -44.3768     9.9104     8.5904     8.0911     0.0918     2.4855     0.1089    93.3584
  331.0000   -44.5364     9.7697     8.5880     8.0905     0.0888     2.4884     0.1113    89.7284
  331.5000   -44.5455     9.6310     8.5263     8.0899     0.0887     2.4884     0.1128    85.7977
  332.0000   -44.4036     9.4286     8.4651     8.0893     0.0917     2.4816     0.1116    89.0959
  332.5000   -44.1117     9.3595     8.4043     8.0586     0.0924     2.4816     0.1099   103.5387
  333.0000   -43.6689     9.2266     8.5193     8.0429     0.0916     2.4831     0.1114   106.5361
  333.5000   -43.5271     9.1590     8.6358     8.0423     0.0924     2.4853     0.1150    99.2918
  334.0000   -43.3855     9.0928     8.8148     8.0417     0.0984     2.4733     0.1186    89.6382
  334.5000   -43.3948     9.1524     8.9974     8.0411     0.1013     2.4672     0.1217    82.6954
  335.0000   -43.4038     9.2123     9.0576     8.0405     0.1034     2.4664     0.1250    84.7888
  335.5000   -43.4129     9.3364     9.1180     8.0399     0.1042     2.4642     0.1274    91.7014
  336.0000   -43.4219     9.3975     9.0525     8.0545     0.1034     2.4581     0.1281    98.0117
  336.5000   -43.4309     9.4590     8.9875     8.0538     0.0996     2.4545     0.1235   101.6111
  337.0000   -43.4400     9.3895     8.8001     8.0682     0.0950     2.4641     0.1187    96.7768
  337.5000   -43.4490     9.3207     8.6766     8.0676     0.0890     2.4641     0.1266    95.5569
  338.0000   -43.4580     9.1884     8.6143     8.0822     0.0867     2.4640     0.1380    95.2169
  338.5000   -43.4670     9.1210     8.6119     8.0814     0.0919     2.4354     0.1443    96.7319
  339.0000   -43.4761     9.0542     8.6694     8.0808     0.0949     2.4204     0.1486    98.5238
  339.5000   -43.4851     9.0504     8.7273     8.0802     0.1024     2.4181     0.1501    99.1115
  340.0000   -43.4941     9.0466     8.7248     8.0796     0.1068     2.4143     0.1507    99.6985
  340.5000   -43.5032     9.1060     8.7224     8.0640     0.1128     2.4060     0.1504   109.9245
  341.0000   -43.5122     9.1021     8.7200     8.0484     0.1157     2.4067     0.1495   113.5239
  341.5000   -43.5212     9.2255     8.7176     8.0177     0.1164     2.4157     0.1490   113.5088
  342.0000   -43.6808     9.2860     8.6550     7.9720     0.1172     2.4157     0.1514   111.0841
  342.5000   -43.8405     9.2820     8.4160     7.9413     0.1179     2.4104     0.1529   101.4305
  343.0000   -44.1507     9.2781     8.2406     7.8956     0.1186     2.4096     0.1541    96.5962
  343.5000   -44.4609     9.2743     8.1814     7.8799     0.1185     2.4104     0.1534    89.3522
  344.0000   -44.6206     9.2063     8.2360     7.8493     0.1185     2.4186     0.1464    89.3372
  344.5000   -44.6296     9.2025     8.2337     7.8336     0.1185     2.4261     0.1401    89.3222
  345.0000   -44.6386     9.1987     8.2314     7.8330     0.1184     2.4321     0.1369    88.7047
  345.5000   -44.6477     9.1948     8.2292     7.8324     0.1184     2.4366     0.1331    84.1716
  346.0000   -44.3555     9.1274     8.2269     7.8318     0.1154     2.4419     0.1238    81.1445
  346.5000   -43.9127     9.0605     8.2246     7.8463     0.0973     2.4546     0.1193    95.2861
  347.0000   -43.7711     9.0568     8.2223     7.8757     0.0935     2.4644     0.1377   101.2951
  347.5000   -43.6295     8.9904     8.2200     7.8902     0.0913     2.4456     0.1419    98.5692
  348.0000   -43.6386     8.9867     8.2178     7.8896     0.0882     2.4297     0.1437    98.8554
  348.5000   -43.6476     8.9829     8.2155     7.9192     0.0859     2.4297     0.1407    98.8403
  349.0000   -43.5060     8.9792     8.2132     7.9487     0.0844     2.4327     0.1398    97.6205
  349.5000   -43.5151     9.0380     8.2109     7.9479     0.0814     2.4334     0.1390   100.3163
  350.0000   -43.5241     9.0342     8.2087     7.9506     0.0761     2.4342     0.1369   107.5301
  350.5000   -43.9883     8.9956     8.1561     7.9693     0.0761     2.4364     0.1384   112.7495
  351.0000   -44.4496     8.9570     8.1035     7.9881     0.0745     2.4356     0.1510   116.5924
  351.5000   -44.6107     8.9184     8.1452     8.0081     0.0730     2.4265     0.1496   116.8675
  352.0000   -44.6212     8.8946     8.1996     8.0534     0.0730     2.4181     0.1475   111.4335
  352.5000   -44.6317     8.9538     8.1973     8.0654     0.0759     2.4143     0.1520   105.7229
  353.0000   -44.6422     8.9491     8.1950     8.0950     0.0782     2.4120     0.1535   105.4217
  353.5000   -44.6527     9.0087     8.1928     8.1097     0.0759     2.4204     0.1385   107.5301
  354.0000   -44.3620     9.1298     8.2475     8.1091     0.0743     2.4452     0.1310   106.3253
  354.5000   -44.2214     9.1898     8.3603     8.1087     0.0736     2.4472     0.1337   102.4096
  355.0000   -44.2324     9.1858     8.4161     8.1082     0.0758     2.4403     0.1370   103.3133
  355.5000   -44.0919     9.1820     8.4723     8.1078     0.0788     2.4396     0.1361   102.4096
  356.0000   -44.1028     9.1782     8.5359     8.1225     0.0817     2.4403     0.1349    91.5663
  356.5000   -44.1133     9.2384     8.6455     8.1219     0.0817     2.4402     0.1362    86.1446
  357.0000   -44.1238     9.2989     8.6514     8.1064     0.0824     2.4387     0.1374    95.1807
  357.5000   -44.1343     9.3598     8.8313     8.1060     0.0846     2.4379     0.1374    95.7831
  358.0000   -44.1448     9.4210     9.1308     8.1055     0.0891     2.4378     0.1372    90.6627
  358.5000   -44.1553     9.4170     9.1917     8.1051     0.0936     2.4408     0.1362    86.7470
  359.0000   -44.0151     9.4131     9.1891     8.1046     0.0958     2.4483     0.1290    87.0482
  359.5000   -43.8750     9.4092     9.1231     8.1042     0.0988     2.4557     0.1232    90.6627
  360.0000   -43.8855     9.4053     9.1201     8.1037     0.0995     2.4602     0.1184    98.7952
  360.5000   -43.7454     9.4014     9.1175     8.1033     0.0987     2.4624     0.1149    99.1505
  361.0000   -43.7559     9.3303     8.9275     8.1179     0.0964     2.4759     0.1134    97.5904
  361.5000   -43.6158     9.2641     8.6810     8.1174     0.0964     2.4728     0.1186    98.4940
  362.0000   -43.6265     9.2602     8.5000     8.1170     0.0971     2.4683     0.1210   103.6626
  362.5000   -43.6370     9.1923     8.3228     8.1165     0.0993     2.4675     0.1198   107.2289
  363.0000   -43.6476     9.1250     8.1493     8.1161     0.1023     2.4674     0.1171   107.1908
  363.5000   -43.6757     9.1212     8.1471     8.1156     0.1045     2.4681     0.1183   103.3584
  364.0000   -43.9699     9.1174     8.0885     8.1001     0.1037     2.4711     0.1231    94.5783
  364.5000   -44.3042     9.0505     8.0863     8.0996     0.1052     2.4619     0.1280    96.3855
  365.0000   -44.7691     8.9220     8.0282     8.0992     0.1082     2.4582     0.1316   104.8193
  365.5000   -45.2063     8.7843     7.9155     8.0837     0.1111     2.4506     0.1325   107.2289
  366.0000   -45.2190     8.6098     7.8587     8.0682     0.1134     2.4475     0.1304   106.0241
  366.5000   -45.2295     8.6063     7.8565     8.0527     0.1141     2.4490     0.1268   101.2048
  367.0000   -45.0894     8.7230     7.8544     8.0372     0.1110     2.4557     0.1235    98.1928
  367.5000   -44.9466     8.7810     7.9068     8.0368     0.1103     2.4587     0.1232    95.1807
  368.0000   -44.8065     8.8385     7.9046     8.0063     0.1102     2.4526     0.1287    94.2771
  368.5000   -44.5158     8.8339     8.0133     8.0058     0.1110     2.4435     0.1344    92.7711
  369.0000   -44.3757     8.8927     8.1223     7.9903     0.1109     2.4374     0.1392    96.3855
  369.5000   -44.0850     8.8880     8.1765     7.9899     0.1132     2.4336     0.1417    99.6988
  370.0000   -43.7943     8.8844     8.2317     7.9894     0.1161     2.4290     0.1405   101.2048
