~VERSION INFORMATION
 VERS.                2.0:   CWLS LOG ASCII STANDARD - VERSION 2.0
 WRAP.                 NO:   ONE LINE PER DEPTH STEP
~WELL INFORMATION
#MNEM.UNIT      DATA TYPE    INFORMATION
#----------   ------------   ------------------------------
 STRT.F           30.0000:   START DEPTH
 STOP.F          597.0000:   STOP DEPTH
 STEP.F            0.5000:   STEP LENGTH
 NULL.          -999.2500:   NO VALUE
 COMP. FENIX & SCISSON-U.S. NAVY:   COMPANY
 WELL.    NPR #3 #15-S-11:   WELL
 FLD .             TEAPOT:   FIELD
 LOC .      S11 T38N R78W:   LOCATION
 CNTY.            NATRONA:   COUNTY
 STAT.            WYOMING:   STATE
 CTRY. UNITED STATES OF AMERICA:   COUNTRY
 SRVC.       Schlumberger:   SERVICE COMPANY
 DATE.        22-FEB-1977:   LOGDATE
 API .       490251028000:   API NUMBER
~CURVE INFORMATION
#MNEM.UNIT       API CODE    CURVE DESCRIPTION
#----------   ------------   ------------------------------
 DEPT.F                  :   
 SPR .MV     07 010 01 00:   SPONTANEOUS POTENTIAL
 ILD .OHMM   07 120 46 00:   INDUCTION LOG DEEP RES
 ILM .OHMM   07 120 44 00:   INDUCTION LOG MEDIUM RES
 LL8 .OHMM   07 220 08 00:   LATEROLOG-8 RES
 CALD.IN     45 280 60 00:   CALIPER FROM DENSITY LOG
 GRD .GAPI   45 310 01 00:   GAMMA RAY FROM DENSITY LOG
 CORR.G/C3   45 356 01 00:   DENSITY CORRECTION
 RHOB.G/C3   45 350 01 00:   BULK DENSITY
 DPHI.DEC    45 890 12 00:   DENSITY POROSITY SANDSTONE
~PARAMETER INFORMATION
#MNEM.UNIT          VALUE    DESCRIPTION
#----------   ------------   ------------------------------
 PD  .                 GL:   PERMANENT DATUM
 EPD .F              5188:   ELEVATION PERMANENT DATUM
 LMF .                 KB:   LOG MEASURED FROM
 DAPD.F                 5:   FEET ABOVE PERMANENT DATUM
 DMF .                 KB:   DRILLING MEASURED FROM
 EKB .F              5193:   KELLING BUSHING
 EGL .F              5188:   GROUND LEVEL
 DATE.         22FEB-1977:   RUN DATE
 RUN .                  1:   RUN NUMBER
 DD  .F               598:   DEPTH DRILLER
 DL  .F               598:   DEPTH LOGGER
 BLI .F               597:   BOTTOM LOG INTERVAL
 TLI .F                35:   TOP LOG INTERVAL
 CS  .IN            8.625:   CASING SIZE
 CBD .F                42:   CASING BOTTOM DRILLER
 CBL .F                45:   CASING BOTTOM LOGGER
 BS  .IN            7.875:   BIT SIZE
 BSD .F               598:   BIT SIZE AT DEPTH
 DFT .                KCL:   DRILLING FLUID TYPE
 DFD .                8.7:   DRILLING FLUID DENSITY
 DFV .                 31:   DRILLING FLUID VISCOSITY
 DFPH.                  8:   DRILLING FLUID PH
 DFL .                7.2:   DRILLING FLUID LOSS
 MSS .           MUD TANK:   MUD SAMPLE SOURCE
 RMS .OHMM           .526:   RESISTIVITY MUD SAMPLE
 MST .F                70:   MUD SAMPLE TEMPERATURE
 RMF .OHMM           .515:   RESISTIVITY MUD FILTRATE SAMPLE
 MFST.F                71:   MUD FILTRATE SAMPLE TEMPERATURE
 RMC .OHMM            .77:   RESISTIVITY MUD CAKE
 MCST.F                70:   MUD CAKE SAMPLE TEMPERATURE
 MFSS.               MEAS:   MUD FILTRATE SAMPLE SOURCE
 MCSS.               CALC:   MUD CAKE SAMPLE SOURCE
 RMB .OHMM            .67:   RESISTIVITY MUD AT BHT
 BHT .F                55:   BOTTOM HOLE TEMPERATURE
 TCS .HRS            0600:   TIME CURCULATED STOPPED
 MRT .F                55:   MAXIMUM RECORDED TEMPERATURE
 LUN .               5642:   LOGGING UNIT NUMBER
 LUL .               CSPR:   LOGGING UNIT LOCATION
 ENGI.                FIX:   RECORDING ENGINEER
 WITN.         STUEBINGER:   WITNESSED BY
 CLNT.            A2DTECH:   CLIENT CODE
 ORIG.           5" PRINT:   ORIGIN OF DATA
 UWI .       490251028000:   UNIQUE WELL ID
 DICO. A2D Technologies, Inc.:   DIGITIZING COMPANY
~OTHER INFORMATION
~A   DEPT      SPR        ILD        ILM        LL8       CALD         GRD      CORR       RHOB       DPHI   
# ...
  541.0000   -30.2873     9.5669    11.5208    11.3330     8.1039   116.6293    -0.0078     2.4310     0.1276
  541.5000   -30.1311     9.7017    11.8463    11.5719     8.1050   116.4897    -0.0009     2.4543     0.1171
  542.0000   -30.1251     9.9066    12.0092    11.8158     8.0908   116.0499     0.0050     2.4971     0.1035
  542.5000   -30.1191    10.0461    12.1834    11.9818     8.0921   115.4598     0.0089     2.4814     0.1027
  543.0000   -29.9630    10.2228    12.3557    12.1502     8.0782   114.7170     0.0126     2.5077     0.1046
  543.5000   -29.8068    10.5476    12.5302    12.3209     8.0793   116.0815     0.0065     2.4942     0.0950
  544.0000   -29.5005    10.7704    12.7037    12.4941     8.0803   118.1942    -0.0055     2.4611     0.1050
  544.5000   -29.1942    10.9979    12.8835    12.6696     8.0662   118.6552     0.0022     2.4619     0.1122
  545.0000   -28.7377    11.1527    12.9758    12.7593     8.0673   118.9639     0.0105     2.4717     0.1144
  545.5000   -28.7317    11.1545    13.0688    12.8495     8.0683   118.7973     0.0141     2.4860     0.1073
  546.0000   -28.7257    11.2336    13.1625    13.0301     8.0693   116.6429     0.0217     2.4965     0.1004
  546.5000   -28.8699    11.3133    13.2568    13.2132     8.0704   112.1758     0.0299     2.5025     0.0932
  547.0000   -29.3143    11.3151    13.3518    13.3062     8.0714   111.1802     0.0322     2.4965     0.0907
  547.5000   -29.6086    11.3954    13.3548    13.1256     8.0725   110.7433     0.0285     2.4800     0.1034
  548.0000   -29.9044    11.3972    13.3578    13.1280     8.0586   112.4565     0.0142     2.4845     0.1076
  548.5000   -30.3473    11.4780    13.4544    13.2209     8.0746   112.8812     0.0157     2.4958     0.1006
  549.0000   -30.6416    11.4798    13.6439    13.4067     8.0756   110.9215     0.0232     2.5086     0.0955
  549.5000   -31.0861    11.5613    13.8370    13.5950     8.0767   109.2800     0.0173     2.4951     0.0991
  550.0000   -31.4148    11.5659    14.0329    13.7861     8.0777   105.1051     0.0008     2.4718     0.1062
  550.5000   -31.8099    11.6047    14.2480    13.9798     8.0763   104.3637     0.0098     2.4613     0.1141
  551.0000   -32.2049    11.6434    14.3991    14.0782     8.0749   103.9249     0.0173     2.4704     0.1105
  551.5000   -32.4282    11.6822    13.9087    13.6030     8.0735   104.0856     0.0241     2.4772     0.1075
  552.0000   -32.8768    11.6263    13.5284    13.2339     8.0720   104.1000     0.0181     2.4764     0.1072
  552.5000   -33.0254    11.5472    13.3418    13.0548     8.0706   104.5571     0.0121     2.4614     0.1132
  553.0000   -33.4744    11.4686    13.3409    13.0567     8.0694   104.8739     0.0098     2.4524     0.1186
  553.5000   -33.4729    11.4698    13.3401    13.0585     8.0558   104.7143     0.0084     2.4502     0.1192
  554.0000   -33.3213    11.4708    13.3392    13.1410     8.0569   102.0118     0.0061     2.4562     0.1153
  554.5000   -32.7192    11.3927    13.2464    13.1428     8.0580   100.8452     0.0016     2.4585     0.1168
  555.0000   -31.9669    11.3152    13.0637    13.0543     8.0439   104.0789    -0.0006     2.4593     0.1186
  555.5000   -31.5150    11.3162    12.9728    13.0562     8.0453   107.3782    -0.0043     2.4623     0.1134
  556.0000   -31.0631    11.1615    12.7938    12.9552     8.0614   109.8978    -0.0036     2.4676     0.1146
  556.5000   -30.7594    11.0094    12.6173    12.7042     8.0475   110.6601     0.0137     2.4714     0.1092
  557.0000   -30.6096    10.8591    12.4432    12.5318     8.0486   111.5867     0.0162     2.4706     0.1113
  557.5000   -31.0784    10.7109    12.2715    12.3617     8.0497   113.2810     0.0025     2.4654     0.1137
  558.0000   -32.2583    10.5647    12.1862    12.1105     8.0509   115.0811     0.0062     2.4797     0.1070
  558.5000   -32.8574    10.3487    11.9353    11.9461     8.0669   116.4462     0.0115     2.4767     0.1085
  559.0000   -32.8558    10.2783    11.6895    11.7840     8.0680   117.9069     0.0198     2.4903     0.1067
  559.5000   -32.6782    10.0660    11.6082    11.6241     8.0691   117.1095     0.0281     2.5091     0.1058
  560.0000   -33.0027     9.9307    11.5275    11.5453     8.0703   115.7857     0.0138     2.4941     0.1055
  560.5000   -33.6018     9.8561    11.6067    11.5474     8.0863   115.0852     0.0123     2.5144     0.0973
  561.0000   -34.0511     9.6522    11.6865    11.5491     8.0874   116.9640     0.0183     2.5272     0.0952
  561.5000   -34.0493     9.4639    11.4379    11.3923     8.0736   119.8306     0.0093     2.4964     0.1054
  562.0000   -34.0478     9.2706    11.1278    11.1604     8.0747   119.5607     0.0034     2.4686     0.1109
  562.5000   -34.0463     9.2073    10.9036    11.0085     8.0759   114.5020     0.0110     2.4807     0.1063
  563.0000   -33.7445     9.0817    10.6791    10.7106     8.0772   114.5636     0.0163     2.4919     0.1003
  563.5000   -33.5929     8.9579    10.4592    10.4203     8.0783   116.7314     0.0184     2.4980     0.0988
  564.0000   -33.5914     8.8969    10.3768    10.1380     8.0794   118.5186     0.0184     2.5100     0.0973
  564.5000   -33.4397     8.8977    10.2431     9.9316     8.0805   119.1026     0.0185     2.5172     0.0897
  565.0000   -33.4382     8.8370    10.1719    10.0018     8.0515   120.4375     0.0177     2.4950     0.0987
  565.5000   -33.4367     8.8379    10.1012    10.0725     8.0227   123.4510     0.0155     2.4913     0.1044
  566.0000   -33.4353     8.7776    10.1003    10.2141     8.0241   124.6627     0.0117     2.5059     0.0981
  566.5000   -33.8842     8.7178    10.0997    10.2155     8.0551   120.3189     0.0050     2.4793     0.1044
  567.0000   -34.4833     8.7188    10.0991    10.2170     8.0711   115.0741     0.0005     2.4643     0.1116
  567.5000   -35.0824     8.7195    10.0984    10.2185     8.0872   112.5320     0.0005     2.4606     0.1140
  568.0000   -35.5314     8.6600     9.8223    10.1496     8.0883   110.2903     0.0080     2.4569     0.1155
  568.5000   -35.8302     8.6011     9.7540    10.0712     8.0894   112.2527     0.0088     2.4539     0.1164
  569.0000   -35.8287     8.4839     9.6194     9.9444     8.0905   114.6656     0.0013     2.4524     0.1176
  569.5000   -35.9774     8.4261     9.4213     9.8774     8.0917   115.1266     0.0133     2.4547     0.1179
  570.0000   -35.9759     8.3111     9.2913     9.7437     8.0775   115.2872     0.0006     2.4607     0.1170
  570.5000   -36.1245     8.1412     9.1631     9.6777     8.0939   116.7992     0.0006     2.4773     0.1146
  571.0000   -36.1230     8.0858     8.9744     9.5464     8.0798   119.0620     0.0081     2.4806     0.1028
  571.5000   -36.2718     8.0307     8.8506     9.3524     8.0812   122.3757    -0.0026     2.4593     0.1115
  572.0000   -36.4204     7.9761     8.7891     9.2251     8.0823   125.6895    -0.0114     2.4435     0.1206
  572.5000   -36.4189     7.9218     8.7885     9.1002     8.0684   126.1505    -0.0050     2.4518     0.1224
  573.0000   -36.5675     7.8137     8.7879     9.0386     8.0695   124.8096     0.0054     2.4616     0.1181
  573.5000   -36.4159     7.7575     8.7268     9.0402     8.0707   121.5168     0.0138     2.4721     0.1118
  574.0000   -36.1141     7.6018     8.6064     9.0415     8.0718   116.2720     0.0187     2.4744     0.1079
  574.5000   -35.8123     7.4398     8.4877     8.9803     8.0729   113.4297     0.0179     2.4684     0.1112
  575.0000   -35.3604     7.2859     8.3129     9.0441     8.0458   114.3411     0.0165     2.4902     0.0988
  575.5000   -35.3630     6.9985     8.0856     9.0454     8.0469   121.2615     0.0165     2.4775     0.1036
  576.0000   -35.9580     6.6684     7.5449     9.1094     8.0480   123.0729     0.0173     2.4677     0.1096
  576.5000   -36.4188     6.3539     7.1384     9.1107     8.0491   123.5300     0.0173     2.4768     0.1104
  577.0000   -37.0060     6.0962     6.6152     9.1229     8.0503   123.6946     0.0106     2.4608     0.1111
