~VERSION INFORMATION
 VERS.                2.0:   CWLS LOG ASCII STANDARD - VERSION 2.0
 WRAP.                 NO:   ONE LINE PER DEPTH STEP
~WELL INFORMATION
#MNEM.UNIT      DATA TYPE    INFORMATION
#----------   ------------   ------------------------------
 STRT.F           10.0000:   START DEPTH
 STOP.F          580.0000:   STOP DEPTH
 STEP.F            0.5000:   STEP LENGTH
 NULL.          -999.2500:   NO VALUE
 COMP. FENIX & SCISSON INC:   COMPANY
 WELL.     NPR 3 #28-S-34:   WELL
 FLD .        TEAPOT DOME:   FIELD
 LOC .      S34 T39N R78W:   LOCATION
 CNTY.            NATRONA:   COUNTY
 STAT.            WYOMING:   STATE
 CTRY. UNITED STATES OF AMERICA:   COUNTRY
 SRVC.           BIRDWELL:   SERVICE COMPANY
 DATE.        05-AUG-1978:   LOGDATE
 API .       490251068200:   API NUMBER
~CURVE INFORMATION
#MNEM.UNIT       API CODE    CURVE DESCRIPTION
#----------   ------------   ------------------------------
 DEPT.F                  :   
 SPR .MV     05 010 01 00:   SPONTANEOUS POTENTIAL FROM RES.
 IL  .OHMM   05 120 00 00:   INDUCTION LOG
 SN  .OHMM   05 040 16 00:   SHORT NORMAL 16"
 GRD .GAPI   45 310 01 00:   GAMMA RAY FROM DENSITY LOG
 CALD.IN     45 280 60 00:   CALIPER
 RHOB.G/C3   45 350 01 00:   BULK DENSITY
 DPHI.DEC    45 890 12 00:   DENSITY POROSITY SANDSTONE
 CORR.G/C3   45 356 01 00:   DENSITY CORRECTION
~PARAMETER INFORMATION
#MNEM.UNIT          VALUE    DESCRIPTION
#----------   ------------   ------------------------------
 PD  .                 GL:   PERMANENT DATUM
 EPD .F              5191:   ELEVATION PERMANENT DATUM
 LMF .                 KB:   LOG MEASURED FROM
 DAPD.F                 4:   FEET ABOVE PERMANENT DATUM
 DMF .                 KB:   DRILLING MEASURED FROM
 EKB .F              5195:   KELLING BUSHING
 EGL .F              5191:   GROUND LEVEL
 DATE.             8-5-78:   RUN DATE
 RUN .                  1:   RUN NUMBER
 DD  .F               570:   DEPTH DRILLER
 DL  .F               586:   DEPTH LOGGER
 BLI .F               580:   BOTTOM LOG INTERVAL
 TLI .F                30:   TOP LOG INTERVAL
 CS  .IN            8.625:   CASING SIZE
 BS  .IN            7.875:   BIT SIZE
 BSD .F               570:   BIT SIZE AT DEPTH
 DFT .                KCL:   DRILLING FLUID TYPE
 DFD .                8.6:   DRILLING FLUID DENSITY
 DFV .                 32:   DRILLING FLUID VISCOSITY
 DFPH.                9.5:   DRILLING FLUID PH
 MSS .          FLOW LINE:   MUD SAMPLE SOURCE
 RMS .OHMM             .9:   RESISTIVITY MUD SAMPLE
 MST .F                74:   MUD SAMPLE TEMPERATURE
 RMF .OHMM            .17:   RESISTIVITY MUD FILTRATE SAMPLE
 MFST.F                79:   MUD FILTRATE SAMPLE TEMPERATURE
 RMC .OHMM            .42:   RESISTIVITY MUD CAKE
 MCST.F                80:   MUD CAKE SAMPLE TEMPERATURE
 MFSS.               MEAS:   MUD FILTRATE SAMPLE SOURCE
 TCS .HRS               3:   TIME CURCULATED STOPPED
 LUN .               3006:   LOGGING UNIT NUMBER
 LUL .               CASP:   LOGGING UNIT LOCATION
 ENGI.             MILLER:   RECORDING ENGINEER
 WITN.           MCGINLEY:   WITNESSED BY
 CLNT.            A2DTECH:   CLIENT CODE
 ORIG.           5" PRINT:   ORIGIN OF DATA
 UWI .       490251068200:   UNIQUE WELL ID
 DICO. A2D Technologies, Inc.:   DIGITIZING COMPANY
~OTHER INFORMATION
~A   DEPT      SPR         IL         SN         GRD      CALD       RHOB       DPHI       CORR   
   10.0000  -999.2500  -999.2500  -999.2500    60.4190  -999.2500  -999.2500  -999.2500  -999.2500
   10.5000  -999.2500  -999.2500  -999.2500    60.4190  -999.2500  -999.2500  -999.2500  -999.2500
   11.0000  -999.2500  -999.2500  -999.2500    58.6510  -999.2500  -999.2500  -999.2500  -999.2500
   11.5000  -999.2500  -999.2500  -999.2500    55.4290  -999.2500  -999.2500  -999.2500  -999.2500
   12.0000  -999.2500  -999.2500  -999.2500    55.7240  -999.2500  -999.2500  -999.2500  -999.2500
   12.5000  -999.2500  -999.2500  -999.2500    57.6110  -999.2500  -999.2500  -999.2500  -999.2500
   13.0000  -999.2500  -999.2500  -999.2500    59.5330     7.9440  -999.2500  -999.2500  -999.2500
   13.5000  -999.2500  -999.2500  -999.2500    60.8680     7.9440  -999.2500  -999.2500  -999.2500
   14.0000  -999.2500  -999.2500  -999.2500    61.2140     7.9440  -999.2500  -999.2500  -999.2500
   14.5000  -999.2500  -999.2500  -999.2500    61.2260     7.9440  -999.2500  -999.2500  -999.2500
   15.0000  -999.2500  -999.2500  -999.2500    60.5810     7.9440  -999.2500  -999.2500  -999.2500
   15.5000  -999.2500  -999.2500  -999.2500    58.8010     7.9440  -999.2500  -999.2500  -999.2500
   16.0000  -999.2500  -999.2500  -999.2500    56.9620     7.9440  -999.2500  -999.2500  -999.2500
   16.5000  -999.2500  -999.2500  -999.2500    55.6120     7.9440  -999.2500  -999.2500  -999.2500
   17.0000  -999.2500  -999.2500  -999.2500    56.8520     7.9440  -999.2500  -999.2500  -999.2500
   17.5000  -999.2500  -999.2500  -999.2500    57.8180     7.9440  -999.2500  -999.2500  -999.2500
   18.0000  -999.2500  -999.2500  -999.2500    57.1020     7.9440  -999.2500  -999.2500  -999.2500
   18.5000  -999.2500  -999.2500  -999.2500    58.3290     7.9440  -999.2500  -999.2500  -999.2500
   19.0000  -999.2500  -999.2500  -999.2500    58.2270     7.9460  -999.2500  -999.2500  -999.2500
   19.5000  -999.2500  -999.2500  -999.2500    54.9030     7.9500  -999.2500  -999.2500  -999.2500
   20.0000  -999.2500  -999.2500  -999.2500    56.1750     8.0250  -999.2500  -999.2500  -999.2500
   20.5000  -999.2500  -999.2500  -999.2500    59.7960     8.1270  -999.2500  -999.2500  -999.2500
   21.0000  -999.2500  -999.2500  -999.2500    58.6540     8.2270  -999.2500  -999.2500  -999.2500
   21.5000  -999.2500  -999.2500  -999.2500    56.5650     8.1700  -999.2500  -999.2500  -999.2500
   22.0000  -999.2500  -999.2500  -999.2500    55.7680     8.1070     2.1600     0.2350    -0.2570
   22.5000  -999.2500  -999.2500  -999.2500    54.0950     8.0450     2.1590     0.2350    -0.1400
   23.0000  -999.2500  -999.2500  -999.2500    48.4600     7.9820     2.3130     0.1290    -0.0130
   23.5000  -999.2500  -999.2500  -999.2500    51.0430     7.9440     2.4400     0.1290     0.0840
   24.0000  -999.2500  -999.2500  -999.2500    56.0620     7.9670     2.4220     0.1440     0.1120
   24.5000  -999.2500  -999.2500  -999.2500    58.6080     7.9880     2.4050     0.1510     0.2360
   25.0000  -999.2500  -999.2500  -999.2500    50.2780     8.0090     2.4000     0.0880     0.2140
   25.5000  -999.2500  -999.2500  -999.2500    48.9330     8.0290     2.5330     0.1090     0.1100
   26.0000  -999.2500  -999.2500  -999.2500    52.5300     8.0500     2.4420     0.1440     0.0570
   26.5000  -999.2500  -999.2500  -999.2500    62.7060     8.0650     2.3890     0.1800     0.0360
   27.0000  -999.2500  -999.2500  -999.2500    75.0650     8.0120     2.3440     0.1940     0.0340
   27.5000  -999.2500  -999.2500  -999.2500    73.3790     7.9450     2.3460     0.1910     0.0380
   28.0000    -9.0970     6.8540     6.0270    70.1940     7.8770     2.3510     0.1870     0.0420
   28.5000    -9.0860     6.8530     6.0260    71.7070     7.8090     2.3560     0.1840     0.0450
   29.0000    -9.0670     6.8520     6.0250    75.1340     7.7410     2.3600     0.1840     0.0390
   29.5000    -9.1540     6.8450     6.0220    74.7810     7.6740     2.3600     0.1850     0.0300
   30.0000    -7.2420     6.7290     6.0890    74.0220     7.6060     2.3590     0.1860     0.0200
   30.5000    -8.5860     6.8300     6.0940    73.2580     7.5650     2.3590     0.1830     0.0110
   31.0000    -7.1650     6.7750     6.1020    72.4970     7.5740     2.3630     0.1790     0.0050
   31.5000    -8.7850     6.7390     6.1100    72.0860     7.5940     2.3730     0.1770     0.0070
   32.0000   -10.4570     6.6580     6.1180    74.3540     7.6140     2.3730     0.1770     0.0090
   32.5000   -10.9280     6.5280     6.1260    76.4950     7.6340     2.3710     0.1780     0.0110
   33.0000   -10.9740     6.3970     6.1350    75.2770     7.6530     2.3740     0.1760     0.0140
   33.5000   -11.0250     6.2660     6.1380    74.0130     7.6840     2.3820     0.1710     0.0160
   34.0000   -11.0760     6.1360     5.9550    74.2220     7.6350     2.3860     0.1710     0.0180
   34.5000   -11.1260     6.0050     5.8170    73.4010     7.5870     2.3840     0.1720     0.0200
   35.0000   -11.1760     5.8750     5.6790    71.6640     7.5380     2.3840     0.1690     0.0230
   35.5000   -11.2270     5.7440     5.5400    70.2700     7.4680     2.4010     0.1580     0.0250
   36.0000   -11.2840     5.5940     5.2950    71.3530     7.3220     2.4190     0.1480     0.0250
   36.5000   -11.5270     5.3970     5.0020    75.8770     7.1740     2.4360     0.1410     0.0210
   37.0000   -12.4830     5.2000     4.7080    80.3020     7.1760     2.4450     0.1400     0.0180
   37.5000   -13.4210     5.0030     4.4150    86.0540     7.2160     2.4460     0.1400     0.0140
   38.0000   -14.3470     4.8060     4.1220    92.6070     7.2240     2.4460     0.1400     0.0100
   38.5000   -15.0950     4.6590     3.9630    92.8380     7.2150     2.4400     0.1420     0.0060
   39.0000   -14.9430     4.6590     3.8730    89.8500     7.2070     2.4320     0.1490     0.0030
   39.5000   -14.8110     4.7060     3.8410    87.4310     7.2280     2.4250     0.1510     0.0050
   40.0000   -14.7300     4.7790     3.9000    87.8440     7.3030     2.4210     0.1510     0.0090
   40.5000   -14.9380     4.8520     3.9480    89.1020     7.3770     2.4200     0.1520     0.0130
   41.0000   -15.1430     4.9250     4.0360    89.0340     7.4500     2.4200     0.1510     0.0170
   41.5000   -15.3470     4.9980     4.2690    89.3150     7.5260     2.4270     0.1480     0.0210
   42.0000   -15.5510     5.0710     4.5010    92.4060     7.5370     2.4350     0.1460     0.0240
   42.5000   -15.7540     5.1440     4.7330    91.4850     7.5000     2.4350     0.1460     0.0230
   43.0000   -15.9120     5.2020     4.9660    91.6020     7.4620     2.4320     0.1470     0.0220
   43.5000   -15.9420     5.2020     5.0610    93.7520     7.4240     2.4310     0.1480     0.0230
   44.0000   -15.9750     5.2020     5.0180    93.2960     7.5070     2.4340     0.1450     0.0250
   44.5000   -16.0080     5.2020     4.9810    92.4930     7.6070     2.4320     0.1480     0.0190
   45.0000   -16.0410     5.2020     4.9450    92.6520     7.7060     2.4270     0.1510     0.0140
   45.5000   -16.0740     5.2020     4.9090    93.1110     7.7950     2.4220     0.1520     0.0090
   46.0000   -16.1010     5.2030     4.8780    93.5230     7.8350     2.4170     0.1550     0.0050
   46.5000   -16.1590     5.2030     4.9300    93.1890     7.8750     2.4190     0.1530     0.0070
   47.0000   -16.2550     5.2010     4.9840    93.5140     7.9160     2.4260     0.1480     0.0100
   47.5000   -16.3510     5.3660     5.0380    93.8540     7.9570     2.4330     0.1450     0.0140
   48.0000   -16.4470     5.5100     5.1080    93.8500     7.9970     2.4330     0.1470     0.0170
   48.5000   -16.5440     5.6530     5.0650    91.8170     8.0380     2.4300     0.1450     0.0210
   49.0000   -16.6400     5.8090     5.0060    89.7960     8.0790     2.4330     0.1420     0.0240
   49.5000   -16.7370     5.7100     4.9470    88.1900     8.1210     2.4390     0.1400     0.0280
   50.0000   -16.8330     5.5610     4.8890    91.6810     8.1450     2.4430     0.1420     0.0270
