~VERSION INFORMATION
 VERS.                2.0:   CWLS LOG ASCII STANDARD - VERSION 2.0
 WRAP.                 NO:   ONE LINE PER DEPTH STEP
~WELL INFORMATION
#MNEM.UNIT      DATA TYPE    INFORMATION
#----------   ------------   ------------------------------
 STRT.F            0.0000:   START DEPTH
 STOP.F          446.0000:   STOP DEPTH
 STEP.F            0.5000:   STEP LENGTH
 NULL.          -999.2500:   NO VALUE
 COMP.       F D SERV INC:   COMPANY
 WELL. NAVAL PETROLEUM RESERVE 3 SX-1 #63-5-10:   WELL
 FLD .            WILDCAT:   FIELD
 LOC .      S10 T38N R78W:   LOCATION
 CNTY.            NATRONA:   COUNTY
 STAT.            WYOMING:   STATE
 CTRY. UNITED STATES OF AMERICA:   COUNTRY
 SRVC.     Atlas Wireline:   SERVICE COMPANY
 DATE.        02-FEB-1993:   LOGDATE
 API .       490252257100:   API NUMBER
~CURVE INFORMATION
#MNEM.UNIT       API CODE    CURVE DESCRIPTION
#----------   ------------   ------------------------------
 DEPT.F                  :   
 GRR .GAPI   07 310 01 00:   GAMMA RAY
 RILD.OHMM   07 120 46 00:   INDUCTION LOG DEEP RESISTIVITY
 RILM.OHMM   07 120 44 00:   RESITIVITY LONG MEDIUM
 PORZ.DEC    45 890 12 00:   DENSITY POROSITY SANDSTONE
 ZCOR.G/C3   45 356 01 00:   DENSITY CORRECTION
 ZDEN.G/C3   45 350 01 00:   BULK DENSITY
 NPHI.DEC    42 890 03 00:   NEUTRON POROSITY SANDSTONE
 C13 .IN     45 280 13 00:   CALIPER X
~PARAMETER INFORMATION
#MNEM.UNIT          VALUE    DESCRIPTION
#----------   ------------   ------------------------------
 PD  .                 GL:   PERMANENT DATUM
 EPD .F              5182:   ELEVATION PERMANENT DATUM
 LMF .                 KB:   LOG MEASURED FROM
 DAPD.F                10:   FEET ABOVE PERMANENT DATUM
 DMF .                 KB:   DRILLING MEASURED FROM
 EKB .F              5192:   KELLING BUSHING
 EDF .F              5191:   DRILLING FLOOR
 EGL .F              5182:   GROUND LEVEL
 DATE.        02-FEB-1993:   RUN DATE
 RUN .                  1:   RUN NUMBER
 DD  .F               450:   DEPTH DRILLER
 DL  .F               450:   DEPTH LOGGER
 BLI .F               442:   BOTTOM LOG INTERVAL
 CS  .IN            8.625:   CASING SIZE
 CBD .F                84:   CASING BOTTOM DRILLER
 CBL .F                84:   CASING BOTTOM LOGGER
 BS  .IN            7.875:   BIT SIZE
 BSD .F               450:   BIT SIZE AT DEPTH
 DFT .                AIR:   DRILLING FLUID TYPE
 MRT .F                51:   MAXIMUM RECORDED TEMPERATURE
 LUN .            HL 6274:   LOGGING UNIT NUMBER
 LUL .             CASPER:   LOGGING UNIT LOCATION
 ENGI.       P. RASMUSSEN:   RECORDING ENGINEER
 WITN.          G. STRONG:   WITNESSED BY
 CLNT.            A2DTECH:   CLIENT CODE
 ORIG.           5" PRINT:   ORIGIN OF DATA
 UWI .       490252257100:   UNIQUE WELL ID
 DICO. A2D Technologies, Inc.:   DIGITIZING COMPANY
~OTHER INFORMATION
~A    DEPT      GRR      RILD       RILM       PORZ       ZCOR       ZDEN       NPHI        C13   
# ...
  121.5000   130.0191     8.3489     8.4324     0.1171     0.0012     2.4539     0.2987     8.2286
  122.0000   131.2924     8.2880     8.3202     0.1184     0.0026     2.4569     0.2990     8.2276
  122.5000   134.5994     8.2853     8.2025     0.1208     0.0026     2.4591     0.2999     8.2266
  123.0000   136.3980     8.2254     8.1428     0.1193    -0.0005     2.4614     0.3030     8.2256
  123.5000   138.1938     8.1660     8.0826     0.1160    -0.0006     2.4621     0.3045     8.2397
  124.0000   137.8808     8.0504     8.0237     0.1139    -0.0021     2.4628     0.3054     8.2234
  124.5000   133.0430     7.9371     7.8557     0.1173    -0.0022     2.4628     0.3066     8.2224
  125.0000   126.9985     7.7714     7.6912     0.1212    -0.0083     2.4612     0.3081     8.2214
  125.5000   125.4761     7.4476     7.4774     0.1252    -0.0159     2.4575     0.3124     8.2355
  126.0000   125.4647     7.1464     7.2703     0.1291    -0.0174     2.4499     0.3175     8.2342
  126.5000   126.3584     6.9010     6.9717     0.1357    -0.0130     2.4378     0.3232     8.2332
  127.0000   129.1222     6.7569     6.7754     0.1436    -0.0100     2.4235     0.3259     8.2322
  127.5000   133.8744     6.6613     6.6821     0.1463    -0.0071     2.4129     0.3262     8.2310
  128.0000   133.8631     6.7520     6.7733     0.1412    -0.0041     2.4084     0.3217     8.2300
  128.5000   132.3435     6.7972     6.8171     0.1343    -0.0012     2.4116     0.3163     8.2139
  129.0000   131.3866     6.8417     6.8680     0.1277     0.0033     2.4302     0.3127     8.2129
  129.5000   132.0164     6.9349     7.0024     0.1253     0.0047     2.4384     0.3152     8.2270
  130.0000   141.0549     7.0776     7.0973     0.1251     0.0016     2.4406     0.3185     8.2107
  130.5000   147.3784     7.1745     7.2435     0.1224    -0.0104     2.4429     0.3209     8.2097
  131.0000   147.0626     7.3222     7.4440     0.1200    -0.0150     2.4481     0.3212     8.2087
  131.5000   145.2413     7.5248     7.5449     0.1176    -0.0106     2.4526     0.3203     8.2077
  132.0000   137.9902     7.6802     7.6471     0.1182    -0.0045     2.4563     0.3227     8.2065
  132.5000   134.9623     7.7317     7.6965     0.1201    -0.0016     2.4533     0.3267     8.2205
  133.0000   135.2498     7.7285     7.7470     0.1232    -0.0077     2.4479     0.3273     8.2195
  133.5000   138.8584     7.7798     7.7432     0.1243    -0.0153     2.4442     0.3267     8.2185
  134.0000   142.1653     7.7229     7.7402     0.1232    -0.0124     2.4464     0.3252     8.2173
  134.5000   139.6400     7.7204     7.7371     0.1211    -0.0064     2.4509     0.3231     8.2163
  135.0000   133.6934     7.7178     7.7334     0.1196    -0.0020     2.4524     0.3228     8.2153
  135.5000   132.4783     7.6615     7.6241     0.1199    -0.0020     2.4501     0.3243     8.2143
  136.0000   136.0841     7.5537     7.5163     0.1221    -0.0021     2.4485     0.3265     8.2281
  136.5000   137.5811     7.4474     7.4031     0.1218    -0.0036     2.4485     0.3280     8.2271
  137.0000   137.8714     7.3420     7.2040     0.1203    -0.0037     2.4507     0.3286     8.2261
  137.5000   135.1423     7.1887     7.0532     0.1185    -0.0022     2.4575     0.3295     8.2252
  138.0000   132.4161     7.0875     6.8105     0.1182    -0.0038     2.4507     0.3304     8.2239
  138.5000   135.1169     6.8916     6.4403     0.1214    -0.0084     2.4424     0.3319     8.2382
  139.0000   139.6305     6.5176     6.0488     0.1264    -0.0130     2.4333     0.3350     8.2370
  139.5000   141.7336     6.0795     5.5259     0.1319    -0.0160     2.4197     0.3389     8.2360
  140.0000   140.8145     5.5543     5.0133     0.1445    -0.0131     2.3791     0.3452     8.2347
  140.5000   134.7672     5.2170     4.9768     0.1662    -0.0086     2.3632     0.3603     8.2337
  141.0000   129.9293     5.1793     5.1496     0.1753    -0.0072     2.3595     0.3594     8.2328
  141.5000   126.2981     5.3969     5.2922     0.1660    -0.0088     2.3843     0.3437     8.2318
  142.0000   128.7803     5.5852     5.4816     0.1488    -0.0058     2.4203     0.3284     8.2305
  142.5000   134.1158     5.7442     5.7857     0.1212     0.0016     2.4647     0.3233     8.2295
  143.0000   138.0260     5.9813     6.1129     0.0944     0.0017     2.4985     0.3230     8.2285
  143.5000   139.8247     6.1900     6.4140     0.0818    -0.0186     2.5151     0.3224     8.2125
  144.0000   138.8678     6.4505     6.7892     0.0864    -0.0331     2.5105     0.3218     8.2114
  144.5000   138.2909     6.7316     7.1593     0.1125    -0.0257     2.4691     0.3221     8.2255
  145.0000   137.9779     7.1020     7.3575     0.1231    -0.0152     2.4427     0.3249     8.2243
  145.5000   134.0451     7.4524     7.5091     0.1264    -0.0032     2.4382     0.3270     8.2233
  146.0000   126.1878     7.5018     7.6629     0.1283    -0.0138     2.4382     0.3276     8.2223
  146.5000   128.2881     7.6561     7.7132     0.1280    -0.0229     2.4382     0.3204     8.2211
  147.0000   131.2934     7.7074     7.7645     0.1271    -0.0260     2.4389     0.3186     8.2201
  147.5000   135.2036     7.8117     7.8147     0.1265    -0.0230     2.4403     0.3195     8.2191
  148.0000   140.6193     7.8635     7.9748     0.1235    -0.0122     2.4426     0.3186     8.2181
  148.5000   141.8147     7.9706     8.0279     0.1202    -0.0051     2.4508     0.3155     8.2168
  149.0000   141.5017     8.0791     8.0805     0.1194    -0.0006     2.4530     0.3126     8.2158
  149.5000   139.6803     8.1319     8.1327     0.1197    -0.0022     2.4530     0.3117     8.2148
  150.0000   141.7779     8.1293     8.2421     0.1196    -0.0075     2.4530     0.3117     8.2139
  150.5000   142.9760     8.2404     8.4135     0.1208    -0.0121     2.4492     0.3115     8.2130
  151.0000   141.7552     8.2955     8.4108     0.1226    -0.0122     2.4454     0.3106     8.2275
  151.5000   137.9979     8.3509     8.4086     0.1220    -0.0018     2.4476     0.3100     8.2245
  152.0000   135.0931     8.3482     8.4648     0.1175     0.0101     2.4536     0.3085     8.2107
  152.5000   135.9868     8.3460     8.5801     0.1052     0.0191     2.4716     0.3073     8.2100
  153.0000   138.6903     8.3433     8.6375     0.0938     0.0083     2.4972     0.3049     8.2243
  153.5000   142.9271     8.3412     8.6352     0.0847    -0.0112     2.5084     0.3037     8.2236
  154.0000   143.7958     8.4553     8.6329     0.0803    -0.0187     2.5152     0.3050     8.2228
  154.5000   141.0667     8.4531     8.6907     0.0873    -0.0068     2.4971     0.3053     8.2221
  155.0000   136.8321     8.5096     8.6879     0.1005    -0.0024     2.4798     0.3050     8.2214
  155.5000   136.2174     8.5665     8.6856     0.1102    -0.0025     2.4684     0.3053     8.2205
  156.0000   138.0160     8.6238     8.6162     0.1132    -0.0041     2.4616     0.3059     8.2198
  156.5000   138.0018     8.6210     8.3851     0.1126    -0.0057     2.4631     0.3069     8.2191
  157.0000   137.9905     8.5587     8.3251     0.1123    -0.0073     2.4646     0.3084     8.2184
  157.5000   139.5627     8.4975     8.3229     0.1117    -0.0044     2.4654     0.3096     8.2175
  158.0000   143.9981     8.4366     8.2058     0.1073    -0.0029     2.4690     0.3114     8.2017
  158.5000   144.5929     8.3679     8.1470     0.1034    -0.0031     2.4758     0.3133     8.2161
  159.0000   139.1488     8.2583     8.1449     0.1022    -0.0031     2.4795     0.3133     8.2152
  159.5000   139.2126     8.1992     8.0308     0.1016    -0.0032     2.4795     0.3136     8.2145
  160.0000   145.1565     8.1971     7.9177     0.0968    -0.0063     2.4825     0.3151     8.2138
  160.5000   145.7513     8.0259     7.7529     0.0914    -0.0109     2.4945     0.3169     8.2131
  161.0000   139.1006     7.9135     7.5915     0.0875    -0.0155     2.5035     0.3200     8.2122
  161.5000   135.7710     7.6953     7.3822     0.0935    -0.0201     2.4997     0.3224     8.2115
