~VERSION INFORMATION
 VERS.                2.0:   CWLS LOG ASCII STANDARD - VERSION 2.0
 WRAP.                 NO:   ONE LINE PER DEPTH STEP
~WELL INFORMATION
#MNEM.UNIT      DATA TYPE    INFORMATION
#----------   ------------   ------------------------------
 STRT.F           30.0000:   START DEPTH
 STOP.F          597.0000:   STOP DEPTH
 STEP.F            0.5000:   STEP LENGTH
 NULL.          -999.2500:   NO VALUE
 COMP. FENIX & SCISSON-U.S. NAVY:   COMPANY
 WELL.    NPR #3 #15-S-11:   WELL
 FLD .             TEAPOT:   FIELD
 LOC .      S11 T38N R78W:   LOCATION
 CNTY.            NATRONA:   COUNTY
 STAT.            WYOMING:   STATE
 CTRY. UNITED STATES OF AMERICA:   COUNTRY
 SRVC.       Schlumberger:   SERVICE COMPANY
 DATE.        22-FEB-1977:   LOGDATE
 API .       490251028000:   API NUMBER
~CURVE INFORMATION
#MNEM.UNIT       API CODE    CURVE DESCRIPTION
#----------   ------------   ------------------------------
 DEPT.F                  :   
 SPR .MV     07 010 01 00:   SPONTANEOUS POTENTIAL
 ILD .OHMM   07 120 46 00:   INDUCTION LOG DEEP RES
 ILM .OHMM   07 120 44 00:   INDUCTION LOG MEDIUM RES
 LL8 .OHMM   07 220 08 00:   LATEROLOG-8 RES
 CALD.IN     45 280 60 00:   CALIPER FROM DENSITY LOG
 GRD .GAPI   45 310 01 00:   GAMMA RAY FROM DENSITY LOG
 CORR.G/C3   45 356 01 00:   DENSITY CORRECTION
 RHOB.G/C3   45 350 01 00:   BULK DENSITY
 DPHI.DEC    45 890 12 00:   DENSITY POROSITY SANDSTONE
~PARAMETER INFORMATION
#MNEM.UNIT          VALUE    DESCRIPTION
#----------   ------------   ------------------------------
 PD  .                 GL:   PERMANENT DATUM
 EPD .F              5188:   ELEVATION PERMANENT DATUM
 LMF .                 KB:   LOG MEASURED FROM
 DAPD.F                 5:   FEET ABOVE PERMANENT DATUM
 DMF .                 KB:   DRILLING MEASURED FROM
 EKB .F              5193:   KELLING BUSHING
 EGL .F              5188:   GROUND LEVEL
 DATE.         22FEB-1977:   RUN DATE
 RUN .                  1:   RUN NUMBER
 DD  .F               598:   DEPTH DRILLER
 DL  .F               598:   DEPTH LOGGER
 BLI .F               597:   BOTTOM LOG INTERVAL
 TLI .F                35:   TOP LOG INTERVAL
 CS  .IN            8.625:   CASING SIZE
 CBD .F                42:   CASING BOTTOM DRILLER
 CBL .F                45:   CASING BOTTOM LOGGER
 BS  .IN            7.875:   BIT SIZE
 BSD .F               598:   BIT SIZE AT DEPTH
 DFT .                KCL:   DRILLING FLUID TYPE
 DFD .                8.7:   DRILLING FLUID DENSITY
 DFV .                 31:   DRILLING FLUID VISCOSITY
 DFPH.                  8:   DRILLING FLUID PH
 DFL .                7.2:   DRILLING FLUID LOSS
 MSS .           MUD TANK:   MUD SAMPLE SOURCE
 RMS .OHMM           .526:   RESISTIVITY MUD SAMPLE
 MST .F                70:   MUD SAMPLE TEMPERATURE
 RMF .OHMM           .515:   RESISTIVITY MUD FILTRATE SAMPLE
 MFST.F                71:   MUD FILTRATE SAMPLE TEMPERATURE
 RMC .OHMM            .77:   RESISTIVITY MUD CAKE
 MCST.F                70:   MUD CAKE SAMPLE TEMPERATURE
 MFSS.               MEAS:   MUD FILTRATE SAMPLE SOURCE
 MCSS.               CALC:   MUD CAKE SAMPLE SOURCE
 RMB .OHMM            .67:   RESISTIVITY MUD AT BHT
 BHT .F                55:   BOTTOM HOLE TEMPERATURE
 TCS .HRS            0600:   TIME CURCULATED STOPPED
 MRT .F                55:   MAXIMUM RECORDED TEMPERATURE
 LUN .               5642:   LOGGING UNIT NUMBER
 LUL .               CSPR:   LOGGING UNIT LOCATION
 ENGI.                FIX:   RECORDING ENGINEER
 WITN.         STUEBINGER:   WITNESSED BY
 CLNT.            A2DTECH:   CLIENT CODE
 ORIG.           5" PRINT:   ORIGIN OF DATA
 UWI .       490251028000:   UNIQUE WELL ID
 DICO. A2D Technologies, Inc.:   DIGITIZING COMPANY
~OTHER INFORMATION
~A   DEPT      SPR        ILD        ILM        LL8       CALD         GRD      CORR       RHOB       DPHI   
# ...
  358.5000   -27.4734     4.8931     5.3909     4.7801     8.2450   129.7595     0.0018     2.4307     0.1288
  359.0000   -27.6077     4.9293     5.4679     7.6464     8.2311   131.1213     0.0078     2.4555     0.1158
  359.5000   -28.0395     5.1045     5.6233     9.0271     8.2321   135.1858     0.0153     2.4690     0.1113
  360.0000   -27.8722     5.3596     5.8636     7.0912     8.2481   132.0431     0.0183     2.4766     0.1083
  360.5000   -27.4032     5.7853     6.1994     6.8525     8.2316   128.9004     0.0078     2.4823     0.1058
  361.0000   -26.9342     6.1590     6.5998     8.0341     8.2203   130.5625     0.0078     2.4985     0.1004
  361.5000   -26.7669     6.6024     7.1240     8.9133     8.2216   132.9753     0.0139     2.5188     0.0914
  362.0000   -26.7504     7.0776     7.6898     9.1655     8.2074   128.9317     0.0085     2.5075     0.0974
  362.5000   -26.8854     7.4313     8.2433     9.3600     8.2236   127.5907     0.0010     2.4865     0.1046
  363.0000   -27.0196     7.6955     8.6552     9.5586     8.2247   126.9980     0.0004     2.4707     0.1091
  363.5000   -26.8517     7.9142     8.7790     9.6960     8.2257   127.0110     0.0082     2.4812     0.1133
  364.0000   -26.6843     7.9171     8.9044     9.8318     8.2267   127.0214     0.0057     2.4895     0.1028
  364.5000   -26.6678     7.9200     9.0317     9.8346     8.2126   126.8817    -0.0041     2.4783     0.1076
  365.0000   -26.5005     7.9229     9.0350     9.8373     8.2288   126.5919    -0.0010     2.4760     0.1070
  365.5000   -26.4840     7.9257     8.9751     9.9084     8.2299   124.3500     0.0057     2.4896     0.1021
  366.0000   -26.6184     7.9286     8.9173     9.9176     8.2309   123.3093     0.0080     2.4926     0.1048
  366.5000   -26.7526     7.9315     8.9206     9.9827     8.2319   124.2207     0.0080     2.4798     0.1075
  367.0000   -27.0378     7.9344     8.9238     9.9938     8.2330   127.0931     0.0080     2.4904     0.1009
  367.5000   -27.1721     7.9373     8.9270    10.0575     8.2340   128.1455     0.0065     2.4881     0.0983
  368.0000   -27.3064     7.9401     8.8686    10.0604     8.2350   127.4052     0.0043     2.4791     0.1030
  368.5000   -27.4407     7.9430     8.7501    10.0632     8.2211   128.6171     0.0006     2.4754     0.1069
  369.0000   -27.5887     7.9459     8.6331     9.9967     8.2222   127.2608    -0.0032     2.4837     0.1063
  369.5000   -27.7260     8.0039     8.5766     9.8624     8.2232   123.6576     0.0096     2.4987     0.0990
  370.0000   -27.8437     8.1747     8.5798     9.3357     8.2242   122.9450     0.0081     2.4980     0.0957
  370.5000   -27.9780     8.2915     8.6424     8.8365     8.2253   122.9555     0.0029     2.4860     0.1012
  371.0000   -27.9608     8.4100     8.8268     8.6572     8.2263   123.1134     0.0081     2.4800     0.1023
  371.5000   -27.9151     8.5894     9.0776     9.2793     8.2273   121.3247     0.0089     2.5019     0.0900
  372.0000   -27.7735     8.6522     9.5313    10.2240     8.2284   119.0829     0.0052     2.4983     0.0983
  372.5000   -27.6062     8.7759     9.9386    10.8076     8.2294   116.5407    -0.0016     2.4844     0.1049
  373.0000   -27.5897     8.7186    10.0112    11.0369     8.2305   114.2963    -0.0031     2.4822     0.1068
  373.5000   -27.7281     8.4253    10.0176    11.0400     8.2317   117.7628     0.0045     2.4755     0.1101
  374.0000   -27.7075     7.9748    10.0185    11.1197     8.2328   120.3258     0.0029     2.4635     0.1134
  374.5000   -27.6910     7.2919     9.6148    11.3556     8.2338   122.2882     0.0000     2.4478     0.1164
  375.0000   -27.5236     6.6215     7.4988    11.5965     8.2349   125.4518     0.0120     2.4290     0.1267
  375.5000   -27.5071     5.8893     6.3522    11.6802     8.2359   131.4682     0.0263     2.3794     0.1468
  376.0000   -27.3398     5.5360     5.8900    11.6031     8.2818   136.4336     0.0323     2.3374     0.1863
  376.5000   -27.0216     5.4614     5.7707     4.4148     8.3725   132.0896     0.0196     2.3389     0.1748
  377.0000   -26.8543     5.4257     5.6951     3.7934     8.4032   123.0911    -0.0014     2.3735     0.1447
  377.5000   -26.5361     5.5804     6.0296     3.8742     8.2550   116.4949     0.0001     2.4689     0.1112
  378.0000   -26.8213     5.8593     6.6010     8.3394     8.1514   117.5564     0.0031     2.5117     0.0956
  378.5000   -26.9597     6.1948     7.4340    12.1101     8.1223   118.9182    -0.0021     2.5238     0.0905
  379.0000   -27.2449     6.7799     8.1957    11.7033     8.1236   119.8295    -0.0051     2.4967     0.1016
  379.5000   -27.0734     7.7883     8.9656    11.7877     8.1246   120.4405     0.0016     2.4817     0.1055
  380.0000   -26.9061     8.7630     9.5384    11.8727     8.1256   121.8023     0.0122     2.4870     0.0980
  380.5000   -26.8896     9.5907    10.2269    11.9584     8.1267   124.9659     0.0167     2.4983     0.0907
  381.0000   -26.7222     9.8623    10.7905    11.7977     8.1277   126.1775     0.0129     2.5066     0.0877
  381.5000   -26.7057     9.7313    10.8693    11.7190     8.1437   122.1339     0.0047     2.5058     0.0925
  382.0000   -26.6892     9.7348    10.7101    11.7232     8.1447   120.1924    -0.0028     2.4953     0.0997
  382.5000   -26.6727     9.6704    10.5074    11.8077     8.1607   119.4521    -0.0013     2.4856     0.1033
  383.0000   -26.3545     9.7419    10.5121    11.8929     8.1617   117.6607     0.0062     2.4871     0.1018
  383.5000   -26.0364    10.0188    10.5889    11.8963     8.1777   113.8936     0.0160     2.4969     0.0934
  384.0000   -25.7182    10.3035    10.8898    11.8996     8.1788   105.5668     0.0205     2.4991     0.0970
  384.5000   -25.4000    11.2767    11.9184    12.0685     8.1648    99.7927     0.0236     2.4959     0.0980
  385.0000   -25.0819    12.5136    13.4099    13.4819     8.1659    92.0427     0.0356     2.4804     0.0961
  385.5000   -24.7637    13.6012    15.6188    16.1375     8.1520    77.8004     0.0340     2.4574     0.1136
  386.0000   -24.4455    15.3033    19.2257    19.0512     8.1381    70.0906     0.0310     2.4128     0.1333
  386.5000   -24.2782    17.2185    20.3266    20.9905     8.1095    65.0675     0.0265     2.4023     0.1521
  387.0000   -24.2617    18.9755    23.5117    25.0103     8.0806    60.6897     0.0191     2.4016     0.1511
  387.5000   -24.2452    20.7678    27.1960    31.5624     8.0664    57.6972     0.0229     2.4008     0.1538
  388.0000   -24.0959    22.8871    29.1510    30.9135     8.0677    56.6539     0.0304     2.3881     0.1608
  388.5000   -24.2431    23.8653    27.7862    27.3080     8.0837    58.3186     0.0147     2.3084     0.2077
  389.0000   -24.5405    24.0374    26.3004    26.0221     8.0847    62.6834     0.0027     2.3002     0.2159
  389.5000   -25.1380    23.2311    25.7674    25.1508     8.1007    69.3004     0.0019     2.2987     0.2174
  390.0000   -25.2853    22.6056    26.3194    25.1788     8.1018    76.2178    -0.0010     2.3017     0.2119
  390.5000   -25.7327    22.1495    27.2552    25.9083     8.1028    78.9309    -0.0048     2.3190     0.1996
  391.0000   -25.2792    21.8513    27.6447    26.4455     8.1038    78.1906     0.0050     2.3341     0.1947
  391.5000   -25.1261    21.7086    27.2749    26.6191     8.1049    76.8497     0.0238     2.3311     0.1971
  392.0000   -24.9729    21.7184    26.7246    26.8111     8.1059    77.3106     0.0118     2.3258     0.2001
  392.5000   -25.1201    21.7263    26.5477    26.8187     8.1069    76.8705     0.0050     2.3213     0.2016
  393.0000   -25.5676    21.8850    26.3763    26.8263     8.1080    76.1302     0.0050     2.3206     0.2016
  393.5000   -25.7147    22.0449    26.3863    26.8339     8.1090    76.2908     0.0058     2.3229     0.1989
  394.0000   -25.7118    22.0529    26.3958    26.2599     8.1101    81.2562     0.0081     2.3379     0.1905
  394.5000   -25.3970    22.2140    26.7731    24.3441     8.0961    82.4678     0.0141     2.3890     0.1709
