~VERSION INFORMATION
 VERS.                2.0:   CWLS LOG ASCII STANDARD - VERSION 2.0
 WRAP.                 NO:   ONE LINE PER DEPTH STEP
~WELL INFORMATION
#MNEM.UNIT      DATA TYPE    INFORMATION
#----------   ------------   ------------------------------
 STRT.F            0.0000:   START DEPTH
 STOP.F         1008.0000:   STOP DEPTH
 STEP.F            0.5000:   STEP LENGTH
 NULL.          -999.2500:   NO VALUE
 COMP. LAWRENCE/ALLISON INC:   COMPANY
 WELL. NPR 3 #51-61-SX-14:   WELL
 FLD .             TEAPOT:   FIELD
 LOC .      S14 T38N R78W:   LOCATION
 CNTY.            NATRONA:   COUNTY
 STAT.            WYOMING:   STATE
 CTRY. UNITED STATES OF AMERICA:   COUNTRY
 SRVC.      Dresser Atlas:   SERVICE COMPANY
 DATE.        05-FEB-1986:   LOGDATE
 API .       490251106600:   API NUMBER
~CURVE INFORMATION
#MNEM.UNIT       API CODE    CURVE DESCRIPTION
#----------   ------------   ------------------------------
 DEPT.F                  :   
 GRR .GAPI   07 310 01 00:   GAMMA RAY FROM RES. LOG.
 RILD.OHMM   10 120 46 00:   INDUCTION LOG DEEP RESISTIVITY
 RILM.OHMM   07 120 44 00:   INDUCTION LOG MEDIUM RESISTIVITY
 CALD.IN     45 280 60 00:   CALIPER
 DEN .G/C3   45 350 01 00:   COMPENSATED BULK DENSTIY
 CORR.G/C3   45 356 01 00:   DENSITY CORRECTION
 PORD.DEC    45 890 10 00:   POROSITY DENSITY LIMESTONE
~PARAMETER INFORMATION
#MNEM.UNIT          VALUE    DESCRIPTION
#----------   ------------   ------------------------------
 PD  .                 GL:   PERMANENT DATUM
 EPD .F              5225:   ELEVATION PERMANENT DATUM
 LMF .                 GL:   LOG MEASURED FROM
 DMF .                 GL:   DRILLING MEASURED FROM
 EGL .F              5225:   GROUND LEVEL
 DATE.             2-5-86:   RUN DATE
 RUN .                  1:   RUN NUMBER
 DD  .F              1010:   DEPTH DRILLER
 DL  .F              1008:   DEPTH LOGGER
 BLI .F              1008:   BOTTOM LOG INTERVAL
 CS  .IN            8.625:   CASING SIZE
 CBD .F                86:   CASING BOTTOM DRILLER
 CBL .F                84:   CASING BOTTOM LOGGER
 BS  .IN             6.25:   BIT SIZE
 BSD .F              1010:   BIT SIZE AT DEPTH
 DFT .                AIR:   DRILLING FLUID TYPE
 LUN .            HL 6264:   LOGGING UNIT NUMBER
 LUL .           GILLETTE:   LOGGING UNIT LOCATION
 ENGI.           FAHLSING:   RECORDING ENGINEER
 WITN.              FIVAS:   WITNESSED BY
 CLNT.            A2DTECH:   CLIENT CODE
 ORIG.       2", 5" PRINT:   ORIGIN OF DATA
 UWI .       490251106600:   UNIQUE WELL ID
 DICO. A2D Technologies, Inc.:   DIGITIZING COMPANY
~OTHER INFORMATION
~A    DEPT      GRR      RILD       RILM       CALD        DEN       CORR       PORD   
# ...
  318.5000   106.6222     4.1276     3.8948     6.6429     2.4040     0.1035     0.1643
  319.0000   104.9936     3.8747     3.6587     6.6415     2.3976     0.1283     0.1681
  319.5000   106.4636     3.6374     3.4367     6.6401     2.3891     0.1182     0.1720
  320.0000   108.4278     3.4149     3.2280     6.6387     2.3805     0.1013     0.1758
  320.5000   107.5536     3.2058     3.0326     6.6373     2.3724     0.0895     0.1817
  321.0000   105.8270     3.0892     2.9232     6.6359     2.3532     0.0951     0.1933
  321.5000   107.3548     3.2931     3.1043     6.6346     2.3331     0.1081     0.2058
  322.0000   107.7831     3.5150     3.2984     6.6332     2.3207     0.1240     0.2133
  322.5000   105.6649     3.7517     3.5045     6.6318     2.3661     0.1277     0.1949
  323.0000   103.5054     4.0045     3.7236     6.6304     2.4044     0.1289     0.1685
  323.5000   104.6757     4.2743     3.9564     6.6300     2.4333     0.1302     0.1421
  324.0000   106.4737     4.5885     4.2037     6.6300     2.4441     0.1185     0.1407
  324.5000   108.3962     4.8154     4.4664     6.6300     2.4484     0.0972     0.1396
  325.0000   110.7677     5.0772     4.7458     6.6300     2.4550     0.0954     0.1346
  325.5000   113.1523     5.3532     5.0441     6.6300     2.4618     0.1279     0.1296
  326.0000   113.7318     5.6180     5.3190     6.6300     2.4540     0.1237     0.1355
  326.5000   109.8528     5.5208     5.3159     6.6300     2.4423     0.0954     0.1432
  327.0000   106.3426     5.4330     5.3181     6.6300     2.4305     0.0688     0.1491
  327.5000   107.1959     5.3654     5.0687     6.6300     2.4187     0.0666     0.1559
  328.0000   111.7387     4.9991     4.6092     6.6300     2.4070     0.0763     0.1627
  328.5000   117.4222     4.5360     4.1947     6.6300     2.3953     0.0891     0.1701
  329.0000   121.0023     4.0635     3.8168     6.6300     2.3873     0.0946     0.1776
  329.5000   122.8202     3.6456     3.4735     6.6300     2.3732     0.0758     0.1858
  330.0000   123.2124     3.5147     3.2002     6.6301     2.3456     0.0576     0.2013
  330.5000   123.5564     3.3901     2.9775     6.6359     2.3177     0.0534     0.2167
  331.0000   123.8917     3.2645     3.0328     6.6491     2.2902     0.0710     0.2322
  331.5000   124.4912     3.2645     3.1676     6.6621     2.2683     0.0889     0.2440
  332.0000   122.9485     3.4182     3.3096     6.6694     2.2649     0.1004     0.2462
  332.5000   117.5118     3.5382     3.4579     6.6676     2.2979     0.0832     0.2215
  333.0000   112.1777     3.6793     3.6129     6.6660     2.3342     0.0577     0.2033
  333.5000   106.9549     3.8711     3.7748     6.6643     2.3714     0.0615     0.1837
  334.0000   105.7473     4.0865     3.9440     6.6626     2.3747     0.0712     0.1828
  334.5000   104.7097     4.3138     4.1207     6.6610     2.3755     0.0810     0.1815
  335.0000   103.7295     4.5538     4.3054     6.6593     2.3776     0.0825     0.1804
  335.5000   107.0940     4.7605     4.5048     6.6576     2.3802     0.0730     0.1793
  336.0000   113.7681     4.8489     4.7169     6.6560     2.3861     0.0746     0.1752
  336.5000   120.3497     4.9390     4.8045     6.6543     2.3916     0.0776     0.1712
  337.0000   120.5341     4.9846     4.7605     6.6526     2.3960     0.0707     0.1687
  337.5000   112.0665     4.9846     4.7324     6.6510     2.3969     0.0586     0.1684
  338.0000   104.5703     4.9846     4.6737     6.6496     2.3976     0.0591     0.1681
  338.5000   104.2056     4.9390     4.4888     6.6475     2.3996     0.0792     0.1669
  339.0000   107.5421     4.7615     4.2476     6.6455     2.4017     0.0965     0.1652
  339.5000   110.4630     4.4940     4.0196     6.6436     2.4039     0.1047     0.1631
  340.0000   107.4202     4.2602     3.8037     6.6416     2.4071     0.1018     0.1613
  340.5000   108.0867     4.0392     3.5995     6.6396     2.4007     0.0950     0.1675
  341.0000   109.5857     3.8296     3.4062     6.6376     2.3915     0.0883     0.1742
  341.5000   108.4566     3.6309     3.1177     6.6356     2.3823     0.0877     0.1794
  342.0000   107.7842     3.5406     3.2355     6.6336     2.3699     0.0945     0.1842
  342.5000   116.3897     3.4886     3.4182     6.6316     2.3486     0.0857     0.1926
  343.0000   121.3852     3.4498     3.3583     6.6300     2.3271     0.0737     0.2071
  343.5000   116.1716     3.3371     3.2439     6.6304     2.3056     0.0617     0.2217
  344.0000   108.2883     3.2335     3.1335     6.6307     2.2970     0.0491     0.2289
  344.5000   103.2187     3.1332     3.0268     6.6311     2.3258     0.0540     0.2139
  345.0000   105.5331     3.0359     2.9237     6.6314     2.3464     0.0640     0.2004
  345.5000   106.4070     2.9417     2.8065     6.6317     2.3577     0.0742     0.1910
  346.0000   105.6717     2.8264     2.6746     6.6321     2.3485     0.0843     0.1905
  346.5000   112.4713     2.6937     2.5490     6.6324     2.3295     0.0944     0.2075
  347.0000   112.8165     2.5671     2.4292     6.6327     2.3105     0.0940     0.2207
  347.5000   114.8535     2.4465     2.3151     6.6331     2.2916     0.0825     0.2318
  348.0000   114.7076     2.3440     2.1768     6.6334     2.2818     0.0708     0.2389
  348.5000   117.2006     2.4229     2.2505     6.6337     2.2817     0.0588     0.2378
  349.0000   119.5315     2.5767     2.4121     6.6341     2.2737     0.0614     0.2405
  349.5000   117.6179     2.7404     2.5851     6.6344     2.2630     0.0744     0.2487
  350.0000   113.7817     2.9144     2.7705     6.6347     2.2544     0.0927     0.2546
  350.5000   109.9766     3.0995     2.9690     6.6351     2.2904     0.0878     0.2411
  351.0000   106.2026     3.2964     3.1818     6.6354     2.3272     0.0802     0.2175
  351.5000   103.9512     3.5057     3.4098     6.6357     2.3634     0.0722     0.1915
  352.0000   106.9498     3.7284     3.6542     6.6361     2.3832     0.0826     0.1767
  352.5000   111.2472     3.9652     4.0339     6.6364     2.3829     0.1000     0.1772
  353.0000   115.6367     4.1098     3.9629     6.6367     2.3791     0.0945     0.1800
  353.5000   118.4165     4.1119     3.8418     6.6371     2.3757     0.0886     0.1809
  354.0000   118.9161     3.9627     3.7133     6.6374     2.3802     0.0846     0.1781
  354.5000   119.3467     3.7823     3.5789     6.6377     2.3856     0.0823     0.1750
  355.0000   119.7866     3.5750     3.3541     6.6381     2.3809     0.0683     0.1787
  355.5000   120.0528     3.3605     3.1434     6.6384     2.3656     0.0545     0.1840
  356.0000   119.9775     3.1588     2.9460     6.6387     2.3504     0.0435     0.1913
  356.5000   118.6996     2.9691     2.7610     6.6391     2.3440     0.0504     0.1992
  357.0000   117.3849     2.7906     2.5875     6.6394     2.3386     0.0661     0.2020
  357.5000   119.4959     2.5692     2.4251     6.6397     2.3318     0.0735     0.2056
  358.0000   122.3179     2.5681     2.3202     6.6401     2.3133     0.0800     0.2166
  358.5000   125.1749     2.5677     2.5050     6.6404     2.2950     0.0968     0.2276
  359.0000   126.4923     2.8492     2.7436     6.6407     2.2765     0.1167     0.2386
  359.5000   126.5038     3.1143     3.0067     6.6411     2.2571     0.1315     0.2501
  360.0000   123.0708     3.4042     3.2943     6.6414     2.2787     0.1308     0.2450
  360.5000   118.1400     3.7210     3.6095     6.6417     2.3201     0.1063     0.2143
  361.0000   113.0942     4.0672     3.9548     6.6421     2.3618     0.0812     0.1820
  361.5000   111.4257     4.4458     4.3331     6.6424     2.3982     0.0744     0.1630
  362.0000   111.5373     4.8595     4.7477     6.6427     2.4157     0.0822     0.1556
  362.5000   110.0034     5.2884     5.2019     6.6431     2.4331     0.0910     0.1482
  363.0000   108.4994     5.6205     5.3901     6.6434     2.4361     0.0836     0.1464
  363.5000   109.0694     5.7645     5.5156     6.6437     2.4263     0.0772     0.1513
