~VERSION INFORMATION
 VERS.                2.0:   CWLS LOG ASCII STANDARD - VERSION 2.0
 WRAP.                 NO:   ONE LINE PER DEPTH STEP
~WELL INFORMATION
#MNEM.UNIT      DATA TYPE    INFORMATION
#----------   ------------   ------------------------------
 STRT.F           27.0000:   START DEPTH
 STOP.F          992.0000:   STOP DEPTH
 STEP.F            0.5000:   STEP LENGTH
 NULL.          -999.2500:   NO VALUE
 COMP. FENIX & SCISSON INC:   COMPANY
 WELL. NPR 3  77- S -27 #77-27:   WELL
 FLD .             TEAPOT:   FIELD
 LOC .      S27 T39N R78W:   LOCATION
 CNTY.            NATRONA:   COUNTY
 STAT.            WYOMING:   STATE
 CTRY. UNITED STATES OF AMERICA:   COUNTRY
 SRVC.            Unknown:   SERVICE COMPANY
 DATE.        09-SEP-1978:   LOGDATE
 API .       490251069700:   API NUMBER
~CURVE INFORMATION
#MNEM.UNIT       API CODE    CURVE DESCRIPTION
#----------   ------------   ------------------------------
 DEPT.F                  :   
 SPR .MV     05 010 01 00:   SPONTANEOUS POTENTIAL FROM RES.
 SN  .OHMM   05 040 16 00:   SHORT NORMAL 16"
 ILD .OHMM   05 120 46 00:   INDUCTION LOG DEEP
 CALD.IN     45 280 60 00:   CALIPER
 GRD .GAPI   45 310 01 00:   GAMMA RAY FROM DENSITY LOG
 RHOB.G/C3   45 350 01 00:   BULK DENSITY
 CORR.G/C3   45 356 01 00:   DENSITY CORRECTION
 DPHI.DEC    45 890 12 00:   DENSITY POROSITY SANDSTONE
~PARAMETER INFORMATION
#MNEM.UNIT          VALUE    DESCRIPTION
#----------   ------------   ------------------------------
 PD  .                 GL:   PERMANENT DATUM
 EPD .F              5069:   ELEVATION PERMANENT DATUM
 LMF .                 KB:   LOG MEASURED FROM
 DAPD.F                 4:   FEET ABOVE PERMANENT DATUM
 DMF .                 KB:   DRILLING MEASURED FROM
 EKB .F              5073:   KELLING BUSHING
 EGL .F              5069:   GROUND LEVEL
 DATE.           9-9-1978:   RUN DATE
 RUN .                  1:   RUN NUMBER
 DD  .F               990:   DEPTH DRILLER
 DL  .F               998:   DEPTH LOGGER
 BLI .F               992:   BOTTOM LOG INTERVAL
 TLI .F                50:   TOP LOG INTERVAL
 CS  .IN            8.625:   CASING SIZE
 CBD .F                40:   CASING BOTTOM DRILLER
 BS  .IN            7.875:   BIT SIZE
 BSD .F               990:   BIT SIZE AT DEPTH
 DFT .                KCL:   DRILLING FLUID TYPE
 DFD .                8.7:   DRILLING FLUID DENSITY
 DFV .                 34:   DRILLING FLUID VISCOSITY
 DFPH.                  9:   DRILLING FLUID PH
 DFL .                  8:   DRILLING FLUID LOSS
 MSS .          FLOW LINE:   MUD SAMPLE SOURCE
 RMS .OHMM             .4:   RESISTIVITY MUD SAMPLE
 MST .F                79:   MUD SAMPLE TEMPERATURE
 RMF .OHMM            .12:   RESISTIVITY MUD FILTRATE SAMPLE
 MFST.F                84:   MUD FILTRATE SAMPLE TEMPERATURE
 RMC .OHMM            .34:   RESISTIVITY MUD CAKE
 MCST.F                84:   MUD CAKE SAMPLE TEMPERATURE
 MFSS.               MEAS:   MUD FILTRATE SAMPLE SOURCE
 MCSS.               MEAS:   MUD CAKE SAMPLE SOURCE
 TCS .HRS               3:   TIME CURCULATED STOPPED
 LUN .               2958:   LOGGING UNIT NUMBER
 LUL .               CASP:   LOGGING UNIT LOCATION
 ENGI.             MILLER:   RECORDING ENGINEER
 WITN.              AMEND:   WITNESSED BY
 CLNT.            A2DTECH:   CLIENT CODE
 ORIG.           5" PRINT:   ORIGIN OF DATA
 UWI .       490251069700:   UNIQUE WELL ID
 DICO. A2D Technologies, Inc.:   DIGITIZING COMPANY
~OTHER INFORMATION
~A   DEPT      SPR         SN        ILD       CALD        GRD       RHOB       CORR       DPHI   
   27.0000  -999.2500  -999.2500  -999.2500  -999.2500   101.7836  -999.2500  -999.2500  -999.2500
   27.5000  -999.2500  -999.2500  -999.2500  -999.2500   101.7836  -999.2500  -999.2500  -999.2500
   28.0000  -999.2500  -999.2500  -999.2500  -999.2500   101.8223  -999.2500  -999.2500  -999.2500
   28.5000  -999.2500  -999.2500  -999.2500  -999.2500   101.9243  -999.2500  -999.2500  -999.2500
   29.0000  -999.2500  -999.2500  -999.2500  -999.2500   102.0545  -999.2500  -999.2500  -999.2500
   29.5000  -999.2500  -999.2500  -999.2500  -999.2500   102.1371  -999.2500  -999.2500  -999.2500
   30.0000  -999.2500  -999.2500  -999.2500  -999.2500   100.4922  -999.2500  -999.2500  -999.2500
   30.5000  -999.2500  -999.2500  -999.2500  -999.2500   101.7336  -999.2500  -999.2500  -999.2500
   31.0000  -999.2500  -999.2500  -999.2500  -999.2500   103.2282  -999.2500  -999.2500  -999.2500
   31.5000  -999.2500  -999.2500  -999.2500  -999.2500   104.7088  -999.2500  -999.2500  -999.2500
   32.0000  -999.2500  -999.2500  -999.2500  -999.2500   105.0022  -999.2500  -999.2500  -999.2500
   32.5000  -999.2500  -999.2500  -999.2500  -999.2500   103.7830  -999.2500  -999.2500  -999.2500
   33.0000  -999.2500  -999.2500  -999.2500  -999.2500   101.5820  -999.2500  -999.2500  -999.2500
   33.5000  -999.2500  -999.2500  -999.2500  -999.2500    99.3982  -999.2500  -999.2500  -999.2500
   34.0000  -999.2500  -999.2500  -999.2500  -999.2500    97.7508  -999.2500  -999.2500  -999.2500
   34.5000  -999.2500  -999.2500  -999.2500  -999.2500    99.6461  -999.2500  -999.2500  -999.2500
   35.0000  -999.2500  -999.2500  -999.2500  -999.2500   104.4571  -999.2500  -999.2500  -999.2500
   35.5000  -999.2500  -999.2500  -999.2500  -999.2500   105.5159  -999.2500  -999.2500  -999.2500
   36.0000  -999.2500  -999.2500  -999.2500  -999.2500   105.6060  -999.2500  -999.2500  -999.2500
   36.5000  -999.2500  -999.2500  -999.2500  -999.2500   105.5878  -999.2500  -999.2500  -999.2500
   37.0000  -999.2500  -999.2500  -999.2500  -999.2500   105.3543  -999.2500  -999.2500  -999.2500
   37.5000  -999.2500  -999.2500  -999.2500  -999.2500   104.5230  -999.2500  -999.2500  -999.2500
   38.0000  -999.2500  -999.2500  -999.2500  -999.2500   103.6405  -999.2500  -999.2500  -999.2500
   38.5000  -999.2500  -999.2500  -999.2500  -999.2500   102.7446  -999.2500  -999.2500  -999.2500
   39.0000  -999.2500  -999.2500  -999.2500  -999.2500   102.5180  -999.2500  -999.2500  -999.2500
   39.5000  -999.2500  -999.2500  -999.2500  -999.2500   102.4323  -999.2500  -999.2500  -999.2500
   40.0000  -999.2500  -999.2500  -999.2500  -999.2500   102.3488  -999.2500     0.0340  -999.2500
   40.5000  -999.2500  -999.2500  -999.2500  -999.2500   102.2610  -999.2500     0.0148  -999.2500
   41.0000  -999.2500  -999.2500  -999.2500  -999.2500   102.2135     2.6908    -0.0025     0.0329
   41.5000  -999.2500  -999.2500  -999.2500  -999.2500   102.9513     2.6873    -0.1350     0.1218
   42.0000  -999.2500  -999.2500  -999.2500  -999.2500   103.7111     2.3872    -0.2443     0.2026
   42.5000  -999.2500  -999.2500  -999.2500  -999.2500   103.8263     2.3951    -0.1978     0.2673
   43.0000  -999.2500  -999.2500  -999.2500  -999.2500   103.3448     2.2616    -0.1962     0.3481
   43.5000  -999.2500  -999.2500  -999.2500  -999.2500   102.2432     2.1722    -0.1970     0.4209
   44.0000  -999.2500  -999.2500  -999.2500  -999.2500   101.1487     2.0825    -0.1732     0.4217
   44.5000  -999.2500  -999.2500  -999.2500  -999.2500   100.7757     1.9929    -0.1468     0.4220
   45.0000  -999.2500  -999.2500  -999.2500  -999.2500   101.2652     1.9032    -0.1003     0.3272
   45.5000  -999.2500  -999.2500  -999.2500  -999.2500   101.7306     1.7867     0.0131     0.2405
   46.0000  -999.2500  -999.2500  -999.2500  -999.2500   100.8310     2.0685     0.1358     0.1468
   46.5000  -999.2500  -999.2500  -999.2500     8.4287    99.9878     2.3187     0.0824     0.1452
   47.0000  -999.2500  -999.2500  -999.2500     8.0261   100.6384     2.4203     0.0187     0.1421
   47.5000  -999.2500  -999.2500  -999.2500     7.9359   101.4894     2.4319     0.0103     0.1396
   48.0000  -999.2500  -999.2500  -999.2500     7.9673   107.7275     2.4440     0.0096     0.1406
   48.5000  -999.2500  -999.2500  -999.2500     8.1011   114.5152     2.4447     0.0102     0.1420
   49.0000   -57.7535     0.1973    30.9763     8.2319   121.3120     2.4418     0.0109     0.1435
   49.5000   -59.9801     3.6060     2.4380     8.3381   127.3675     2.4388     0.0113     0.1444
   50.0000   -63.9986     5.9024     5.8483     8.3568   127.3312     2.4373     0.0110     0.1444
   50.5000   -64.8221     6.1173     6.1529     8.3570   125.9482     2.4370     0.0156     0.1404
   51.0000   -65.8294     6.5318     6.2471     8.3568   124.5720     2.4389     0.0237     0.1360
   51.5000   -66.8669     6.7769     6.2436     8.3589   123.1532     2.4478     0.0318     0.1316
   52.0000   -67.4734     6.9029     6.2056     8.3664   122.8037     2.4576     0.0376     0.1300
   52.5000   -67.9059     6.8862     6.1716     8.3738   123.0415     2.4612     0.0365     0.1380
   53.0000   -67.8944     6.8689     6.1377     8.3812   124.3749     2.4506     0.0354     0.1467
   53.5000   -67.8921     6.8516     6.0255     8.3885   128.2408     2.4392     0.0379     0.1499
   54.0000   -67.8894     6.8343     5.8623     8.3959   128.8711     2.4274     0.0413     0.1508
   54.5000   -67.9094     6.8170     5.7034     8.4034   128.8461     2.4260     0.0445     0.1499
   55.0000   -68.3727     6.8000     5.5314     8.4110   128.8361     2.4271     0.0461     0.1461
   55.5000   -68.8479     6.7755     5.5357     8.4120   128.7184     2.4292     0.0453     0.1424
   56.0000   -69.2730     6.7731     5.5307     8.3993   128.3790     2.4371     0.0411     0.1386
   56.5000   -69.1609     6.8335     5.6237     8.3715   128.0444     2.4449     0.0365     0.1346
   57.0000   -69.0403     6.8396     5.6867     8.3069   127.8236     2.4512     0.0319     0.1374
   57.5000   -68.9053     7.1146     5.7484     8.2413   127.8286     2.4475     0.0273     0.1421
   58.0000   -69.3309     7.3136     5.8108     8.1774   130.3239     2.4402     0.0234     0.1446
   58.5000   -70.0824     7.5182     5.9024     8.1427   131.1709     2.4359     0.0235     0.1465
   59.0000   -70.8396     7.7286     5.8973     8.1092   128.1453     2.4337     0.0251     0.1484
   59.5000   -71.4968     7.8529     5.8880     8.0786   124.2982     2.4316     0.0268     0.1506
   60.0000   -71.5362     7.8451     5.8787     8.0498   121.6368     2.4279     0.0284     0.1534
   60.5000   -71.5881     7.8349     5.8694     8.0210   120.7665     2.4238     0.0305     0.1561
   61.0000   -71.6420     7.8247     5.8601     7.9923   120.5277     2.4197     0.0367     0.1551
   61.5000   -71.6960     7.8146     5.8508     7.9637   120.4327     2.4193     0.0430     0.1461
   62.0000   -71.7500     7.8045     5.8416     7.9336   119.9960     2.4335     0.0461     0.1372
   62.5000   -71.8040     7.7943     5.8323     7.8645   119.4919     2.4483     0.0379     0.1340
   63.0000   -71.8580     7.7842     5.8231     7.7954   119.4204     2.4540     0.0261     0.1387
   63.5000   -71.9120     7.7809     5.8140     7.7266   119.4025     2.4495     0.0140     0.1453
   64.0000   -71.9660     7.6173     5.8050     7.6574   119.0920     2.4403     0.0097     0.1503
   64.5000   -72.0200     7.3839     5.7945     7.6224   118.7922     2.4312     0.0136     0.1530
   65.0000   -72.0740     7.1575     5.9185     7.6028   119.2930     2.4234     0.0178     0.1539
   65.5000   -72.1280     6.9381     6.0584     7.5835   120.7256     2.4214     0.0220     0.1478
   66.0000   -72.1820     6.7147     6.2017     7.5642   122.1465     2.4237     0.0220     0.1418
   66.5000   -72.2360     6.6075     6.3482     7.5447   123.4161     2.4420     0.0143     0.1358
   67.0000   -72.2900     6.4962     6.4981     7.5406   123.3679     2.4586     0.0067     0.1336
