~VERSION INFORMATION
 VERS.                2.0:   CWLS LOG ASCII STANDARD - VERSION 2.0
 WRAP.                 NO:   ONE LINE PER DEPTH STEP
~WELL INFORMATION
#MNEM.UNIT      DATA TYPE    INFORMATION
#----------   ------------   ------------------------------
 STRT.F            2.0000:   START DEPTH
 STOP.F          560.0000:   STOP DEPTH
 STEP.F            0.1000:   STEP LENGTH
 NULL.          -999.2500:   NO VALUE
 COMP.       F D SERV INC:   COMPANY
 WELL. NAVAL PETROLEUM RESERVE 3 SX-3 #88-3:   WELL
 FLD .             NPR #3:   FIELD
 LOC .       S3 T38N R78W:   LOCATION
 CNTY.            NATRONA:   COUNTY
 STAT.            WYOMING:   STATE
 CTRY. UNITED STATES OF AMERICA:   COUNTRY
 SRVC.      Western Atlas:   SERVICE COMPANY
 DATE.        30-OCT-1992:   LOGDATE
 API .       490252254900:   API NUMBER
~CURVE INFORMATION
#MNEM.UNIT       API CODE    CURVE DESCRIPTION
#----------   ------------   ------------------------------
 DEPT.F                  :   
 GRR .GAPI   07 310 01 00:   GAMMA RAY
 RILD.OHMM   07 120 46 00:   INDUCTION LOG DEEP RESISTIVITY
 RILM.OHMM   07 120 44 00:   INDUCTION LOG MEDIUM RESISTIVITY
~PARAMETER INFORMATION
#MNEM.UNIT          VALUE    DESCRIPTION
#----------   ------------   ------------------------------
 PD  .                 GL:   PERMANENT DATUM
 EPD .F              5131:   ELEVATION PERMANENT DATUM
 LMF .                 KB:   LOG MEASURED FROM
 DAPD.F                10:   FEET ABOVE PERMANENT DATUM
 DMF .                 KB:   DRILLING MEASURED FROM
 EKB .F              5141:   KELLING BUSHING
 EDF .F              5140:   DRILLING FLOOR
 EGL .F              5131:   GROUND LEVEL
 DATE.        30-OCT-1992:   RUN DATE
 RUN .                  1:   RUN NUMBER
 DD  .F               568:   DEPTH DRILLER
 DL  .F               568:   DEPTH LOGGER
 BLI .F               560:   BOTTOM LOG INTERVAL
 CS  .IN            8.625:   CASING SIZE
 CBD .F                73:   CASING BOTTOM DRILLER
 CBL .F                73:   CASING BOTTOM LOGGER
 BS  .IN            7.875:   BIT SIZE
 BSD .F               568:   BIT SIZE AT DEPTH
 DFT .           AIR FOAM:   DRILLING FLUID TYPE
 BHT .F                63:   BOTTOM HOLE TEMPERATURE
 TCS .HRS               2:   TIME CURCULATED STOPPED
 MRT .F                63:   MAXIMUM RECORDED TEMPERATURE
 LUN .            HL-6274:   LOGGING UNIT NUMBER
 LUL .             CASPER:   LOGGING UNIT LOCATION
 ENGI.             RAUTIO:   RECORDING ENGINEER
 WITN.          BOB SYLAR:   WITNESSED BY
 CLNT.            A2DTECH:   CLIENT CODE
 ORIG.           5" PRINT:   ORIGIN OF DATA
 UWI .       490252254900:   UNIQUE WELL ID
 DICO. A2D Technologies, Inc.:   DIGITIZING COMPANY
~OTHER INFORMATION
~A    DEPT      GRR      RILD       RILM   
# ...
  111.2000   131.7590     7.9623     8.0077
  111.3000   131.3470     7.9349     8.0078
  111.4000   130.9486     7.9353     8.0079
  111.5000   130.6938     7.9357     7.9651
  111.6000   130.4212     7.9362     7.9529
  111.7000   129.8544     7.9366     7.9530
  111.8000   129.4031     7.9371     7.9356
  111.9000   128.7152     7.9375     7.8984
  112.0000   127.6872     7.9379     7.8985
  112.1000   126.6729     7.9384     7.8986
  112.2000   126.2031     7.9388     7.8987
  112.3000   125.9410     7.9393     7.8988
  112.4000   125.9405     7.9397     7.8989
  112.5000   126.1404     7.9401     7.8990
  112.6000   126.2400     7.9406     7.8991
  112.7000   126.3469     7.9410     7.8993
  112.8000   126.6615     7.9415     7.8994
  112.9000   127.1549     7.9420     7.8995
  113.0000   127.4405     7.9423     7.8996
  113.1000   128.3287     7.9428     7.8997
  113.2000   128.8180     7.9432     7.8998
  113.3000   129.2008     7.9437     7.8999
  113.4000   129.6261     7.9441     7.9000
  113.5000   129.8437     7.9445     7.9001
  113.6000   129.8430     7.9450     7.9315
  113.7000   130.3300     7.9454     7.9552
  113.8000   130.6406     7.9459     7.9553
  113.9000   130.8942     7.9463     7.9554
  114.0000   131.1479     7.9578     7.9555
  114.1000   131.3438     8.0024     7.9556
  114.2000   131.3656     8.0029     7.9558
  114.3000   131.9440     8.0032     7.9559
  114.4000   132.1624     8.0037     7.9560
  114.5000   132.7609     8.0282     7.9561
  114.6000   133.3971     8.0602     7.9562
  114.7000   133.7462     8.0606     7.9563
  114.8000   133.7456     8.0611     7.9564
  114.9000   133.7449     8.0159     7.9565
  115.0000   133.7444     8.0063     7.9566
  115.1000   133.7438     8.0068     7.9413
  115.2000   133.8907     7.9873     7.8950
  115.3000   134.0433     7.9525     7.8476
  115.4000   134.0427     7.9529     7.8032
  115.5000   134.0421     7.9534     7.7577
  115.6000   134.0414     7.9538     7.7401
  115.7000   134.2567     7.9542     7.7402
  115.8000   134.5103     7.9547     7.7403
  115.9000   135.1320     7.9394     7.7404
  116.0000   136.3770     7.9006     7.7405
  116.1000   138.0967     7.9011     7.7406
  116.2000   139.4514     7.9015     7.7407
  116.3000   140.8752     7.9020     7.7408
  116.4000   142.0182     7.9024     7.7409
  116.5000   142.8902     7.9029     7.7410
  116.6000   143.5545     7.9033     7.7411
  116.7000   144.1137     7.9037     7.7413
  116.8000   144.8710     7.9042     7.7413
  116.9000   145.4622     7.9046     7.7415
  117.0000   145.4617     7.8723     7.7416
  117.1000   145.6271     7.8510     7.7417
  117.2000   146.0002     7.8514     7.7418
  117.3000   146.4351     7.8518     7.7419
  117.4000   146.7152     7.8523     7.7420
  117.5000   147.2631     7.8528     7.7421
  117.6000   147.4967     7.8531     7.7422
  117.7000   147.7504     7.8536     7.7423
  117.8000   147.8629     7.8540     7.7424
  117.9000   147.8623     7.8544     7.7425
  118.0000   147.8616     7.8513     7.7427
  118.1000   147.8594     7.8012     7.7427
  118.2000   147.5596     7.8016     7.7428
  118.3000   147.3498     7.7694     7.7430
  118.4000   146.7693     7.7486     7.7431
  118.5000   145.6571     7.7491     7.7432
  118.6000   144.1311     7.7495     7.7433
  118.7000   142.6516     7.7499     7.7856
  118.8000   141.5410     7.7504     7.7633
  118.9000   140.6165     7.7508     7.7436
  119.0000   139.4145     7.7512     7.7437
  119.1000   138.2807     7.7516     7.7438
  119.2000   137.3546     7.7521     7.7439
  119.3000   136.5913     7.7525     7.7440
  119.4000   135.8232     7.7530     7.7441
  119.5000   135.2209     7.7534     7.7142
  119.6000   134.8082     7.7868     7.6909
  119.7000   134.4588     7.8081     7.6911
  119.8000   134.3170     7.8085     7.6912
  119.9000   134.3164     7.8089     7.6913
  120.0000   134.3158     7.8094     7.7341
  120.1000   134.3151     7.8099     7.7449
  120.2000   134.5424     7.8102     7.7450
  120.3000   135.1585     7.8107     7.7451
  120.4000   135.9206     7.8111     7.7554
  120.5000   136.5945     7.8115     7.7991
  120.6000   137.1024     7.8120     7.7992
  120.7000   137.6198     7.8124     7.7993
  120.8000   137.6192     7.8128     7.7994
  120.9000   137.6186     7.8469     7.7995
  121.0000   137.3052     7.8679     7.7996
  121.1000   136.9061     7.8684     7.7997
  121.2000   136.6512     7.8688     7.7999
  121.3000   136.3964     7.8692     7.8000
  121.4000   136.1118     7.8698     7.8001
  121.5000   135.8867     7.9084     7.8278
  121.6000   135.8099     7.9252     7.8544
  121.7000   135.6778     7.9256     7.8546
  121.8000   135.5080     7.9393     7.8547
  121.9000   135.5074     7.9816     7.8548
  122.0000   135.5067     7.9820     7.8956
  122.1000   135.5062     7.9824     7.9095
  122.2000   135.7052     7.9829     7.9339
  122.3000   135.9589     7.9833     7.9806
  122.4000   136.2125     7.9838     8.0201
  122.5000   136.4662     7.9935     8.0202
  122.6000   136.7198     8.0401     8.0203
  122.7000   137.0062     8.0406     8.0204
  122.8000   137.0057     8.0410     8.0205
  122.9000   136.8303     8.0414     8.0414
  123.0000   136.4471     8.0642     8.0765
  123.1000   136.0199     8.0982     8.0766
  123.2000   135.7650     8.1039     8.0767
  123.3000   135.4989     8.1553     8.1195
  123.4000   135.2553     8.1558     8.1674
  123.5000   135.0005     8.1562     8.1896
  123.6000   134.2957     8.1838     8.1897
  123.7000   133.4851     8.2138     8.1984
  123.8000   132.9191     8.2142     8.2468
  123.9000   132.1871     8.2147     8.2469
  124.0000   132.1864     8.2152     8.2470
  124.1000   132.1859     8.2563     8.2781
  124.2000   132.3569     8.2731     8.3045
  124.3000   132.6105     8.2735     8.3046
  124.4000   132.9428     8.2740     8.3047
  124.5000   133.4185     8.2745     8.3049
  124.6000   133.6866     8.2749     8.3050
  124.7000   134.4054     8.3210     8.3411
  124.8000   134.7810     8.3333     8.3629
  124.9000   135.0346     8.3338     8.3630
  125.0000   135.1880     8.3342     8.3535
  125.1000   135.2411     8.3347     8.3055
  125.2000   135.4875     8.3367     8.3057
  125.3000   135.4868     8.3935     8.3058
  125.4000   135.2714     8.3939     8.3380
  125.5000   135.0165     8.3944     8.3871
  125.6000   134.7617     8.3949     8.4219
  125.7000   134.5069     8.3953     8.4220
  125.8000   134.2520     8.3896     8.4221
  125.9000   133.9795     8.3384     8.4222
  126.0000   133.7424     8.3388     8.4598
  126.1000   133.2974     8.3393     8.4809
  126.2000   132.6448     8.3398     8.5008
  126.3000   131.9785     8.3402     8.5293
  126.4000   131.5200     8.3407     8.4813
  126.5000   131.2652     8.3411     8.4814
  126.6000   130.9677     8.3417     8.4392
  126.7000   130.9672     8.3421     8.4232
  126.8000   130.9666     8.3425     8.3748
  126.9000   130.9660     8.3673     8.3076
  127.0000   131.0376     8.4014     8.3012
  127.1000   131.2912     8.4018     8.2506
  127.2000   131.5657     8.4023     8.2507
  127.3000   131.7985     8.4028     8.2508
  127.4000   132.0521     8.4032     8.2509
  127.5000   132.4461     8.4037     8.2510
  127.6000   132.9540     8.4042     8.2511
  127.7000   133.5092     8.4046     8.2512
  127.8000   134.2713     8.4028     8.2514
  127.9000   135.1704     8.3477     8.2515
  128.0000   136.2126     8.3481     8.2516
  128.1000   136.6731     8.3485     8.2517
  128.2000   136.6725     8.3490     8.2518
  128.3000   136.6719     8.3495     8.2519
  128.4000   136.6713     8.3499     8.2520
  128.5000   136.6706     8.3504     8.2053
  128.6000   136.4399     8.3508     8.1954
  128.7000   136.3687     8.3133     8.1662
  128.8000   136.3681     8.2942     8.1186
  128.9000   136.3675     8.2946     8.0831
  129.0000   136.3228     8.2951     8.0798
  129.1000   136.0656     8.2929     8.0275
  129.2000   136.0648     8.2389     8.0276
  129.3000   136.0644     8.2393     8.0278
