~VERSION INFORMATION
 VERS.                2.0:   CWLS LOG ASCII STANDARD - VERSION 2.0
 WRAP.                 NO:   ONE LINE PER DEPTH STEP
~WELL INFORMATION
#MNEM.UNIT      DATA TYPE    INFORMATION
#----------   ------------   ------------------------------
 STRT.F           20.0000:   START DEPTH
 STOP.F          930.0000:   STOP DEPTH
 STEP.F            0.5000:   STEP LENGTH
 NULL.          -999.2500:   NO VALUE
 COMP. FENIX & SCISSON INC:   COMPANY
 WELL.     NPR 3 #45-S-14:   WELL
 FLD .        TEAPOT DOME:   FIELD
 LOC .      S14 T38N R78W:   LOCATION
 CNTY.            NATRONA:   COUNTY
 STAT.            WYOMING:   STATE
 CTRY. UNITED STATES OF AMERICA:   COUNTRY
 SRVC.           BIRDWELL:   SERVICE COMPANY
 DATE.        02-JAN-1979:   LOGDATE
 API .       490251076200:   API NUMBER
~CURVE INFORMATION
#MNEM.UNIT       API CODE    CURVE DESCRIPTION
#----------   ------------   ------------------------------
 DEPT.F                  :   
 GRD .GAPI   45 310 01 00:   GAMMA RAY FROM DENSITY LOG
 CALD.IN     45 280 60 00:   CALIPER
 RHOB.G/C3   45 350 01 00:   BULK DENSITY
 DPHI.DEC    45 890 12 00:   DENSITY POROSITY SANDSTONE
 CORR.G/C3   45 356 01 00:   DENSITY CORRECTION
~PARAMETER INFORMATION
#MNEM.UNIT          VALUE    DESCRIPTION
#----------   ------------   ------------------------------
 PD  .                 GL:   PERMANENT DATUM
 EPD .F              5261:   ELEVATION PERMANENT DATUM
 LMF .                 KB:   LOG MEASURED FROM
 DAPD.F                 4:   FEET ABOVE PERMANENT DATUM
 DMF .                 KB:   DRILLING MEASURED FROM
 EKB .F              5265:   KELLING BUSHING
 EGL .F              5261:   GROUND LEVEL
 DATE.             1-7-79:   RUN DATE
 RUN .                  1:   RUN NUMBER
 DD  .F               969:   DEPTH DRILLER
 DL  .F               928:   DEPTH LOGGER
 BLI .F               928:   BOTTOM LOG INTERVAL
 TLI .F                20:   TOP LOG INTERVAL
 CS  .IN            8.625:   CASING SIZE
 CBD .F                40:   CASING BOTTOM DRILLER
 CBL .F                46:   CASING BOTTOM LOGGER
 BS  .IN            7.875:   BIT SIZE
 BSD .F               969:   BIT SIZE AT DEPTH
 DFT .                KCL:   DRILLING FLUID TYPE
 DFD .                8.8:   DRILLING FLUID DENSITY
 DFV .                 42:   DRILLING FLUID VISCOSITY
 DFPH.                9.2:   DRILLING FLUID PH
 DFL .                 10:   DRILLING FLUID LOSS
 MSS .           FLOWLINE:   MUD SAMPLE SOURCE
 RMS .OHMM            .95:   RESISTIVITY MUD SAMPLE
 MST .F                60:   MUD SAMPLE TEMPERATURE
 RMF .OHMM            1.7:   RESISTIVITY MUD FILTRATE SAMPLE
 MFST.F                60:   MUD FILTRATE SAMPLE TEMPERATURE
 RMC .OHMM            1.6:   RESISTIVITY MUD CAKE
 MCST.F                60:   MUD CAKE SAMPLE TEMPERATURE
 MFSS.           MEASURED:   MUD FILTRATE SAMPLE SOURCE
 MCSS.           MEASURED:   MUD CAKE SAMPLE SOURCE
 RMB .OHMM            .98:   RESISTIVITY MUD AT BHT
 BHT .F                58:   BOTTOM HOLE TEMPERATURE
 TCS .HRS               4:   TIME CURCULATED STOPPED
 MRT .F                58:   MAXIMUM RECORDED TEMPERATURE
 LUN .               3006:   LOGGING UNIT NUMBER
 LUL .             CASPER:   LOGGING UNIT LOCATION
 ENGI.            ROLLINS:   RECORDING ENGINEER
 WITN.           DINSMORE:   WITNESSED BY
 CLNT.            A2DTECH:   CLIENT CODE
 ORIG.           5" PRINT:   ORIGIN OF DATA
 UWI .       490251076200:   UNIQUE WELL ID
 DICO. A2D Technologies, Inc.:   DIGITIZING COMPANY
~OTHER INFORMATION
~A   DEPT      GRD         CALD     RHOB       DPHI       CORR   
# ...
  691.0000   117.2640     7.8160     2.4100     0.1550     0.0050
  691.5000   119.1770     7.8270     2.4090     0.1640     0.0030
  692.0000   121.2230     7.8390     2.4060     0.1700     0.0010
  692.5000   114.9930     7.8500     2.3990     0.1710    -0.0070
  693.0000   108.8010     7.8490     2.4020     0.1570    -0.0070
  693.5000   112.6610     7.8480     2.4180     0.1540    -0.0070
  694.0000   115.8460     7.8470     2.4270     0.1520    -0.0080
  694.5000   114.6810     7.8450     2.4320     0.1450    -0.0080
  695.0000   118.2110     7.8440     2.4370     0.1460    -0.0080
  695.5000   120.8960     7.8430     2.4390     0.1480    -0.0080
  696.0000   119.5410     7.8420     2.4410     0.1430    -0.0080
  696.5000   117.5440     7.8400     2.4450     0.1420    -0.0090
  697.0000   119.6350     7.8390     2.4470     0.1430    -0.0090
  697.5000   119.8510     7.8380     2.4470     0.1430    -0.0090
  698.0000   115.1340     7.8370     2.4470     0.1410    -0.0100
  698.5000   114.0620     7.8350     2.4470     0.1370    -0.0100
  699.0000   119.7150     7.8340     2.4470     0.1390    -0.0110
  699.5000   122.9020     7.8330     2.4480     0.1400    -0.0110
  700.0000   122.2510     7.8320     2.4480     0.1390    -0.0110
  700.5000   121.2230     7.8300     2.4480     0.1390    -0.0120
  701.0000   121.4310     7.8140     2.4480     0.1400    -0.0120
  701.5000   120.7870     7.7960     2.4480     0.1420    -0.0130
  702.0000   118.3980     7.7790     2.4480     0.1380    -0.0090
  702.5000   112.9370     7.7610     2.4500     0.1330    -0.0050
  703.0000   112.6260     7.7430     2.4530     0.1310    -0.0010
  703.5000   114.7940     7.7240     2.4560     0.1310     0.0030
  704.0000   121.5820     7.7170     2.4560     0.1360    -0.0030
  704.5000   122.5180     7.8010     2.4500     0.1400    -0.0100
  705.0000   119.7720     7.7900     2.4400     0.1440    -0.0160
  705.5000   115.4150     7.7770     2.4370     0.1490    -0.0160
  706.0000   116.6580     7.7640     2.4340     0.1510    -0.0150
  706.5000   118.1560     7.7510     2.4340     0.1460    -0.0130
  707.0000   117.1010     7.7380     2.4390     0.1380    -0.0110
  707.5000   115.3530     7.7270     2.4450     0.1350    -0.0080
  708.0000   115.5130     7.7200     2.4460     0.1350    -0.0050
  708.5000   115.9600     7.7130     2.4460     0.1350    -0.0040
  709.0000   113.3280     7.7260     2.4470     0.1350    -0.0020
  709.5000   110.6020     7.7700     2.4470     0.1370     0.0000
  710.0000   111.3330     7.8300     2.4460     0.1420     0.0020
  710.5000   120.5710     7.8300     2.4400     0.1540     0.0030
  711.0000   132.9120     7.8300     2.4180     0.1710     0.0050
  711.5000   139.1510     7.8300     2.4020     0.1690     0.0030
  712.0000   136.5610     7.8300     2.4090     0.1560    -0.0090
  712.5000   128.6240     7.8300     2.4180     0.1410    -0.0190
  713.0000   129.5670     7.8300     2.4310     0.1470    -0.0180
  713.5000   129.5060     7.8300     2.4320     0.1540    -0.0170
  714.0000   118.8250     7.8300     2.4200     0.1610    -0.0120
  714.5000   119.2400     7.8320     2.4060     0.1680    -0.0070
  715.0000   119.5520     7.7800     2.3850     0.1990    -0.0010
  715.5000   119.4410     7.7530     2.3590     0.1930     0.0020
  716.0000   118.8430     7.7560     2.3560     0.1740    -0.0090
  716.5000   116.2750     7.7600     2.3700     0.1480    -0.0080
  717.0000   113.7400     7.7640     2.4180     0.1450    -0.0060
  717.5000   111.0130     7.7670     2.4530     0.1450    -0.0100
  718.0000   109.5760     7.7710     2.4510     0.1450    -0.0150
  718.5000   116.9070     7.7750     2.4440     0.1450    -0.0170
  719.0000   119.6660     7.7790     2.4370     0.1450    -0.0170
  719.5000   121.3370     7.7830     2.4370     0.1450    -0.0170
  720.0000   122.1120     7.7870     2.4360     0.1400    -0.0170
  720.5000   118.6550     7.7890     2.4360     0.1440    -0.0160
  721.0000   116.9480     7.7660     2.4330     0.1510    -0.0160
  721.5000   116.8210     7.7440     2.4210     0.1610    -0.0150
  722.0000   118.2780     7.7300     2.4080     0.1700    -0.0050
  722.5000   122.9500     7.7300     2.3960     0.1770     0.0020
  723.0000   127.4190     7.7300     2.3920     0.1680    -0.0020
  723.5000   127.2290     7.7300     2.3930     0.1560    -0.0080
  724.0000   123.3120     7.7380     2.4070     0.1430    -0.0110
  724.5000   119.8660     7.7490     2.4310     0.1420    -0.0100
  725.0000   116.3040     7.7600     2.4450     0.1440    -0.0100
  725.5000   115.0390     7.7700     2.4450     0.1430    -0.0090
  726.0000   114.1500     7.7810     2.4450     0.1430    -0.0070
  726.5000   113.6630     7.7920     2.4510     0.1280    -0.0030
  727.0000   114.0710     7.8020     2.4650     0.1250    -0.0010
  727.5000   114.4530     7.8130     2.4690     0.1240    -0.0010
  728.0000   115.0590     7.8240     2.4710     0.1270    -0.0010
  728.5000   116.5210     7.8340     2.4700     0.1290     0.0000
  729.0000   117.2630     7.8450     2.4700     0.1280     0.0000
  729.5000   117.2150     7.8490     2.4700     0.1250     0.0000
  730.0000   112.6390     7.8450     2.4710     0.1240     0.0000
  730.5000   109.9830     7.8420     2.4730     0.1240     0.0000
  731.0000   112.5410     7.8380     2.4730     0.1270     0.0000
  731.5000   114.1150     7.8350     2.4740     0.1250     0.0000
  732.0000   112.0420     7.8310     2.4750     0.1210     0.0010
  732.5000   109.5120     7.8330     2.4750     0.1200     0.0010
  733.0000   108.7660     7.8370     2.4760     0.1180     0.0010
  733.5000   108.8260     7.8400     2.4770     0.1140     0.0020
  734.0000   108.9580     7.8440     2.4770     0.1190     0.0020
  734.5000   109.0910     7.8470     2.4740     0.1260    -0.0010
  735.0000   109.0700     7.8490     2.4700     0.1330    -0.0030
  735.5000   109.0170     7.8120     2.4630     0.1400    -0.0030
  736.0000   108.9460     7.8100     2.4520     0.1420     0.0000
  736.5000   111.2040     7.8100     2.4540     0.1320     0.0040
  737.0000   115.0260     7.8100     2.4600     0.1240     0.0080
  737.5000   115.0610     7.8100     2.4700     0.1160     0.0120
  738.0000   112.5230     7.8160     2.4790     0.1170     0.0090
  738.5000   112.3610     7.8350     2.4810     0.1220     0.0040
  739.0000   111.9480     7.8540     2.4730     0.1270    -0.0020
  739.5000   108.0100     7.8700     2.4660     0.1330    -0.0070
  740.0000   104.1610     7.8610     2.4570     0.1400    -0.0050
  740.5000   104.5020     7.8520     2.4400     0.1470    -0.0020
  741.0000   110.2580     7.8430     2.4310     0.1580     0.0060
  741.5000   114.8330     7.8350     2.4200     0.1810     0.0150
  742.0000   122.3150     7.8260     2.3760     0.2110     0.0230
  742.5000   128.4290     7.8170     2.3350     0.1960     0.0150
  743.0000   126.2480     7.8120     2.3350     0.1760     0.0060
  743.5000   114.9560     7.8240     2.3870     0.1560     0.0110
  744.0000   102.5440     7.8360     2.4320     0.1360     0.0190
  744.5000    96.2080     7.8480     2.4720     0.1220     0.0250
  745.0000    95.4160     7.8600     2.4760     0.1180     0.0240
  745.5000    96.7190     7.8690     2.4760     0.1160     0.0230
  746.0000   102.6520     7.8240     2.4760     0.1210     0.0130
  746.5000   101.1770     7.7790     2.4740     0.1310     0.0030
  747.0000    99.8870     7.7760     2.4670     0.1340     0.0010
  747.5000   101.1440     7.7830     2.4630     0.1330     0.0010
  748.0000    99.4150     7.7900     2.4640     0.1270     0.0090
  748.5000    96.7440     7.7970     2.4710     0.1170     0.0160
  749.0000    96.6120     7.8040     2.4750     0.1240     0.0190
  749.5000    97.8310     7.8110     2.4730     0.1350     0.0180
  750.0000   102.7710     7.8190     2.4640     0.1340     0.0180
  750.5000   109.9310     7.8260     2.4620     0.1240     0.0170
  751.0000   106.3880     7.8330     2.4670     0.1210     0.0110
  751.5000   104.6870     7.8400     2.4700     0.1260     0.0050
