~VERSION INFORMATION
 VERS.                2.0:   CWLS LOG ASCII STANDARD - VERSION 2.0
 WRAP.                 NO:   ONE LINE PER DEPTH STEP
~WELL INFORMATION
#MNEM.UNIT      DATA TYPE    INFORMATION
#----------   ------------   ------------------------------
 STRT.F            0.0000:   START DEPTH
 STOP.F         4113.0000:   STOP DEPTH
 STEP.F            0.5000:   STEP LENGTH
 NULL.          -999.2500:   NO VALUE
 COMP. LAWRENCE/ALLISON INC:   COMPANY
 WELL.  NPR # #3 76 -MX-3:   WELL
 FLD .             TEAPOT:   FIELD
 LOC .       S3 T38N R78W:   LOCATION
 CNTY.            NATRONA:   COUNTY
 STAT.            WYOMING:   STATE
 CTRY. UNITED STATES OF AMERICA:   COUNTRY
 SRVC.      Dresser Atlas:   SERVICE COMPANY
 DATE.        04-SEP-1983:   LOGDATE
 API .       490251094300:   API NUMBER
~CURVE INFORMATION
#MNEM.UNIT       API CODE    CURVE DESCRIPTION
#----------   ------------   ------------------------------
 DEPT.F                  :   
 GRR .GAPI   07 310 01 00:   GAMMA RAY
 SPR .MV     07 010 01 00:   SPONTANEOUS POTENTIAL
 RILD.OHMM   07 120 46 00:   INDUCTION LOG DEEP RESISTIVITY
 RILM.OHMM   07 120 44 00:   INDUCTION LOG MEDIUM RESISTIVITY
 RFOC.OHMM   07 220 04 00:   RESISTIVITY FOCUSED LOG
 CNCF.DEC    42 890 03 00:   NEUTRON POROSITY SANDSTONE
 PORD.DEC    45 890 12 00:   POROSITY DENSITY SANDSTONE
 CALD.IN     45 280 60 00:   CALIPER FROM DENSITY LOG
 CORR.G/C3   45 356 01 00:   DENSITY CORRECTION
 DEN .G/C3   45 350 01 00:   COMPENSATED BULK DENSTIY
 AC  .US/F   60 520 00 00:   ACCOUSTIC
~PARAMETER INFORMATION
#MNEM.UNIT          VALUE    DESCRIPTION
#----------   ------------   ------------------------------
 PD  .                 GL:   PERMANENT DATUM
 EPD .F              5147:   ELEVATION PERMANENT DATUM
 LMF .                 KB:   LOG MEASURED FROM
 DAPD.F                10:   FEET ABOVE PERMANENT DATUM
 DMF .                 KB:   DRILLING MEASURED FROM
 EKB .F              5157:   KELLING BUSHING
 EGL .F              5147:   GROUND LEVEL
 DATE.        04-SEP-1983:   RUN DATE
 RUN .                  1:   RUN NUMBER
 DD  .F              4119:   DEPTH DRILLER
 DL  .F              4115:   DEPTH LOGGER
 BLI .F              4112:   BOTTOM LOG INTERVAL
 CS  .IN            9.625:   CASING SIZE
 CBD .F               491:   CASING BOTTOM DRILLER
 CBL .F               494:   CASING BOTTOM LOGGER
 BS  .IN             8.75:   BIT SIZE
 BSD .F              4119:   BIT SIZE AT DEPTH
 DFT .            KCL GEL:   DRILLING FLUID TYPE
 DFD .                8.9:   DRILLING FLUID DENSITY
 DFV .                 46:   DRILLING FLUID VISCOSITY
 DFPH.                9.0:   DRILLING FLUID PH
 DFL .               13.6:   DRILLING FLUID LOSS
 MSS .           MUD TANK:   MUD SAMPLE SOURCE
 RMS .OHMM           .315:   RESISTIVITY MUD SAMPLE
 MST .F                92:   MUD SAMPLE TEMPERATURE
 RMF .OHMM            .25:   RESISTIVITY MUD FILTRATE SAMPLE
 MFST.F                84:   MUD FILTRATE SAMPLE TEMPERATURE
 RMC .OHMM             .4:   RESISTIVITY MUD CAKE
 MCST.F                92:   MUD CAKE SAMPLE TEMPERATURE
 MFSS.               MEAS:   MUD FILTRATE SAMPLE SOURCE
 MCSS.               CALC:   MUD CAKE SAMPLE SOURCE
 RMB .OHMM            .22:   RESISTIVITY MUD AT BHT
 BHT .F               132:   BOTTOM HOLE TEMPERATURE
 TCS .HRS               4:   TIME CURCULATED STOPPED
 MRT .F               132:   MAXIMUM RECORDED TEMPERATURE
 LUN .               6274:   LOGGING UNIT NUMBER
 LUL .              GLTE.:   LOGGING UNIT LOCATION
 ENGI.             RAUTIO:   RECORDING ENGINEER
 WITN.             STRONG:   WITNESSED BY
 CLNT.            A2DTECH:   CLIENT CODE
 ORIG.        2" 5" PRINT:   ORIGIN OF DATA
 UWI .       490251094300:   UNIQUE WELL ID
 DICO. A2D Technologies, Inc.:   DIGITIZING COMPANY
~OTHER INFORMATION
~A    DEPT     GRR        SPR       RILD       RILM       RFOC       CNCF       PORD       CALD       CORR        DEN         AC   
# ...
 2165.5000   126.3350   -43.6412     6.6413     6.6143     8.1014     0.3031     0.1072     9.5235     0.0340     2.4720    95.6416
 2166.0000   124.7263   -43.4975     6.7808     6.8025     8.3915     0.2960     0.1078     9.5236     0.0340     2.4720    95.3464
 2166.5000   123.4305   -43.3580     6.8749     6.8953     8.7568     0.2837     0.1078     9.5238     0.0416     2.4712    95.0512
 2167.0000   124.0127   -43.2228     7.0178     6.9403     8.9436     0.2828     0.1081     9.5239     0.0447     2.4690    94.5297
 2167.5000   125.5339   -43.0833     6.7145     6.5930     8.7824     0.2876     0.1102     9.5090     0.0132     2.4653    93.9317
 2168.0000   126.1270   -42.9395     6.3323     6.2631     8.3436     0.3054     0.1169     9.5092    -0.0123     2.4563    93.7885
 2168.5000   123.8814   -42.6433     5.9288     5.9497     7.9943     0.3135     0.1220     9.5093    -0.0062     2.4488    94.3244
 2169.0000   121.3337   -42.3514     5.6726     5.7343     7.7608     0.3168     0.1229     9.5095    -0.0032     2.4489    94.7834
 2169.5000   116.9081   -42.2076     5.4275     5.5668     7.1988     0.3235     0.1211     9.5096    -0.0046     2.4526    95.0915
 2170.0000   115.3103   -42.0375     5.2305     5.4042     6.3166     0.3370     0.1187     9.5098    -0.0045     2.4579    95.3293
 2170.5000   119.0114   -41.7421     5.1895     5.3227     5.6545     0.3380     0.1164     9.5099     0.0001     2.4617    95.8601
 2171.0000   114.8988   -41.4757     5.4134     5.3575     5.2362     0.3193     0.1137     9.5101     0.0092     2.4688    96.0174
 2171.5000   112.6641   -41.3074     5.5671     5.5909     5.3270     0.3004     0.1084     9.5253     0.0245     2.4783    95.7976
 2172.0000   111.3793   -41.1682     5.6853     5.7093     6.8126     0.2791     0.1014     9.5254     0.0440     2.4851    95.3516
 2172.5000   118.8363   -40.9005     5.7629     5.7476     7.6783     0.2803     0.0987     9.5256     0.0516     2.4874    94.5022
 2173.0000   125.0523   -40.7610     5.7996     5.7851     7.8900     0.2885     0.0975     9.5107     0.0532     2.4890    93.6316
 2173.5000   130.3293   -40.7782     5.6692     5.7382     7.7704     0.2967     0.0966     9.5108     0.0502     2.4860    93.5610
 2174.0000   130.9225   -40.6387     5.5430     5.6928     7.5945     0.2997     0.0985     9.5110     0.0365     2.4808    93.9461
 2174.5000   129.9288   -40.6567     5.3419     5.5265     7.1638     0.2913     0.1021     9.4961     0.0037     2.4793    94.5559
 2175.0000   128.0070   -40.6740     5.0742     5.2121     6.9044     0.2883     0.1039     9.4963    -0.0083     2.4808    94.3377
 2175.5000   126.3983   -40.6912     4.8200     4.9157     6.6059     0.2868     0.1003     9.4964     0.0008     2.4870    94.4950
 2176.0000   127.2935   -40.7085     4.5456     4.6697     5.8791     0.2831     0.0946     9.4965     0.0310     2.4944    95.1802
 2176.5000   126.9367   -40.7257     4.3492     4.4682     5.1945     0.2808     0.0952     9.4967     0.0290     2.4952    96.3178
 2177.0000   124.7020   -40.7429     4.2831     4.4328     4.6904     0.2887     0.0968     9.4969     0.0116     2.4945    97.2298
 2177.5000   122.1543   -40.7602     4.2486     4.3977     4.9659     0.2902     0.0926     9.4970     0.0057     2.4990    97.6144
 2178.0000   120.2326   -40.7774     4.2757     4.3314     5.5709     0.2806     0.0830     9.4971     0.0057     2.5198    97.2438
 2178.5000   119.5629   -40.7947     4.3351     4.2979     5.9841     0.2740     0.0737     9.4973     0.0118     2.5299    96.4206
 2179.0000   120.1560   -40.8119     4.4261     4.4520     5.8510     0.2786     0.0680     9.4975     0.0345     2.5345    95.2205
 2179.5000   119.4753   -40.8292     4.4859     4.4819     5.7208     0.2909     0.0680     9.4976     0.0662     2.5353    94.4645
 2180.0000   119.1295   -40.8464     4.3860     4.3817     5.7995     0.3165     0.0711     9.5128     0.0768     2.5293    94.3284
 2180.5000   120.3267   -40.8636     4.2883     4.3157     5.8793     0.3192     0.0828     9.5129     0.0392     2.5045    94.7135
 2181.0000   124.0388   -40.8809     4.1627     4.1897     5.9175     0.3216     0.0942     9.5131     0.0302     2.4857    94.9462
 2181.5000   132.1327   -40.8981     4.0995     4.1265     5.4999     0.3267     0.1035     9.5133     0.0243     2.4812    95.0281
 2182.0000   134.9058   -40.9343     4.0372     4.0643     5.1865     0.3178     0.1015     9.5134     0.0304     2.4827    95.3525
 2182.5000   135.1860   -41.0893     4.0047     4.0614     5.0710     0.3130     0.0964     9.5135     0.0395     2.4859    95.8721
 2183.0000   133.2533   -41.2633     4.0302     4.0879     4.9942     0.3057     0.0951     9.4986     0.0441     2.4926    96.2557
 2183.5000   131.9576   -41.4373     4.1446     4.1745     4.9185     0.3010     0.0907     9.4988     0.0382     2.5024    96.7146
 2184.0000   130.6618   -41.6113     4.2624     4.2938     4.8792     0.2995     0.0841     9.4990     0.0428     2.5115    97.0981
 2184.5000   128.1142   -41.6285     4.3215     4.3226     4.9823     0.2848     0.0820     9.4991     0.0549     2.5137    96.8668
 2185.0000   124.9405   -41.6614     4.3168     4.2876     5.5893     0.2785     0.0838     9.4993     0.0730     2.5085    95.9060
 2185.5000   120.8278   -41.8197     4.2821     4.2845     6.3157     0.2799     0.0881     9.4994     0.0852     2.5033    94.6304
 2186.0000   124.2269   -41.8370     4.2783     4.3132     6.5445     0.2981     0.0917     9.5146     0.0802     2.4988    94.1827
 2186.5000   126.3850   -41.8542     4.3056     4.4038     6.0816     0.3126     0.0941     9.5148     0.0582     2.4951    95.0958
 2187.0000   124.4524   -42.0282     4.3970     4.5038     5.1452     0.3204     0.0956     9.5149     0.0387     2.4920    96.6876
 2187.5000   121.5917   -42.0455     4.5536     4.6655     4.7823     0.3126     0.0968     9.5150     0.0222     2.4868    97.1465
 2188.0000   120.3069   -42.0752     4.6829     4.8330     4.6421     0.3017     0.0978     9.5152     0.0283     2.4831    96.6250
 2188.5000   123.3820   -42.2367     4.7813     5.0066     4.6384     0.2955     0.1011     9.5154     0.0405     2.4809    95.5003
 2189.0000   125.8422   -42.2539     4.8828     5.1120     5.2413     0.2884     0.1026     9.5305     0.0435     2.4802    94.6665
 2189.5000   127.0613   -42.2712     5.0204     5.2163     6.3211     0.2884     0.1020     9.5307     0.0451     2.4810    94.0065
 2190.0000   123.2507   -42.2884     5.1258     5.2909     6.5500     0.2896     0.1008     9.5158     0.0437     2.4817    93.6358
 2190.5000   120.7030   -42.3056     5.2335     5.3229     6.4043     0.2890     0.1018     9.5160     0.0407     2.4765    93.3406
 2191.0000   120.0333   -42.1659     5.2289     5.2807     6.5857     0.2830     0.1048     9.5161     0.0378     2.4720    93.3471
 2191.5000   119.0505   -42.1834     5.1868     5.2012     6.4860     0.2837     0.1066     9.5163     0.0304     2.4698    93.9862
 2192.0000   116.1898   -42.0437     5.1451     5.1228     6.2055     0.2861     0.1081     9.5164     0.0259     2.4690    94.7945
 2192.5000   113.0161   -42.0611     5.0669     5.0092     6.2909     0.2873     0.1081     9.5165     0.0215     2.4683    94.4993
 2193.0000   110.1555   -41.9214     4.9541     4.9695     6.4238     0.2852     0.1082     9.5167     0.0200     2.4684    93.7516
 2193.5000   111.6766   -41.9389     4.8788     4.9659     6.2356     0.2853     0.1082     9.5169     0.0322     2.4699    93.3054
 2194.0000   116.3277   -41.7992     4.8746     4.9984     5.3912     0.2913     0.1061     9.5170     0.0593     2.4745    93.7223
 2194.5000   119.1008   -41.6597     4.9412     5.0675     5.0839     0.2934     0.1031     9.5171     0.0549     2.4790    95.1300
 2195.0000   119.0570   -41.6770     5.0087     5.1006     5.1168     0.2775     0.1043     9.5173     0.0324     2.4745    95.3627
 2195.5000   119.9522   -41.5375     4.9683     5.0968     5.4174     0.2646     0.1091     9.5325     0.0105     2.4640    94.9167
