~VERSION INFORMATION
 VERS.                2.0:   CWLS LOG ASCII STANDARD - VERSION 2.0
 WRAP.                 NO:   ONE LINE PER DEPTH STEP
~WELL INFORMATION
#MNEM.UNIT      DATA TYPE    INFORMATION
#----------   ------------   ------------------------------
 STRT.F            0.0000:   START DEPTH
 STOP.F          635.0000:   STOP DEPTH
 STEP.F            0.1000:   STEP LENGTH
 NULL.          -999.2500:   NO VALUE
 COMP.   FLUOR DANIEL INC:   COMPANY
 WELL. NAVAL PETROLEUM RESERVE 3 SX-3 #72-7-3:   WELL
 FLD .             TEAPOT:   FIELD
 LOC .       S3 T38N R78W:   LOCATION
 CNTY.            NATRONA:   COUNTY
 STAT.            WYOMING:   STATE
 CTRY. UNITED STATES OF AMERICA:   COUNTRY
 SRVC.      Western Atlas:   SERVICE COMPANY
 DATE.        11-JAN-1995:   LOGDATE
 API .       490252264900:   API NUMBER
~CURVE INFORMATION
#MNEM.UNIT       API CODE    CURVE DESCRIPTION
#----------   ------------   ------------------------------
 DEPT.F                  :   
 GRR .GAPI   07 310 01 00:   GAMMA RAY
 RILD.OHMM   07 120 46 00:   INDUCTION LOG DEEP RESISTIVITY
 RILM.OHMM   07 120 44 00:   RESITIVITY LONG MEDIUM
~PARAMETER INFORMATION
#MNEM.UNIT          VALUE    DESCRIPTION
#----------   ------------   ------------------------------
 PD  .                 GL:   PERMANENT DATUM
 EPD .F              5144:   ELEVATION PERMANENT DATUM
 LMF .                 KB:   LOG MEASURED FROM
 DAPD.F                10:   FEET ABOVE PERMANENT DATUM
 DMF .                 KB:   DRILLING MEASURED FROM
 EKB .F              5154:   KELLING BUSHING
 EDF .F              5153:   DRILLING FLOOR
 EGL .F              5144:   GROUND LEVEL
 DATE.        11-JAN-1995:   RUN DATE
 RUN .                  1:   RUN NUMBER
 DD  .F               641:   DEPTH DRILLER
 DL  .F               642:   DEPTH LOGGER
 BLI .F               635:   BOTTOM LOG INTERVAL
 CS  .IN            9.625:   CASING SIZE
 CBD .F                97:   CASING BOTTOM DRILLER
 CBL .F                97:   CASING BOTTOM LOGGER
 BS  .IN             8.75:   BIT SIZE
 BSD .F               641:   BIT SIZE AT DEPTH
 DFT .                AIR:   DRILLING FLUID TYPE
 MRT .F                89:   MAXIMUM RECORDED TEMPERATURE
 LUN .            HL 6530:   LOGGING UNIT NUMBER
 LUL .             CASPER:   LOGGING UNIT LOCATION
 ENGI.      PAT RASMUSSEN:   RECORDING ENGINEER
 WITN.        STEVE HARDY:   WITNESSED BY
 CLNT.            A2DTECH:   CLIENT CODE
 ORIG.           5" PRINT:   ORIGIN OF DATA
 UWI .       490252264900:   UNIQUE WELL ID
 DICO. A2D Technologies, Inc.:   DIGITIZING COMPANY
~OTHER INFORMATION
~A    DEPT      GRR      RILD       RILM   
# ...
  236.6000   106.1200    12.5681    12.9860
  236.7000   105.9619    12.6281    12.9862
  236.8000   105.9625    12.6561    12.9864
  236.9000   105.9748    12.6565    12.9866
  237.0000   106.2659    12.6568    12.9867
  237.1000   106.4925    12.6572    12.9869
  237.2000   106.7513    12.6575    12.9871
  237.3000   107.0101    12.6579    12.9873
  237.4000   107.3631    12.6582    12.9875
  237.5000   107.9809    12.6586    12.9876
  237.6000   109.0272    12.6589    12.9878
  237.7000   110.8019    12.6593    12.9880
  237.8000   111.6854    12.6596    12.9882
  237.9000   112.8957    12.6600    12.9884
  238.0000   113.9215    12.6603    12.9885
  238.1000   114.8747    12.6607    12.9887
  238.2000   115.9408    12.6610    12.9314
  238.3000   115.9402    12.6614    12.8993
  238.4000   115.6400    12.6470    12.8686
  238.5000   115.6405    12.5746    12.8105
  238.6000   115.4695    12.5750    12.8060
  238.7000   115.2119    12.5753    12.7223
  238.8000   115.0381    12.5757    12.6557
  238.9000   114.9988    12.5760    12.6347
  239.0000   114.7372    12.5520    12.5942
  239.1000   114.7379    12.4898    12.5478
  239.2000   114.5281    12.4902    12.5479
  239.3000   114.4369    12.4044    12.5458
  239.4000   114.4375    12.4046    12.4616
  239.5000   114.4381    12.3587    12.3986
  239.6000   114.4733    12.2863    12.3758
  239.7000   114.7414    12.2143    12.3759
  239.8000   114.9909    12.1427    12.3510
  239.9000   115.2498    12.0672    12.2907
  240.0000   115.5086    12.0675    12.2909
  240.1000   115.8846    12.0135    12.2062
  240.2000   116.2550    11.9431    12.2063
  240.3000   116.3144    11.9024    12.2065
  240.4000   116.8605    11.8856    12.1718
  240.5000   117.1047    11.8208    12.1224
  240.6000   117.3636    11.8212    12.1226
  240.7000   117.7783    11.7591    12.1228
  240.8000   118.0713    11.7402    12.0537
  240.9000   118.1400    11.7405    12.0393
  241.0000   118.3746    11.7149    12.0395
  241.1000   118.3753    11.6462    12.0075
  241.2000   118.3758    11.5798    11.9566
  241.3000   118.1819    11.5802    11.9568
  241.4000   117.7736    11.5805    11.9570
  241.5000   117.3645    11.5344    11.8910
  241.6000   117.0441    11.5011    11.8746
  241.7000   116.5093    11.4789    11.8748
  241.8000   115.6605    11.4223    11.8454
  241.9000   114.0285    11.4227    11.7757
  242.0000   112.4109    11.4230    11.7117
  242.1000   111.1530    11.4233    11.7119
  242.2000   110.0193    11.4236    11.7120
  242.3000   108.7290    11.4239    11.7122
  242.4000   107.4522    11.4242    11.7124
  242.5000   106.2992    11.4246    11.7125
  242.6000   105.6157    11.4249    11.6976
  242.7000   105.2099    11.4252    11.6319
  242.8000   104.9523    11.4255    11.6321
  242.9000   104.7909    11.4258    11.6322
  243.0000   104.7915    11.4261    11.6324
  243.1000   104.7922    11.4265    11.5961
  243.2000   104.7928    11.4217    11.5523
  243.3000   105.2389    11.3482    11.5525
  243.4000   105.9347    11.3485    11.5526
  243.5000   106.7100    11.3488    11.5528
  243.6000   107.5762    11.3491    11.5529
  243.7000   108.7039    11.3494    11.5531
  243.8000   110.2473    11.3360    11.5533
  243.9000   111.4436    11.2717    11.5759
  244.0000   112.7493    11.2720    11.6340
  244.1000   113.9519    11.2723    11.6342
  244.2000   115.2447    11.2726    11.6343
  244.3000   116.5372    11.2729    11.5787
  244.4000   117.2705    11.2508    11.5542
  244.5000   117.7915    11.1956    11.5544
  244.6000   118.3965    11.1960    11.5545
  244.7000   118.8216    11.1964    11.5547
  244.8000   119.1702    11.1966    11.5549
  244.9000   119.5534    11.1969    11.5550
  245.0000   119.9094    11.1972    11.5552
  245.1000   119.9100    11.1976    11.5553
  245.2000   119.9106    11.1898    11.5257
  245.3000   119.3071    11.1209    11.4758
  245.4000   119.1005    11.1211    11.4760
  245.5000   118.5166    11.1725    11.4761
  245.6000   117.8618    11.1991    11.4763
  245.7000   117.2707    11.1994    11.4764
  245.8000   116.5281    11.1997    11.4766
  245.9000   115.9873    11.2000    11.4493
  246.0000   115.0051    11.2004    11.3976
  246.1000   114.1746    11.2007    11.3977
  246.2000   113.2426    11.2010    11.3979
  246.3000   112.0965    11.1645    11.3981
  246.4000   110.6660    11.1242    11.3982
  246.5000   108.9115    11.1245    11.3984
  246.6000   107.5324    11.1248    11.3985
  246.7000   106.5709    11.1252    11.3987
  246.8000   106.1285    11.1255    11.3968
  246.9000   106.0236    11.0806    11.3203
  247.0000   105.9154    11.0492    11.3204
  247.1000   105.7875    11.0273    11.3205
  247.2000   106.0673    10.9735    11.2863
  247.3000   106.6303    10.9738    11.2426
  247.4000   107.1013    10.9742    11.2428
  247.5000   108.0009    10.9745    11.2429
  247.6000   108.8870    10.9329    11.1654
  247.7000   110.0763    10.8993    11.1655
  247.8000   111.8249    10.8996    11.1225
  247.9000   113.3745    10.8917    11.0887
  248.0000   115.0937    10.8249    11.0888
  248.1000   116.0143    10.8252    11.0798
  248.2000   116.6755    10.8255    11.0125
  248.3000   117.4770    10.8258    11.0126
  248.4000   118.1172    10.8261    10.9610
  248.5000   118.1178    10.8099    10.9368
  248.6000   118.1080    10.7519    10.9078
  248.7000   117.8170    10.7522    10.8435
  248.8000   117.5927    10.6949    10.7866
  248.9000   117.5160    10.6786    10.7868
  249.0000   117.3797    10.6788    10.7869
  249.1000   117.2151    10.6547    10.7384
  249.2000   117.1666    10.5922    10.6751
  249.3000   116.9142    10.5327    10.6388
  249.4000   116.9149    10.5331    10.6389
  249.5000   116.9154    10.4795    10.6391
  249.6000   116.9160    10.4181    10.6392
  249.7000   116.9166    10.3889    10.5825
  249.8000   116.8645    10.3892    10.5660
  249.9000   116.7102    10.3736    10.5134
  250.0000   116.4149    10.3180    10.4932
  250.1000   116.0127    10.3183    10.4938
  250.2000   116.0133    10.3186    10.4944
  250.3000   116.0140    10.3189    10.4950
  250.4000   116.0145    10.3192    10.4894
  250.5000   116.1994    10.3194    10.4236
  250.6000   116.5990    10.3197    10.4242
  250.7000   117.1164    10.3200    10.4248
  250.8000   117.6338    10.3203    10.4253
  250.9000   118.1418    10.3206    10.4001
  251.0000   118.4351    10.3209    10.3544
  251.1000   118.8840    10.2667    10.3501
  251.2000   119.4014    10.2502    10.2841
  251.3000   119.9188    10.2166    10.2846
  251.4000   120.2502    10.1799    10.2852
  251.5000   120.2508    10.1802    10.2857
  251.6000   120.2514    10.1805    10.2863
  251.7000   120.2521    10.1808    10.2729
  251.8000   120.0322    10.1811    10.2163
  251.9000   119.5978    10.1376    10.2170
  252.0000   119.0816    10.1113    10.2175
  252.1000   118.5654    10.1116    10.1746
  252.2000   118.0036    10.1119    10.1480
  252.3000   117.2326    10.1121    10.1485
  252.4000   116.9330    10.1125    10.1491
  252.5000   116.5005    10.1127    10.1473
  252.6000   115.9843    10.1130    10.0801
  252.7000   115.3390    10.0796    10.0806
  252.8000   114.6497    10.0437    10.0396
  252.9000   114.1752    10.0440    10.0121
  253.0000   113.9154    10.0443    10.0126
  253.1000   113.6140    10.0446    10.0132
  253.2000   113.6145     9.9915    10.0137
  253.3000   113.6151     9.9326    10.0144
  253.4000   113.6157     9.9071    10.0149
  253.5000   113.6163     9.9074    10.0154
  253.6000   113.6169     9.8941     9.9859
  253.7000   113.6175     9.8395     9.9473
  253.8000   113.6182     9.8398     9.9478
  253.9000   113.6187     9.7878     9.9484
  254.0000   113.6193     9.7724     9.8803
  254.1000   113.6199     9.7400     9.8807
  254.2000   113.6983     9.7054     9.8813
  254.3000   113.9233     9.6924     9.8818
  254.4000   113.9239     9.6389     9.8824
  254.5000   113.9245     9.6392     9.8829
  254.6000   114.1301     9.6394     9.8835
  254.7000   114.2278     9.5979     9.8841
