~VERSION INFORMATION
 VERS.                2.0:   CWLS LOG ASCII STANDARD - VERSION 2.0
 WRAP.                 NO:   ONE LINE PER DEPTH STEP
~WELL INFORMATION
#MNEM.UNIT      DATA TYPE    INFORMATION
#----------   ------------   ------------------------------
 STRT.F         1596.0000:   START DEPTH
 STOP.F         3210.0000:   STOP DEPTH
 STEP.F            0.5000:   STEP LENGTH
 NULL.          -999.2500:   NO VALUE
 COMP.   FLUOR DANIEL INC:   COMPANY
 WELL. NAVAL PETROLEUM RESERVE 3 X-23 #73-23:   WELL
 FLD .             TEAPOT:   FIELD
 LOC .      S23 T38N R78W:   LOCATION
 CNTY.            NATRONA:   COUNTY
 STAT.            WYOMING:   STATE
 CTRY. UNITED STATES OF AMERICA:   COUNTRY
 SRVC.            Unknown:   SERVICE COMPANY
 DATE.        29-JAN-1995:   LOGDATE
 API .       490252265000:   API NUMBER
~CURVE INFORMATION
#MNEM.UNIT       API CODE    CURVE DESCRIPTION
#----------   ------------   ------------------------------
 DEPT.F                  :   
 TGAS.TC/CC  91 830 01 00:   TOTAL GAS UNIT
 ROP .FT/HR  91 810 01 00:   RAT OF DRILLING PENETRATION
~PARAMETER INFORMATION
#MNEM.UNIT          VALUE    DESCRIPTION
#----------   ------------   ------------------------------
 EKB .F              5433:   KELLING BUSHING
 EGL .F              5423:   GROUND LEVEL
 DATE.        29-JAN-1995:   RUN DATE
 RUN .                  1:   RUN NUMBER
 BLI .F              3210:   BOTTOM LOG INTERVAL
 TLI .F              1600:   TOP LOG INTERVAL
 WITN.     C.TOWER/R.HUSK:   WITNESSED BY
 CLNT.            A2DTECH:   CLIENT CODE
 ORIG.           5" PRINT:   ORIGIN OF DATA
 UWI .       490252265000:   UNIQUE WELL ID
 DICO. A2D Technologies, Inc.:   DIGITIZING COMPANY
~OTHER INFORMATION
~A  DEPT        TGAS        ROP 
# ...
 2811.0000     0.5074     0.7580
 2811.5000     0.5157     0.7573
 2812.0000     0.5240     0.8019
 2812.5000     0.5233     0.5472
 2813.0000     0.5141     0.5377
 2813.5000     0.6951     0.5377
 2814.0000     0.6834     0.5377
 2814.5000     0.8667     0.5283
 2815.0000     0.8551     0.5283
 2815.5000     1.0384     0.5283
 2816.0000     1.0267     0.5283
 2816.5000     1.0180     0.5283
 2817.0000     1.0081     0.5189
 2817.5000     0.9987     0.5189
 2818.0000     0.9894     0.5189
 2818.5000     0.9799     0.5189
 2819.0000     0.9704     0.5189
 2819.5000     0.7689     0.5189
 2820.0000     0.9514     0.5094
 2820.5000     0.9405     0.5189
 2821.0000     0.9312     0.5094
 2821.5000     0.9228     0.5094
 2822.0000     0.9133     0.5094
 2822.5000     0.9032     0.5094
 2823.0000     0.8943     0.5094
 2823.5000     0.8848     0.5094
 2824.0000     0.8753     0.5094
 2824.5000     1.0562     0.5094
 2825.0000     1.0465     0.5094
 2825.5000     0.9577     0.5094
 2826.0000     0.8055     0.5189
 2826.5000     0.6361     0.5189
 2827.0000     0.4365     0.5283
 2827.5000     0.4271     0.5377
 2828.0000     0.4400     0.5377
 2828.5000     0.4544     0.5377
 2829.0000     0.4688     0.5472
 2829.5000     0.4831     0.5472
 2830.0000     0.4975     0.5472
 2830.5000     0.5119     0.5472
 2831.0000     0.5262     0.5472
 2831.5000     0.5406     0.5472
 2832.0000     0.5550     0.5566
 2832.5000     0.5708     0.5566
 2833.0000     0.7611     0.5660
 2833.5000     0.7611     0.5664
 2834.0000     0.7611     0.7670
 2834.5000     0.9514     0.7573
 2835.0000     0.9514     0.7570
 2835.5000     0.9514     0.7568
 2836.0000     0.9514     0.7660
 2836.5000     0.8570     0.7658
 2837.0000     0.7611     0.7655
 2837.5000     0.9514     0.7653
 2838.0000     0.9514     0.7651
 2838.5000     0.9164     0.7648
 2839.0000     0.7618     0.7741
 2839.5000     0.7631     0.7738
 2840.0000     0.7645     0.7925
 2840.5000     0.9623     0.7922
 2841.0000     0.9716     0.8014
 2841.5000     0.9809     0.8012
 2842.0000     0.9903     0.5651
 2842.5000     0.9996     0.5743
 2843.0000     1.0085     0.5646
 2843.5000     1.0183     0.5738
 2844.0000     1.0276     0.5641
 2844.5000     1.0370     0.5639
 2845.0000     1.0465     0.5637
 2845.5000     1.2463     0.6955
 2846.0000     1.2576     0.7897
 2846.5000     1.2669     0.7705
 2847.0000     1.0860     0.7891
 2847.5000     1.0953     0.7884
 2848.0000     1.1047     0.7852
 2848.5000     1.1140     0.7817
 2849.0000     1.1234     0.7726
 2849.5000     1.1327     0.6977
 2850.0000     1.1420     0.6320
 2850.5000     1.1514     0.6420
 2851.0000     1.1607     0.6330
 2851.5000     1.3605     0.6335
 2852.0000     1.1544     0.6340
 2852.5000     0.8082     0.6344
 2853.0000     0.6272     0.6349
 2853.5000     6.1783     0.6355
 2854.0000    15.5277     0.6359
 2854.5000    10.3787     0.6458
 2855.0000     7.8012     0.6463
 2855.5000     6.2345     0.6562
 2856.0000     5.0231     0.6566
 2856.5000     4.2481     0.6571
 2857.0000     3.4600     0.6670
 2857.5000     2.5193     0.6675
 2858.0000     1.7489     0.6679
 2858.5000     1.3591     0.6684
 2859.0000     1.1595     0.6689
 2859.5000     0.9599     0.6694
 2860.0000     0.9506     0.7831
 2860.5000     0.9419     0.7836
 2861.0000     0.9320     0.7858
 2861.5000     1.1131     0.7894
 2862.0000     1.1036     0.7930
 2862.5000     1.2011     0.7965
 2863.0000     1.2954     0.8004
 2863.5000     1.4563     0.7908
 2864.0000     1.6373     0.9415
 2864.5000     1.6257     0.9413
 2865.0000     1.6164     0.9410
 2865.5000     1.6071     0.9502
 2866.0000     1.7904     0.9594
 2866.5000     1.7787     0.9592
 2867.0000     1.7694     0.9589
 2867.5000     1.5698     0.7794
 2868.0000     1.5603     0.7792
 2868.5000     1.3587     0.7790
 2869.0000     1.1591     0.7788
 2869.5000     1.1498     0.7785
 2870.0000     1.1405     0.7783
 2870.5000     1.1312     0.7781
 2871.0000     1.1226     0.7778
 2871.5000     1.1131     0.7776
 2872.0000     1.1033     0.7773
 2872.5000     1.0941     0.7771
 2873.0000     1.0846     0.7769
 2873.5000     0.8848     0.7766
 2874.0000     0.8735     0.5405
 2874.5000     0.8642     0.5403
 2875.0000     0.8549     0.5401
 2875.5000     0.8456     0.5304
 2876.0000     0.8363     0.5302
 2876.5000     0.8277     0.5330
 2877.0000     0.8182     0.5360
 2877.5000     0.8084     0.5389
 2878.0000     0.7991     0.5418
 2878.5000     0.7896     0.5447
 2879.0000     0.5899     0.5472
 2879.5000     0.7712     0.5472
 2880.0000     0.7596     0.5472
 2880.5000     0.7503     0.5472
 2881.0000     0.7410     0.5472
 2881.5000     0.7326     0.5472
 2882.0000     0.7230     0.5472
 2882.5000     0.7130     0.5472
 2883.0000     0.8940     0.5472
 2883.5000     0.8848     0.5472
 2884.0000     0.8753     0.5472
 2884.5000     0.8658     0.5472
 2885.0000     0.8545     0.5472
 2885.5000     0.6549     0.5472
 2886.0000     0.6456     0.5472
 2886.5000     0.6374     0.5472
 2887.0000     0.6270     0.5472
 2887.5000     0.8103     0.5472
 2888.0000     0.9913     0.5377
 2888.5000     1.0610     0.5377
 2889.0000     1.2466     0.5755
 2889.5000     1.2407     0.5566
 2890.0000     1.2360     0.6321
 2890.5000     1.1956     0.6321
 2891.0000     0.8461     0.6321
 2891.5000     0.8414     0.6233
 2892.0000     0.8367     0.6243
 2892.5000     0.6417     0.6253
 2893.0000     0.6370     0.6263
 2893.5000     0.8226     0.6274
 2894.0000     0.8179     0.6284
 2894.5000     0.8134     0.6294
 2895.0000     0.8085     0.6305
 2895.5000     0.8038     0.6315
 2896.0000     0.7991     0.7736
 2896.5000     0.7944     0.8113
 2897.0000     0.7896     0.8019
 2897.5000     0.7849     0.8019
 2898.0000     0.7801     0.9906
 2898.5000     0.7754     1.0000
 2899.0000     0.7697     1.0000
 2899.5000     0.7650     1.0000
 2900.0000     0.9518     0.6604
 2900.5000     1.1373     0.6604
 2901.0000     1.1315     0.6604
 2901.5000     1.1268     0.6615
 2902.0000     1.1221     0.6636
 2902.5000     1.3088     0.6657
 2903.0000     1.4944     0.6679
 2903.5000     1.4885     0.6700
 2904.0000     1.2936     0.6721
 2904.5000     1.2889     0.6743
 2905.0000     1.2842     0.6764
 2905.5000     1.0892     0.6785
 2906.0000     1.0846     0.6803
 2906.5000     1.0798     0.5379
 2907.0000     1.0751     0.5373
 2907.5000     1.0861     0.5355
 2908.0000     1.2814     0.5328
 2908.5000     1.6666     0.5301
 2909.0000     2.0077     0.5273
 2909.5000     2.1933     0.5242
 2910.0000     2.1874     0.5614
 2910.5000     2.3741     0.5606
 2911.0000     2.4108     0.5599
 2911.5000     2.4757     0.5592
 2912.0000     2.5406     0.5585
 2912.5000     2.6055     0.5482
 2913.0000     2.6703     0.5475
 2913.5000     2.7284     0.5468
 2914.0000     2.7307     0.5462
 2914.5000     2.7331     0.5455
 2915.0000     2.7354     0.5448
 2915.5000     2.5475     0.5441
 2916.0000     2.5498     0.5433
 2916.5000     2.3618     0.5426
 2917.0000     2.1739     0.5515
 2917.5000     2.1763     0.5506
 2918.0000     2.3689     0.5500
 2918.5000     2.3713     0.5587
 2919.0000     2.3741     0.5580
 2919.5000     2.3765     0.5572
 2920.0000     2.3788     0.5565
 2920.5000     2.3812     0.5654
 2921.0000     2.3835     0.5742
 2921.5000     2.3858     0.5544
 2922.0000     2.3882     0.5443
 2922.5000     2.1997     0.5436
 2923.0000     2.2026     0.5428
 2923.5000     2.2049     0.5421
 2924.0000     2.0169     0.5414
 2924.5000     1.8290     0.5407
 2925.0000     1.6411     0.5497
 2925.5000     1.6435     0.5488
 2926.0000     1.8362     0.6613
 2926.5000     1.8390     0.6510
 2927.0000     1.8413     0.6504
 2927.5000     1.8437     0.6497
 2928.0000     1.8460     0.6490
 2928.5000     1.6575     0.6483
 2929.0000     1.6604     0.6476
 2929.5000     1.8530     0.6564
 2930.0000     3.3776     0.6557
 2930.5000     5.4729     0.6548
 2931.0000     7.7586     0.6636
 2931.5000    17.8455     0.7761
 2932.0000    21.4630     0.7660
