~VERSION INFORMATION
 VERS.                2.0:   CWLS LOG ASCII STANDARD - VERSION 2.0
 WRAP.                 NO:   ONE LINE PER DEPTH STEP
~WELL INFORMATION
#MNEM.UNIT      DATA TYPE    INFORMATION
#----------   ------------   ------------------------------
 STRT.F           20.0000:   START DEPTH
 STOP.F          508.0000:   STOP DEPTH
 STEP.F            0.5000:   STEP LENGTH
 NULL.          -999.2500:   NO VALUE
 COMP. FENIX & SCISSON INC:   COMPANY
 WELL.      NPR #3 #45-10:   WELL
 FLD .             TEAPOT:   FIELD
 LOC .      S10 T38N R78W:   LOCATION
 CNTY.            NATRONA:   COUNTY
 STAT.            WYOMING:   STATE
 CTRY. UNITED STATES OF AMERICA:   COUNTRY
 SRVC.              Welex:   SERVICE COMPANY
 DATE.        09-MAY-1980:   LOGDATE
 API .       490251081000:   API NUMBER
~CURVE INFORMATION
#MNEM.UNIT       API CODE    CURVE DESCRIPTION
#----------   ------------   ------------------------------
 DEPT.F                  :   
 SPR .MV     07 010 01 00:   SPONTANEOUS POTENTIAL
 SGRD.OHMM   07 220 05 00:   SHALLOW GUARD RESISTIVITY
 ILD .OHMM   07 120 46 00:   INDUCTION LOG DEEP RESISTIVITY
 ILM .OHMM   07 120 44 00:   INDUCTION LOG MEDIUM
 GRD .GAPI   45 310 01 00:   GAMMA RAY FROM DENSITY LOG
 CALD.IN     45 280 60 00:   CALIPER
 CORR.G/C3   45 356 01 00:   DENSITY CORRECTION
 RHOB.G/C3   45 350 01 00:   BULK DENSITY
 DPHI.DEC    45 890 12 00:   DENSITY POROSITY SANDSTONE
~PARAMETER INFORMATION
#MNEM.UNIT          VALUE    DESCRIPTION
#----------   ------------   ------------------------------
 PD  .                 GL:   PERMANENT DATUM
 EPD .F              5228:   ELEVATION PERMANENT DATUM
 LMF .                 KB:   LOG MEASURED FROM
 DAPD.F                 5:   FEET ABOVE PERMANENT DATUM
 DMF .                 KB:   DRILLING MEASURED FROM
 EKB .F              5233:   KELLING BUSHING
 EGL .F              5228:   GROUND LEVEL
 DATE.             5-9-80:   RUN DATE
 RUN .                  1:   RUN NUMBER
 DD  .F               507:   DEPTH DRILLER
 DL  .F               510:   DEPTH LOGGER
 BLI .F               508:   BOTTOM LOG INTERVAL
 TLI .F                20:   TOP LOG INTERVAL
 BS  .IN            7.875:   BIT SIZE
 BSD .F               507:   BIT SIZE AT DEPTH
 DFT .                KCL:   DRILLING FLUID TYPE
 DFD .                8.9:   DRILLING FLUID DENSITY
 DFV .                 42:   DRILLING FLUID VISCOSITY
 MSS .                PIT:   MUD SAMPLE SOURCE
 RMS .OHMM            .36:   RESISTIVITY MUD SAMPLE
 MST .F                75:   MUD SAMPLE TEMPERATURE
 RMF .OHMM            .29:   RESISTIVITY MUD FILTRATE SAMPLE
 MFST.F                75:   MUD FILTRATE SAMPLE TEMPERATURE
 RMC .OHMM            .43:   RESISTIVITY MUD CAKE
 MCST.F                75:   MUD CAKE SAMPLE TEMPERATURE
 MFSS.           MEASURED:   MUD FILTRATE SAMPLE SOURCE
 MCSS.           MEASURED:   MUD CAKE SAMPLE SOURCE
 TCS .HRS               2:   TIME CURCULATED STOPPED
 MRT .F               100:   MAXIMUM RECORDED TEMPERATURE
 LUN .               9685:   LOGGING UNIT NUMBER
 LUL .             CASPER:   LOGGING UNIT LOCATION
 ENGI.            TOTHILL:   RECORDING ENGINEER
 WITN.           DINSMORE:   WITNESSED BY
 CLNT.            A2DTECH:   CLIENT CODE
 ORIG.         2.5" PRINT:   ORIGIN OF DATA
 UWI .       490251081000:   UNIQUE WELL ID
 DICO. A2D Technologies, Inc.:   DIGITIZING COMPANY
~OTHER INFORMATION
~A   DEPT      SPR       SGRD        ILD        ILM         GRD        CALD       CORR       RHOB       DPHI 
# ...
  312.0000   -39.2761     6.4300     4.6089     5.5351    82.9591     7.9139     0.0316     2.3825     0.1749
  312.5000   -39.3743     6.2661     4.4858     5.2458    78.7254     7.8754     0.0270     2.3716     0.1812
  313.0000   -39.5334     5.9119     4.4858     5.0145    75.2675     7.8635     0.0232     2.3598     0.1875
  313.5000   -38.8283     4.7507     4.5874     5.0397    72.6707     7.8591     0.0320     2.3479     0.1938
  314.0000   -38.1797     3.0373     4.7334     5.1084    69.9091     7.8549     0.0446     2.3513     0.1951
  314.5000   -37.9267     6.2661     4.9219     5.8885    68.0123     7.8503     0.0456     2.3502     0.1926
  315.0000   -37.6626     6.6993     5.3063     6.6745    68.0548     7.8459     0.0430     2.3468     0.1978
  315.5000   -37.3566     7.1884     5.8773     7.3867    68.7517     7.8415     0.0468     2.3542     0.1929
  316.0000   -37.0989     8.4047     6.3896     8.1144    69.8096     7.8369     0.0396     2.3578     0.1896
  316.5000   -36.1938    10.4650     7.3417     8.9138    70.8697     7.8327     0.0391     2.3534     0.1907
  317.0000   -35.9442    13.0303     8.2550     9.7919    71.8699     7.8276     0.0417     2.3484     0.1990
  317.5000   -35.9925    16.1543     9.2803    10.7367    72.8781     7.8246     0.0512     2.3521     0.1943
  318.0000   -36.9961    17.6092    10.4331    11.0851    72.5052     7.8210     0.0521     2.3637     0.1860
  318.5000   -37.9988    19.0928    11.7321    11.4378    71.8435     7.8177     0.0449     2.3705     0.1829
  319.0000   -38.7333    17.9646    12.7985    11.8017    71.1910     7.8142     0.0391     2.3660     0.1843
  319.5000   -38.6297    16.4571    13.6681    12.0021    70.5657     7.8108     0.0529     2.3726     0.1821
  320.0000   -38.5526    18.0582    14.4511    12.2270    69.9076     7.8073     0.0825     2.3912     0.1666
  320.5000   -38.4590    16.9765    14.4291    12.1494    69.2906     7.8038     0.1135     2.4413     0.1394
  321.0000   -38.3442    17.7260    14.3840    12.0619    68.6936     7.8004     0.1049     2.4319     0.1402
  321.5000   -38.0481    17.1688    14.3390    11.9750    69.0041     7.7971     0.0949     2.4223     0.1483
  322.0000   -37.7335    16.4571    14.2942    11.8888    69.3273     7.7932     0.0832     2.4212     0.1552
  322.5000   -37.1646    17.6275    14.2495    11.7812    69.6855     7.7905     0.0725     2.4254     0.1483
  323.0000   -36.6793    19.0928    14.2049    11.8456    70.0251     7.7886     0.0614     2.4169     0.1524
  323.5000   -37.0595    20.9503    14.1852    12.0326    70.3807     7.8103     0.0503     2.4088     0.1586
  324.0000   -37.6983    19.7023    14.1852    12.2225    70.7073     7.8302     0.0394     2.4001     0.1648
  324.5000   -38.1764    18.6881    14.3362    12.4154    71.0236     7.8509     0.0454     2.3924     0.1722
  325.0000   -38.2956    17.7260    14.4924    12.6113    70.5592     7.8718     0.0517     2.3773     0.1805
  325.5000   -38.0499    19.0202    14.6504    12.8104    70.0632     7.8927     0.0677     2.3654     0.1872
  326.0000   -37.9522    20.4089    14.8101    13.0126    69.4913     7.9014     0.0835     2.3565     0.1885
  326.5000   -37.9439    22.5106    14.9979    13.3016    69.3952     7.8753     0.0749     2.3438     0.1970
  327.0000   -37.9106    26.1215    15.4590    13.8820    69.8264     7.8503     0.0630     2.3335     0.2062
  327.5000   -37.1825    30.9418    16.0279    14.4877    70.2104     7.8246     0.0542     2.3361     0.2030
  328.0000   -36.4419    29.9678    16.6177    15.1199    70.5844     7.7978     0.0480     2.3382     0.2030
  328.5000   -36.1609    30.9418    17.2292    15.8571    70.9751     7.7863     0.0520     2.3515     0.1982
  329.0000   -37.0551    28.7108    17.8633    16.4571    70.9260     7.7872     0.0667     2.3687     0.1918
  329.5000   -37.6621    24.3057    18.0582    15.7473    70.7334     7.7871     0.0822     2.3842     0.1776
  330.0000   -37.8339    23.1096    18.0124    15.1257    70.5111     7.7869     0.0876     2.4021     0.1653
  330.5000   -38.0682    23.3826    17.9235    14.5288    70.6357     7.7871     0.0751     2.3982     0.1658
  331.0000   -38.2977    23.8585    17.8351    13.9553    70.9789     7.7868     0.0757     2.4091     0.1590
  331.5000   -38.3056    23.0357    17.7471    13.4045    71.0209     7.7872     0.0895     2.4551     0.1507
  332.0000   -38.2398    22.1506    17.6596    13.1698    70.7947     7.7881     0.1043     2.4854     0.1169
  332.5000   -38.1587    23.8585    17.5725    13.2630    70.6241     7.8041     0.0882     2.4700     0.1225
  333.0000   -38.1115    22.9580    17.4858    13.5146    70.5160     7.8181     0.0603     2.4491     0.1318
  333.5000   -38.0326    20.9503    17.3999    13.6681    71.2620     7.8331     0.0538     2.4311     0.1423
  334.0000   -37.8677    24.1706    17.6275    13.6681    71.8845     7.8478     0.0490     2.4114     0.1558
  334.5000   -37.7089    27.6796    18.0080    13.6681    72.8601     7.8625     0.0413     2.3940     0.1694
  335.0000   -38.2929    31.4883    18.3967    15.1753    74.2345     7.8773     0.0342     2.3837     0.1830
  335.5000   -38.7870    37.4915    18.7938    16.8014    75.6601     7.8922     0.0157     2.3511     0.1998
  336.0000   -39.1589    45.6984    19.0928    17.3999    76.9689     7.9078     0.0157     2.3430     0.1998
  336.5000   -39.0717    39.9442    18.9381    16.0407    78.1058     7.9354     0.0260     2.3554     0.1964
  337.0000   -38.8486    30.3726    18.7610    14.6022    79.2968     7.9650     0.0405     2.3675     0.1884
  337.5000   -38.7425    27.0759    18.5855    12.4562    80.5146     7.9811     0.0481     2.3734     0.1813
  338.0000   -38.7749    23.7943    18.3967    12.6896    81.0738     7.9489     0.0364     2.3672     0.1844
  338.5000   -38.5214    20.9105    17.7761    12.9647    81.3677     7.9179     0.0200     2.3625     0.1873
  339.0000   -37.9697    19.9673    17.1204    13.2729    81.2696     7.8854     0.0073     2.3521     0.1901
  339.5000   -37.4507    19.3214    16.4889    13.5884    81.0703     7.8523    -0.0008     2.3463     0.1977
  340.0000   -37.1603    18.6963    15.8807    13.6681    80.8829     7.8219    -0.0036     2.3506     0.1957
  340.5000   -37.9582    17.7260    15.2949    13.3099    80.5377     7.7899     0.0013     2.3546     0.1917
  341.0000   -38.8284    17.9806    14.7307    12.6991    79.8755     7.8153     0.0058     2.3609     0.1877
  341.5000   -39.2229    19.0978    14.1921    12.2180    79.5079     7.8433     0.0132     2.3691     0.1837
  342.0000   -39.7930    18.7266    13.6717    12.2341    79.5491     7.8738     0.0222     2.3770     0.1797
  342.5000   -39.9125    17.4130    13.5389    12.2202    79.8260     7.9029     0.0324     2.3851     0.1757
  343.0000   -39.8157    17.4990    13.3253    12.2224    80.1817     7.9324     0.0290     2.3821     0.1740
  343.5000   -39.7172    17.7705    13.0218    12.2276    80.5507     7.9621     0.0156     2.3677     0.1805
  344.0000   -39.6338    18.0332    13.1629    12.4555    80.8845     7.9908     0.0089     2.3570     0.1884
  344.5000   -39.4589    16.7857    13.1909    12.6102    81.2608     8.0207     0.0168     2.3557     0.1926
  345.0000   -39.0680    16.8085    13.2350    12.7588    80.7888     8.0070     0.0231     2.3621     0.1907
  345.5000   -38.7032    16.9602    13.2838    12.9308    79.9647     7.9776     0.0355     2.3726     0.1882
  346.0000   -38.3642    17.0935    13.3269    12.9238    79.5192     7.9490     0.0532     2.3837     0.1757
  346.5000   -38.7508    17.2279    13.3701    12.8970    80.1028     7.9467     0.0573     2.3837     0.1742
  347.0000   -39.3541    17.3633    13.4135    12.8581    80.6273     7.9441     0.0468     2.3765     0.1776
  347.5000   -39.9197    17.4373    13.4571    12.8185    81.1817     7.9429     0.0268     2.3626     0.1867
  348.0000   -39.8072    17.4886    13.5007    12.7789    81.7246     7.9411     0.0077     2.3479     0.1965
