~VERSION INFORMATION
 VERS.                2.0:   CWLS LOG ASCII STANDARD - VERSION 2.0
 WRAP.                 NO:   ONE LINE PER DEPTH STEP
~WELL INFORMATION
#MNEM.UNIT      DATA TYPE    INFORMATION
#----------   ------------   ------------------------------
 STRT.F           40.0000:   START DEPTH
 STOP.F          821.0000:   STOP DEPTH
 STEP.F            0.5000:   STEP LENGTH
 NULL.          -999.2500:   NO VALUE
 COMP. FENIX & SCISSON INC:   COMPANY
 WELL. NPR 3 -68 SX #68-27:   WELL
 FLD .             TEAPOT:   FIELD
 LOC .      S27 T39N R78W:   LOCATION
 CNTY.            NATRONA:   COUNTY
 STAT.            WYOMING:   STATE
 CTRY. UNITED STATES OF AMERICA:   COUNTRY
 SRVC.           BIRDWELL:   SERVICE COMPANY
 DATE.        11-SEP-1978:   LOGDATE
 API .       490251069500:   API NUMBER
~CURVE INFORMATION
#MNEM.UNIT       API CODE    CURVE DESCRIPTION
#----------   ------------   ------------------------------
 DEPT.F                  :   
 SPR .MV     05 010 01 00:   SPONTANEOUS POTENTIAL FROM RES.
 SN  .OHMM   05 040 16 00:   SHORT NORMAL 16"
 ILD .OHMM   05 120 46 00:   INDUCTION LOG DEEP
 GRD .GAPI   45 310 01 00:   GAMMA RAY FROM DENSITY LOG
 CALD.IN     45 280 60 00:   CALIPER
 RHOB.G/C3   45 350 01 00:   BULK DENSITY
 CORR.G/C3   45 356 01 00:   DENSITY CORRECTION
 DPHI.DEC    45 890 12 00:   DENSITY POROSITY SANDSTONE
~PARAMETER INFORMATION
#MNEM.UNIT          VALUE    DESCRIPTION
#----------   ------------   ------------------------------
 PD  .                 GL:   PERMANENT DATUM
 EPD .F              5032:   ELEVATION PERMANENT DATUM
 LMF .                 GL:   LOG MEASURED FROM
 DAPD.F                 4:   FEET ABOVE PERMANENT DATUM
 DMF .                 GL:   DRILLING MEASURED FROM
 EKB .F              5036:   KELLING BUSHING
 EGL .F              5032:   GROUND LEVEL
 DATE.            9-11-78:   RUN DATE
 RUN .                  1:   RUN NUMBER
 DD  .F               820:   DEPTH DRILLER
 DL  .F               822:   DEPTH LOGGER
 BLI .F               818:   BOTTOM LOG INTERVAL
 TLI .F                40:   TOP LOG INTERVAL
 CS  .IN            8.625:   CASING SIZE
 CBD .F                40:   CASING BOTTOM DRILLER
 CBL .F                40:   CASING BOTTOM LOGGER
 BS  .IN            7.875:   BIT SIZE
 BSD .F               820:   BIT SIZE AT DEPTH
 DFT .                KCL:   DRILLING FLUID TYPE
 DFD .                8.6:   DRILLING FLUID DENSITY
 DFV .                 34:   DRILLING FLUID VISCOSITY
 DFPH.                  9:   DRILLING FLUID PH
 DFL .                  8:   DRILLING FLUID LOSS
 MSS .           FLOWLINE:   MUD SAMPLE SOURCE
 RMS .OHMM            .24:   RESISTIVITY MUD SAMPLE
 MST .F                62:   MUD SAMPLE TEMPERATURE
 RMF .OHMM            .18:   RESISTIVITY MUD FILTRATE SAMPLE
 MFST.F                64:   MUD FILTRATE SAMPLE TEMPERATURE
 RMC .OHMM             .3:   RESISTIVITY MUD CAKE
 MCST.F                66:   MUD CAKE SAMPLE TEMPERATURE
 MFSS.               MEAS:   MUD FILTRATE SAMPLE SOURCE
 MCSS.               MEAS:   MUD CAKE SAMPLE SOURCE
 RMB .OHMM            .22:   RESISTIVITY MUD AT BHT
 BHT .F                68:   BOTTOM HOLE TEMPERATURE
 TCS .HRS               1:   TIME CURCULATED STOPPED
 MRT .F                68:   MAXIMUM RECORDED TEMPERATURE
 LUN .               3006:   LOGGING UNIT NUMBER
 LUL .               CASP:   LOGGING UNIT LOCATION
 ENGI.            POINTER:   RECORDING ENGINEER
 WITN.              AMEND:   WITNESSED BY
 CLNT.            A2DTECH:   CLIENT CODE
 ORIG.           5" PRINT:   ORIGIN OF DATA
 UWI .       490251069500:   UNIQUE WELL ID
 DICO. A2D Technologies, Inc.:   DIGITIZING COMPANY
~OTHER INFORMATION
~A   DEPT       SPR        SN        ILD         GRD        CALD     RHOB       CORR       DPHI   
# ...
  242.5000   -19.8952    14.5189    17.5060    90.2677     7.4637     2.4896     0.1453     0.1357
  243.0000   -20.0143    14.5397    17.7943    85.5835     7.5893     2.4676     0.0912     0.1184
  243.5000   -20.1337    14.5607    18.0245    87.5554     7.6214     2.4480     0.0374     0.1382
  244.0000   -20.2530    14.5817    18.2577    88.9697     7.6424     2.4281     0.0345     0.1554
  244.5000   -20.3723    14.6023    18.4940    89.8102     7.6631     2.4076     0.0390     0.1735
  245.0000   -20.4916    14.6327    18.5807    89.8658     7.6841     2.3931     0.0428     0.1747
  245.5000   -20.6109    14.3747    18.5807    87.1412     7.7051     2.3813     0.0466     0.1755
  246.0000   -20.7302    13.9900    16.9408    84.3077     7.7261     2.3765     0.0506     0.1887
  246.5000   -20.8495    13.6155    15.5104    82.8372     7.7471     2.3715     0.0496     0.1920
  247.0000   -20.9688    13.2511    14.7165    85.1052     7.7681     2.3673     0.0476     0.1953
  247.5000   -21.0881    12.8964    14.0468    88.8300     7.7892     2.3671     0.0489     0.1970
  248.0000   -21.2078    12.5512    13.7149    92.5586     7.8102     2.3777     0.0502     0.1930
  248.5000   -21.3277    12.3548    13.7149    94.9372     7.8309     2.3826     0.0514     0.1891
  249.0000   -21.2355    12.1829    13.7149    95.0086     7.8509     2.3801     0.0527     0.1851
  249.5000   -21.3298    12.0127    13.2831    94.4979     7.9103     2.3813     0.0540     0.1838
  250.0000   -22.1405    11.8447    12.8594    93.9050     7.9773     2.4194     0.0553     0.1807
  250.5000   -22.9495    11.7277    12.8594    94.2435     8.0433     2.4253     0.0565     0.1765
  251.0000   -23.2483    11.7154    12.8591    96.2621     8.0910     2.4262     0.0578     0.1376
  251.5000   -23.6572    11.7032    12.8594    95.2505     8.0540     2.4272     0.0591     0.1382
  252.0000   -24.6805    11.6909    12.8594    93.8898     7.9852     2.4282     0.0595     0.1338
  252.5000   -25.7062    11.6786    12.8596    94.3912     7.9160     2.4292     0.0595     0.1320
  253.0000   -25.9279    11.6664    12.8589    96.1822     7.8461     2.4301     0.0549     0.1303
  253.5000   -26.0992    11.6540    12.8566    97.3956     7.7993     2.4312     0.0487     0.1288
  254.0000   -26.7139    11.6407    12.8657    97.3948     7.7728     2.4341     0.0431     0.1292
  254.5000   -27.5929    11.6343    12.4084    97.7494     7.7454     2.4374     0.0419     0.1300
  255.0000   -29.1205    11.5152    12.0607    98.7551     7.7182     2.4424     0.0406     0.1286
  255.5000   -30.6572    11.2905    11.6162    99.3839     7.6884     2.4522     0.0399     0.1271
  256.0000   -32.1899    10.8873    10.9937    99.3759     7.5995     2.4620     0.0430     0.1257
  256.5000   -33.7303    10.4986    10.4046   100.1549     7.5053     2.4630     0.0461     0.1242
  257.0000   -34.8049    10.1237     9.8471   101.6326     7.5211     2.4581     0.0540     0.1235
  257.5000   -35.5537     9.7622     9.3195   102.8179     7.5604     2.4541     0.0651     0.1232
  258.0000   -35.7273     9.4136     8.8329   102.1138     7.6069     2.4631     0.0764     0.1229
  258.5000   -35.7757     9.0774     8.4342   101.3216     7.5687     2.4869     0.0870     0.1226
  259.0000   -35.7694     8.7533     8.0543   102.1379     7.5181     2.4884     0.0829     0.1224
  259.5000   -35.7873     8.4407     7.7495   104.0749     7.4674     2.4857     0.0783     0.1239
  260.0000   -36.2571     8.1925     7.7500   101.6107     7.4170     2.4831     0.0738     0.1255
  260.5000   -36.7422     8.1175     7.7525    98.5523     7.3657     2.4834     0.0693     0.1270
  261.0000   -37.2248     8.1397     7.7525    97.5967     7.3682     2.4839     0.0624     0.1277
  261.5000   -37.7044     8.1585     7.7525    99.9435     7.3941     2.4767     0.0554     0.1280
  262.0000   -37.9413     8.1774     7.7525   102.7297     7.4206     2.4509     0.0484     0.1375
  262.5000   -37.8545     8.1963     7.7525   106.3978     7.4490     2.4258     0.0476     0.1467
  263.0000   -37.7712     8.2152     7.7525   110.0708     7.5293     2.4003     0.0672     0.1559
  263.5000   -37.6869     8.2342     7.7525   112.0770     7.6176     2.3901     0.0985     0.1657
  264.0000   -37.6027     8.2533     7.7525   112.8124     7.7093     2.4395     0.1330     0.1770
  264.5000   -37.5182     8.3447     7.7525   111.6865     7.7322     2.4923     0.1462     0.1807
  265.0000   -37.4355     8.2336     7.7525   111.1017     7.7402     2.5171     0.1229     0.1255
  265.5000   -37.4168     8.1256     7.7525   110.9645     7.7474     2.5091     0.0950     0.1032
  266.0000   -37.6037     8.0431     7.7525   110.8371     7.7548     2.5003     0.0686     0.1080
  266.5000   -37.8195     8.0431     7.7525   110.6093     7.7621     2.4917     0.0490     0.1088
  267.0000   -38.7367     8.0786     7.7525   110.1848     7.7734     2.4830     0.0348     0.1052
  267.5000   -39.2430     8.1036     7.7524   109.7767     7.8138     2.4743     0.0217     0.1094
  268.0000   -39.3957     8.1285     7.7532   109.8717     7.8319     2.4660     0.0175     0.1136
  268.5000   -39.5403     8.1536     7.7711   110.1790     7.8507     2.4621     0.0184     0.1212
  269.0000   -39.6818     8.1788     7.7892   110.3772     7.8693     2.4620     0.0195     0.1331
  269.5000   -39.7768     8.2040     7.8072   110.3230     7.8880     2.4633     0.0206     0.1408
  270.0000   -39.7612     8.2293     7.8241   107.5738     7.9070     2.4657     0.0211     0.1412
  270.5000   -39.7479     8.2547     7.8141   104.6064     7.9041     2.4680     0.0179     0.1412
  271.0000   -39.7342     8.2801     7.8025   101.8380     7.8948     2.4708     0.0147     0.1397
  271.5000   -39.7206     8.3057     7.7909   101.7664     7.8854     2.4758     0.0115     0.1378
  272.0000   -39.7069     8.3313     7.7793   101.9610     7.8760     2.4809     0.0093     0.1359
  272.5000   -39.6933     8.3446     7.7678   102.1844     7.8667     2.4831     0.0086     0.1340
  273.0000   -39.6797     8.3108     7.7570   104.3836     7.8573     2.4835     0.0077     0.1321
  273.5000   -39.6661     8.2843     7.7460   106.7522     7.8478     2.4837     0.0068     0.1303
  274.0000   -39.6524     8.2580     7.8356   108.3558     7.8382     2.4840     0.0059     0.1283
  274.5000   -39.6388     8.2318     7.8918   107.5515     7.8319     2.4843     0.0061     0.1270
  275.0000   -39.6252     8.2055     7.9436   106.6181     7.8685     2.4846     0.0070     0.1260
  275.5000   -39.6115     8.1924     7.9959   105.6778     7.9044     2.4848     0.0080     0.1264
  276.0000   -39.5980     8.3411     8.0431   104.7430     7.9400     2.4851     0.0089     0.1276
  276.5000   -39.5835     8.4783     8.0296   103.8739     7.9756     2.4854     0.0099     0.1270
  277.0000   -39.6298     8.6177     8.0032   106.9397     8.0112     2.4857     0.0108     0.1259
  277.5000   -39.7097     8.7375     7.9656   117.3052     8.0463     2.4859     0.0117     0.1249
  278.0000   -39.7904     8.7570     7.9645   117.5454     8.0715     2.4886     0.0127     0.1239
  278.5000   -39.8712     8.7840     8.2781   116.9536     8.0788     2.4917     0.0136     0.1229
  279.0000   -39.9519     8.8111     8.5794   115.1325     8.0867     2.4941     0.0146     0.1219
  279.5000   -40.0254     8.8382     8.5926   113.3428     8.0944     2.4940     0.0154     0.1209
  280.0000   -40.0947     8.8655     8.6105   112.9992     8.1021     2.4940     0.0139     0.1199
  280.5000   -40.1642     8.8928     8.6287   113.6395     8.1099     2.4942     0.0124     0.1193
  281.0000   -40.2337     8.9203     8.6473   114.3546     8.1177     2.4981     0.0108     0.1196
  281.5000   -40.3032     8.9478     8.6659   110.7920     8.1254     2.5020     0.0093     0.1192
  282.0000   -40.3727     8.9754     8.6845   104.9316     8.1332     2.5053     0.0078     0.1177
  282.5000   -40.4423     9.0031     8.7032    99.2569     8.1409     2.5060     0.0063     0.1163
