~VERSION INFORMATION
 VERS.                2.0:   CWLS LOG ASCII STANDARD - VERSION 2.0
 WRAP.                 NO:   ONE LINE PER DEPTH STEP
~WELL INFORMATION
#MNEM.UNIT      DATA TYPE    INFORMATION
#----------   ------------   ------------------------------
 STRT.F           10.5000:   START DEPTH
 STOP.F          604.0000:   STOP DEPTH
 STEP.F            0.5000:   STEP LENGTH
 NULL.          -999.2500:   NO VALUE
 COMP. FENIX & SCISSON INC:   COMPANY
 WELL.  NPR 3 #87 S 10-10:   WELL
 FLD .             TEAPOT:   FIELD
 LOC .      S10 T38N R78W:   LOCATION
 CNTY.            NATRONA:   COUNTY
 STAT.            WYOMING:   STATE
 CTRY. UNITED STATES OF AMERICA:   COUNTRY
 SRVC.           BIRDWELL:   SERVICE COMPANY
 DATE.        11-DEC-1978:   LOGDATE
 API .       490251075400:   API NUMBER
~CURVE INFORMATION
#MNEM.UNIT       API CODE    CURVE DESCRIPTION
#----------   ------------   ------------------------------
 DEPT.F                  :   
 SPR .MV     05 010 01 00:   SPONTANEOUS POTENTIAL FROM RES.
 SN  .OHMM   05 040 16 00:   SHORT NORMAL 16"
 IL  .OHMM   05 120 00 00:   INDUCTION LOG
 CALD.IN     45 280 60 00:   CALIPER
 GRD .GAPI   45 310 01 00:   GAMMA RAY FROM DENSITY LOG
 RHOB.G/C3   45 350 01 00:   BULK DENSITY
 DPHI.DEC    45 890 12 00:   DENSITY POROSITY SANDSTONE
 CORR.G/C3   45 356 01 00:   DENSITY CORRECTION
~PARAMETER INFORMATION
#MNEM.UNIT          VALUE    DESCRIPTION
#----------   ------------   ------------------------------
 PD  .                 GL:   PERMANENT DATUM
 LMF .                 KB:   LOG MEASURED FROM
 DAPD.F                 4:   FEET ABOVE PERMANENT DATUM
 DMF .                 KB:   DRILLING MEASURED FROM
 DATE.           12-11-78:   RUN DATE
 RUN .                  1:   RUN NUMBER
 DD  .F               600:   DEPTH DRILLER
 DL  .F               602:   DEPTH LOGGER
 BLI .F               596:   BOTTOM LOG INTERVAL
 TLI .F                60:   TOP LOG INTERVAL
 CBD .F                40:   CASING BOTTOM DRILLER
 CBL .F                35:   CASING BOTTOM LOGGER
 BS  .IN            7.875:   BIT SIZE
 BSD .F               600:   BIT SIZE AT DEPTH
 DFT .                KCC:   DRILLING FLUID TYPE
 DFD .                8.7:   DRILLING FLUID DENSITY
 DFV .                 39:   DRILLING FLUID VISCOSITY
 DFPH.               10.5:   DRILLING FLUID PH
 DFL .                 10:   DRILLING FLUID LOSS
 MSS .           FLOWLINE:   MUD SAMPLE SOURCE
 RMS .OHMM              1:   RESISTIVITY MUD SAMPLE
 MST .F                62:   MUD SAMPLE TEMPERATURE
 RMF .OHMM            .85:   RESISTIVITY MUD FILTRATE SAMPLE
 MFST.F                58:   MUD FILTRATE SAMPLE TEMPERATURE
 RMC .OHMM             .8:   RESISTIVITY MUD CAKE
 MCST.F                66:   MUD CAKE SAMPLE TEMPERATURE
 MFSS.           MEASURED:   MUD FILTRATE SAMPLE SOURCE
 MCSS.           MEASURED:   MUD CAKE SAMPLE SOURCE
 BHT .F                72:   BOTTOM HOLE TEMPERATURE
 TCS .HRS               3:   TIME CURCULATED STOPPED
 MRT .F                72:   MAXIMUM RECORDED TEMPERATURE
 LUN .               2958:   LOGGING UNIT NUMBER
 LUL .             CASPER:   LOGGING UNIT LOCATION
 ENGI.            ROLLINS:   RECORDING ENGINEER
 WITN.           DINSMORE:   WITNESSED BY
 CLNT.            A2DTECH:   CLIENT CODE
 ORIG.       2", 5" PRINT:   ORIGIN OF DATA
 UWI .       490251075400:   UNIQUE WELL ID
 DICO. A2D Technologies, Inc.:   DIGITIZING COMPANY
~OTHER INFORMATION
~A   DEPT      SPR         SN         IL       CALD        GRD       RHOB       DPHI       CORR   
# ...
  132.0000   -13.4880     8.6760     8.1040     8.5890   117.5240     2.4560     0.1410     0.0160
  132.5000   -13.5280     8.6760     8.1090     8.5870   114.5920     2.4560     0.1400     0.0140
  133.0000   -13.5680     8.6750     8.1150     8.5850   112.2300     2.4560     0.1400     0.0120
  133.5000   -13.6080     8.6860     8.1200     8.5840   111.2010     2.4570     0.1400     0.0100
  134.0000   -13.6480     8.7490     8.1250     8.5820   110.9070     2.4570     0.1400     0.0090
  134.5000   -13.6880     8.8110     8.1300     8.5820   112.8280     2.4570     0.1420     0.0090
  135.0000   -13.7280     8.8730     8.1780     8.5830   117.0240     2.4570     0.1420     0.0090
  135.5000   -13.7680     8.9350     8.2510     8.5840   118.4010     2.4580     0.1420     0.0090
  136.0000   -13.8080     8.9980     8.3260     8.5850   115.6700     2.4660     0.1390     0.0090
  136.5000   -13.8480     9.0600     8.4010     8.5870   112.6460     2.4740     0.1320     0.0090
  137.0000   -13.8880     9.1230     8.4760     8.5880   110.5260     2.4790     0.1290     0.0090
  137.5000   -13.9370     9.1870     8.5510     8.5890   109.6870     2.4810     0.1250     0.0070
  138.0000   -13.9890     9.2500     8.6390     8.5900   111.9140     2.4890     0.1180     0.0050
  138.5000   -14.0430     9.3140     8.7460     8.5920   117.6870     2.4970     0.1120     0.0040
  139.0000   -14.0940     9.3770     8.8540     8.5930   119.2800     2.4980     0.1130     0.0020
  139.5000   -13.8850     9.4580     8.9610     8.5940   123.3220     2.4820     0.1170     0.0040
  140.0000   -13.6480     9.6030     9.0230     8.5950   124.8410     2.4680     0.1270     0.0070
  140.5000   -13.4090     9.7480     9.0570     8.5970   122.3290     2.4570     0.1410     0.0100
  141.0000   -13.1640     9.8930     9.0910     8.5980   119.1920     2.4590     0.1390     0.0080
  141.5000   -13.1140    10.0380     9.1250     8.5990   116.8650     2.4820     0.1280     0.0030
  142.0000   -13.1260    10.1490     9.1590     8.6000   117.0510     2.5070     0.1090    -0.0030
  142.5000   -13.1400    10.1490     9.1930     8.6000   117.1760     2.5280     0.0960    -0.0030
  143.0000   -13.1550    10.1490     9.2270     8.6000   115.9220     2.5270     0.0990     0.0030
  143.5000   -13.1690    10.0910     9.2610     8.5990   115.9830     2.5170     0.1040     0.0080
  144.0000   -13.1840    10.0210     9.2950     8.5980   118.2140     2.5060     0.1110     0.0070
  144.5000   -13.1990     9.9520     9.3290     8.5970   118.5910     2.4950     0.1240     0.0070
  145.0000   -13.2140     9.8820     9.4240     8.5970   117.2720     2.4810     0.1270     0.0070
  145.5000   -13.2280    10.1000     9.5510     8.5960   113.4970     2.4760     0.1300     0.0070
  146.0000   -13.2430    10.3650     9.6780     8.5950   110.0110     2.4710     0.1320     0.0060
  146.5000   -13.2580    10.6300     9.8050     8.5940   109.5830     2.4720     0.1330     0.0060
  147.0000   -13.2730    10.8940     9.9320     8.5940   111.2360     2.4730     0.1330     0.0060
  147.5000   -13.2870    11.0950    10.0580     8.5930   113.0770     2.4750     0.1300     0.0060
  148.0000   -13.3020    11.2860    10.1490     8.5920   113.7690     2.4770     0.1300     0.0050
  148.5000   -13.3170    11.4770    10.1860     8.5910   110.7900     2.4790     0.1300     0.0040
  149.0000   -13.3320    11.6680    10.2200     8.5910   108.4420     2.4810     0.1280     0.0020
  149.5000   -13.3470    11.7910    10.2540     8.5900   110.0590     2.4830     0.1250     0.0010
  150.0000   -13.3610    11.8440    10.2880     8.5890   113.4840     2.4820     0.1250     0.0010
  150.5000   -13.3760    11.8970    10.3220     8.5880   115.0650     2.4760     0.1290     0.0050
  151.0000   -13.3910    11.9510    10.3560     8.5880   113.9550     2.4680     0.1320     0.0070
  151.5000   -13.4060    12.0040    10.3900     8.5870   112.2580     2.4610     0.1360     0.0070
  152.0000   -13.4200    12.0570    10.4340     8.5860   112.4310     2.4590     0.1390     0.0060
  152.5000   -13.4350    12.0950    10.3560     8.5850   113.3980     2.4560     0.1390     0.0050
  153.0000   -13.4500    12.0950    10.2450     8.5850   114.2540     2.4570     0.1400     0.0050
  153.5000   -13.4650    12.0950    10.1340     8.5840   115.0900     2.4580     0.1410     0.0040
  154.0000   -13.4790    11.9400    10.0510     8.5830   115.9340     2.4570     0.1410     0.0040
  154.5000   -13.4940    11.7690    10.0320     8.5820   115.9070     2.4560     0.1420     0.0030
  155.0000   -13.5090    11.5970    10.0140     8.5820   115.0750     2.4560     0.1410     0.0020
  155.5000   -13.5240    11.4430     9.9950     8.5810   114.2300     2.4550     0.1410     0.0020
  156.0000   -13.5380    11.4350     9.9770     8.5800   113.4030     2.4530     0.1420     0.0010
  156.5000   -13.5530    11.4280     9.9590     8.5790   113.7280     2.4510     0.1450     0.0010
  157.0000   -13.5680    11.4210     9.9400     8.5790   114.0880     2.4540     0.1430     0.0000
  157.5000   -13.5830    11.4140     9.9220     8.5780   113.3220     2.4620     0.1390    -0.0010
  158.0000   -13.5970    11.4070     9.9030     8.5770   112.1940     2.4700     0.1320    -0.0010
  158.5000   -13.6120    11.4000     9.8850     8.5760   112.5560     2.4690     0.1360    -0.0020
  159.0000   -13.6270    11.3930     9.8520     8.5760   114.1530     2.4660     0.1350    -0.0020
  159.5000   -13.6420    11.3860     9.7860     8.5750   114.4970     2.4680     0.1340    -0.0030
  160.0000   -13.6570    11.3790     9.7190     8.5740   112.1990     2.4800     0.1290     0.0020
  160.5000   -13.6710    11.3710     9.6530     8.5730   109.4140     2.4820     0.1250     0.0090
  161.0000   -13.6860    11.3640     9.5860     8.5730   109.2390     2.4830     0.1270     0.0110
  161.5000   -13.7000    11.3570     9.5200     8.5720   109.7550     2.4840     0.1250     0.0120
  162.0000   -13.7170    11.3500     9.4530     8.5710   111.9350     2.4840     0.1230     0.0170
  162.5000   -13.7330    11.3440     9.3870     8.5700   117.9090     2.4860     0.1230     0.0140
  163.0000   -13.7480    11.3170     9.3360     8.5700   118.2440     2.4890     0.1220     0.0110
  163.5000   -13.7640    11.2340     9.3210     8.5690   116.1440     2.4910     0.1170     0.0070
  164.0000   -13.7800    10.9180     9.3060     8.5680   113.5730     2.4830     0.1230     0.0040
  164.5000   -13.7960    10.5310     9.2910     8.5670   115.1980     2.4750     0.1290     0.0030
  165.0000   -13.8120    10.5460     9.2760     8.5670   116.2190     2.4670     0.1320     0.0030
  165.5000   -13.8280    10.5620     9.2610     8.5660   116.2080     2.4630     0.1360     0.0030
  166.0000   -13.8430    10.5780     9.2460     8.5650   119.3190     2.4630     0.1380     0.0010
  166.5000   -13.8590    10.5950     9.2310     8.5640   119.5040     2.4640     0.1360     0.0000
  167.0000   -13.8750    10.6110     9.2160     8.5640   119.3470     2.4640     0.1360    -0.0010
  167.5000   -13.8910    10.6290     9.2010     8.5630   119.2090     2.4630     0.1380    -0.0020
  168.0000   -13.9070    10.6290     9.1860     8.5620   118.4190     2.4610     0.1380    -0.0040
  168.5000   -13.9230    10.4400     9.1700     8.5610   116.3870     2.4590     0.1390    -0.0050
  169.0000   -13.9380    10.3260     9.0530     8.5610   115.2410     2.4550     0.1410    -0.0050
  169.5000   -13.9540    10.2850     8.9240     8.5600   115.5940     2.4490     0.1460    -0.0060
  170.0000   -13.9700    10.2440     8.7950     8.5590   117.5200     2.4450     0.1480    -0.0030
  170.5000   -13.9860    10.2030     8.4810     8.5580   117.8340     2.4480     0.1460     0.0040
  171.0000   -14.0020    10.1620     8.2710     8.5570   117.0720     2.4520     0.1430     0.0040
  171.5000   -14.0180     9.9480     8.2450     8.5560   117.8860     2.4530     0.1420     0.0050
  172.0000   -14.0340     9.6600     8.2190     8.5550   120.9250     2.4480     0.1450     0.0050
