~VERSION INFORMATION
 VERS.                2.0:   CWLS LOG ASCII STANDARD - VERSION 2.0
 WRAP.                 NO:   ONE LINE PER DEPTH STEP
~WELL INFORMATION
#MNEM.UNIT      DATA TYPE    INFORMATION
#----------   ------------   ------------------------------
 STRT.F           32.0000:   START DEPTH
 STOP.F          688.5000:   STOP DEPTH
 STEP.F            0.5000:   STEP LENGTH
 NULL.          -999.2500:   NO VALUE
 COMP. FENIX & SCISSON INC:   COMPANY
 WELL.       NPR 3 #78-34:   WELL
 FLD .  TEAPOT DOME NPR-3:   FIELD
 LOC .      S34 T39N R78W:   LOCATION
 CNTY.            NATRONA:   COUNTY
 STAT.            WYOMING:   STATE
 CTRY. UNITED STATES OF AMERICA:   COUNTRY
 SRVC.           BIRDWELL:   SERVICE COMPANY
 DATE.        16-AUG-1978:   LOGDATE
 API .       490251070700:   API NUMBER
~CURVE INFORMATION
#MNEM.UNIT       API CODE    CURVE DESCRIPTION
#----------   ------------   ------------------------------
 DEPT.F                  :   
 SPR .MV     05 010 01 00:   SPONTANEOUS POTENTIAL
 SN  .OHMM   05 040 16 00:   SHORT NORMAL 16'
 ILD .OHMM   05 120 46 00:   INDUCTION LOG DEEP RESISTIVITY
 CALD.IN     45 280 60 00:   CALIPER
 GRD .GAPI   45 310 01 00:   GAMMA RAY FROM DENSITY LOG
 RHOB.G/C3   45 350 01 00:   BULK DENSITY
 DPHI.DEC    45 890 12 00:   DENSITY POROSITY SANDSTONE
 CORR.G/C3   45 356 01 00:   DENSITY CORRECTION
~PARAMETER INFORMATION
#MNEM.UNIT          VALUE    DESCRIPTION
#----------   ------------   ------------------------------
 PD  .                 GL:   PERMANENT DATUM
 EPD .F              5085:   ELEVATION PERMANENT DATUM
 LMF .                 KB:   LOG MEASURED FROM
 DAPD.F                 4:   FEET ABOVE PERMANENT DATUM
 DMF .                 KB:   DRILLING MEASURED FROM
 EKB .F              5089:   KELLING BUSHING
 EGL .F              5085:   GROUND LEVEL
 DATE.          8-16-1978:   RUN DATE
 RUN .                  1:   RUN NUMBER
 DD  .F               680:   DEPTH DRILLER
 DL  .F               688:   DEPTH LOGGER
 BLI .F               682:   BOTTOM LOG INTERVAL
 TLI .F                50:   TOP LOG INTERVAL
 CS  .IN            8.625:   CASING SIZE
 CBD .F                40:   CASING BOTTOM DRILLER
 BS  .IN            7.875:   BIT SIZE
 BSD .F               680:   BIT SIZE AT DEPTH
 DFT .                KCL:   DRILLING FLUID TYPE
 RMS .OHMM            .32:   RESISTIVITY MUD SAMPLE
 MST .F                64:   MUD SAMPLE TEMPERATURE
 RMF .OHMM             .3:   RESISTIVITY MUD FILTRATE SAMPLE
 MFST.F                76:   MUD FILTRATE SAMPLE TEMPERATURE
 RMC .OHMM            .16:   RESISTIVITY MUD CAKE
 MCST.F                64:   MUD CAKE SAMPLE TEMPERATURE
 MFSS.               MEAS:   MUD FILTRATE SAMPLE SOURCE
 MCSS.               MEAS:   MUD CAKE SAMPLE SOURCE
 TCS .HRS               1:   TIME CURCULATED STOPPED
 LUN .               3006:   LOGGING UNIT NUMBER
 LUL .               CASP:   LOGGING UNIT LOCATION
 ENGI.             MILLER:   RECORDING ENGINEER
 WITN.           MCGINLEY:   WITNESSED BY
 CLNT.            A2DTECH:   CLIENT CODE
 ORIG.           5" PRINT:   ORIGIN OF DATA
 UWI .       490251070700:   UNIQUE WELL ID
 DICO. A2D Technologies, Inc.:   DIGITIZING COMPANY
~OTHER INFORMATION
~A   DEPT      SPR         SN        ILD       CALD         GRD      RHOB       DPHI       CORR   
# ...
  599.0000   -27.6514    11.8507    10.1454     7.7956    73.1953     2.4380     0.1513     0.1427
  599.5000   -27.8923    11.7699    10.0843     7.8090    73.8456     2.4347     0.1521     0.1514
  600.0000   -28.1333    11.6897    10.0235     7.8230    72.6012     2.4427     0.1406     0.1602
  600.5000   -28.3742    11.6101     9.9632     7.8264    71.2115     2.4571     0.1327     0.1676
  601.0000   -28.6152    11.4842     9.9031     7.8262    70.5994     2.4715     0.1248     0.1648
  601.5000   -28.8562    11.3224     9.8435     7.8246    70.5949     2.4860     0.1170     0.1625
  602.0000   -29.0971    11.1626     9.7314     7.8663    72.6645     2.4913     0.1166     0.1472
  602.5000   -29.3381    11.0052     9.5513     7.8994    74.9166     2.4741     0.1242     0.1296
  603.0000   -29.5790    10.8500     9.3746     7.9325    75.7493     2.4704     0.1293     0.1118
  603.5000   -29.8200    10.6970     9.2012     7.9649    75.8379     2.4585     0.1382     0.1034
  604.0000   -30.0610    10.5462     9.0310     7.9664    76.4964     2.4461     0.1453     0.1024
  604.5000   -30.3023    10.3975     8.8639     7.9625    77.3690     2.4483     0.1420     0.1015
  605.0000   -30.5437    10.2509     8.7000     7.9579    78.2536     2.4468     0.1445     0.1006
  605.5000   -30.7617    10.1063     8.5389     7.9536    79.1505     2.4556     0.1354     0.0988
  606.0000   -30.7930     9.9645     8.3806     7.9491    78.7865     2.4683     0.1277     0.0906
  606.5000   -30.8204     9.8988     8.2265     7.9343    75.9143     2.4706     0.1249     0.0835
  607.0000   -30.8483     9.8994     8.1622     7.8636    73.0518     2.4837     0.1222     0.0825
  607.5000   -30.8764     9.9003     8.1622     7.7938    70.2106     2.4865     0.1192     0.0813
  608.0000   -30.9044     9.9003     8.1537     7.7241    67.3522     2.4894     0.1163     0.0803
  608.5000   -30.9325     9.9010     8.1456     7.6545    66.3478     2.4922     0.1133     0.0719
  609.0000   -30.9605     9.7185     8.1374     7.5848    71.1448     2.4915     0.1144     0.0610
  609.5000   -30.9886     9.4726     8.1292     7.5152    73.8478     2.4856     0.1197     0.0500
  610.0000   -31.0166     9.2750     8.1211     7.4455    73.5602     2.4739     0.1323     0.0430
  610.5000   -31.0447     9.2363     8.1130     7.3758    70.2346     2.4541     0.1422     0.0409
  611.0000   -31.0727     9.1978     8.1048     7.3061    69.7534     2.4443     0.1453     0.0400
  611.5000   -31.1008     9.1595     8.0967     7.2361    70.2891     2.4430     0.1470     0.0402
  612.0000   -31.1289     9.1213     8.0886     7.1694    70.7303     2.4424     0.1473     0.0404
  612.5000   -31.1569     9.0833     8.0805     7.1679    71.0155     2.4526     0.1350     0.0405
  613.0000   -31.1850     9.0454     8.0724     7.1715    69.8843     2.4608     0.1309     0.0407
  613.5000   -31.2130     9.0077     8.0643     7.1747    67.8665     2.4565     0.1381     0.0409
  614.0000   -31.2411     8.9702     8.0562     7.1778    66.1265     2.4537     0.1373     0.0411
  614.5000   -31.2691     8.9328     8.0482     7.1809    67.8366     2.4590     0.1326     0.0412
  615.0000   -31.2972     8.8956     8.0401     7.1842    67.9806     2.4646     0.1278     0.0414
  615.5000   -31.3253     8.8663     8.0321     7.1866    67.4657     2.4794     0.1229     0.0416
  616.0000   -31.3533     8.8827     8.0240     7.2280    67.5725     2.4835     0.1181     0.0418
  616.5000   -31.3814     8.8963     8.0160     7.2849    68.9369     2.4927     0.1132     0.0417
  617.0000   -31.4094     8.9100     8.0079     7.3427    68.1677     2.5041     0.1084     0.0399
  617.5000   -31.4375     8.9237     7.9999     7.3874    67.0423     2.5084     0.1046     0.0380
  618.0000   -31.4655     8.9375     7.9919     7.4080    66.4567     2.5055     0.1056     0.0362
  618.5000   -31.4934     8.9476     7.9839     7.3918    67.7110     2.4988     0.1109     0.0344
  619.0000   -31.5215     8.9364     7.9759     7.3870    68.9497     2.4920     0.1166     0.0349
  619.5000   -31.5493     8.9270     7.9679     7.3862    68.9674     2.4905     0.1163     0.0363
  620.0000   -31.6938     8.9176     7.9599     7.3478    68.6502     2.4916     0.1134     0.0377
  620.5000   -31.9441     8.9081     7.9519     7.3074    68.8290     2.4925     0.1186     0.0391
  621.0000   -32.1947     8.8987     7.9440     7.2671    69.1016     2.4925     0.1182     0.0404
  621.5000   -32.4455     8.8893     7.9360     7.2621    69.4055     2.4935     0.1142     0.0419
  622.0000   -32.6981     8.8799     7.9281     7.2893    70.5930     2.5009     0.1097     0.0476
  622.5000   -32.9539     8.8705     7.9201     7.3170    71.8671     2.5068     0.1070     0.0536
  623.0000   -32.9967     8.8611     7.9122     7.3349    72.6377     2.5087     0.1058     0.0597
  623.5000   -33.0339     8.8518     7.9043     7.3472    71.0092     2.5117     0.1042     0.0657
  624.0000   -33.0728     8.8424     7.8963     7.3593    70.8822     2.5164     0.1018     0.0736
  624.5000   -33.1120     8.8331     7.8884     7.3715    71.5793     2.5209     0.0980     0.0857
  625.0000   -33.1512     8.8237     7.8807     7.3837    72.1716     2.5257     0.0934     0.0978
  625.5000   -33.1904     8.8144     7.8726     7.3955    70.6228     2.5392     0.0887     0.1099
  626.0000   -33.2295     8.8052     7.8564     7.4093    69.0275     2.5532     0.0841     0.1140
  626.5000   -33.2685     8.7956     7.7893     7.4602    67.3628     2.5665     0.0791     0.1166
  627.0000   -33.3077     8.7876     7.7229     7.5103    67.8834     2.5593     0.0812     0.1191
  627.5000   -33.3470     8.6791     7.6569     7.5601    69.0785     2.5515     0.0843     0.1217
  628.0000   -33.5218     8.5560     7.5916     7.6097    69.9473     2.5453     0.0873     0.1243
  628.5000   -33.8333     8.4347     7.5268     7.6491    70.2901     2.5478     0.0861     0.1270
  629.0000   -34.1445     8.3137     7.4626     7.6558    70.5796     2.5505     0.0821     0.1239
  629.5000   -34.4583     8.2657     7.3989     7.6630    70.3994     2.5491     0.0822     0.1184
  630.0000   -34.6102     8.2176     7.3358     7.6701    70.2128     2.5448     0.0844     0.1129
  630.5000   -34.6772     8.1697     7.2732     7.6773    69.9986     2.5412     0.0866     0.1073
  631.0000   -34.7425     8.1220     7.2111     7.6845    71.2197     2.5399     0.0863     0.1017
  631.5000   -34.8081     8.0747     7.1495     7.6917    71.9707     2.5422     0.0854     0.0962
  632.0000   -34.8738     8.0276     7.0885     7.6989    70.5307     2.5388     0.0928     0.0906
  632.5000   -34.9395     7.9808     7.0280     7.7061    68.7326     2.5234     0.0998     0.0850
  633.0000   -35.0052     7.9342     6.9681     7.7133    66.9123     2.5196     0.1002     0.0826
  633.5000   -35.0709     7.8880     6.9086     7.7205    66.8859     2.5225     0.0994     0.0811
  634.0000   -35.1366     7.8420     6.8496     7.7277    69.9212     2.5256     0.0965     0.0795
  634.5000   -35.2023     7.7956     6.7912     7.7349    73.3120     2.5287     0.0927     0.0779
  635.0000   -35.2680     7.6312     6.7332     7.7420    75.7112     2.5329     0.0888     0.0772
  635.5000   -35.3337     7.4678     6.6758     7.7467    75.9630     2.5378     0.0850     0.0764
  636.0000   -35.4001     7.3080     6.5058     7.7345    76.4855     2.5423     0.0850     0.0741
  636.5000   -35.4668     7.1515     6.3226     7.7152    77.9668     2.5399     0.0900     0.0652
  637.0000   -35.5262     6.9985     6.1445     7.6958    79.4199     2.5279     0.0940     0.0563
  637.5000   -35.2530     6.8483     5.9714     7.6763    80.8725     2.5217     0.0962     0.0545
  638.0000   -34.4053     6.6825     5.8090     7.6569    82.1397     2.5172     0.1002     0.0532
  638.5000   -33.5644     6.5077     5.5138     7.6375    82.3925     2.5055     0.1045     0.0518
  639.0000   -32.7336     6.3378     5.2427     7.6181    82.5359     2.4995     0.1087     0.0503
