~VERSION INFORMATION
 VERS.                2.0:   CWLS LOG ASCII STANDARD - VERSION 2.0
 WRAP.                 NO:   ONE LINE PER DEPTH STEP
~WELL INFORMATION
#MNEM.UNIT      DATA TYPE    INFORMATION
#----------   ------------   ------------------------------
 STRT.F           39.5000:   START DEPTH
 STOP.F          591.0000:   STOP DEPTH
 STEP.F            0.5000:   STEP LENGTH
 NULL.          -999.2500:   NO VALUE
 COMP. FENIX & SCISSON INC:   COMPANY
 WELL.      26 SX 3 #26-3:   WELL
 FLD .             TEAPOT:   FIELD
 LOC .       S3 T38N R78W:   LOCATION
 CNTY.            NATRONA:   COUNTY
 STAT.            WYOMING:   STATE
 CTRY. UNITED STATES OF AMERICA:   COUNTRY
 SRVC.           BIRDWELL:   SERVICE COMPANY
 DATE.        01-OCT-1978:   LOGDATE
 API .       490251071500:   API NUMBER
~CURVE INFORMATION
#MNEM.UNIT       API CODE    CURVE DESCRIPTION
#----------   ------------   ------------------------------
 DEPT.F                  :   
 SPR .MV     05 010 01 00:   SPONTANEOUS POTENTIAL FROM RES.
 SN  .OHMM   05 040 16 00:   SHORT NORMAL 16"
 ILD .OHMM   05 120 46 00:   INDUCTION LOG DEEP
 RHOB.G/C3   45 350 01 00:   BULK DENSITY
 CORR.G/C3   45 356 01 00:   DENSITY CORRECTION
 DPHI.DEC    45 890 12 00:   DENSITY POROSITY SANDSTONE
 GRD .GAPI   45 310 01 00:   GAMMA RAY FROM DENSITY LOG
 CALD.IN     45 280 60 00:   CALIPER
~PARAMETER INFORMATION
#MNEM.UNIT          VALUE    DESCRIPTION
#----------   ------------   ------------------------------
 PD  .                 GL:   PERMANENT DATUM
 EPD .F              5225:   ELEVATION PERMANENT DATUM
 LMF .                 KB:   LOG MEASURED FROM
 DAPD.F                 4:   FEET ABOVE PERMANENT DATUM
 DMF .                 KB:   DRILLING MEASURED FROM
 EKB .F              5229:   KELLING BUSHING
 EGL .F              5225:   GROUND LEVEL
 DATE.            10-1-78:   RUN DATE
 RUN .                  1:   RUN NUMBER
 DD  .F               600:   DEPTH DRILLER
 DL  .F               597:   DEPTH LOGGER
 BLI .F               591:   BOTTOM LOG INTERVAL
 TLI .F                60:   TOP LOG INTERVAL
 CS  .IN            8.625:   CASING SIZE
 CBD .F                40:   CASING BOTTOM DRILLER
 BS  .IN            7.875:   BIT SIZE
 BSD .F               600:   BIT SIZE AT DEPTH
 DFT .                KCL:   DRILLING FLUID TYPE
 DFD .                8.7:   DRILLING FLUID DENSITY
 DFV .                 34:   DRILLING FLUID VISCOSITY
 DFPH.                  9:   DRILLING FLUID PH
 DFL .                 10:   DRILLING FLUID LOSS
 MSS .            MUD PIT:   MUD SAMPLE SOURCE
 RMS .OHMM            .24:   RESISTIVITY MUD SAMPLE
 MST .F                65:   MUD SAMPLE TEMPERATURE
 RMF .OHMM            .45:   RESISTIVITY MUD FILTRATE SAMPLE
 MFST.F                65:   MUD FILTRATE SAMPLE TEMPERATURE
 RMC .OHMM             .4:   RESISTIVITY MUD CAKE
 MCST.F                65:   MUD CAKE SAMPLE TEMPERATURE
 MFSS.               MEAS:   MUD FILTRATE SAMPLE SOURCE
 TCS .HRS               3:   TIME CURCULATED STOPPED
 LUN .               2958:   LOGGING UNIT NUMBER
 LUL .               CASP:   LOGGING UNIT LOCATION
 ENGI.             MILLER:   RECORDING ENGINEER
 WITN.           DINSMORE:   WITNESSED BY
 CLNT.            A2DTECH:   CLIENT CODE
 ORIG.       2", 5" PRINT:   ORIGIN OF DATA
 UWI .       490251071500:   UNIQUE WELL ID
 DICO. A2D Technologies, Inc.:   DIGITIZING COMPANY
~OTHER INFORMATION
~A   DEPT      SPR         SN        ILD       RHOB       CORR       DPHI        GRD         CALD 
# ...
  525.5000   -10.4269     8.7760     8.1838     2.5029     0.0650     0.0932   127.2333     7.6135
  526.0000   -10.2770     9.8617     9.1109     2.5191     0.0633     0.0890   123.1458     7.5540
  526.5000   -10.2873    10.0200    10.1476     2.5243     0.0617     0.0857   121.3506     7.5369
  527.0000   -10.2947    10.1802    10.9764     2.5298     0.0665     0.0842   120.8914     7.5277
  527.5000   -10.3017    10.3430    11.3995     2.5325     0.0766     0.0827   120.5564     7.5187
  528.0000   -10.3086    10.5084    11.7415     2.5350     0.0867     0.0812   120.2416     7.5096
  528.5000   -10.3156    10.6765    11.6266     2.5376     0.0896     0.0816   119.9213     7.5004
  529.0000   -10.3225    10.8417    11.5326     2.5344     0.0980     0.0841   119.2169     7.4915
  529.5000   -10.3295    10.9894    11.4225     2.5286     0.1161     0.0851   117.5588     7.4865
  530.0000   -10.3364    11.1391    11.6395     2.5279     0.1258     0.0829   116.1202     7.4915
  530.5000   -10.3434    11.2909    11.8619     2.5436     0.1195     0.0662   115.4899     7.4962
  531.0000   -10.3503    11.4447    11.9166     2.5588     0.0927     0.0674   115.4165     7.5010
  531.5000   -10.3572    11.6006    11.9716     2.5646     0.0710     0.0709   115.5069     7.5058
  532.0000   -10.3642    11.7586    12.0268     2.5499     0.0648     0.0767   115.3126     7.5106
  532.5000   -10.3711    11.9188    12.1254     2.5353     0.0759     0.0824   114.2677     7.5154
  533.0000   -10.3781    12.0812    12.3719     2.5239     0.0856     0.0850   112.8193     7.5202
  533.5000   -10.3850    12.2458    12.6234     2.5322     0.0866     0.0721   112.0891     7.5247
  534.0000   -10.3920    12.4126    12.8708     2.5463     0.0771     0.0684   111.5072     7.5248
  534.5000   -10.3989    12.5817    12.9773     2.5586     0.0652     0.0688   111.4130     7.5248
  535.0000   -10.4059    12.7531    13.1059     2.5588     0.0533     0.0733   111.9106     7.5248
  535.5000   -10.4128    12.9895    13.2303     2.5535     0.0414     0.0793   113.1529     7.5247
  536.0000   -10.4197    12.9772    13.7146     2.5442     0.0391     0.0853   114.7683     7.5248
  536.5000   -10.4267    12.9558    14.1960     2.5336     0.0419     0.0905   115.5316     7.5246
  537.0000   -10.4336    12.9352    14.3887     2.5255     0.0451     0.0926   115.1202     7.5514
  537.5000   -10.4406    12.9146    14.4175     2.5218     0.0475     0.0943   114.3148     7.6015
  538.0000   -10.4475    12.8942    14.4464     2.5189     0.0505     0.0960   113.8790     7.6513
  538.5000   -10.4545    12.8737    14.4753     2.5162     0.0501     0.1014   114.0822     7.6877
  539.0000   -10.4612    12.8533    14.5027     2.5134     0.0489     0.1092   114.9850     7.6984
  539.5000   -10.4683    12.8330    14.2039     2.5053     0.0471     0.1170   115.2603     7.7097
  540.0000   -10.4775    12.8126    13.9265     2.4899     0.0716     0.1194   115.2583     7.7212
  540.5000   -10.6063    12.7923    13.7200     2.4742     0.0926     0.1058   115.0310     7.7125
  541.0000   -10.8856    12.7720    13.7046     2.4926     0.0917     0.0900   114.8129     7.7000
  541.5000   -11.1636    12.7518    13.6885     2.5154     0.0791     0.0882   114.6167     7.6873
  542.0000   -11.4414    12.6627    13.6726     2.5246     0.0789     0.0863   113.4250     7.6747
  542.5000   -11.4777    12.5776    13.6564     2.5304     0.0745     0.0706   111.8095     7.6637
  543.0000   -11.4776    12.4935    13.6404     2.5496     0.0596     0.0723   109.7898     7.6679
  543.5000   -11.4771    12.4099    13.6247     2.5600     0.0449     0.0773   108.4132     7.6723
  544.0000   -11.4770    12.3270    13.6024     2.5526     0.0301     0.0823   108.4061     7.6766
  544.5000   -11.4770    12.2445    13.6055     2.5435     0.0155     0.0873   110.1534     7.6808
  545.0000   -11.4770    12.1626    13.2728     2.5345     0.0154     0.0923   112.3992     7.6851
  545.5000   -11.4770    12.0813    13.0548     2.5261     0.0160     0.0974   113.7662     7.6894
  546.0000   -11.4770    12.0005    12.8409     2.5201     0.0166     0.0960   114.5124     7.6936
  546.5000   -11.4770    11.8926    12.6305     2.5181     0.0171     0.0945   115.3455     7.6979
  547.0000   -11.4770    11.7570    12.4236     2.5197     0.0177     0.0931   116.3287     7.7022
  547.5000   -11.4770    11.6222    12.2202     2.5214     0.0182     0.0926   118.0884     7.7061
  548.0000   -11.4770    11.4892    12.0200     2.5230     0.0187     0.0925   119.9014     7.7100
  548.5000   -11.4770    11.3579    11.9211     2.5223     0.0192     0.0924   120.8895     7.7138
  549.0000   -11.4770    11.2280    11.8664     2.5215     0.0198     0.0923   121.8363     7.7178
  549.5000   -11.4770    11.1658    11.8119     2.5201     0.0203     0.0922   122.7675     7.7213
  550.0000   -11.4768    11.0960    11.7577     2.5162     0.0209     0.0960   124.3290     7.7390
  550.5000   -11.4754    11.0267    11.5963     2.5126     0.0217     0.0983   126.1467     7.7618
  551.0000   -11.5321    10.9578    11.3920     2.5102     0.0227     0.0958   126.6127     7.7828
  551.5000   -11.5940    10.8572    11.1914     2.5108     0.0237     0.0941   127.0045     7.7823
  552.0000   -11.6561    10.6825    10.9942     2.5115     0.0247     0.0938   127.4078     7.7822
  552.5000   -11.7178    10.5105    10.8005     2.5121     0.0257     0.0934   127.4659     7.7822
  553.0000   -11.7799    10.3415    10.6103     2.5127     0.0267     0.0931   127.5033     7.7822
  553.5000   -11.8439    10.2823    10.5089     2.5146     0.0301     0.0927   127.5439     7.7822
  554.0000   -12.0075    10.2352    10.4938     2.5173     0.0342     0.0901   127.5904     7.7822
  554.5000   -12.3063    10.1885    10.4788     2.5213     0.0354     0.0862   127.6081     7.7822
  555.0000   -12.6029    10.1418    10.4637     2.5274     0.0360     0.0860   126.6205     7.7822
  555.5000   -12.8984    10.0953    10.4487     2.5305     0.0366     0.0865   124.2697     7.7822
  556.0000   -13.0658    10.0491    10.4338     2.5291     0.0371     0.0869   122.7019     7.7822
  556.5000   -13.0394    10.0031    10.4180     2.5284     0.0377     0.0862   122.1989     7.7822
  557.0000   -13.0156     9.9572    10.3953     2.5306     0.0382     0.0852   122.6639     7.7822
  557.5000   -12.9913     9.9116    10.3726     2.5327     0.0388     0.0842   123.6756     7.7822
  558.0000   -12.9672     9.8662    10.3499     2.5348     0.0381     0.0831   124.6730     7.7822
  558.5000   -12.9430     9.8210    10.3273     2.5338     0.0367     0.0822   125.4738     7.7822
  559.0000   -12.9185     9.7760    10.2191     2.5325     0.0353     0.0839   125.5057     7.7822
  559.5000   -12.8945     9.7312    10.1024     2.5293     0.0340     0.0855   125.5502     7.7818
  560.0000   -12.8889     9.6867     9.9869     2.5255     0.0345     0.0874   125.5920     7.7810
  560.5000   -12.9941     9.6075     9.8729     2.5220     0.0408     0.0902   125.6822     7.7802
  561.0000   -13.0985     9.5251     9.7940     2.5228     0.0454     0.0898   126.5987     7.7793
  561.5000   -13.2036     9.4435     9.7193     2.5235     0.0462     0.0893   127.5049     7.7785
  562.0000   -13.4023     9.3625     9.6453     2.5240     0.0471     0.0887   127.8664     7.7777
  562.5000   -13.8109     9.2823     9.5717     2.5240     0.0481     0.0882   127.5228     7.7769
  563.0000   -14.2166     9.2027     9.4988     2.5241     0.0489     0.0859   126.0776     7.7761
  563.5000   -14.6233     9.1238     9.4263     2.5268     0.0441     0.0811   124.1544     7.7752
  564.0000   -15.0243     9.0456     9.1836     2.5346     0.0391     0.0812   122.2183     7.7744
  564.5000   -15.1202     8.9681     8.9287     2.5368     0.0406     0.0888   121.7962     7.7736
  565.0000   -15.1747     8.8203     8.6810     2.5282     0.0428     0.0964   124.0359     7.7728
  565.5000   -15.2292     8.5142     8.4401     2.5194     0.0449     0.1050   127.9658     7.7720
