~VERSION INFORMATION
 VERS.                2.0:   CWLS LOG ASCII STANDARD - VERSION 2.0
 WRAP.                 NO:   ONE LINE PER DEPTH STEP
~WELL INFORMATION
#MNEM.UNIT      DATA TYPE    INFORMATION
#----------   ------------   ------------------------------
 STRT.F            1.0000:   START DEPTH
 STOP.F          508.0000:   STOP DEPTH
 STEP.F            0.1000:   STEP LENGTH
 NULL.          -999.2500:   NO VALUE
 COMP.       F D SERV INC:   COMPANY
 WELL. NAVAL PETROLEUM RESERVE 3 SX-1 #83-4-10:   WELL
 FLD .             TEAPOT:   FIELD
 LOC .      S10 T38N R78W:   LOCATION
 CNTY.            NATRONA:   COUNTY
 STAT.            WYOMING:   STATE
 CTRY. UNITED STATES OF AMERICA:   COUNTRY
 SRVC.     Atlas Wireline:   SERVICE COMPANY
 DATE.        26-JAN-1993:   LOGDATE
 API .       490252258300:   API NUMBER
~CURVE INFORMATION
#MNEM.UNIT       API CODE    CURVE DESCRIPTION
#----------   ------------   ------------------------------
 DEPT.F                  :   
 GRR .GAPI   07 310 01 00:   GAMMA RAY
 RILD.OHMM   07 120 46 00:   INDUCTION LOG DEEP RESISTIVITY
 RILM.OHMM   07 120 44 00:   INDUCTION LOG MEDIUM RESISTIVITY
~PARAMETER INFORMATION
#MNEM.UNIT          VALUE    DESCRIPTION
#----------   ------------   ------------------------------
 PD  .                 GL:   PERMANENT DATUM
 EPD .F              5152:   ELEVATION PERMANENT DATUM
 LMF .                 KB:   LOG MEASURED FROM
 DAPD.F                10:   FEET ABOVE PERMANENT DATUM
 DMF .                 KB:   DRILLING MEASURED FROM
 EKB .F              5162:   KELLING BUSHING
 EDF .F              5161:   DRILLING FLOOR
 EGL .F              5152:   GROUND LEVEL
 DATE.        26-JAN-1993:   RUN DATE
 RUN .                  1:   RUN NUMBER
 DD  .F               515:   DEPTH DRILLER
 DL  .F               516:   DEPTH LOGGER
 BLI .F               508:   BOTTOM LOG INTERVAL
 CS  .IN            8.625:   CASING SIZE
 CBD .F                55:   CASING BOTTOM DRILLER
 CBL .F                55:   CASING BOTTOM LOGGER
 BS  .IN            7.875:   BIT SIZE
 BSD .F               515:   BIT SIZE AT DEPTH
 DFT .                AIR:   DRILLING FLUID TYPE
 MRT .F                63:   MAXIMUM RECORDED TEMPERATURE
 LUN .           HL- 6274:   LOGGING UNIT NUMBER
 LUL .             CASPER:   LOGGING UNIT LOCATION
 ENGI.       P. RASMUSSEN:   RECORDING ENGINEER
 WITN.          G. STRONG:   WITNESSED BY
 CLNT.            A2DTECH:   CLIENT CODE
 ORIG.           5" PRINT:   ORIGIN OF DATA
 UWI .       490252258300:   UNIQUE WELL ID
 DICO. A2D Technologies, Inc.:   DIGITIZING COMPANY
~OTHER INFORMATION
~A    DEPT     GRR       RILD       RILM   
# ...
  237.6000   161.0611     4.8807     4.8780
  237.7000   160.8018     4.8471     4.8760
  237.8000   160.5422     4.8135     4.8442
  237.9000   159.9398     4.7799     4.8441
  238.0000   159.2892     4.7464     4.8227
  238.1000   158.1618     4.7128     4.8106
  238.2000   156.8655     4.6628     4.8105
  238.3000   155.6602     4.6392     4.8104
  238.4000   154.7213     4.6392     4.8104
  238.5000   154.2098     4.6392     4.8103
  238.6000   153.9157     4.6392     4.8102
  238.7000   153.6913     4.6392     4.8102
  238.8000   153.2498     4.6392     4.8101
  238.9000   152.7313     4.6392     4.8100
  239.0000   152.3112     4.6570     4.8184
  239.1000   151.9392     4.6714     4.8433
  239.2000   151.1759     4.6806     4.8433
  239.3000   150.6024     4.7039     4.8768
  239.4000   149.6755     4.7043     4.9005
  239.5000   148.8283     4.7366     4.9297
  239.6000   148.3462     4.7610     4.9447
  239.7000   147.9811     4.7695     4.9543
  239.8000   147.5904     4.7851     4.9839
  239.9000   147.5685     4.8138     5.0138
  240.0000   147.2892     4.8427     5.0833
  240.1000   147.0500     4.8718     5.0832
  240.2000   146.9879     4.9035     5.1249
  240.3000   146.9879     4.9578     5.1701
  240.4000   146.9879     5.0175     5.2009
  240.5000   147.0592     5.0780     5.2383
  240.6000   147.2892     5.1392     5.2998
  240.7000   147.2892     5.2011     5.3352
  240.8000   147.5358     5.2637     5.3632
  240.9000   147.5904     5.3284     5.4185
  241.0000   147.5904     5.4027     5.4835
  241.1000   147.7110     5.4563     5.5492
  241.2000   147.9703     5.4999     5.6157
  241.3000   148.1928     5.5500     5.6804
  241.4000   148.1928     5.6049     5.7172
  241.5000   148.7952     5.6452     5.7799
  241.6000   148.7952     5.7132     5.8229
  241.7000   149.1354     5.7901     5.8715
  241.8000   149.6538     5.8518     5.9298
  241.9000   150.2585     5.9223     5.9880
  242.0000   151.0802     5.9937     6.0463
  242.1000   152.1194     6.0507     6.1045
  242.2000   153.6145     6.0871     6.1628
  242.3000   155.3702     6.1274     6.2210
  242.4000   157.2667     6.2053     6.2792
  242.5000   158.5392     6.2405     6.3375
  242.6000   159.4105     6.2780     6.3957
  242.7000   160.3958     6.3397     6.4540
  242.8000   161.1639     6.4161     6.5122
  242.9000   161.7470     6.4809     6.5705
  243.0000   162.2008     6.5262     6.6287
  243.1000   162.5343     6.6045     6.6870
  243.2000   162.6506     6.6502     6.7452
  243.3000   162.6506     6.7183     6.8035
  243.4000   162.5916     6.7992     6.8617
  243.5000   162.3323     6.8590     6.9200
  243.6000   162.0482     6.9160     6.9867
  243.7000   162.0482     6.9899     7.0223
  243.8000   161.4710     7.0346     7.0643
  243.9000   160.9942     7.1270     7.1292
  244.0000   160.4097     7.1660     7.1985
  244.1000   159.5057     7.2091     7.2415
  244.2000   158.9627     7.2524     7.2847
  244.3000   158.1325     7.2959     7.3330
  244.4000   157.4072     7.3397     7.3719
  244.5000   156.4297     7.3838     7.4159
  244.6000   155.2349     7.4294     7.4602
  244.7000   153.9387     7.4294     7.4865
  244.8000   152.8642     7.4658     7.4974
  244.9000   152.3458     7.5106     7.5421
  245.0000   151.8072     7.5330     7.5906
  245.1000   151.3089     7.5330     7.5905
  245.2000   150.9976     7.5415     7.5904
  245.3000   151.0689     7.5868     7.5903
  245.4000   151.2048     7.6381     7.6102
  245.5000   151.2048     7.6381     7.6429
  245.6000   151.2048     7.6381     7.6427
  245.7000   151.2048     7.6639     7.6426
  245.8000   151.2048     7.7099     7.6863
  245.9000   151.2048     7.7446     7.6955
  246.0000   151.2048     7.7446     7.6954
  246.1000   151.2048     7.7446     7.6953
  246.2000   151.2048     7.7882     7.6952
  246.3000   151.2048     7.7984     7.6951
  246.4000   151.2048     7.7694     7.6950
  246.5000   151.2048     7.7446     7.6949
  246.6000   151.2048     7.7446     7.6948
  246.7000   151.2048     7.7446     7.6947
  246.8000   151.2048     7.7446     7.6946
  246.9000   151.2048     7.7446     7.6945
  247.0000   151.2590     7.7058     7.6944
  247.1000   151.5060     7.6912     7.6943
  247.2000   151.5060     7.6670     7.6941
  247.3000   151.7355     7.6381     7.6940
  247.4000   151.8072     7.6381     7.6939
  247.5000   151.9528     7.6355     7.6691
  247.6000   152.2121     7.5854     7.6233
  247.7000   152.4713     7.5446     7.5779
  247.8000   152.7502     7.4996     7.5327
  247.9000   153.3132     7.4548     7.4832
  248.0000   153.5502     7.4294     7.4831
  248.1000   154.1994     7.4172     7.4502
  248.2000   154.8241     7.3729     7.4058
  248.3000   155.4536     7.3272     7.3617
  248.4000   156.2313     7.3272     7.3178
  248.5000   157.0632     7.3272     7.2782
  248.6000   158.4337     7.2988     7.2781
  248.7000   158.9225     7.2553     7.2377
  248.8000   159.2386     7.2264     7.1945
  248.9000   159.4978     7.2264     7.1777
  249.0000   159.7570     7.2245     7.1584
  249.1000   160.0163     7.1270     7.1157
  249.2000   160.2410     7.1270     7.0786
  249.3000   160.2410     7.0968     7.0785
  249.4000   160.5422     7.0545     7.0784
  249.5000   160.7520     7.0290     7.0445
  249.6000   160.8434     7.0189     7.0025
  249.7000   160.9693     6.9770     6.9808
  249.8000   161.0606     6.9323     6.9673
  249.9000   160.5078     6.8940     6.9258
  250.0000   158.4337     6.8528     6.8845
  250.1000   156.6265     6.8119     6.8844
  250.2000   155.7574     6.7712     6.8843
  250.3000   155.0711     6.7308     6.8565
  250.4000   154.5526     6.6906     6.8156
  250.5000   154.0341     6.6502     6.7893
  250.6000   153.6145     6.6043     6.7736
  250.7000   153.6293     6.5715     6.6958
  250.8000   154.2169     6.5323     6.6957
  250.9000   154.4416     6.4933     6.6608
  251.0000   154.8835     6.4406     6.6211
  251.1000   155.2612     6.3639     6.5602
  251.2000   155.6193     6.2899     6.4823
  251.3000   156.1378     6.2484     6.4053
  251.4000   156.7156     6.1820     6.3292
  251.5000   158.4337     6.1354     6.2471
  251.6000   159.8265     6.0568     6.1799
  251.7000   161.0016     5.9490     6.1065
  251.8000   161.8904     5.8522     6.0132
  251.9000   162.6680     5.7787     5.9064
  252.0000   163.2530     5.6710     5.7926
  252.1000   163.2530     5.5749     5.6591
  252.2000   163.2530     5.4498     5.5527
  252.3000   162.7739     5.3615     5.4601
  252.4000   162.0578     5.2977     5.3881
  252.5000   161.1245     5.2346     5.3242
  252.6000   159.8602     5.1722     5.2610
  252.7000   158.3765     5.1106     5.2076
  252.8000   157.0505     5.0412     5.1724
  252.9000   155.4217     4.9897     5.1095
  253.0000   153.9398     4.9304     5.0391
  253.1000   152.3843     4.9035     4.9904
  253.2000   151.4811     4.8921     4.9504
  253.3000   151.0837     4.8629     4.9208
  253.4000   150.9827     4.8360     4.8915
  253.5000   151.2791     4.8360     4.8673
  253.6000   151.8072     4.8095     4.8669
  253.7000   152.4096     4.8027     4.8335
  253.8000   152.6221     4.8201     4.8335
  253.9000   152.8813     4.8360     4.8564
  254.0000   153.0121     4.8445     4.8897
  254.1000   153.0121     4.8736     4.9231
  254.2000   152.9229     4.9035     4.9564
  254.3000   152.3992     4.9035     4.9898
  254.4000   151.2048     4.9522     5.0231
  254.5000   150.7651     4.9918     5.0565
  254.6000   150.2466     5.0218     5.0898
  254.7000   149.8640     5.0519     5.1232
  254.8000   149.5108     5.0883     5.1565
  254.9000   149.0444     5.1483     5.1898
  255.0000   148.7751     5.1828     5.2232
  255.1000   148.1928     5.2381     5.2565
  255.2000   147.7381     5.3012     5.2891
  255.3000   147.2197     5.3467     5.3226
  255.4000   146.7012     5.4058     5.3905
  255.5000   146.0813     5.4951     5.4472
  255.6000   145.2442     5.5612     5.5106
  255.7000   144.1897     5.6319     5.5579
