~VERSION INFORMATION
 VERS.                2.0:   CWLS LOG ASCII STANDARD - VERSION 2.0
 WRAP.                 NO:   ONE LINE PER DEPTH STEP
~WELL INFORMATION
#MNEM.UNIT      DATA TYPE    INFORMATION
#----------   ------------   ------------------------------
 STRT.F            0.0000:   START DEPTH
 STOP.F          664.0000:   STOP DEPTH
 STEP.F            0.5000:   STEP LENGTH
 NULL.          -999.2500:   NO VALUE
 COMP. Fluor Daniel (NPOSR) Inc:   COMPANY
 WELL.      71-3-X-3 #3-3:   WELL
 FLD .             N.P.R.:   FIELD
 LOC .       S3 T38N R78W:   LOCATION
 CNTY.            NATRONA:   COUNTY
 STAT.            WYOMING:   STATE
 CTRY. UNITED STATES OF AMERICA:   COUNTRY
 SRVC.      Western Atlas:   SERVICE COMPANY
 DATE.        12-APR-1996:   LOGDATE
 API .       490252277200:   API NUMBER
~CURVE INFORMATION
#MNEM.UNIT       API CODE    CURVE DESCRIPTION
#----------   ------------   ------------------------------
 DEPT.F                  :   
 GRR .GAPI   07 310 01 00:   GAMMA RAY FROM RES. LOG.
 RILD.OHMM   07 120 46 00:   INDUCTION LOG DEEP RESISTIVITY
 RILM.OHMM   07 120 44 00:   INDUCTION LOG MEDIUM RESISTIVITY
~PARAMETER INFORMATION
#MNEM.UNIT          VALUE    DESCRIPTION
#----------   ------------   ------------------------------
 PD  .                 GL:   PERMANENT DATUM
 EPD .F              5118:   ELEVATION PERMANENT DATUM
 LMF .                 KB:   LOG MEASURED FROM
 DAPD.F                10:   FEET ABOVE PERMANENT DATUM
 DMF .                 KB:   DRILLING MEASURED FROM
 EKB .F              5128:   KELLING BUSHING
 EDF .F              5127:   DRILLING FLOOR
 EGL .F              5118:   GROUND LEVEL
 DATE.        12-APR-1996:   RUN DATE
 RUN .                  1:   RUN NUMBER
 DD  .F               670:   DEPTH DRILLER
 DL  .F               672:   DEPTH LOGGER
 BLI .F               664:   BOTTOM LOG INTERVAL
 CS  .IN            9.625:   CASING SIZE
 CBD .F                56:   CASING BOTTOM DRILLER
 CBL .F                57:   CASING BOTTOM LOGGER
 BS  .IN             8.75:   BIT SIZE
 BSD .F               670:   BIT SIZE AT DEPTH
 DFT .                AIR:   DRILLING FLUID TYPE
 MRT .F                84:   MAXIMUM RECORDED TEMPERATURE
 LUN .             HL6530:   LOGGING UNIT NUMBER
 LUL .             CASPER:   LOGGING UNIT LOCATION
 ENGI.             RAUTIO:   RECORDING ENGINEER
 WITN.              HARDY:   WITNESSED BY
 CLNT.            A2DTECH:   CLIENT CODE
 ORIG.       2", 5" PRINT:   ORIGIN OF DATA
 UWI .       490252277200:   UNIQUE WELL ID
 DICO. A2D Technologies, Inc.:   DIGITIZING COMPANY
~OTHER INFORMATION
~A    DEPT      GRR      RILD       RILM   
# ...
  455.0000    89.9762    16.2933    15.4258
  455.5000    88.9567    16.3593    15.3826
  456.0000    89.3330    16.4243    15.6117
  456.5000    92.3451    16.4895    15.8039
  457.0000    93.6081    16.5550    15.9962
  457.5000    92.6673    16.6206    16.2497
  458.0000    93.0245    16.6865    16.1795
  458.5000    95.5630    16.7530    16.0895
  459.0000    96.6647    16.8206    15.9999
  459.5000    96.8460    16.8693    15.9109
  460.0000    95.9079    16.6325    15.8136
  460.5000    94.3789    16.4177    15.6160
  461.0000    92.8550    16.2068    15.3999
  461.5000    91.9610    15.9987    15.1884
  462.0000    91.7894    15.7934    14.9578
  462.5000    92.4710    15.5906    14.7326
  463.0000    95.0555    15.3834    14.5623
  463.5000    96.9898    15.2576    14.3940
  464.0000    95.7666    15.1297    14.2275
  464.5000    92.6679    15.0025    14.1589
  465.0000    89.6088    14.8757    14.1589
  465.5000    89.9073    14.7114    14.1589
  466.0000    90.0182    14.5220    14.0291
  466.5000    89.3124    14.3356    13.8258
  467.0000    89.4040    14.1586    13.6329
  467.5000    91.0789    14.0707    13.3671
  468.0000    92.8370    13.9866    13.2697
  468.5000    92.8062    13.9030    13.1532
  469.0000    92.2638    13.8198    13.1798
  469.5000    91.7161    13.7371    13.2105
  470.0000    91.1735    13.6468    13.2413
  470.5000    90.6152    13.6087    13.2743
  471.0000    90.8846    13.5666    13.2748
  471.5000    93.4415    13.5246    13.2749
  472.0000    96.1338    13.4827    13.2749
  472.5000    97.5255    13.4410    13.2757
  473.0000    95.6470    13.3977    13.1325
  473.5000    92.0742    13.3053    12.9844
  474.0000    88.8313    13.1851    12.8379
  474.5000    89.7364    13.0660    12.6931
  475.0000    92.2538    12.9479    12.5499
  475.5000    94.0401    12.8310    12.4083
  476.0000    94.6530    12.7150    12.2683
  476.5000    95.9995    12.6002    12.1300
  477.0000    97.1855    12.4861    12.0912
  477.5000    95.7179    12.4140    12.0553
  478.0000    93.4681    12.3646    12.0196
  478.5000    93.4010    12.3155    11.9840
  479.0000    93.6286    12.2665    11.9484
  479.5000    93.8848    12.2177    11.9130
  480.0000    94.8928    12.1691    11.8777
  480.5000    97.0595    12.1207    11.8425
  481.0000    99.1903    12.0801    11.8075
  481.5000   100.5499    12.0427    11.7694
  482.0000    99.1844    12.0054    11.7155
  482.5000    98.0451    11.9958    11.6692
  483.0000    98.5440    12.1639    11.8203
  483.5000    98.5901    12.2903    11.9538
  484.0000    96.5781    12.4180    12.0888
  484.5000    95.6342    12.5470    12.2252
  485.0000    96.1490    12.6774    12.3642
  485.5000    97.8197    12.7513    12.4652
  486.0000    99.3025    12.8258    12.5631
  486.5000    99.2322    12.9150    12.6774
  487.0000    97.2764    12.8469    12.5797
  487.5000    97.2289    12.7011    12.3983
  488.0000    98.5437    12.5040    12.2076
  488.5000    99.5311    12.3033    12.0198
  489.0000    98.3569    12.1059    11.8348
  489.5000    97.2530    11.9106    11.6518
  490.0000    98.1043    11.7374    11.4575
  490.5000   100.3883    11.6001    11.3406
  491.0000   101.8000    11.4665    11.2140
  491.5000   100.2202    11.3339    11.0888
  492.0000    97.5894    11.2029    10.9650
  492.5000    96.0187    11.0725    10.8426
  493.0000    97.1231    10.9825    10.7406
  493.5000    99.3319    10.9038    10.7638
  494.0000   101.2465    10.8400    10.7838
  494.5000   101.0780    10.8921    10.8039
  495.0000   100.9407    10.9819    10.8293
  495.5000   100.7736    11.0724    10.8381
  496.0000    99.7255    11.1437    11.5500
  496.5000    98.6287    11.8947    12.2994
  497.0000    97.4426    12.6803    12.9231
  497.5000    96.1166    13.5178    14.3430
  498.0000    94.5993    14.7717    15.8826
  498.5000    89.4292    16.2118    17.7227
  499.0000    83.7163    17.6616    19.7765
  499.5000    79.3892    20.6552    21.8909
  500.0000    78.8525    23.2825    23.8243
  500.5000    79.1133    26.9574    25.0628
  501.0000    78.7673    29.5822    27.1006
  501.5000    77.8584    30.9970    28.3108
  502.0000    76.7690    32.6340    29.5751
  502.5000    75.2664    34.1846    30.9763
  503.0000    72.9396    35.5656    32.3586
  503.5000    72.7400    37.5814    33.8961
  504.0000    73.1027    38.6394    35.5067
  504.5000    72.3704    38.2489    35.9070
  505.0000    69.7400    37.1623    33.1896
  505.5000    67.6124    33.2602    30.4029
  506.0000    68.0179    31.3420    26.7319
  506.5000    70.3730    29.5111    25.4335
  507.0000    74.6693    27.7905    24.1933
  507.5000    79.2773    26.0121    23.1969
  508.0000    82.1378    24.3137    22.4900
  508.5000    81.1945    23.4392    21.8047
  509.0000    79.6055    22.8130    21.1402
  509.5000    81.5127    22.2353    21.0177
  510.0000    84.7430    22.1739    20.9318
  510.5000    88.0830    22.1071    20.8461
  511.0000    86.8109    22.0392    20.7610
  511.5000    84.3764    21.9711    20.6760
  512.0000    83.1462    21.9032    20.5911
  512.5000    82.6973    21.8276    20.5075
  513.0000    82.2343    21.8597    20.4644
  513.5000    82.2573    21.9039    20.7433
  514.0000    83.6611    21.9482    20.9584
  514.5000    85.0677    21.9925    21.1758
  515.0000    85.4034    22.0308    21.2339
  515.5000    83.2732    21.5797    20.4258
  516.0000    82.0930    21.1913    19.8417
  516.5000    82.9103    20.8098    19.2974
  517.0000    83.0595    20.4352    18.8839
  517.5000    82.8690    20.0270    18.4792
  518.0000    84.8006    19.5979    18.1472
  518.5000    87.1668    19.1779    18.0977
  519.0000    88.4268    19.0111    18.0483
  519.5000    88.4174    18.8358    17.8250
  520.0000    88.6897    19.0693    18.0445
  520.5000    90.4909    19.3024    18.4070
  521.0000    91.6227    19.5375    18.7769
  521.5000    90.1756    19.7756    19.1542
  522.0000    85.0265    19.9081    19.3656
  522.5000    78.4493    19.3310    18.7074
  523.0000    72.1378    18.9424    18.1023
  523.5000    73.2739    18.6435    17.5167
  524.0000    78.5589    18.5650    16.9501
  524.5000    84.0633    18.4940    16.5557
  525.0000    89.5435    17.9324    16.4079
  525.5000    93.6561    17.5033    16.2571
  526.0000    95.1366    17.0845    16.1427
  526.5000    93.9475    16.6757    16.0183
  527.0000    93.2353    16.4070    15.8949
  527.5000    94.0403    16.4070    15.7364
  528.0000    95.9269    16.4070    15.5098
  528.5000    97.8089    16.4070    15.2864
  529.0000    97.9990    16.0208    15.1018
  529.5000    96.3622    15.6271    14.8108
  530.0000    95.2037    15.2423    14.5148
  530.5000    94.6313    14.8673    14.2248
  531.0000    95.9041    14.5015    13.9422
  531.5000    96.8882    14.1448    13.5455
  532.0000    97.5673    13.7968    12.7917
  532.5000    98.1304    13.4576    12.6734
  533.0000    98.4178    13.1634    12.6799
  533.5000    96.6766    12.8853    12.4776
  534.0000    92.9933    12.6756    12.3566
  534.5000    89.9268    12.5947    12.2364
  535.0000    90.4501    12.5159    12.1499
  535.5000    92.4545    12.4376    12.0696
  536.0000    96.1458    12.3599    11.9958
  536.5000    99.6596    12.2826    11.9737
  537.0000   100.1804    12.2058    11.9531
  537.5000    99.0321    12.1294    11.9325
  538.0000    96.8739    12.1068    11.9120
  538.5000    94.4974    12.1469    11.8863
  539.0000    91.4812    12.1777    11.9218
  539.5000    88.8315    12.2086    11.9718
  540.0000    88.8023    12.2395    12.0058
  540.5000    90.8107    12.2705    12.0235
  541.0000    93.4258    12.3017    12.0415
  541.5000    95.5664    12.3329    12.0595
  542.0000    94.5855    12.3641    12.0777
  542.5000    93.4199    12.3955    12.0960
  543.0000    95.0305    12.4269    12.1062
  543.5000    98.7745    12.4460    12.0378
  544.0000   100.9799    12.3458    11.9883
  544.5000   100.4235    12.2744    11.9389
  545.0000   100.6968    12.2034    11.8897
  545.5000   100.5664    12.1328    11.8408
