~VERSION INFORMATION
 VERS.                2.0:   CWLS LOG ASCII STANDARD - VERSION 2.0
 WRAP.                 NO:   ONE LINE PER DEPTH STEP
~WELL INFORMATION
#MNEM.UNIT      DATA TYPE    INFORMATION
#----------   ------------   ------------------------------
 STRT.F            5.0000:   START DEPTH
 STOP.F          640.0000:   STOP DEPTH
 STEP.F            0.5000:   STEP LENGTH
 NULL.          -999.2500:   NO VALUE
 COMP. BROWN JOHN E&C INC:   COMPANY
 WELL.     85-1 X 3 #85-3:   WELL
 FLD .             TEAPOT:   FIELD
 LOC .       S3 T38N R78W:   LOCATION
 CNTY.            NATRONA:   COUNTY
 STAT.            WYOMING:   STATE
 CTRY. UNITED STATES OF AMERICA:   COUNTRY
 SRVC.     Atlas Wireline:   SERVICE COMPANY
 DATE.        30-DEC-1991:   LOGDATE
 API .       490252249400:   API NUMBER
~CURVE INFORMATION
#MNEM.UNIT       API CODE    CURVE DESCRIPTION
#----------   ------------   ------------------------------
 DEPT.F                  :   
 GRR .GAPI   06 310 01 00:   GAMMA RAY FROM RESISTIVITY
 RFOC.OHMM   06 220 04 00:   RESISTIVITY FOCUSED LOG RES.
 RILD.OHMM   06 120 46 00:   DEEP INDUCTION RESISTIVITY
 RILM.OHMM   06 120 44 00:   INDUCTION LOG MEDIUM RESISTIVITY
 SPR .MV     06 010 01 00:   SPONTANEOUS POTENTIAL FROM RES.
 CALD.IN     45 280 60 00:   CALIPER FROM DENSITY LOG
 CORR.G/C3   45 356 01 00:   DENSITY CORRECTION
 DEN .G/C3   45 350 01 00:   COMPENSATED BULK DENSTIY
 PORD.DEC    45 890 12 00:   POROSITY DENSITY SANDSTONE
 CNC .DEC    42 890 03 00:   NEUTRON POROSITY SANDSTONE
~PARAMETER INFORMATION
#MNEM.UNIT          VALUE    DESCRIPTION
#----------   ------------   ------------------------------
 PD  .                 GL:   PERMANENT DATUM
 EPD .F              5156:   ELEVATION PERMANENT DATUM
 LMF .                 KB:   LOG MEASURED FROM
 DAPD.F                10:   FEET ABOVE PERMANENT DATUM
 DMF .                 KB:   DRILLING MEASURED FROM
 EKB .F              5166:   KELLING BUSHING
 EGL .F              5156:   GROUND LEVEL
 DATE.        30-DEC-1991:   RUN DATE
 RUN .                  1:   RUN NUMBER
 DD  .F               641:   DEPTH DRILLER
 DL  .F               642:   DEPTH LOGGER
 BLI .F               261:   BOTTOM LOG INTERVAL
 TLI .F               172:   TOP LOG INTERVAL
 CS  .IN            8.625:   CASING SIZE
 CBD .F               163:   CASING BOTTOM DRILLER
 CBL .F               172:   CASING BOTTOM LOGGER
 BS  .IN            7.875:   BIT SIZE
 BSD .F               641:   BIT SIZE AT DEPTH
 DFT .               CHEM:   DRILLING FLUID TYPE
 DFD .               17.1:   DRILLING FLUID DENSITY
 DFV .                 47:   DRILLING FLUID VISCOSITY
 DFPH.                9.0:   DRILLING FLUID PH
 DFL .                6.8:   DRILLING FLUID LOSS
 MSS .                PIT:   MUD SAMPLE SOURCE
 RMS .OHMM           1.40:   RESISTIVITY MUD SAMPLE
 MST .F               100:   MUD SAMPLE TEMPERATURE
 RMF .OHMM           1.12:   RESISTIVITY MUD FILTRATE SAMPLE
 MFST.F               100:   MUD FILTRATE SAMPLE TEMPERATURE
 RMC .OHMM           1.75:   RESISTIVITY MUD CAKE
 MCST.F               100:   MUD CAKE SAMPLE TEMPERATURE
 MFSS.               MEAS:   MUD FILTRATE SAMPLE SOURCE
 MCSS.               CALC:   MUD CAKE SAMPLE SOURCE
 RMB .OHMM           .536:   RESISTIVITY MUD AT BHT
 BHT .F               261:   BOTTOM HOLE TEMPERATURE
 TCS .HRS               4:   TIME CURCULATED STOPPED
 MRT .F               261:   MAXIMUM RECORDED TEMPERATURE
 LUN .            HL-6387:   LOGGING UNIT NUMBER
 LUL .          CASPER/WT:   LOGGING UNIT LOCATION
 ENGI.             ZIEGER:   RECORDING ENGINEER
 WITN.         LOFRENIERI:   WITNESSED BY
 CLNT.            A2DTECH:   CLIENT CODE
 ORIG.           5" PRINT:   ORIGIN OF DATA
 UWI .       490252249400:   UNIQUE WELL ID
 DICO. A2D Technologies, Inc.:   DIGITIZING COMPANY
~OTHER INFORMATION
~A    DEPT      GRR      RFOC       RILD       RILM        SPR       CALD       CORR        DEN       PORD        CNC   
# ...
  273.0000    86.2330     6.6699     6.8510     6.6913   -64.7341     9.6119     0.0117     2.4612     0.1302     0.3168
  273.5000    86.2602     6.6235     6.7565     6.6453   -64.5816     9.6123     0.0175     2.4627     0.1308     0.3119
  274.0000    86.5356     6.6699     6.7571     6.6923   -64.5798     9.6127     0.0144     2.4634     0.1314     0.3083
  274.5000    86.8381     6.7166     6.7575     6.7396   -64.5783     9.6132     0.0114     2.4657     0.1314     0.3104
  275.0000    86.8381     6.7166     6.7659     6.7872   -64.2747     9.6288     0.0113     2.4671     0.1305     0.3138
  275.5000    87.1407     6.7635     6.8059     6.8352   -63.9712     9.6293     0.0112     2.4686     0.1287     0.3071
  276.0000    88.0484     6.7635     6.8063     6.8356   -63.8186     9.5993     0.0097     2.4709     0.1266     0.3014
  276.5000    89.2587     6.7635     6.8068     6.8361   -63.5151     9.5999     0.0096     2.4731     0.1242     0.2998
  277.0000    89.8779     6.7635     6.8072     6.8344   -63.3625     9.6003     0.0126     2.4754     0.1221     0.2952
  277.5000    90.1664     6.7166     6.8077     6.7895   -63.2100     9.6008     0.0185     2.4769     0.1208     0.2941
  278.0000    88.6536     6.7166     6.7596     6.7901   -63.0571     9.6012     0.0230     2.4768     0.1205     0.2998
  278.5000    85.9304     6.7166     6.7143     6.7905   -62.9046     9.6017     0.0169     2.4760     0.1205     0.3059
  279.0000    82.9047     6.6699     6.6680     6.7910   -62.7521     9.6022     0.0108     2.4738     0.1211     0.3074
  279.5000    82.2995     6.6699     6.6686     6.7915   -62.7506     9.5874     0.0062     2.4700     0.1221     0.3050
  280.0000    85.0227     6.6235     6.6227     6.7447   -62.7491     9.5879     0.0077     2.4692     0.1239     0.3007
  280.5000    86.2340     6.6235     6.6231     6.6983   -62.7477     9.5884     0.0091     2.4737     0.1251     0.2995
  281.0000    87.1831     6.6235     6.6236     6.6988   -62.8973     9.5888     0.0121     2.4753     0.1242     0.3053
  281.5000    87.7458     6.6235     6.6240     6.6993   -62.8958     9.6044     0.0136     2.4759     0.1220     0.3080
  282.0000    86.8381     6.6235     6.6246     6.6531   -62.8940     9.6200     0.0165     2.4751     0.1215     0.3086
  282.5000    83.8124     6.5775     6.5789     6.6537   -62.7415     9.6205     0.0180     2.4759     0.1221     0.3086
  283.0000    82.2995     6.5775     6.5794     6.6078   -62.5889     9.6210     0.0209     2.4736     0.1227     0.3086
  283.5000    83.8124     6.5318     6.4885     6.5167   -62.5875     9.6062     0.0208     2.4680     0.1263     0.3089
  284.0000    84.4175     6.4864     6.3105     6.3380   -62.8885     9.6067     0.0208     2.4607     0.1302     0.3131
  284.5000    84.0857     6.4414     6.0945     6.0706   -63.1888     9.5919     0.0207     2.4569     0.1335     0.3188
  285.0000    82.9047     6.3522     5.8423     5.7095   -63.7915     9.5924     0.0207     2.4561     0.1350     0.3288
  285.5000    83.5098     6.1775     5.5282     5.5143   -64.1058     9.5929     0.0206     2.4568     0.1341     0.3348
  286.0000    85.3253     5.9559     5.3764     5.3257   -64.3928     9.5934     0.0236     2.4591     0.1317     0.3342
  286.5000    86.2330     5.5254     5.3393     5.3261   -64.2399     9.5939     0.0250     2.4644     0.1293     0.3255
  287.0000    85.6278     5.3734     5.4147     5.4390   -63.9364     9.5943     0.0249     2.4674     0.1272     0.3165
  287.5000    82.9047     5.3361     5.4912     5.5158   -63.6328     9.5947     0.0171     2.4636     0.1266     0.3046
  288.0000    79.8466     5.7614     5.5688     5.6327   -63.6313     9.5952     0.0143     2.4598     0.1290     0.3010
  288.5000    78.0635     6.2642     5.6884     5.7523   -63.9320     9.5956     0.0142     2.4560     0.1312     0.3025
  289.0000    79.2738     6.5775     5.8077     5.8743   -64.3837     9.5809     0.0202     2.4559     0.1335     0.3085
  289.5000    85.9304     6.5772     5.9310     5.9571   -64.8469     9.5794     0.0201     2.4567     0.1341     0.3155
  290.0000    88.0484     6.3022     6.0147     6.0412   -65.4381     9.5666     0.0125     2.4590     0.1341     0.3209
  290.5000    86.8381     6.1345     6.0997     6.1265   -65.7388     9.5672     0.0079     2.4634     0.1316     0.3175
  291.0000    83.8124     6.2207     6.1858     6.1697   -65.4348     9.5676     0.0003     2.4649     0.1286     0.3076
  291.5000    80.7836     6.4864     6.2295     6.2568   -65.1313     9.5681    -0.0027     2.4619     0.1274     0.3016
  292.0000    80.1815     6.7635     6.3175     6.3516   -65.4323     9.5685     0.0168     2.4581     0.1298     0.3004
  292.5000    81.9970     6.8585     6.4068     6.4797   -65.8840     9.5689     0.0228     2.4565     0.1328     0.3003
  293.0000    84.1150     6.8585     6.4072     6.4802   -66.0332     9.5845     0.0242     2.4580     0.1340     0.3006
  293.5000    85.3253     6.9065     6.4077     6.4806   -66.0317     9.5851     0.0227     2.4611     0.1321     0.3006
  294.0000    83.2073     6.9065     6.4081     6.4359   -66.0299     9.5855     0.0181     2.4640     0.1300     0.3049
  294.5000    84.7201     6.9065     6.3197     6.3917   -65.8774     9.5860     0.0103     2.4632     0.1288     0.3121
  295.0000    86.5356     6.8109     6.2762     6.3477   -65.7249     9.5864     0.0029     2.4617     0.1285     0.3151
  295.5000    87.7458     6.5775     6.2311     6.2558   -65.5723     9.5868    -0.0017     2.4594     0.1309     0.3118
  296.0000    87.7458     6.3522     6.1470     6.0463   -65.4198     9.5873     0.0027     2.4586     0.1318     0.3055
  296.5000    87.4433     6.3080     6.0622     5.9215   -65.1162     9.5877     0.0147     2.4586     0.1311     0.3000
  297.0000    86.8381     6.3080     5.8959     5.7994   -64.8127     9.5883     0.0283     2.4570     0.1308     0.2997
  297.5000    85.3253     6.3537     5.8145     5.6797   -64.3580     9.5887     0.0298     2.4533     0.1323     0.3009
  298.0000    83.2073     6.3966     5.6549     5.5239   -64.0544     9.5892     0.0206     2.4495     0.1350     0.3079
  298.5000    81.3918     6.3522     5.4234     5.3350   -63.7505     9.5896     0.0251     2.4442     0.1377     0.3151
  299.0000    80.7867     6.2642     5.1997     5.1146   -63.5980     9.5900     0.0295     2.4411     0.1399     0.3230
  299.5000    83.2073     6.1345     4.9886     4.9075   -63.5965     9.5905     0.0264     2.4441     0.1410     0.3323
  300.0000    85.9273     5.7214     4.8855     4.8062   -63.5950     9.5909     0.0264     2.4517     0.1401     0.3356
  300.5000    87.4462     5.4110     4.7514     4.7403   -63.4441     9.5914     0.0279     2.4618     0.1331     0.3263
  301.0000    79.8856     5.0819     4.6858     4.7080   -63.7462     9.5919     0.0278     2.4728     0.1265     0.3214
  301.5000    73.5345     5.3758     4.6862     4.7416   -64.3505     9.5923     0.0309     2.4758     0.1216     0.3199
  302.0000    72.6290     5.8866     4.6865     4.8089   -64.9547     9.6079     0.0367     2.4757     0.1204     0.3236
  302.5000    73.5404     6.3125     4.7196     4.9113   -65.4079     9.6084     0.0397     2.4750     0.1204     0.3233
  303.0000    77.1742     6.2693     4.8926     5.0509   -65.5589     9.6088     0.0396     2.4789     0.1213     0.3171
  303.5000    83.8338     6.3142     5.2779     5.3043   -65.4079     9.6092     0.0279     2.4797     0.1203     0.3100
  304.0000    89.5856     6.4504     5.5813     5.6093   -65.1057     9.6249     0.0172     2.4766     0.1185     0.3085
  304.5000    89.9031     6.6862     5.8203     5.8497   -65.1057     9.6254     0.0143     2.4729     0.1206     0.3106
  305.0000    86.2027     6.8205     5.9438     6.0160   -65.4079     9.6410     0.0158     2.4699     0.1236     0.3151
  305.5000    84.1481     6.7741     6.0699     6.1440   -65.4079     9.6566     0.0173     2.4706     0.1251     0.3175
  306.0000    85.0595     6.6812     6.1556     6.2311   -65.2568     9.6417     0.0158     2.4729     0.1251     0.3169
