~VERSION INFORMATION
 VERS.                2.0:   CWLS LOG ASCII STANDARD - VERSION 2.0
 WRAP.                 NO:   ONE LINE PER DEPTH STEP
~WELL INFORMATION
#MNEM.UNIT      DATA TYPE    INFORMATION
#----------   ------------   ------------------------------
 STRT.F           39.5000:   START DEPTH
 STOP.F          591.0000:   STOP DEPTH
 STEP.F            0.5000:   STEP LENGTH
 NULL.          -999.2500:   NO VALUE
 COMP. FENIX & SCISSON INC:   COMPANY
 WELL.      26 SX 3 #26-3:   WELL
 FLD .             TEAPOT:   FIELD
 LOC .       S3 T38N R78W:   LOCATION
 CNTY.            NATRONA:   COUNTY
 STAT.            WYOMING:   STATE
 CTRY. UNITED STATES OF AMERICA:   COUNTRY
 SRVC.           BIRDWELL:   SERVICE COMPANY
 DATE.        01-OCT-1978:   LOGDATE
 API .       490251071500:   API NUMBER
~CURVE INFORMATION
#MNEM.UNIT       API CODE    CURVE DESCRIPTION
#----------   ------------   ------------------------------
 DEPT.F                  :   
 SPR .MV     05 010 01 00:   SPONTANEOUS POTENTIAL FROM RES.
 SN  .OHMM   05 040 16 00:   SHORT NORMAL 16"
 ILD .OHMM   05 120 46 00:   INDUCTION LOG DEEP
 RHOB.G/C3   45 350 01 00:   BULK DENSITY
 CORR.G/C3   45 356 01 00:   DENSITY CORRECTION
 DPHI.DEC    45 890 12 00:   DENSITY POROSITY SANDSTONE
 GRD .GAPI   45 310 01 00:   GAMMA RAY FROM DENSITY LOG
 CALD.IN     45 280 60 00:   CALIPER
~PARAMETER INFORMATION
#MNEM.UNIT          VALUE    DESCRIPTION
#----------   ------------   ------------------------------
 PD  .                 GL:   PERMANENT DATUM
 EPD .F              5225:   ELEVATION PERMANENT DATUM
 LMF .                 KB:   LOG MEASURED FROM
 DAPD.F                 4:   FEET ABOVE PERMANENT DATUM
 DMF .                 KB:   DRILLING MEASURED FROM
 EKB .F              5229:   KELLING BUSHING
 EGL .F              5225:   GROUND LEVEL
 DATE.            10-1-78:   RUN DATE
 RUN .                  1:   RUN NUMBER
 DD  .F               600:   DEPTH DRILLER
 DL  .F               597:   DEPTH LOGGER
 BLI .F               591:   BOTTOM LOG INTERVAL
 TLI .F                60:   TOP LOG INTERVAL
 CS  .IN            8.625:   CASING SIZE
 CBD .F                40:   CASING BOTTOM DRILLER
 BS  .IN            7.875:   BIT SIZE
 BSD .F               600:   BIT SIZE AT DEPTH
 DFT .                KCL:   DRILLING FLUID TYPE
 DFD .                8.7:   DRILLING FLUID DENSITY
 DFV .                 34:   DRILLING FLUID VISCOSITY
 DFPH.                  9:   DRILLING FLUID PH
 DFL .                 10:   DRILLING FLUID LOSS
 MSS .            MUD PIT:   MUD SAMPLE SOURCE
 RMS .OHMM            .24:   RESISTIVITY MUD SAMPLE
 MST .F                65:   MUD SAMPLE TEMPERATURE
 RMF .OHMM            .45:   RESISTIVITY MUD FILTRATE SAMPLE
 MFST.F                65:   MUD FILTRATE SAMPLE TEMPERATURE
 RMC .OHMM             .4:   RESISTIVITY MUD CAKE
 MCST.F                65:   MUD CAKE SAMPLE TEMPERATURE
 MFSS.               MEAS:   MUD FILTRATE SAMPLE SOURCE
 TCS .HRS               3:   TIME CURCULATED STOPPED
 LUN .               2958:   LOGGING UNIT NUMBER
 LUL .               CASP:   LOGGING UNIT LOCATION
 ENGI.             MILLER:   RECORDING ENGINEER
 WITN.           DINSMORE:   WITNESSED BY
 CLNT.            A2DTECH:   CLIENT CODE
 ORIG.       2", 5" PRINT:   ORIGIN OF DATA
 UWI .       490251071500:   UNIQUE WELL ID
 DICO. A2D Technologies, Inc.:   DIGITIZING COMPANY
~OTHER INFORMATION
~A   DEPT      SPR         SN        ILD       RHOB       CORR       DPHI        GRD         CALD 
# ...
  363.5000   -10.4875     6.9567     6.9567     2.5261     0.0281     0.0803   137.8108     7.4964
  364.0000   -10.1572     7.6792     7.9050     2.5385     0.0259     0.0767   131.7592     7.4135
  364.5000    -8.6021     8.4770     8.9733     2.5452     0.0237     0.0790   127.0585     7.3274
  365.0000    -8.1233     9.3323    10.1903     2.5389     0.0246     0.0846   126.9884     7.3071
  365.5000    -7.9089     9.5386    11.5263     2.5315     0.0269     0.0877   128.5222     7.3067
  366.0000    -7.6729     9.7446    11.6378     2.5267     0.0293     0.0902   131.2002     7.3069
  366.5000    -6.7248     9.9550    11.7365     2.5220     0.0335     0.0926   131.4342     7.3069
  367.0000    -6.8803    10.1699    11.8410     2.5171     0.0440     0.0981   128.1842     7.3068
  367.5000    -6.1951    10.3895    11.9465     2.5123     0.0562     0.1047   123.3503     7.3061
  368.0000    -5.3258    10.6137    12.0481     2.5046     0.0702     0.1227   117.4707     7.3387
  368.5000    -5.4261    10.8430    12.5504     2.4786     0.1174     0.1364   113.7664     7.3788
  369.0000    -4.8238    11.0772    13.1395     2.4525     0.2013     0.1490   113.3580     7.4191
  369.5000    -3.8473    11.6030    13.7606     2.4304     0.2572     0.1444   111.3259     7.4596
  370.0000    -3.7449    12.2060    14.3701     2.4381     0.2802     0.1382   106.9594     7.5009
  370.5000    -3.3733    12.8413    15.6910     2.4585     0.2802     0.1205    87.0592     7.4514
  371.0000    -2.8346    13.5097    17.0485     2.4704     0.2766     0.1024    73.0526     7.4205
  371.5000    -2.5036    14.2121    18.5235     2.4878     0.2497     0.0878    66.2092     7.4889
  372.0000    -2.5421    14.9514    20.1260     2.5143     0.1798     0.0861    65.5059     7.5182
  372.5000    -2.5748    15.5396    21.8672     2.5359     0.1111     0.1037    65.7052     7.5372
  373.0000    -2.6086    16.1233    23.5976     2.4739     0.0687     0.1591    66.2496     7.5560
  373.5000    -2.6422    16.7290    23.5628     2.4029     0.0597     0.2006    67.9305     7.5560
  374.0000    -2.6757    16.8064    23.5256     2.3534     0.0472     0.2019    70.1688     7.5413
  374.5000    -2.7093    16.8158    23.4901     2.3420     0.0305     0.1994    73.5048     7.5264
  375.0000    -2.7428    16.8253    23.4565     2.3445     0.0132     0.1991    75.3178     7.5114
  375.5000    -2.7764    16.8347    23.4229     2.3471     0.0088     0.1988    76.7678     7.4967
  376.0000    -2.8100    16.8442    23.3893     2.3502     0.0083     0.1955    87.2358     7.4948
  376.5000    -2.8435    16.8537    23.1749     2.3555     0.0080     0.1860    89.2194     7.5466
  377.0000    -2.8771    16.8632    22.8886     2.3675     0.0077     0.1781    89.7272     7.5969
  377.5000    -2.9106    16.8727    22.6060     2.3796     0.0073     0.1726    91.5367     7.6138
  378.0000    -2.9442    16.8821    22.3272     2.3896     0.0069     0.1678    94.0876     7.6232
  378.5000    -2.9777    16.8916    21.9235     2.3982     0.0066     0.1646    96.6638     7.6125
  379.0000    -3.0113    16.9011    22.0336     2.4035     0.0062     0.1617    99.2539     7.6018
  379.5000    -3.0449    16.9106    22.2512     2.4081     0.0058     0.1592   100.7874     7.5912
  380.0000    -3.0784    16.9201    22.4680     2.4135     0.0055     0.1517   101.0854     7.5719
  380.5000    -3.1120    16.9297    22.6876     2.4228     0.0051     0.1393   101.0914     7.5336
  381.0000    -3.1455    16.9395    22.7438     2.4465     0.0048     0.1370   101.0897     7.4866
  381.5000    -3.1791    16.9529    22.7438     2.4526     0.0044     0.1424   101.0897     7.4351
  382.0000    -3.2126    16.8714    22.7439     2.4465     0.0041     0.1468   101.0899     7.4329
  382.5000    -3.2462    16.7232    22.7437     2.4349     0.0037     0.1597   101.0856     7.4419
  383.0000    -3.2798    16.5770    22.7429     2.4155     0.0033     0.1770   100.7903     7.4512
  383.5000    -3.3133    16.4321    22.7438     2.3879     0.0035     0.1945   100.0320     7.4598
  384.0000    -3.3469    16.3368    22.8072     2.3611     0.0079     0.2092    98.3022     7.4357
  384.5000    -3.3804    16.3241    23.1814     2.3342     0.0110     0.2186    93.6011     7.3684
  385.0000    -3.4139    16.3113    23.5616     2.3198     0.0110     0.2097    90.5306     7.3020
  385.5000    -3.4478    16.2986    24.0320     2.3314     0.0110     0.1957    88.9814     7.2817
  386.0000    -3.4793    16.2858    23.9236     2.3528     0.0110     0.1778    84.6145     7.3116
  386.5000    -3.6350    16.2731    23.7696     2.3748     0.0110     0.1740    80.7752     7.3413
  387.0000    -3.8504    16.2604    23.5470     2.3891     0.0110     0.1741    82.0197     7.3712
  387.5000    -4.0681    16.2477    23.3265     2.3906     0.0110     0.1743    85.4336     7.4009
  388.0000    -4.2844    16.2350    23.1081     2.3903     0.0110     0.1745    88.6431     7.4214
  388.5000    -4.4742    16.2222    22.8917     2.3898     0.0110     0.1764    90.5788     7.3908
  389.0000    -4.9658    16.2097    22.6774     2.3877     0.0110     0.1794    93.2486     7.3953
  389.5000    -5.5201    16.1970    22.4650     2.3826     0.0110     0.1824    93.2325     7.5688
  390.0000    -6.0761    15.9381    22.2547     2.3760     0.0110     0.1851    93.2744     7.7098
  390.5000    -6.5606    15.5351    22.0463     2.3697     0.0110     0.1821    93.3275     7.7256
  391.0000    -6.8479    15.1423    21.8399     2.3744     0.0146     0.1764    93.3676     7.7421
  391.5000    -7.1346    14.7594    21.3992     2.3836     0.0299     0.1708    92.8092     7.7377
  392.0000    -7.3718    14.3861    20.6738     2.3925     0.0444     0.1681    90.2408     7.7328
  392.5000    -7.5470    14.0937    20.4569     2.3958     0.0531     0.1645    91.9434     7.7280
  393.0000    -7.6746    14.0385    20.3346     2.4006     0.0523     0.1597    93.6513     7.7236
  393.5000    -7.5415    13.9826    20.2145     2.4128     0.0465     0.1533    94.5572     7.6941
  394.0000    -4.0292    13.9266    20.0953     2.4237     0.0286     0.1454    95.3619     7.6526
  394.5000    -4.1915    13.8709    19.9756     2.4316     0.0140     0.1477    95.2406     7.6512
  395.0000    -4.3747    13.8154    19.8571     2.4320     0.0089     0.1510    94.8481     7.6627
  395.5000    -4.5196    13.7601    19.3528     2.4268     0.0090     0.1553    92.7956     7.5946
  396.0000    -4.5782    13.7051    18.6712     2.4176     0.0090     0.1596    91.6957     7.5080
  396.5000    -4.6369    13.6503    18.5732     2.4105     0.0090     0.1623    90.7050     7.5044
  397.0000    -4.6925    13.5957    18.5615     2.4084     0.0090     0.1590    89.1640     7.5048
  397.5000    -4.7407    13.5413    18.5498     2.4116     0.0090     0.1626    86.9058     7.5050
  398.0000    -4.7871    13.4871    18.5381     2.4089     0.0090     0.1661    85.6384     7.5050
  398.5000    -4.8333    13.4332    18.5264     2.4053     0.0090     0.1673    84.8121     7.5050
  399.0000    -4.8795    13.3794    18.5147     2.4019     0.0090     0.1673    87.4910     7.5049
  399.5000    -4.9257    13.3450    18.5030     2.4012     0.0090     0.1662    89.6235     7.5049
  400.0000    -4.9719    13.3307    18.4913     2.4007     0.0091     0.1654    91.3903     7.5047
  400.5000    -5.0181    13.3163    18.4796     2.4001     0.0102     0.1702    95.7566     7.5180
  401.0000    -5.0643    13.3019    18.4680     2.3960     0.0114     0.1747   100.4806     7.5367
  401.5000    -5.1105    13.2875    18.4563     2.3904     0.0125     0.1794   105.4287     7.5556
  402.0000    -5.1566    13.2732    18.4447     2.3848     0.0136     0.1814   106.1693     7.6240
  402.5000    -5.2020    13.2588    18.4330     2.3790     0.0148     0.1749   103.7371     7.7250
  403.0000    -5.2480    13.2445    18.4214     2.3819     0.0146     0.1685    98.2168     7.7177
  403.5000    -5.3535    13.2302    18.2754     2.3941     0.0141     0.1618    92.3625     7.7125
