~VERSION INFORMATION
 VERS.                2.0:   CWLS LOG ASCII STANDARD - VERSION 2.0
 WRAP.                 NO:   ONE LINE PER DEPTH STEP
~WELL INFORMATION
#MNEM.UNIT      DATA TYPE    INFORMATION
#----------   ------------   ------------------------------
 STRT.F          250.0000:   START DEPTH
 STOP.F         2527.0000:   STOP DEPTH
 STEP.F            0.5000:   STEP LENGTH
 NULL.          -999.2500:   NO VALUE
 COMP. FENIX & SCISSON INC:   COMPANY
 WELL.       NPR 3 #18-28:   WELL
 FLD .            WILDCAT:   FIELD
 LOC .      S28 T39N R78W:   LOCATION
 CNTY.            NATRONA:   COUNTY
 STAT.            WYOMING:   STATE
 CTRY. UNITED STATES OF AMERICA:   COUNTRY
 SRVC.            Unknown:   SERVICE COMPANY
 DATE.        01-MAY-1979:   LOGDATE
 API .       490251078000:   API NUMBER
~CURVE INFORMATION
#MNEM.UNIT       API CODE    CURVE DESCRIPTION
#----------   ------------   ------------------------------
 DEPT.F                  :   
 CORR.G/C3   45 356 01 00:   DENSITY CORRECTION
 DPHI.DEC    45 890 12 00:   DENSITY POROSITY SANDSTONE
 RHOB.G/C3   45 350 01 00:   BULK DENSITY
 CALD.IN     45 280 60 00:   CALIPER FROM DENSITY LOG
 GRD .GAPI   45 310 01 00:   GAMMA RAY FROM DENSITY LOG
~PARAMETER INFORMATION
#MNEM.UNIT          VALUE    DESCRIPTION
#----------   ------------   ------------------------------
 PD  .                 GL:   PERMANENT DATUM
 EPD .F              5079:   ELEVATION PERMANENT DATUM
 LMF .                 KB:   LOG MEASURED FROM
 DAPD.F                10:   FEET ABOVE PERMANENT DATUM
 DMF .                 KB:   DRILLING MEASURED FROM
 EKB .F              5089:   KELLING BUSHING
 EGL .F              5079:   GROUND LEVEL
 DATE.             5-1-79:   RUN DATE
 RUN .                  1:   RUN NUMBER
 DL  .F              2527:   DEPTH LOGGER
 BLI .F              2527:   BOTTOM LOG INTERVAL
 TLI .F               250:   TOP LOG INTERVAL
 CS  .IN            9.625:   CASING SIZE
 CBD .F               500:   CASING BOTTOM DRILLER
 CBL .F               495:   CASING BOTTOM LOGGER
 BS  .IN             8.75:   BIT SIZE
 DFT .                AIR:   DRILLING FLUID TYPE
 TCS .HRS              12:   TIME CURCULATED STOPPED
 LUL .             CASPER:   LOGGING UNIT LOCATION
 ENGI.         B. ROLLINS:   RECORDING ENGINEER
 WITN.           DINSMORE:   WITNESSED BY
 CLNT.            A2DTECH:   CLIENT CODE
 ORIG.           5" PRINT:   ORIGIN OF DATA
 UWI .       490251078000:   UNIQUE WELL ID
 DICO. A2D Technologies, Inc.:   DIGITIZING COMPANY
~OTHER INFORMATION
~A   DEPT     CORR       DPHI       RHOB       CALD         GRD  
# ...
 1531.0000     0.0441    -0.0064     2.5431     9.2482   113.1121
 1531.5000     0.0602    -0.0059     2.5678     9.2525   110.3824
 1532.0000     0.0487     0.0099     2.5465     9.2568   110.2057
 1532.5000     0.0391     0.0152     2.5309     9.2613   111.6061
 1533.0000     0.0412     0.0133     2.5331     9.2614   113.0065
 1533.5000     0.0466     0.0121     2.5392     9.2604   110.7237
 1534.0000     0.0326     0.0162     2.5359     9.2595   108.5855
 1534.5000     0.0186     0.0193     2.5217     9.2585   110.4527
 1535.0000     0.0288     0.0181     2.5285     9.2575   109.8390
 1535.5000     0.0429     0.0096     2.5391     9.2566   109.1478
 1536.0000     0.0573     0.0018     2.5527     9.2556   111.0525
 1536.5000     0.0717    -0.0059     2.5662     9.2546   114.2429
 1537.0000     0.0842    -0.0132     2.5798     9.2537   115.4784
 1537.5000     0.0866    -0.0140     2.5874     9.2527   112.9441
 1538.0000     0.0861    -0.0080     2.5852     9.2517   112.9333
 1538.5000     0.0777     0.0104     2.5503     9.2508   115.4421
 1539.0000     0.0394     0.0220     2.5247     9.2498   116.3040
 1539.5000     0.0216     0.0217     2.5219     9.2488   115.2225
 1540.0000     0.0380     0.0108     2.5385     9.2479   110.8356
 1540.5000     0.0582    -0.0013     2.5582     9.2469   108.9497
 1541.0000     0.0778    -0.0136     2.5780     9.2459   108.5175
 1541.5000     0.0787    -0.0141     2.5878     9.2450   108.4625
 1542.0000     0.0699    -0.0093     2.5754     9.2440   109.1497
 1542.5000     0.0446     0.0043     2.5545     9.2432   110.7291
 1543.0000     0.0212     0.0171     2.5335     9.2324   112.8167
 1543.5000     0.0086     0.0228     2.5172     9.2170   112.8114
 1544.0000     0.0298     0.0208     2.5210     9.2013   109.8216
 1544.5000     0.0449     0.0143     2.5475     9.1857   107.7153
 1545.0000     0.0384     0.0079     2.5556     9.1701   106.4147
 1545.5000     0.0362     0.0015     2.5502     9.1545   111.1074
 1546.0000     0.0861    -0.0005     2.5727     9.1389   114.4531
 1546.5000     0.0843     0.0133     2.5552     9.1259   112.2738
 1547.0000     0.0498     0.0240     2.5326     9.1262   108.2799
 1547.5000     0.0201     0.0244     2.5114     9.1262   106.3457
 1548.0000     0.0179     0.0194     2.5202     9.1262   112.4485
 1548.5000     0.0385     0.0139     2.5378     9.1262   115.0924
 1549.0000     0.0551     0.0117     2.5409     9.1262   112.7188
 1549.5000     0.0473     0.0157     2.5300     9.1262   109.5558
 1550.0000     0.0248     0.0181     2.5220     9.1262   106.3632
 1550.5000     0.0169     0.0137     2.5298     9.1262   103.1424
 1551.0000     0.0464    -0.0047     2.5645     9.1262   103.0578
 1551.5000     0.1026    -0.0406     2.5995     9.1261   104.2000
 1552.0000     0.1774    -0.0410     2.6337     9.1288   110.9738
 1552.5000     0.1366    -0.0068     2.6352     9.1321   119.1927
 1553.0000     0.0552     0.0179     2.5219     9.1354   117.4991
 1553.5000     0.0395     0.0196     2.5240     9.1387   116.4929
 1554.0000     0.0408     0.0220     2.5275     9.1420   117.1148
 1554.5000     0.0292     0.0279     2.5253     9.1453   119.5798
 1555.0000     0.0147     0.0323     2.5006     9.1486   122.2097
 1555.5000     0.0068     0.0323     2.4990     9.1518   123.0992
 1556.0000     0.0223     0.0224     2.5200     9.1551   121.4076
 1556.5000     0.0516     0.0113     2.5367     9.1584   117.6775
 1557.0000     0.0511     0.0051     2.5470     9.1617   115.7811
 1557.5000     0.0463     0.0077     2.5419     9.1648   114.9282
 1558.0000     0.0484     0.0081     2.5366     9.1776   111.2634
 1558.5000     0.0650     0.0046     2.5445     9.1983   109.8264
 1559.0000     0.0637     0.0145     2.5379     9.2191   115.7891
 1559.5000     0.0432     0.0161     2.5298     9.2402   117.5121
 1560.0000     0.0266     0.0177     2.5219     9.2611   115.1018
 1560.5000     0.0336     0.0264     2.5138     9.2952   111.2660
 1561.0000     0.0491     0.0272     2.5113     9.3540   107.3795
 1561.5000     0.0646     0.0210     2.5245     9.4127   106.0792
 1562.0000     0.0795     0.0153     2.5433     9.4432   112.2895
 1562.5000     0.0643     0.0125     2.5473     9.3773   111.9422
 1563.0000     0.0472     0.0153     2.5333     9.3146   109.3317
 1563.5000     0.0329     0.0274     2.5143     9.2607   108.4999
 1564.0000     0.0342     0.0335     2.4966     9.2615   108.7800
 1564.5000     0.0682     0.0263     2.5001     9.3061   111.5198
 1565.0000     0.1550     0.0034     2.5478     9.3772   114.3714
 1565.5000     0.1942    -0.0192     2.5874     9.4487   114.6245
 1566.0000     0.1700    -0.0196     2.5957     9.5205   111.9230
 1566.5000     0.1204     0.0011     2.5644     9.5522   110.4122
 1567.0000     0.0720     0.0161     2.5320     9.5281   111.5429
 1567.5000     0.0951     0.0105     2.5325     9.5012   113.4386
 1568.0000     0.1528    -0.0232     2.5788     9.4737   115.3353
 1568.5000     0.2096    -0.0569     2.6503     9.4460   116.8795
 1569.0000     0.2412    -0.0632     2.6786     9.4184   116.7242
 1569.5000     0.2295    -0.0248     2.6449     9.3907   115.1160
 1570.0000     0.1416    -0.0124     2.5809     9.3746   112.8226
 1570.5000     0.1255    -0.0111     2.5768     9.3668   112.2826
 1571.0000     0.1135    -0.0099     2.5901     9.3593   114.9639
 1571.5000     0.1011    -0.0086     2.5749     9.3517   116.0547
 1572.0000     0.0887    -0.0064     2.5708     9.3441   113.2913
 1572.5000     0.0763    -0.0017     2.5675     9.3366   113.7071
 1573.0000     0.0554     0.0055     2.5541     9.3290   115.4320
 1573.5000     0.0276     0.0172     2.5181     9.3215   116.0181
 1574.0000     0.0140     0.0331     2.5032     9.3139   114.3420
 1574.5000     0.0329     0.0247     2.5067     9.3063   113.2951
 1575.0000     0.0507     0.0129     2.5425     9.3004   116.0948
 1575.5000     0.0529     0.0087     2.5453     9.2983   115.1414
 1576.0000     0.0684    -0.0028     2.5505     9.2963   109.0331
 1576.5000     0.0841    -0.0232     2.5704     9.2942   102.8281
 1577.0000     0.0967    -0.0245     2.5914     9.2921   100.4462
 1577.5000     0.0805    -0.0138     2.6038     9.2901   102.8152
 1578.0000     0.0564    -0.0013     2.5657     9.2880   115.6441
 1578.5000     0.0486     0.0111     2.5368     9.2860   117.5629
 1579.0000     0.0503     0.0141     2.5413     9.2839   116.0817
 1579.5000     0.0542     0.0086     2.5484     9.2818   114.1470
 1580.0000     0.0461     0.0034     2.5493     9.2798   112.9433
 1580.5000     0.0388     0.0075     2.5459     9.2777   114.2777
 1581.0000     0.0414     0.0102     2.5460     9.2757   115.8260
 1581.5000     0.0466     0.0094     2.5492     9.2736   116.7588
 1582.0000     0.0492     0.0038     2.5481     9.2716   114.7143
 1582.5000     0.0398     0.0102     2.5429     9.2695   111.9345
 1583.0000     0.0349     0.0141     2.5382     9.2674   111.9064
 1583.5000     0.0377     0.0125     2.5372     9.2654   115.6396
 1584.0000     0.0435     0.0079     2.5400     9.2633   118.5054
 1584.5000     0.0451    -0.0026     2.5537     9.2613   118.1615
 1585.0000     0.0470    -0.0114     2.5694     9.2592   113.3010
 1585.5000     0.0571    -0.0142     2.5722     9.2571   109.2505
 1586.0000     0.0675    -0.0164     2.5767     9.2551   109.1423
 1586.5000     0.0783    -0.0158     2.5838     9.2530   112.5617
 1587.0000     0.0729    -0.0074     2.5912     9.2510   114.4127
 1587.5000     0.0507     0.0010     2.5507     9.2489   113.2351
 1588.0000     0.0474     0.0058     2.5513     9.2468   113.6446
 1588.5000     0.0798    -0.0040     2.5654     9.2448   120.7038
 1589.0000     0.0965    -0.0093     2.5772     9.2428   116.1945
 1589.5000     0.0928    -0.0034     2.5760     9.2433   112.8099
 1590.0000     0.0863     0.0048     2.5583     9.2440   114.6655
 1590.5000     0.0823     0.0114     2.5442     9.2446   116.5709
 1591.0000     0.0897     0.0075     2.5433     9.2453   115.1332
 1591.5000     0.1009    -0.0099     2.5758     9.2459   113.7684
