~VERSION INFORMATION
 VERS.                2.0:   CWLS LOG ASCII STANDARD - VERSION 2.0
 WRAP.                 NO:   ONE LINE PER DEPTH STEP
~WELL INFORMATION
#MNEM.UNIT      DATA TYPE    INFORMATION
#----------   ------------   ------------------------------
 STRT.F          438.0000:   START DEPTH
 STOP.F         2175.0000:   STOP DEPTH
 STEP.F            0.5000:   STEP LENGTH
 NULL.          -999.2500:   NO VALUE
 COMP.   FLUOR DANIEL INC:   COMPANY
 WELL. NAVAL PETROLEUM RESERVE 3 X29 #74-29:   WELL
 FLD .            WLIDCAT:   FIELD
 LOC .      S29 T39N R78W:   LOCATION
 CNTY.            NATRONA:   COUNTY
 STAT.            WYOMING:   STATE
 CTRY. UNITED STATES OF AMERICA:   COUNTRY
 SRVC.            Unknown:   SERVICE COMPANY
 DATE.        05-JUN-1995:   LOGDATE
 API .       490252272900:   API NUMBER
~CURVE INFORMATION
#MNEM.UNIT       API CODE    CURVE DESCRIPTION
#----------   ------------   ------------------------------
 DEPT.F                  :   
 ROP .FT/HR  91 810 01 00:   RAT OF DRILLING PENETRATION
 TGAS.TC/CC  91 830 01 00:   TOTAL GAS UNIT
~PARAMETER INFORMATION
#MNEM.UNIT          VALUE    DESCRIPTION
#----------   ------------   ------------------------------
 EKB .F              5036:   KELLING BUSHING
 EGL .F              5026:   GROUND LEVEL
 DATE.        05-JUN-1995:   RUN DATE
 RUN .                  1:   RUN NUMBER
 BLI .F              2160:   BOTTOM LOG INTERVAL
 TLI .F               440:   TOP LOG INTERVAL
 ENGI.     R.HUSK/C.TOWER:   RECORDING ENGINEER
 CLNT.            A2DTECH:   CLIENT CODE
 ORIG.           5" PRINT:   ORIGIN OF DATA
 UWI .       490252272900:   UNIQUE WELL ID
 DICO. A2D Technologies, Inc.:   DIGITIZING COMPANY
~OTHER INFORMATION
~A   DEPT        ROP       TGAS 
  438.0000     0.5385     0.5660
  438.5000     0.5385     0.5660
  439.0000     0.5481     0.7547
  439.5000     0.5577     0.7547
  440.0000     0.5577     0.7547
  440.5000     0.5577     0.7547
  441.0000     0.5481     0.7547
  441.5000     0.5385     0.7547
  442.0000     0.5385     0.9434
  442.5000     0.5481     0.9434
  443.0000     0.5481     0.9434
  443.5000     0.5577     0.9434
  444.0000     0.5577     0.9434
  444.5000     0.5577     0.7547
  445.0000     0.5577     0.7547
  445.5000     0.5577     0.7547
  446.0000     0.5577     0.7547
  446.5000     0.5673     0.7547
  447.0000     0.5577     0.7547
  447.5000     0.5577     0.7547
  448.0000     0.5481     0.7547
  448.5000     0.5481     0.7547
  449.0000     0.5481     0.7547
  449.5000     0.5481     0.7547
  450.0000     0.5385     0.7547
  450.5000     0.5192     0.7547
  451.0000     0.5192     0.7547
  451.5000     0.5096     0.7547
  452.0000     0.5096     0.7547
  452.5000     0.5192     0.7547
  453.0000     0.5192     0.7547
  453.5000     0.5192     0.7547
  454.0000     0.5385     0.9434
  454.5000     0.5288     1.1321
  455.0000     0.5192     1.1321
  455.5000     0.5288     1.1321
  456.0000     0.5385     0.9434
  456.5000     0.5288     1.1321
  457.0000     0.5288     1.1321
  457.5000     0.5192     0.9434
  458.0000     0.5192     0.9434
  458.5000     0.5096     1.1321
  459.0000     0.5096     1.1321
  459.5000     0.5096     1.1321
  460.0000     0.5192     1.1321
  460.5000     0.5192     1.1321
  461.0000     0.5385     1.1321
  461.5000     0.5385     1.3208
  462.0000     0.5577     1.3208
  462.5000     0.8077     1.5094
  463.0000     0.8077     1.5094
  463.5000     0.8077     1.5094
  464.0000     0.8077     1.8868
  464.5000     0.8077     1.8868
  465.0000     0.8077     1.8868
  465.5000     0.8077     1.8868
  466.0000     0.8077     1.8868
  466.5000     0.8077     1.6981
  467.0000     0.8077     1.6981
  467.5000     0.8077     1.6981
  468.0000     0.6346     1.6981
  468.5000     0.6346     1.6981
  469.0000     0.6346     1.6981
  469.5000     0.6346     1.5094
  470.0000     0.6346     1.5094
  470.5000     0.6346     1.5094
  471.0000     0.6346     1.5094
  471.5000     0.6346     1.3208
  472.0000     0.6346     1.3208
  472.5000     0.6346     1.3208
  473.0000     0.6250     1.1321
  473.5000     0.6250     1.1321
  474.0000     0.6154     1.1321
  474.5000     0.6154     1.1321
  475.0000     0.6140     1.1321
  475.5000     0.5962     1.1321
  476.0000     0.5865     1.1321
  476.5000     0.5769     1.1321
  477.0000     0.5769     1.1321
  477.5000     0.5673     1.1321
  478.0000     0.5769     1.1321
  478.5000     0.5962     1.1321
  479.0000     0.6154     1.1321
  479.5000     0.6346     1.1321
  480.0000     0.6538     1.1321
  480.5000     0.6731     1.1321
  481.0000     0.6827     1.1321
  481.5000     0.7019     1.1321
  482.0000     0.7019     1.1321
  482.5000     0.7115     1.3208
  483.0000     0.7115     1.1321
  483.5000     0.7115     1.1321
  484.0000     0.7115     1.1321
  484.5000     0.7115     1.1321
  485.0000     0.7115     1.1321
  485.5000     0.7115     1.1321
  486.0000     0.7115     1.1321
  486.5000     0.7115     1.1321
  487.0000     0.7019     1.1321
  487.5000     0.7115     1.1321
  488.0000     0.7115     1.1321
  488.5000     0.7115     1.1321
  489.0000     0.7019     1.1321
  489.5000     0.6923     1.1321
  490.0000     0.6731     1.1321
  490.5000     0.6538     1.1321
  491.0000     0.6538     1.1321
  491.5000     0.6442     1.1321
  492.0000     0.6346     1.1321
  492.5000     0.6346     1.1321
  493.0000     0.6346     1.1321
  493.5000     0.6346     1.1321
  494.0000     0.6346     1.1321
  494.5000     0.6442     1.1321
  495.0000     0.6538     1.1321
  495.5000     0.6442     1.1321
  496.0000     0.6346     1.1321
  496.5000     0.6346     1.1321
  497.0000     0.6442     1.1321
  497.5000     0.6442     0.9434
  498.0000     0.6538     0.7547
  498.5000     0.6538     0.7547
  499.0000     0.6635     0.7547
  499.5000     0.6731     0.7547
  500.0000     0.8269     0.7547
  500.5000     0.8365     0.7547
  501.0000     0.8365     0.7547
  501.5000     0.8365     0.7547
  502.0000     0.8462     0.7547
  502.5000     0.8462     0.7547
  503.0000     0.8462     0.7547
  503.5000     0.8462     0.7547
  504.0000     0.8462     0.7547
  504.5000     0.8462     0.7547
  505.0000     0.8462     0.7547
  505.5000     0.8462     0.7547
  506.0000     0.8462     0.7547
  506.5000     0.8462     0.7547
  507.0000     0.8462     0.6827
  507.5000     0.8365     0.6400
  508.0000     0.8269     0.6326
  508.5000     0.8269     0.8139
  509.0000     0.8365     0.8065
  509.5000     0.8462     0.9896
  510.0000     0.8462     0.9804
  510.5000     0.8462     1.0377
  511.0000     0.8365     1.1561
  511.5000     0.8269     1.1469
  512.0000     0.8269     0.9508
  512.5000     0.8269     0.9434
  513.0000     0.8269     0.9358
  513.5000     0.8269     0.9283
  514.0000     0.8173     0.9193
  514.5000     0.8077     0.9119
  515.0000     0.8080     1.0951
  515.5000     0.8173     0.8972
  516.0000     0.8269     0.8898
  516.5000     0.8269     0.9132
  517.0000     0.8269     1.0655
  517.5000     0.8365     1.0566
  518.0000     0.8365     1.0488
  518.5000     0.8269     1.0414
  519.0000     0.8269     1.0340
  519.5000     0.8269     1.0264
  520.0000     0.8269     1.0174
  520.5000     0.8269     0.8213
  521.0000     0.8269     0.8139
  521.5000     0.8269     0.8065
  522.0000     0.8269     0.8000
  522.5000     0.8173     0.7917
  523.0000     0.8173     0.7843
  523.5000     0.8173     0.7769
  524.0000     0.8173     0.7695
  524.5000     0.8173     0.7621
  525.0000     0.8173     0.7547
  525.5000     0.8173     0.7472
  526.0000     0.8173     0.7396
  526.5000     0.8173     0.9193
  527.0000     0.8173     0.9120
  527.5000     0.8173     0.9046
  528.0000     0.8269     0.8972
  528.5000     0.8269     0.8898
  529.0000     0.8269     0.8824
  529.5000     0.8365     1.0655
  530.0000     0.6346     1.0566
  530.5000     0.5865     1.0488
  531.0000     0.5865     1.0414
  531.5000     0.5865     1.0340
  532.0000     0.5865     1.0264
  532.5000     0.5865     1.3947
  533.0000     0.5769     1.3873
  533.5000     0.5769     1.3811
  534.0000     0.5769     1.5631
  534.5000     0.5769     1.5538
  535.0000     0.5769     1.7370
  535.5000     0.5769     1.7283
  536.0000     0.5769     1.7208
  536.5000     0.5769     1.9016
  537.0000     0.5769     2.0151
  537.5000     0.5769     2.0755
  538.0000     0.5769     2.0679
  538.5000     0.5769     2.0604
  539.0000     0.5769     2.0514
  539.5000     0.5865     1.8553
  540.0000     0.6923     1.6593
  540.5000     0.7500     1.4632
  541.0000     0.7500     1.2671
  541.5000     0.7500     1.2597
  542.0000     0.7500     1.0636
  542.5000     0.7500     0.8676
  543.0000     0.7500     0.8602
  543.5000     0.7500     0.6641
  544.0000     0.7500     0.6566
  544.5000     0.7500     0.6491
  545.0000     0.7500     0.4514
  545.5000     0.7500     0.4440
  546.0000     0.7500     0.4366
  546.5000     0.7500     0.4292
  547.0000     0.7500     0.4218
  547.5000     0.7500     0.4144
  548.0000     0.7500     0.4070
  548.5000     0.7500     0.2109
  549.0000     0.7500     0.0148
  549.5000     0.7500     0.0074
  550.0000     0.7500     0.1887
  550.5000     0.7500     0.3849
  551.0000     0.7500     0.7999
  551.5000     0.7500     2.9948
  552.0000     0.7500     5.0629
  552.5000     0.7500     7.3196
  553.0000     0.7500     9.0104
  553.5000     0.7500    10.1350
  554.0000     0.7550    10.1276
  554.5000     0.7570     9.3655
  555.0000     0.7567     8.6034
  555.5000     0.7564     7.4639
  556.0000     0.7465     6.7018
  556.5000     0.7462     5.9246
  557.0000     0.7459     4.9660
  557.5000     0.7457     4.0363
  558.0000     0.7454     3.0855
  558.5000     0.7451     2.8894
  559.0000     0.7448     2.8820
