~VERSION INFORMATION
 VERS.                2.0:   CWLS LOG ASCII STANDARD - VERSION 2.0
 WRAP.                 NO:   ONE LINE PER DEPTH STEP
~WELL INFORMATION
#MNEM.UNIT      DATA TYPE    INFORMATION
#----------   ------------   ------------------------------
 STRT.F            0.0000:   START DEPTH
 STOP.F         4535.0000:   STOP DEPTH
 STEP.F            0.5000:   STEP LENGTH
 NULL.          -999.2500:   NO VALUE
 COMP. LAWRENCE - ALLISON & ASSOCIATES:   COMPANY
 WELL.    NPR ##3 56-X-15:   WELL
 FLD .   TEAPOT NAVAL RES:   FIELD
 LOC .      S15 T38N R78W:   LOCATION
 CNTY.            NATRONA:   COUNTY
 STAT.            WYOMING:   STATE
 CTRY. UNITED STATES OF AMERICA:   COUNTRY
 SRVC.      Dresser Atlas:   SERVICE COMPANY
 DATE.        03-MAY-1984:   LOGDATE
 API .       490251095900:   API NUMBER
~CURVE INFORMATION
#MNEM.UNIT       API CODE    CURVE DESCRIPTION
#----------   ------------   ------------------------------
 DEPT.F                  :   
 CORR.G/C3   45 356 01 00:   DENSITY CORRECTION
 DEN .G/C3   45 350 01 00:   COMPENSATED BULK DENSTIY
 PORD.DEC    45 890 12 00:   POROSITY DENSITY SANDSTONE
 CNC .DEC    42 890 03 00:   NEUTRON POROSITY SANDSTONE
 GRR .GAPI   07 310 01 00:   GAMMA RAY
 CALR.IN     07 280 01 00:   CALIPER FROM RESISTIVITY
 SPR .MV     07 010 01 00:   SPONTANEOUS POTENTIAL
 RILD.OHMM   07 120 46 00:   INDUCTION LOG DEEP RESISTIVITY
 RILM.OHMM   07 120 44 00:   INDUCTION LOG MEDIUM RESISTIVITY
 RFOC.OHMM   07 220 04 00:   RESISTIVITY FOCUSED LOG
 AC  .US/F   60 520 00 00:   ACCOUSTIC
~PARAMETER INFORMATION
#MNEM.UNIT          VALUE    DESCRIPTION
#----------   ------------   ------------------------------
 PD  .                 GL:   PERMANENT DATUM
 EPD .F              5326:   ELEVATION PERMANENT DATUM
 LMF .                 KB:   LOG MEASURED FROM
 DAPD.F                12:   FEET ABOVE PERMANENT DATUM
 DMF .                 KB:   DRILLING MEASURED FROM
 EKB .F              5338:   KELLING BUSHING
 EDF .F              5337:   DRILLING FLOOR
 EGL .F              5326:   GROUND LEVEL
 DATE.        03-MAY-1984:   RUN DATE
 RUN .                  1:   RUN NUMBER
 DD  .F              4547:   DEPTH DRILLER
 DL  .F              4539:   DEPTH LOGGER
 BLI .F              4536:   BOTTOM LOG INTERVAL
 CS  .IN            8.625:   CASING SIZE
 CBD .F              1027:   CASING BOTTOM DRILLER
 CBL .F              1021:   CASING BOTTOM LOGGER
 BS  .IN            7.875:   BIT SIZE
 BSD .F              4547:   BIT SIZE AT DEPTH
 DFT .            KCL GEL:   DRILLING FLUID TYPE
 DFD .                9.1:   DRILLING FLUID DENSITY
 DFV .                 44:   DRILLING FLUID VISCOSITY
 DFPH.                  8:   DRILLING FLUID PH
 DFL .               14.5:   DRILLING FLUID LOSS
 MSS .           MUD TANK:   MUD SAMPLE SOURCE
 RMS .OHMM           0.56:   RESISTIVITY MUD SAMPLE
 MST .F                73:   MUD SAMPLE TEMPERATURE
 RMF .OHMM           0.42:   RESISTIVITY MUD FILTRATE SAMPLE
 MFST.F                73:   MUD FILTRATE SAMPLE TEMPERATURE
 RMC .OHMM           0.71:   RESISTIVITY MUD CAKE
 MCST.F                73:   MUD CAKE SAMPLE TEMPERATURE
 MFSS.               MEAS:   MUD FILTRATE SAMPLE SOURCE
 MCSS.               CALC:   MUD CAKE SAMPLE SOURCE
 RMB .OHMM           0.29:   RESISTIVITY MUD AT BHT
 BHT .F               141:   BOTTOM HOLE TEMPERATURE
 TCS .HRS             3.5:   TIME CURCULATED STOPPED
 MRT .F               125:   MAXIMUM RECORDED TEMPERATURE
 LUN .               6302:   LOGGING UNIT NUMBER
 LUL .               CODY:   LOGGING UNIT LOCATION
 ENGI.              GETTY:   RECORDING ENGINEER
 WITN.           JENNINGS:   WITNESSED BY
 CLNT.            A2DTECH:   CLIENT CODE
 ORIG.           5" PRINT:   ORIGIN OF DATA
 UWI .       490251095900:   UNIQUE WELL ID
 DICO. A2D Technologies, Inc.:   DIGITIZING COMPANY
~OTHER INFORMATION
~A    DEPT    CORR        DEN       PORD        CNC        GRR       CALR        SPR       RILD       RILM       RFOC         AC   
# ...
 1037.0000  -999.2500  -999.2500  -999.2500  -999.2500    84.8757     9.8399    12.7166     9.4603     6.9724     7.0085  -999.2500
 1037.5000  -999.2500  -999.2500  -999.2500  -999.2500    85.7933     9.8553    12.2622     8.8232     6.7790     6.9581  -999.2500
 1038.0000  -999.2500  -999.2500  -999.2500  -999.2500    84.7589     9.8557    11.9759     8.2863     6.4551     6.9080  -999.2500
 1038.5000  -999.2500  -999.2500  -999.2500  -999.2500    83.3643     9.9012    11.8273     7.8364     6.2760     6.7169  -999.2500
 1039.0000  -999.2500  -999.2500  -999.2500  -999.2500    86.3801     9.9316    12.1294     7.2581     6.0597     6.0928  -999.2500
 1039.5000  -999.2500  -999.2500  -999.2500  -999.2500    89.3951     9.9621    12.2811     6.7192     5.6348     5.7220  -999.2500
 1040.0000  -999.2500  -999.2500  -999.2500  -999.2500    86.9885     9.9624    12.4327     6.0111     5.2556     5.6025  -999.2500
 1040.5000  -999.2500  -999.2500  -999.2500  -999.2500    79.4614     9.9477    12.5843     4.3431     4.2366     5.4854  -999.2500
 1041.0000  -999.2500  -999.2500  -999.2500  -999.2500    77.9576     9.9481    12.7360     3.4757     3.4390     5.3708  -999.2500
 1041.5000  -999.2500  -999.2500  -999.2500  -999.2500    80.6721    10.0087    12.7375     2.9408     2.9103     5.0090  -999.2500
 1042.0000  -999.2500  -999.2500  -999.2500  -999.2500    84.2896    10.0993    13.1894     2.3372     2.4122     4.5122  -999.2500
 1042.5000  -999.2500  -999.2500  -999.2500  -999.2500    85.1962    10.2049    13.4912     2.1199     1.9854     3.8183  -999.2500
 1043.0000  -999.2500  -999.2500  -999.2500  -999.2500    85.1992    10.2805    13.9431     2.0471     1.7886     3.0992  -999.2500
 1043.5000  -999.2500  -999.2500  -999.2500  -999.2500    82.4913    10.3410    14.2449     2.0185     1.7759     2.5507  -999.2500
 1044.0000  -999.2500  -999.2500  -999.2500  -999.2500    77.3738    10.3263    14.5467     2.0181     1.8382     2.0993  -999.2500
 1044.5000  -999.2500  -999.2500  -999.2500  -999.2500    74.9672    10.2964    14.5482     2.0461     1.9976     1.9853  -999.2500
 1045.0000  -999.2500  -999.2500  -999.2500  -999.2500    75.2714    10.1592    13.4986     2.2866     2.2789     1.9986  -999.2500
 1045.5000  -999.2500  -999.2500  -999.2500  -999.2500    78.5876     9.9494    11.6983     2.8761     2.8654     2.2340  -999.2500
 1046.0000  -999.2500  -999.2500  -999.2500  -999.2500    85.5183     9.8301     9.5977     3.5430     3.8890     3.5406  -999.2500
 1046.5000  -999.2500  -999.2500  -999.2500  -999.2500    90.3406     9.7868     7.3469     4.1570     4.4676     4.4509  -999.2500
 1047.0000  -999.2500  -999.2500  -999.2500  -999.2500    90.9459     9.7872     4.4956     4.9803     5.1324     5.0407  -999.2500
 1047.5000  -999.2500  -999.2500  -999.2500  -999.2500    87.9369     9.7725     1.4941     5.8114     5.7345     5.3146  -999.2500
 1048.0000  -999.2500  -999.2500  -999.2500  -999.2500    81.9158     9.7279     0.1021     6.5440     6.0609     5.3130  -999.2500
 1048.5000  -999.2500  -999.2500  -999.2500  -999.2500    80.4127     9.6832    -0.9051     7.0640     6.2304     5.3113  -999.2500
 1049.0000  -999.2500  -999.2500  -999.2500  -999.2500    82.8254     9.6534    -1.9547     7.5021     6.3602     5.4975  -999.2500
 1049.5000  -999.2500  -999.2500  -999.2500  -999.2500    86.7440     9.6538    -3.0042     7.6590     6.4479     5.7698  -999.2500
 1050.0000  -999.2500  -999.2500  -999.2500  -999.2500    89.1566     9.6723    -3.4532     7.7653     6.4915     6.0556  -999.2500
 1050.5000  -999.2500  -999.2500  -999.2500  -999.2500    91.2741     9.7104    -3.7520     7.8724     6.4901     6.1390  -999.2500
 1051.0000  -999.2500  -999.2500  -999.2500  -999.2500    92.2066     9.7447    -3.9007     7.8165     6.4888     6.0523  -999.2500
 1051.5000  -999.2500  -999.2500  -999.2500  -999.2500    93.0994     9.7749    -3.8992     7.6538     6.3979     6.0506  -999.2500
 1052.0000  -999.2500  -999.2500  -999.2500  -999.2500    92.0032     9.7901    -4.0482     7.3396     6.3464     6.0489  -999.2500
 1052.5000  -999.2500  -999.2500  -999.2500  -999.2500    87.8967     9.7902    -3.8962     7.0875     6.2634     6.1319  -999.2500
 1053.0000  -999.2500  -999.2500  -999.2500  -999.2500    87.1020     9.8205    -3.7446     6.9400     6.2618     6.0877  -999.2500
 1053.5000  -999.2500  -999.2500  -999.2500  -999.2500    87.4144     9.8657    -3.7431     6.8429     6.2605     6.0861  -999.2500
 1054.0000  -999.2500  -999.2500  -999.2500  -999.2500    87.7245     9.8960    -3.5915     6.8417     6.3032     6.1699  -999.2500
 1054.5000  -999.2500  -999.2500  -999.2500  -999.2500    85.0227     9.9262    -3.5900     6.8405     6.2146     6.2112  -999.2500
 1055.0000  -999.2500  -999.2500  -999.2500  -999.2500    84.1280     9.9263    -3.5885     6.8394     6.1703     6.1234  -999.2500
 1055.5000  -999.2500  -999.2500  -999.2500  -999.2500    84.4382     9.8814    -3.5870     6.7908     6.0418     6.1217  -999.2500
 1056.0000  -999.2500  -999.2500  -999.2500  -999.2500    89.5676     9.8514    -3.5855     6.7426     6.0406     6.1200  -999.2500
 1056.5000  -999.2500  -999.2500  -999.2500  -999.2500    93.4922     9.8365    -3.5840     6.7371     5.9975     6.0760  -999.2500
 1057.0000  -999.2500  -999.2500  -999.2500  -999.2500    93.1977     9.8367    -3.5825     6.6935     5.9548     5.9079  -999.2500
 1057.5000  -999.2500  -999.2500  -999.2500  -999.2500    92.6065     9.8368    -3.5810     6.7388     5.9123     5.7444  -999.2500
 1058.0000  -999.2500  -999.2500  -999.2500  -999.2500    92.3121     9.8370    -3.7297     6.7377     5.9526     5.5468  -999.2500
 1058.5000  -999.2500  -999.2500  -999.2500  -999.2500    93.5281     9.8371    -3.8784     6.8309     6.0346     5.5069  -999.2500
 1059.0000  -999.2500  -999.2500  -999.2500  -999.2500    94.4407     9.8373    -3.8769     6.8297     6.1601     5.5824  -999.2500
 1059.5000  -999.2500  -999.2500  -999.2500  -999.2500    94.7486     9.8374    -3.8754     6.8765     6.2021     5.8208  -999.2500
 1060.0000  -999.2500  -999.2500  -999.2500  -999.2500    92.6514     9.8526    -3.7237     6.9233     6.2005     6.0643  -999.2500
 1060.5000  -999.2500  -999.2500  -999.2500  -999.2500    89.9495     9.8528    -3.2562     6.9218     6.1992     6.0670  -999.2500
 1061.0000  -999.2500  -999.2500  -999.2500  -999.2500    88.7536     9.8530    -2.4985     6.9206     6.1979     6.1458  -999.2500
 1061.5000  -999.2500  -999.2500  -999.2500  -999.2500    88.1579     9.8681    -2.1911     6.9681     6.1966     6.1869  -999.2500
 1062.0000  -999.2500  -999.2500  -999.2500  -999.2500    89.0727     9.8833    -1.9156     7.0155     6.1954     6.0153  -999.2500
 1062.5000  -999.2500  -999.2500  -999.2500  -999.2500    92.0938     9.9436    -2.3646     7.0633     6.1941     5.8896  -999.2500
 1063.0000  -999.2500  -999.2500  -999.2500  -999.2500    94.5123     9.9739    -2.6634     7.0618     6.1928     5.8472  -999.2500
 1063.5000  -999.2500  -999.2500  -999.2500  -999.2500    91.5093     9.9890    -2.9626     7.0116     6.1487     5.8868  -999.2500
 1064.0000  -999.2500  -999.2500  -999.2500  -999.2500    89.7108     9.9892    -3.4112     6.8180     6.0206     5.9262  -999.2500
 1064.5000  -999.2500  -999.2500  -999.2500  -999.2500    93.6356     9.9893    -3.5602     6.4445     5.7737     5.8831  -999.2500
 1065.0000  -999.2500  -999.2500  -999.2500  -999.2500    95.7530     9.9895    -4.0092     6.0907     5.3851     5.8815  -999.2500
 1065.5000  -999.2500  -999.2500  -999.2500  -999.2500    94.5572    10.0047    -4.3076     5.8360     5.0906     5.8799  -999.2500
 1066.0000  -999.2500  -999.2500  -999.2500  -999.2500    94.5663    10.1101    -4.4566     5.5684     4.8145     5.7972  -999.2500
 1066.5000  -999.2500  -999.2500  -999.2500  -999.2500    94.2439    10.2005    -4.7551     5.5288     4.6837     5.0791  -999.2500
 1067.0000  -999.2500  -999.2500  -999.2500  -999.2500    92.3953    10.2457    -4.9041     5.5279     4.7903     4.3581  -999.2500
