~VERSION INFORMATION
 VERS.                2.0:   CWLS LOG ASCII STANDARD - VERSION 2.0
 WRAP.                 NO:   ONE LINE PER DEPTH STEP
~WELL INFORMATION
#MNEM.UNIT      DATA TYPE    INFORMATION
#----------   ------------   ------------------------------
 STRT.F            8.0000:   START DEPTH
 STOP.F          598.0000:   STOP DEPTH
 STEP.F            0.5000:   STEP LENGTH
 NULL.          -999.2500:   NO VALUE
 COMP. FENIX & SCISSON INC:   COMPANY
 WELL.    16-SX-11 #16-11:   WELL
 FLD .             TEAPOT:   FIELD
 LOC .      S11 T38N R78W:   LOCATION
 CNTY.            NATRONA:   COUNTY
 STAT.            WYOMING:   STATE
 CTRY. UNITED STATES OF AMERICA:   COUNTRY
 SRVC.            Unknown:   SERVICE COMPANY
 DATE.        13-DEC-1978:   LOGDATE
 API .       490251078400:   API NUMBER
~CURVE INFORMATION
#MNEM.UNIT       API CODE    CURVE DESCRIPTION
#----------   ------------   ------------------------------
 DEPT.F                  :   
 RHOB.G/C3   45 350 01 00:   BULK DENSITY
 CORR.G/C3   45 356 01 00:   DENSITY CORRECTION
 SN  .OHMM   05 040 16 00:   SHORT NORMAL 16"
 ILD .OHMM   05 120 46 00:   INDUCTION LOG DEEP
 SPR .MV     05 010 01 00:   SPONTANEOUS POTENTIAL FROM RES.
 DPHI.DEC    45 890 12 00:   DENSITY POROSITY SANDSTONE
 CALD.IN     45 280 60 00:   CALIPER
 GRD .GAPI   45 310 01 00:   GAMMA RAY FROM DENSITY LOG
~PARAMETER INFORMATION
#MNEM.UNIT          VALUE    DESCRIPTION
#----------   ------------   ------------------------------
 PD  .                 GL:   PERMANENT DATUM
 EPD .F              5209:   ELEVATION PERMANENT DATUM
 LMF .                 KB:   LOG MEASURED FROM
 DAPD.F                 4:   FEET ABOVE PERMANENT DATUM
 DMF .                 KB:   DRILLING MEASURED FROM
 EKB .F              5213:   KELLING BUSHING
 EGL .F              5209:   GROUND LEVEL
 DATE.           12-13-78:   RUN DATE
 RUN .                  1:   RUN NUMBER
 DD  .F               590:   DEPTH DRILLER
 DL  .F               598:   DEPTH LOGGER
 BLI .F               591:   BOTTOM LOG INTERVAL
 TLI .F                40:   TOP LOG INTERVAL
 CS  .IN            8.625:   CASING SIZE
 CBD .F                40:   CASING BOTTOM DRILLER
 CBL .F                25:   CASING BOTTOM LOGGER
 BS  .IN            7.875:   BIT SIZE
 BSD .F               590:   BIT SIZE AT DEPTH
 DFT .                KCL:   DRILLING FLUID TYPE
 DFD .                8.8:   DRILLING FLUID DENSITY
 DFV .                 37:   DRILLING FLUID VISCOSITY
 DFPH.                8.9:   DRILLING FLUID PH
 MSS .           FLOWLINE:   MUD SAMPLE SOURCE
 RMS .OHMM             .3:   RESISTIVITY MUD SAMPLE
 MST .F                56:   MUD SAMPLE TEMPERATURE
 RMF .OHMM            .26:   RESISTIVITY MUD FILTRATE SAMPLE
 MFST.F                66:   MUD FILTRATE SAMPLE TEMPERATURE
 RMC .OHMM            .24:   RESISTIVITY MUD CAKE
 MCST.F                66:   MUD CAKE SAMPLE TEMPERATURE
 MFSS.           MEASURED:   MUD FILTRATE SAMPLE SOURCE
 MCSS.           MEASURED:   MUD CAKE SAMPLE SOURCE
 RMB .OHMM            .29:   RESISTIVITY MUD AT BHT
 BHT .F                58:   BOTTOM HOLE TEMPERATURE
 TCS .HRS               3:   TIME CURCULATED STOPPED
 MRT .F                58:   MAXIMUM RECORDED TEMPERATURE
 LUN .               2958:   LOGGING UNIT NUMBER
 LUL .             CASPER:   LOGGING UNIT LOCATION
 ENGI.            ROLLINS:   RECORDING ENGINEER
 WITN.         RICHARDSON:   WITNESSED BY
 CLNT.            A2DTECH:   CLIENT CODE
 ORIG.       2", 5" PRINT:   ORIGIN OF DATA
 UWI .       490251078400:   UNIQUE WELL ID
 DICO. A2D Technologies, Inc.:   DIGITIZING COMPANY
~OTHER INFORMATION
~A    DEPT    RHOB       CORR         SN        ILD        SPR       DPHI       CALD         GRD  
# ...
   89.0000     2.4537     0.0053     7.8538     7.2091    -2.8688     0.1490     8.0219   105.4475
   89.5000     2.4553     0.0025     7.8327     7.1857    -2.8209     0.1468     8.0125   105.9953
   90.0000     2.4535     0.0020     7.8117     7.1624    -2.7730     0.1454     8.0030   103.2915
   90.5000     2.4495     0.0020     7.7908     7.1391    -2.7245     0.1474     7.9935   101.0724
   91.0000     2.4469     0.0020     7.7699     7.1159    -2.7110     0.1507     7.9840   101.9305
   91.5000     2.4463     0.0020     7.7491     7.0929    -2.7108     0.1514     7.9811   105.9179
   92.0000     2.4465     0.0020     7.7283     7.0668    -2.7108     0.1503     7.9788   106.9385
   92.5000     2.4468     0.0020     7.7075     7.1558    -2.7108     0.1506     7.9767   106.1655
   93.0000     2.4471     0.0020     7.6801     7.2597    -2.7108     0.1516     7.9744   105.2868
   93.5000     2.4473     0.0020     7.7376     7.3651    -2.7108     0.1527     7.9722   103.7670
   94.0000     2.4476     0.0020     7.8238     7.4720    -2.7108     0.1535     7.9700   100.8129
   94.5000     2.4478     0.0020     7.9109     7.5805    -2.7108     0.1534     7.9678    97.9491
   95.0000     2.4480     0.0020     7.9990     7.6905    -2.7108     0.1533     7.9656    99.0836
   95.5000     2.4485     0.0020     8.0882     7.8022    -2.7108     0.1532     7.9634   101.1563
   96.0000     2.4523     0.0019     8.1783     7.9155    -2.7107     0.1519     7.9624   104.4341
   96.5000     2.4561     0.0040     8.2694     8.0308    -2.7151     0.1492     7.9613   107.9108
   97.0000     2.4587     0.0064     8.3615     8.0443    -2.7558     0.1467     7.9602   107.5544
   97.5000     2.4610     0.0124     8.4546     8.0454    -2.7971     0.1461     7.9591   104.8313
   98.0000     2.4748     0.0310     8.5024     7.9162    -2.8382     0.1406     7.9580   103.4504
   98.5000     2.4883     0.0490     8.3566     7.7755    -2.8792     0.1304     7.9568   100.3697
   99.0000     2.5017     0.0670     8.2602     7.6373    -2.9203     0.1202     7.9557    95.0484
   99.5000     2.5088     0.0751     8.1649     7.5016    -2.9614     0.1110     7.9546    92.2333
  100.0000     2.4978     0.0598     8.0708     7.3683    -3.0025     0.1110     7.9535    92.5894
  100.5000     2.4804     0.0402     7.9777     7.2373    -3.0436     0.1299     7.9524    95.8796
  101.0000     2.4512     0.0381     7.8856     7.1087    -3.0839     0.1425     7.9513    96.3743
  101.5000     2.4493     0.0436     7.7951     6.9824    -3.0951     0.1473     7.9502    96.1654
  102.0000     2.4470     0.0484     7.7506     6.8734    -3.0360     0.1487     7.9491   100.8846
  102.5000     2.4442     0.0491     7.7765     6.9575    -2.9782     0.1502     7.9480   100.2652
  103.0000     2.4411     0.0498     7.8039     7.0331    -2.9204     0.1541     7.9469    99.1502
  103.5000     2.4395     0.0505     7.8312     7.1096    -2.8624     0.1580     7.9458    98.0416
  104.0000     2.4410     0.0513     7.8587     7.1870    -2.8045     0.1583     7.9447    96.9395
  104.5000     2.4476     0.0520     7.8863     7.2651    -2.7479     0.1546     7.9419    97.4800
  105.0000     2.4524     0.0495     7.9139     7.3441    -2.7477     0.1470     7.9837   100.3270
  105.5000     2.4517     0.0439     7.9417     7.4240    -2.8497     0.1459     7.9785   102.3564
  106.0000     2.4509     0.0355     7.9695     7.5048    -2.9123     0.1487     7.9752   105.7949
  106.5000     2.4503     0.0281     7.9975     7.5577    -2.9115     0.1518     7.9717   105.0224
  107.0000     2.4566     0.0280     8.0255     7.5897    -2.9117     0.1490     7.9683   105.1398
  107.5000     2.4636     0.0276     8.0537     7.6219    -2.9116     0.1444     7.9649   106.4003
  108.0000     2.4650     0.0237     8.0819     7.6542    -2.9116     0.1423     7.9694   106.2581
  108.5000     2.4660     0.0196     8.1103     7.6866    -2.9116     0.1406     7.9818   108.7138
  109.0000     2.4682     0.0156     8.1387     7.7192    -2.9116     0.1389     7.9943   107.7738
  109.5000     2.4683     0.0120     8.1672     7.7512    -2.9116     0.1372     8.0067   105.6545
  110.0000     2.4628     0.0144     8.1959     7.7515    -2.9116     0.1381     8.0194   104.9694
  110.5000     2.4582     0.0177     8.2246     7.7514    -2.9116     0.1451     8.0213   104.2123
  111.0000     2.4639     0.0153     8.2535     7.7515    -2.9116     0.1423     8.0190   103.2241
  111.5000     2.4715     0.0122     8.2698     7.7515    -2.9116     0.1389     8.0167   105.3553
  112.0000     2.4678     0.0079     8.2517     7.7514    -2.9116     0.1357     8.0144   107.1972
  112.5000     2.4607     0.0008     8.2391     7.7513    -2.9116     0.1375     8.0121   105.2945
  113.0000     2.4543    -0.0004     8.2266     7.7530    -2.9116     0.1447     8.0099   101.8433
  113.5000     2.4539    -0.0008     8.2141     7.6534    -2.9116     0.1449     8.0076   102.1409
  114.0000     2.4536    -0.0013     8.2015     7.5617    -2.9116     0.1447     8.0053   102.6330
  114.5000     2.4531    -0.0017     8.1890     7.4710    -2.9116     0.1457     8.0030   102.3727
  115.0000     2.4509    -0.0028     8.1766     7.3815    -2.9116     0.1471     8.0007   101.6693
  115.5000     2.4487    -0.0057     8.1641     7.2656    -2.9116     0.1485     7.9984   100.4581
  116.0000     2.4465    -0.0086     8.1517     7.2789    -2.9116     0.1502     7.9961    99.4801
  116.5000     2.4444    -0.0079     8.1393     7.2983    -2.9119     0.1525     7.9938   100.3367
  117.0000     2.4442    -0.0002     8.1268     7.3177    -2.9128     0.1548     7.9915   101.8123
  117.5000     2.4474     0.0034     8.1183     7.3372    -2.9067     0.1535     7.9892   102.1244
  118.0000     2.4502     0.0037     8.1992     7.3567    -2.7142     0.1500     7.9869   101.2521
  118.5000     2.4489     0.0032     8.2729     7.3763    -2.5103     0.1506     7.9847   100.5850
  119.0000     2.4476     0.0027     8.3472     7.3959    -2.3131     0.1512     7.9863   101.9746
  119.5000     2.4490     0.0022     8.4222     7.4572    -2.2448     0.1519     7.9980   103.8806
  120.0000     2.4511     0.0020     8.5018     7.5347    -2.1820     0.1499     8.0095   105.3064
  120.5000     2.4619     0.0020     8.4931     7.6130    -2.1174     0.1473     8.0211   104.7917
  121.0000     2.4738     0.0029     8.4824     7.6801    -2.1474     0.1409     8.0326   103.3764
  121.5000     2.4849     0.0069     8.4719     7.6800    -2.1943     0.1346     8.0405   102.7320
  122.0000     2.4874     0.0170     8.4615     7.6799    -2.2416     0.1282     8.0195    99.7607
  122.5000     2.4868     0.0242     8.4512     7.6980    -2.2887     0.1244     7.9980    94.9174
  123.0000     2.4817     0.0214     8.4407     7.7467    -2.3358     0.1261     7.9767    93.4012
  123.5000     2.4721     0.0161     8.4301     7.7957    -2.3831     0.1323     7.9553    98.0802
  124.0000     2.4694     0.0108     8.4249     7.8450    -2.4312     0.1371     7.9340   105.2837
  124.5000     2.4754     0.0062     8.5335     7.8946    -2.4757     0.1370     7.9296   106.6199
  125.0000     2.4821     0.0078     8.6132     7.9446    -2.4079     0.1320     7.9419   105.3795
  125.5000     2.4863     0.0096     8.6937     7.9948    -1.9842     0.1269     7.9433   102.8768
  126.0000     2.4863     0.0087     8.7750     8.0454    -1.5851     0.1247     7.9433   100.5545
  126.5000     2.4733     0.0068     8.8570     8.0963    -1.3630     0.1287     7.9432   100.0676
  127.0000     2.4711     0.0049     8.9048     8.1475    -1.5736     0.1327     7.9432   100.9407
  127.5000     2.4656     0.0030     8.9047     8.1991    -1.7727     0.1355     7.9432   103.3924
  128.0000     2.4591     0.0038     8.9048     8.2511    -1.8893     0.1409     7.9432   105.1176
  128.5000     2.4598     0.0073     8.9052     8.3004    -1.8248     0.1451     7.9432   107.1346
  129.0000     2.4686     0.0109     8.9042     8.3490    -1.7639     0.1415     7.9408   109.1323
