~VERSION INFORMATION
 VERS.                2.0:   CWLS LOG ASCII STANDARD - VERSION 2.0
 WRAP.                 NO:   ONE LINE PER DEPTH STEP
~WELL INFORMATION
#MNEM.UNIT      DATA TYPE    INFORMATION
#----------   ------------   ------------------------------
 STRT.F           29.0000:   START DEPTH
 STOP.F          507.0000:   STOP DEPTH
 STEP.F            0.5000:   STEP LENGTH
 NULL.          -999.2500:   NO VALUE
 COMP.    FENIX & SCISSON:   COMPANY
 WELL.       NPR #64-SX-3:   WELL
 FLD .            WILDCAT:   FIELD
 LOC .       S3 T38N R78W:   LOCATION
 CNTY.            NATRONA:   COUNTY
 STAT.            WYOMING:   STATE
 CTRY. UNITED STATES OF AMERICA:   COUNTRY
 SRVC.           BIRDWELL:   SERVICE COMPANY
 DATE.        28-MAR-1977:   LOGDATE
 API .       490251032200:   API NUMBER
~CURVE INFORMATION
#MNEM.UNIT       API CODE    CURVE DESCRIPTION
#----------   ------------   ------------------------------
 DEPT.F                  :   
 SPR .MV     05 010 01 00:   SPONTANEOUS POTENTIAL FROM RES.
 ILD .OHMM   05 120 46 00:   INDUCTION LOG DEEP
 SN  .OHMM   05 040 16 00:   SHORT NORMAL 16"
 GRD .GAPI   45 310 01 00:   GAMMA RAY FROM DENSITY LOG
 CALD.IN     45 280 60 00:   CALIPER FROM DENSITY LOG
 CORR.G/C3   45 356 01 00:   DENSITY CORRECTION
 RHOB.G/C3   45 350 01 00:   BULK DENSITY
 DPHI.DEC    45 890 12 00:   DENSITY POROSITY SANDSTONE
~PARAMETER INFORMATION
#MNEM.UNIT          VALUE    DESCRIPTION
#----------   ------------   ------------------------------
 PD  .                 GL:   PERMANENT DATUM
 EPD .F              5145:   ELEVATION PERMANENT DATUM
 LMF .                 GL:   LOG MEASURED FROM
 DMF .                 GL:   DRILLING MEASURED FROM
 EKB .F              5150:   KELLING BUSHING
 EDF .F              5149:   DRILLING FLOOR
 EGL .F              5145:   GROUND LEVEL
 DATE.        28-MAR-1977:   RUN DATE
 RUN .                  1:   RUN NUMBER
 DD  .F               507:   DEPTH DRILLER
 DL  .F               507:   DEPTH LOGGER
 BLI .F               501:   BOTTOM LOG INTERVAL
 TLI .F                40:   TOP LOG INTERVAL
 CS  .IN            8.625:   CASING SIZE
 CBD .F                40:   CASING BOTTOM DRILLER
 CBL .F                43:   CASING BOTTOM LOGGER
 BS  .IN            7.875:   BIT SIZE
 BSD .F               507:   BIT SIZE AT DEPTH
 DFT .                KCL:   DRILLING FLUID TYPE
 DFD .                8.5:   DRILLING FLUID DENSITY
 DFV .                 31:   DRILLING FLUID VISCOSITY
 DFPH.                 10:   DRILLING FLUID PH
 DFL .                 78:   DRILLING FLUID LOSS
 MSS .                PIT:   MUD SAMPLE SOURCE
 RMS .OHMM            .54:   RESISTIVITY MUD SAMPLE
 MST .F                60:   MUD SAMPLE TEMPERATURE
 RMF .OHMM            .46:   RESISTIVITY MUD FILTRATE SAMPLE
 MFST.F                64:   MUD FILTRATE SAMPLE TEMPERATURE
 RMC .OHMM            .52:   RESISTIVITY MUD CAKE
 MCST.F                64:   MUD CAKE SAMPLE TEMPERATURE
 MFSS.               MEAS:   MUD FILTRATE SAMPLE SOURCE
 MCSS.               MEAS:   MUD CAKE SAMPLE SOURCE
 RMB .OHMM            .51:   RESISTIVITY MUD AT BHT
 BHT .F                63:   BOTTOM HOLE TEMPERATURE
 TCS .HRS            0300:   TIME CURCULATED STOPPED
 MRT .F                63:   MAXIMUM RECORDED TEMPERATURE
 LUN .               3026:   LOGGING UNIT NUMBER
 LUL .             CASPER:   LOGGING UNIT LOCATION
 ENGI.             RAWSON:   RECORDING ENGINEER
 WITN.         STUERINCER:   WITNESSED BY
 CLNT.            A2DTECH:   CLIENT CODE
 ORIG.           5" PRINT:   ORIGIN OF DATA
 UWI .       490251032200:   UNIQUE WELL ID
 DICO. A2D Technologies, Inc.:   DIGITIZING COMPANY
~OTHER INFORMATION
~A   DEPT      SPR        ILD         SN        GRD       CALD       CORR       RHOB       DPHI   
# ...
  231.5000   -35.4302     5.8344     6.9576    72.2345     7.4793    -0.0029     2.4273     0.1301
  232.0000   -35.2832     6.0523     7.0544    72.7644     7.4656    -0.0047     2.4289     0.1276
  232.5000   -35.2861     6.4284     7.3538    73.5937     7.4670    -0.0093     2.4350     0.1252
  233.0000   -35.2897     6.7477     7.6129    73.8227     7.4834    -0.0094     2.4396     0.1233
  233.5000   -35.4432     7.0340     7.8813    72.4080     7.4847    -0.0066     2.4435     0.1221
  234.0000   -35.4461     7.2314     8.1026    71.7388     7.4861    -0.0098     2.4488     0.1209
  234.5000   -35.4490     7.3829     8.4466    71.6699     7.4724    -0.0144     2.4519     0.1196
  235.0000   -35.4519     7.4890     8.8665    72.8750     7.4738    -0.0161     2.4528     0.1190
  235.5000   -35.4548     7.5896     9.0524    73.5546     7.4751    -0.0163     2.4529     0.1187
  236.0000   -35.4578     7.6419     9.1149    73.1115     7.4917    -0.0150     2.4530     0.1192
  236.5000   -35.3100     7.5884     9.0511    71.9947     7.4931    -0.0001     2.4516     0.1274
  237.0000   -35.1623     7.5879     9.0505    71.4018     7.4944     0.0013     2.4464     0.1313
  237.5000   -35.0146     7.4829     8.9873    71.1818     7.4958    -0.0019     2.4404     0.1315
  238.0000   -35.0183     7.3793     8.8015    71.1144     7.4818    -0.0051     2.4360     0.1312
  238.5000   -35.0212     7.2701     8.6195    70.5215     7.4681    -0.0068     2.4338     0.1303
  239.0000   -35.0241     7.0775     8.4938    71.6502     7.4698    -0.0130     2.4354     0.1242
  239.5000   -35.1783     6.8834     8.3823    72.2550     7.4711    -0.0237     2.4408     0.1205
  240.0000   -35.6330     6.6024     8.2661    71.2879     7.4725    -0.0238     2.4454     0.1205
  240.5000   -36.0877     6.4213     8.1516    73.0903     7.4738    -0.0195     2.4470     0.1304
  241.0000   -36.0906     6.2021     7.9831    72.4226     7.4752    -0.0181     2.4358     0.1325
  241.5000   -36.2441     5.9029     7.7103    71.4540     7.4765    -0.0123     2.4328     0.1379
  242.0000   -36.2470     5.5498     7.3953    72.0603     7.4779    -0.0049     2.4292     0.1472
  242.5000   -36.2500     5.3976     6.8863    72.5153     7.4792    -0.0006     2.4217     0.1617
  243.0000   -36.2536     5.3599     6.4358    71.7728     7.4806     0.0008     2.4060     0.1779
  243.5000   -35.9553     5.4344     6.2159    70.7294     7.4666    -0.0009     2.3857     0.1849
  244.0000   -34.9040     5.4719     6.2155    71.3356     7.4529    -0.0251     2.3564     0.1824
  244.5000   -34.1531     5.5866     6.3021    71.8655     7.4696    -0.0449     2.3406     0.1522
  245.0000   -34.4580     5.8344     6.4789    72.5452     7.4709    -0.0601     2.3460     0.1311
  245.5000   -34.7621     6.2847     6.8510    72.4014     7.4873    -0.1040     2.3755     0.1114
  246.0000   -35.0863     6.7825     7.6335    71.0601     7.5036    -0.0770     2.4058     0.1113
  246.5000   -35.3710     7.1689     8.4324    72.9373     7.5199    -0.0260     2.4639     0.1268
  247.0000   -35.3739     7.5251     8.7904    74.2157     7.5063    -0.0020     2.4520     0.1325
  247.5000   -35.3768     7.6297     8.9127    73.0241     7.4926     0.0024     2.4400     0.1321
  248.0000   -35.5303     7.6291     8.9121    73.4791     7.4940     0.0037     2.4386     0.1297
  248.5000   -35.5332     7.6285     9.0361    74.3833     7.4953     0.0035     2.4326     0.1290
  249.0000   -35.5361     7.6280     9.1618    74.4666     7.4967    -0.0012     2.4342     0.1311
  249.5000   -35.5397     7.6275     9.2892    73.9461     7.4827    -0.0029     2.4366     0.1272
  250.0000   -35.5148     7.6449     9.2886    72.7967     7.4844    -0.0060     2.4381     0.1250
  250.5000   -35.0951     7.7560     9.2885    70.9633     7.4856     0.0029     2.4469     0.1250
  251.0000   -35.0994     7.8416     9.3532    70.7421     7.4870     0.0027     2.4447     0.1295
  251.5000   -35.4060     7.8416     9.4840    71.4213     7.4733    -0.0035     2.4410     0.1267
  252.0000   -35.7115     7.8416     9.5500    71.7993     7.4747    -0.0081     2.4403     0.1239
  252.5000   -35.8665     7.8416     9.6166    71.1901     7.4760    -0.0038     2.4442     0.1206
  253.0000   -35.8708     7.8416     9.6166    70.2186     7.4623     0.0036     2.4488     0.1223
  253.5000   -35.7244     7.7874     9.4166    70.6903     7.4637     0.0052     2.4481     0.1275
  254.0000   -35.5783     7.7336     9.2885    71.3685     7.4651    -0.0072     2.4444     0.1198
  254.5000   -35.2825     7.6270     9.2885    72.1963     7.4514    -0.0075     2.4422     0.1108
  255.0000   -35.2868     7.6270     9.2885    72.8736     7.4528     0.0060     2.4506     0.1244
  255.5000   -35.1394     7.5743     9.2243    71.1577     7.4541     0.0179     2.4559     0.1253
  256.0000   -35.1449     7.5743     9.1605    70.0390     7.4557     0.0011     2.4477     0.1303
  256.5000   -35.2998     7.5220     9.0971    71.4657     7.4571    -0.0111     2.4334     0.1276
  257.0000   -35.4689     7.4700     9.0971    72.2186     7.4431    -0.0172     2.4350     0.1260
  257.5000   -35.3095     7.4183     9.0971    72.0734     7.4298    -0.0205     2.4366     0.1272
  258.0000   -34.5608     7.3671     9.0971    72.9012     7.4311    -0.0235     2.4389     0.1275
  258.5000   -33.9628     7.0567     9.0342    72.9805     7.4171    -0.0236     2.4413     0.1259
  259.0000   -33.8154     6.5933     9.0342    74.4068     7.4188    -0.0253     2.4429     0.1253
  259.5000   -33.8208     6.2808     8.8481    73.2896     7.4352    -0.0239     2.4422     0.1265
  260.0000   -34.1265     6.1090     8.4871    73.9677     7.4515    -0.0226     2.4415     0.1285
  260.5000   -34.4330     6.0248     8.0155    74.0463     7.4678    -0.0077     2.4408     0.1388
  261.0000   -34.7385     6.0668     7.4386    72.9870     7.4842     0.0177     2.4384     0.1577
  261.5000   -35.0440     6.0668     7.0858    73.7655     7.4855     0.0055     2.4226     0.1643
  262.0000   -35.1990     6.0668     6.9881    73.5978     7.4869    -0.0247     2.3747     0.1637
  262.5000   -35.5045     6.0668     7.1849    71.6442     7.4882    -0.0008     2.3876     0.1564
  263.0000   -35.6605     6.0668     7.5951    71.5986     7.4742    -0.0009     2.4103     0.1331
  263.5000   -36.1167     5.9418     7.9181    72.5013     7.4759    -0.0011     2.4224     0.1313
  264.0000   -36.5728     5.8195     7.9181    71.1584     7.4619     0.0018     2.4248     0.1355
  264.5000   -36.4255     5.7793     7.8633    73.4844     7.4636     0.0062     2.4233     0.1433
  265.0000   -36.4309     5.7793     7.6480    72.8141     7.4649     0.0060     2.4144     0.1529
  265.5000   -36.5919     5.7393     7.0368    73.8676     7.4663    -0.0017     2.3978     0.1610
  266.0000   -36.8924     5.7393     6.8918    74.6205     7.4676    -0.0094     2.3881     0.1679
  266.5000   -37.0474     5.7393     6.8842    74.4742     7.4690    -0.0351     2.3791     0.1694
  267.0000   -35.8469     5.7393     6.9398    74.8540     7.4703    -0.0443     2.3694     0.1666
  267.5000   -35.3983     5.7793     7.0499    73.3615     7.4417    -0.0279     2.3732     0.1609
  268.0000   -35.2530     5.8600     7.7549    70.7462     7.4430    -0.0220     2.3914     0.1518
  268.5000   -35.2575     6.1943     8.2548    69.4782     7.4290    -0.0327     2.3937     0.1626
  269.0000   -35.2629     6.7479     8.3123    68.8824     7.1908    -0.0539     2.3908     0.1789
  269.5000   -35.4178     7.3162     8.3701    70.5347     6.9523    -0.1173     2.3728     0.1674
  270.0000   -34.8197     7.5743     8.4284    71.5122     6.8184    -0.1654     2.3502     0.1535
  270.5000   -34.0710     7.5743     8.4284    72.2652     6.8500    -0.1506     2.3895     0.1398
  271.0000   -33.9247     7.3671     8.4284    73.0181     6.8964    -0.1584     2.4062     0.1223
  271.5000   -33.9292     6.9695     8.3701    73.9208     6.9577    -0.1541     2.4214     0.1196
