~VERSION INFORMATION
 VERS.                2.0:   CWLS LOG ASCII STANDARD - VERSION 2.0
 WRAP.                 NO:   ONE LINE PER DEPTH STEP
~WELL INFORMATION
#MNEM.UNIT      DATA TYPE    INFORMATION
#----------   ------------   ------------------------------
 STRT.F            4.0000:   START DEPTH
 STOP.F          572.0000:   STOP DEPTH
 STEP.F            0.5000:   STEP LENGTH
 NULL.          -999.2500:   NO VALUE
 COMP. FENIX & SCISSON INC:   COMPANY
 WELL.       NPR#3 #33-10:   WELL
 FLD .             TEAPOT:   FIELD
 LOC .      S10 T38N R78W:   LOCATION
 CNTY.            NATRONA:   COUNTY
 STAT.            WYOMING:   STATE
 CTRY. UNITED STATES OF AMERICA:   COUNTRY
 SRVC.              Welex:   SERVICE COMPANY
 DATE.        05-MAY-1980:   LOGDATE
 API .       490251080800:   API NUMBER
~CURVE INFORMATION
#MNEM.UNIT       API CODE    CURVE DESCRIPTION
#----------   ------------   ------------------------------
 DEPT.F                  :   
 SGRD.OHMM   07 220 05 00:   SHALLOW GUARD RESISTIVITY
 ILD .OHMM   07 120 46 00:   INDUCTION LOG DEEP RESISTIVITY
 ILM .OHMM   07 120 44 00:   INDUCTION LOG MEDIUM
 SPR .MV     07 010 01 00:   SPONTANEOUS POTENTIAL
 CALD.IN     45 280 60 00:   CALIPER
 GRD .GAPI   45 310 01 00:   GAMMA RAY FROM DENSITY LOG
 RHOB.G/C3   45 350 01 00:   BULK DENSITY
 CORR.G/C3   45 356 01 00:   DENSITY CORRECTION
 DPHI.DEC    45 890 12 00:   DENSITY POROSITY SANDSTONE
~PARAMETER INFORMATION
#MNEM.UNIT          VALUE    DESCRIPTION
#----------   ------------   ------------------------------
 PD  .                 GL:   PERMANENT DATUM
 EPD .F              5228:   ELEVATION PERMANENT DATUM
 LMF .                 KB:   LOG MEASURED FROM
 DAPD.F                 5:   FEET ABOVE PERMANENT DATUM
 DMF .                 KB:   DRILLING MEASURED FROM
 EKB .F              5233:   KELLING BUSHING
 EGL .F              5228:   GROUND LEVEL
 DATE.             5-5-80:   RUN DATE
 RUN .                  1:   RUN NUMBER
 DD  .F               572:   DEPTH DRILLER
 DL  .F               572:   DEPTH LOGGER
 BLI .F               570:   BOTTOM LOG INTERVAL
 TLI .F                30:   TOP LOG INTERVAL
 BS  .IN            7.875:   BIT SIZE
 BSD .F               572:   BIT SIZE AT DEPTH
 DFT .            KCL MUD:   DRILLING FLUID TYPE
 DFD .                8.9:   DRILLING FLUID DENSITY
 DFV .                 36:   DRILLING FLUID VISCOSITY
 DFL .               12.6:   DRILLING FLUID LOSS
 MSS .           FLOWLINE:   MUD SAMPLE SOURCE
 RMS .OHMM           1.08:   RESISTIVITY MUD SAMPLE
 MST .F                60:   MUD SAMPLE TEMPERATURE
 RMF .OHMM            .86:   RESISTIVITY MUD FILTRATE SAMPLE
 MFST.F                60:   MUD FILTRATE SAMPLE TEMPERATURE
 RMC .OHMM           1.29:   RESISTIVITY MUD CAKE
 MCST.F                60:   MUD CAKE SAMPLE TEMPERATURE
 MFSS.           MEASURED:   MUD FILTRATE SAMPLE SOURCE
 MCSS.           MEASURED:   MUD CAKE SAMPLE SOURCE
 TCS .HRS               2:   TIME CURCULATED STOPPED
 MRT .F               100:   MAXIMUM RECORDED TEMPERATURE
 LUN .               1892:   LOGGING UNIT NUMBER
 LUL .             CASPER:   LOGGING UNIT LOCATION
 ENGI.               REIN:   RECORDING ENGINEER
 WITN.              AMEND:   WITNESSED BY
 CLNT.            A2DTECH:   CLIENT CODE
 ORIG.           5" PRINT:   ORIGIN OF DATA
 UWI .       490251080800:   UNIQUE WELL ID
 DICO. A2D Technologies, Inc.:   DIGITIZING COMPANY
~OTHER INFORMATION
~A    DEPT    SGRD        ILD        ILM        SPR       CALD         GRD        RHOB       CORR     DPHI   
# ...
  442.0000    13.5788    10.3526    11.5014   -28.0439     7.8837    81.5145     2.5332     0.0391     0.0925
  442.5000    13.2084    10.2305    11.4881   -28.0438     7.8815    81.5506     2.5311     0.0367     0.0936
  443.0000    13.4542    10.1098    11.4653   -28.0433     7.8794    81.6707     2.5352     0.0340     0.0918
  443.5000    12.9632    10.0168    11.4422   -28.0466     7.8773    80.3457     2.5390     0.0314     0.0901
  444.0000    12.9627    10.0168    11.4192   -28.1387     7.8751    79.0741     2.5372     0.0288     0.0933
  444.5000    13.4689    10.2177    11.3968   -28.2353     7.8730    77.7965     2.5186     0.0261     0.0997
  445.0000    13.7046    10.4171    11.3688   -28.3314     7.8708    76.5170     2.5006     0.0210     0.1118
  445.5000    13.8152    10.7149    11.3419   -28.4258     7.8685    75.2427     2.4806     0.0140     0.1240
  446.0000    15.2257    11.1067    11.3149   -28.3088     7.8476    73.9485     2.4934     0.0250     0.1171
  446.5000    17.5782    11.6101    11.2881   -27.9926     7.8082    73.0051     2.5226     0.0356     0.1010
  447.0000    15.6966    12.1346    11.2612   -27.6787     7.7687    72.9221     2.5174     0.0461     0.0948
  447.5000    13.7046    12.6837    11.2345   -27.3838     7.7503    72.9124     2.5103     0.0445     0.0887
  448.0000    17.4130    13.2576    11.2080   -27.1284     7.7760    71.8471     2.5188     0.0311     0.0830
  448.5000    21.0316    13.8575    11.1890   -26.8771     7.8008    70.6077     2.5524     0.0240     0.0652
  449.0000    23.8400    14.4846    11.2669   -26.6431     7.8256    70.5419     2.5851     0.0405     0.0489
  449.5000    35.6123    15.1400    11.3264   -26.5225     7.8502    70.5204     2.6177     0.0574     0.0385
  450.0000    72.7094    15.8251    11.4011   -26.4081     7.8682    71.8547     2.6468     0.0743     0.0576
  450.5000    55.0795    16.1785    11.6924   -26.2937     7.8674    73.6864     2.5787     0.0751     0.0832
  451.0000    31.6424    16.1785    11.9134   -26.1792     7.8352    75.5289     2.5034     0.0721     0.1088
  451.5000    20.2352    16.1795    12.1356   -26.0644     7.7989    76.4780     2.4489     0.0617     0.1325
  452.0000    17.4169    15.9289    12.3829   -25.9500     7.7625    76.3070     2.4135     0.0375     0.1559
  452.5000    17.9375    15.4456    12.6985   -25.8394     7.7296    76.0854     2.3942     0.0200     0.1731
  453.0000    18.6989    14.9765    13.0574   -25.7896     7.7324    76.1178     2.4037     0.0330     0.1691
  453.5000    18.9237    14.5224    13.4515   -25.7373     7.7396    76.8926     2.4232     0.0478     0.1575
  454.0000    17.5782    14.0820    13.5306   -25.6846     7.7467    77.6523     2.4429     0.0587     0.1458
  454.5000    17.7893    13.6550    13.6103   -25.6320     7.7537    78.0714     2.4627     0.0693     0.1341
  455.0000    17.9053    13.2409    13.6925   -25.5794     7.7607    77.4506     2.4799     0.0803     0.1255
  455.5000    17.4169    12.7258    13.7753   -25.5267     7.7678    76.5402     2.4729     0.0851     0.1315
  456.0000    17.6117    12.7323    13.8611   -25.4741     7.7748    75.5726     2.4504     0.0722     0.1384
  456.5000    17.9053    12.7306    13.9528   -25.4215     7.7818    75.8193     2.4282     0.0552     0.1453
  457.0000    17.5264    12.7300    14.0452   -25.3688     7.7884    76.5912     2.4281     0.0437     0.1520
  457.5000    17.2634    12.7302    14.1377   -25.3162     7.7860    77.3866     2.4201     0.0449     0.1583
  458.0000    17.7311    12.7302    14.2204   -25.2636     7.7802    77.3589     2.4064     0.0456     0.1649
  458.5000    17.0926    12.7302    14.2499   -25.2110     7.7744    76.6580     2.3932     0.0327     0.1714
  459.0000    17.7890    12.7303    14.2830   -25.1582     7.7686    75.9504     2.3972     0.0201     0.1751
  459.5000    18.2385    12.7220    14.3160   -25.1047     7.7628    75.6894     2.4021     0.0152     0.1694
  460.0000    17.4265    12.7109    14.3511   -25.0537     7.7570    75.5231     2.4055     0.0136     0.1674
  460.5000    16.7442    12.6998    14.2531   -25.1479     7.7511    75.3576     2.4023     0.0135     0.1690
  461.0000    16.1754    12.6888    14.1495   -25.2534     7.7495    75.3020     2.3991     0.0156     0.1706
  461.5000    16.9485    12.6777    14.0467   -25.3589     7.7655    75.8268     2.3958     0.0137     0.1723
  462.0000    16.7922    12.6667    13.9261   -25.5042     7.7820    77.1450     2.3928     0.0118     0.1735
  462.5000    17.5800    12.6556    13.7009   -25.8784     7.7787    78.4691     2.4004     0.0095     0.1707
  463.0000    16.9761    12.6446    13.4793   -26.2547     7.7539    79.5760     2.4094     0.0062     0.1667
  463.5000    16.4733    12.6336    13.2614   -26.6406     7.7296    79.7222     2.4184     0.0029     0.1628
  464.0000    16.9417    12.6226    13.2084   -27.1211     7.7089    79.8011     2.4274    -0.0005     0.1588
  464.5000    16.3283    12.6131    13.2084   -27.5657     7.7221    79.8835     2.4364    -0.0037     0.1548
  465.0000    16.7863    12.6133    13.2084   -27.8980     7.7430    79.9691     2.4374    -0.0106     0.1508
  465.5000    16.7863    12.6133    13.2084   -28.2355     7.7640    80.0546     2.4330    -0.0164     0.1483
  466.0000    15.8829    12.6133    13.2084   -28.4755     7.7851    80.1402     2.4392    -0.0134     0.1462
  466.5000    17.1843    12.6133    13.2084   -28.7145     7.8064    80.2258     2.4455    -0.0047     0.1442
  467.0000    17.7410    12.6133    13.2083   -28.9548     7.8274    80.3114     2.4518     0.0039     0.1421
  467.5000    16.9984    12.6133    13.2075   -29.1966     7.8282    80.3970     2.4550     0.0107     0.1404
  468.0000    16.6322    12.6133    13.2464   -29.4308     7.8281    80.4826     2.4407     0.0151     0.1419
  468.5000    16.8323    12.6133    13.2957   -29.3731     7.8281    80.5682     2.4443     0.0136     0.1460
  469.0000    16.9418    12.6134    13.3454   -29.3005     7.8281    80.6543     2.4484     0.0098     0.1517
  469.5000    16.4832    12.6130    13.3952   -29.2671     7.8281    80.7431     2.4309     0.0010     0.1575
  470.0000    16.7300    12.6520    13.4452   -29.4377     7.8281    80.8198     2.4176    -0.0215     0.1633
  470.5000    17.0998    12.7198    13.4954   -29.6107     7.8281    80.3400     2.4086    -0.0264     0.1659
  471.0000    16.6754    12.7879    13.5457   -29.5536     7.8281    79.8130     2.4149    -0.0219     0.1582
  471.5000    16.3283    12.8562    13.5963   -29.4424     7.8281    79.2872     2.4233    -0.0134     0.1479
  472.0000    17.1090    12.9249    13.6470   -29.3314     7.8281    78.7616     2.4532    -0.0046     0.1316
  472.5000    17.7410    12.9671    13.6980   -29.2902     7.8280    78.2316     2.5023     0.0007     0.1140
  473.0000    16.3304    13.0069    13.7491   -29.5941     7.8280    77.6893     2.5384     0.0053     0.0963
  473.5000    17.3851    13.0476    13.8004   -29.8924     7.8297    77.6627     2.5627     0.0135     0.0787
  474.0000    19.6513    13.0867    13.8494   -30.1898     7.8436    77.6664     2.5849     0.0363     0.0724
  474.5000    21.3333    12.9383    13.9596   -30.4871     7.8577    77.6867     2.5842     0.0474     0.0783
  475.0000    18.5780    12.7892    13.8268   -30.7844     7.8722    77.8563     2.5503     0.0390     0.0922
  475.5000    16.1740    12.6421    13.6622   -31.0826     7.8858    78.0283     2.5208     0.0311     0.1062
  476.0000    15.0357    12.4970    13.4996   -31.3838     7.9093    78.1991     2.4913     0.0274     0.1188
  476.5000    15.7373    12.3535    13.3389   -31.5139     7.9106    78.3702     2.4752     0.0388     0.1237
  477.0000    15.5926    12.2117    13.1801   -31.6393     7.9134    78.4573     2.4732     0.0494     0.1288
  477.5000    15.8848    12.0713    13.0725   -31.7621     7.9166    78.3335     2.4720     0.0601     0.1306
  478.0000    15.8852    11.9329    13.0359   -31.7744     7.9197    78.1920     2.4757     0.0761     0.1286
