~VERSION INFORMATION
 VERS.                2.0:   CWLS LOG ASCII STANDARD - VERSION 2.0
 WRAP.                 NO:   ONE LINE PER DEPTH STEP
~WELL INFORMATION
#MNEM.UNIT      DATA TYPE    INFORMATION
#----------   ------------   ------------------------------
 STRT.F          371.0000:   START DEPTH
 STOP.F         1998.0000:   STOP DEPTH
 STEP.F            0.5000:   STEP LENGTH
 NULL.          -999.2500:   NO VALUE
 COMP.       ANADARKO PET:   COMPANY
 WELL. StX-21 NPR #3 #17-21:   WELL
 FLD .             TEAPOT:   FIELD
 LOC .      S21 T39N R78W:   LOCATION
 CNTY.            NATRONA:   COUNTY
 STAT.            WYOMING:   STATE
 CTRY. UNITED STATES OF AMERICA:   COUNTRY
 SRVC.            Unknown:   SERVICE COMPANY
 DATE.        11-OCT-1994:   LOGDATE
 API .       490252266400:   API NUMBER
~CURVE INFORMATION
#MNEM.UNIT       API CODE    CURVE DESCRIPTION
#----------   ------------   ------------------------------
 DEPT.F                  :   
 ROP .MIN/FT 91 810 01 00:   RATE OF DRILLING PENETRATION
 TGAS.UNITS  91 830 01 00:   TOTAL GAS FROM HOTWIRE
~PARAMETER INFORMATION
#MNEM.UNIT          VALUE    DESCRIPTION
#----------   ------------   ------------------------------
 DATE.         10-11-1994:   RUN DATE
 RUN .                  1:   RUN NUMBER
 DD  .F              1997:   DEPTH DRILLER
 BLI .F              2000:   BOTTOM LOG INTERVAL
 TLI .F               360:   TOP LOG INTERVAL
 CS  .IN                7:   CASING SIZE
 CBD .F               344:   CASING BOTTOM DRILLER
 ENGI.   C. TOWER R. HUSK:   RECORDING ENGINEER
 CLNT.            A2DTECH:   CLIENT CODE
 ORIG.         2.5" PRINT:   ORIGIN OF DATA
 UWI .       490252266400:   UNIQUE WELL ID
 DICO. A2D Technologies, Inc.:   DIGITIZING COMPANY
~OTHER INFORMATION
~A   DEPT        ROP       TGAS 
# ...
 1100.0000     0.4228     0.3722
 1100.5000     0.3864     0.7459
 1101.0000     0.3868     0.0000
 1101.5000     0.3872     0.0000
 1102.0000     0.3875     0.0000
 1102.5000     0.3879     0.0000
 1103.0000     0.3882     0.0000
 1103.5000     0.3886     0.0000
 1104.0000     0.3890     0.0000
 1104.5000     0.3893     0.0000
 1105.0000     0.3897     0.0000
 1105.5000     0.3901     0.0000
 1106.0000     0.3904     0.0000
 1106.5000     0.3908     0.0000
 1107.0000     0.3912     0.0000
 1107.5000     0.3915     0.0000
 1108.0000     0.3919     0.0000
 1108.5000     0.3923     0.0000
 1109.0000     0.3926     0.0000
 1109.5000     0.3930     0.0000
 1110.0000     0.3934     0.0000
 1110.5000     0.3938     0.0000
 1111.0000     0.3941     0.0000
 1111.5000     0.3945     0.0000
 1112.0000     0.3949     0.0000
 1112.5000     0.3952     0.0000
 1113.0000     0.3956     0.0000
 1113.5000     0.3960     0.0000
 1114.0000     0.3963     0.0000
 1114.5000     0.3967     0.0000
 1115.0000     0.3971     0.0000
 1115.5000     0.3974     0.0000
 1116.0000     0.3979     0.0000
 1116.5000     0.3982     0.0000
 1117.0000     0.3985     0.0000
 1117.5000     0.3989     0.0000
 1118.0000     0.3993     0.0000
 1118.5000     0.3996     0.0000
 1119.0000     0.4000     0.0000
 1119.5000     0.4004     0.0000
 1120.0000     0.4007     0.0000
 1120.5000     0.4011     0.0000
 1121.0000     0.4015     0.0000
 1121.5000     0.4018     0.0000
 1122.0000     0.4022     0.0000
 1122.5000     0.4026     0.0000
 1123.0000     0.4030     0.0000
 1123.5000     0.4033     0.0000
 1124.0000     0.4037     0.0000
 1124.5000     0.4040     0.0000
 1125.0000     0.4044     0.0000
 1125.5000     0.4048     0.0000
 1126.0000     0.4051     0.0000
 1126.5000     0.4055     0.0000
 1127.0000     0.4059     0.0000
 1127.5000     0.4063     0.0000
 1128.0000     0.4066     0.0000
 1128.5000     0.4070     0.0000
 1129.0000     0.4074     0.0000
 1129.5000     0.4077     0.0000
 1130.0000     0.4081     0.0000
 1130.5000     0.4085     0.0000
 1131.0000     0.4088     0.0000
 1131.5000     0.4092     0.0000
 1132.0000     0.4096     0.0000
 1132.5000     0.4099     0.0000
 1133.0000     0.4103     0.0000
 1133.5000     0.4107     0.0000
 1134.0000     0.4110     0.0000
 1134.5000     0.4114     0.0000
 1135.0000     0.4118     0.0000
 1135.5000     0.4121     0.0000
 1136.0000     0.4125     0.0000
 1136.5000     0.4129     0.0000
 1137.0000     0.4132     0.0000
 1137.5000     0.4137     0.0000
 1138.0000     0.4140     0.0000
 1138.5000     0.4143     0.0000
 1139.0000     0.4147     0.0000
 1139.5000     0.4151     0.0000
 1140.0000     0.4155     0.0000
 1140.5000     0.4159     0.0000
 1141.0000     0.4162     0.0000
 1141.5000     0.4165     0.0000
 1142.0000     0.4169     0.0000
 1142.5000     0.4173     0.0000
 1143.0000     0.4177     0.0000
 1143.5000     0.4180     0.0000
 1144.0000     0.4184     0.0000
 1144.5000     0.4188     0.0000
 1145.0000     0.4191     0.0000
 1145.5000     0.4195     0.0000
 1146.0000     0.4199     0.0000
 1146.5000     0.4202     0.0000
 1147.0000     0.4206     0.0000
 1147.5000     0.4210     0.0000
 1148.0000     0.4213     0.0000
 1148.5000     0.4218     0.0000
 1149.0000     0.4221     0.0000
 1149.5000     0.4224     0.0000
 1150.0000     0.4228     0.0000
 1150.5000     0.4232     0.0000
 1151.0000     0.4235     0.0000
 1151.5000     0.4239     0.0000
 1152.0000     0.4243     0.0000
 1152.5000     0.4246     0.0000
 1153.0000     0.4250     0.0000
 1153.5000     0.4254     0.0000
 1154.0000     0.4258     0.0000
 1154.5000     0.4261     0.0000
 1155.0000     0.4265     0.0000
 1155.5000     0.4268     0.0000
 1156.0000     0.4272     0.0000
 1156.5000     0.4276     0.0000
 1157.0000     0.4279     0.0000
 1157.5000     0.4283     0.0000
 1158.0000     0.4287     0.0000
 1158.5000     0.4290     0.0000
 1159.0000     0.4294     0.0000
 1159.5000     0.4298     0.0000
 1160.0000     0.4301     0.0000
 1160.5000     0.4306     0.0000
 1161.0000     0.4309     0.0000
 1161.5000     0.4313     0.0000
 1162.0000     0.4316     0.0000
 1162.5000     0.4320     0.0000
 1163.0000     0.4324     0.0000
 1163.5000     0.4327     0.0000
 1164.0000     0.4331     0.0000
 1164.5000     0.4335     0.0000
 1165.0000     0.4338     0.0000
 1165.5000     0.4342     0.0000
 1166.0000     0.4346     0.0000
 1166.5000     0.4349     0.0000
 1167.0000     0.4353     0.0000
 1167.5000     0.4357     0.0000
 1168.0000     0.4360     0.0000
 1168.5000     0.4364     0.0000
 1169.0000     0.4368     0.0000
 1169.5000     0.4371     0.0000
 1170.0000     0.4376     0.0000
 1170.5000     0.4379     0.0000
 1171.0000     0.4382     0.0000
 1171.5000     0.4386     0.0000
 1172.0000     0.4390     0.0000
 1172.5000     0.4393     0.0000
 1173.0000     0.4397     0.0000
 1173.5000     0.4401     0.0000
 1174.0000     0.4405     0.0000
 1174.5000     0.4408     0.0000
 1175.0000     0.4412     0.0000
 1175.5000     0.4415     0.0000
 1176.0000     0.4419     0.0000
 1176.5000     0.4423     0.0000
 1177.0000     0.4426     0.0000
 1177.5000     0.4430     0.0000
 1178.0000     0.4434     0.0000
 1178.5000     0.4438     0.0000
 1179.0000     0.4442     0.0000
 1179.5000     0.4445     0.0000
 1180.0000     0.4449     0.0000
 1180.5000     0.4452     0.0000
 1181.0000     0.4456     0.0000
 1181.5000     0.4460     0.0000
 1182.0000     0.4464     0.0000
 1182.5000     0.4467     0.0000
 1183.0000     0.4471     0.0000
 1183.5000     0.4475     0.0000
 1184.0000     0.4478     0.0000
 1184.5000     0.4482     0.0000
 1185.0000     0.4485     0.0000
 1185.5000     0.4489     0.0000
 1186.0000     0.4493     0.0000
 1186.5000     0.4496     0.0000
 1187.0000     0.4500     0.0000
 1187.5000     0.4504     0.0000
 1188.0000     0.4507     0.0000
 1188.5000     0.4511     0.0000
 1189.0000     0.4515     0.0000
 1189.5000     0.4518     0.0000
 1190.0000     0.4522     0.0000
 1190.5000     0.4526     0.0000
 1191.0000     0.4530     0.0000
 1191.5000     0.4533     0.0000
 1192.0000     0.4537     0.0000
 1192.5000     0.4540     0.0000
 1193.0000     0.4544     0.0000
 1193.5000     0.4548     0.0000
 1194.0000     0.4551     0.0000
 1194.5000     0.4555     0.0000
 1195.0000     0.4559     0.0000
 1195.5000     0.4563     0.0000
 1196.0000     0.4566     0.0000
 1196.5000     0.4570     0.0000
 1197.0000     0.4574     0.0000
 1197.5000     0.4578     0.0000
 1198.0000     0.4581     0.0000
 1198.5000     0.4585     0.0000
 1199.0000     0.4588     0.0000
 1199.5000     0.4592     0.0000
 1200.0000     0.4596     0.0000
 1200.5000     0.4413     0.0074
 1201.0000     0.4414     0.0149
 1201.5000     0.4598     0.0223
 1202.0000     0.4599     0.0298
 1202.5000     0.4784     0.0386
 1203.0000     0.4785     0.0459
 1203.5000     0.4786     0.0531
 1204.0000     0.4787     0.0604
 1204.5000     0.4788     0.0676
 1205.0000     0.4789     0.0749
 1205.5000     0.4790     0.0821
 1206.0000     0.4790     0.0894
 1206.5000     0.4791     0.1066
 1207.0000     0.4792     0.4760
 1207.5000     0.4609     0.4835
 1208.0000     0.4610     0.4909
 1208.5000     0.4611     0.4983
 1209.0000     0.4612     0.6149
 1209.5000     0.4613     0.8851
 1210.0000     0.4614     0.8926
 1210.5000     0.4615     1.2719
 1211.0000     0.4616     1.2793
 1211.5000     0.4617     1.2868
 1212.0000     0.4618     1.2956
 1212.5000     0.4619     1.3029
 1213.0000     0.4619     1.3101
 1213.5000     0.4620     1.3174
 1214.0000     0.4621     0.9521
 1214.5000     0.4671     0.9599
 1215.0000     0.4807     0.9672
 1215.5000     0.4808     0.9744
 1216.0000     0.4809     0.9818
 1216.5000     0.4810     1.1973
 1217.0000     0.4811     7.0747
 1217.5000     0.4873    25.9219
 1218.0000     0.4077    51.3356
 1218.5000     0.3159    60.4935
 1219.0000     0.3160    61.2744
 1219.5000     0.3345    61.2818
 1220.0000     0.3529    61.2893
 1220.5000     0.3530    60.9248
 1221.0000     0.3556    60.9322
