~VERSION INFORMATION
 VERS.                2.0:   CWLS LOG ASCII STANDARD - VERSION 2.0
 WRAP.                 NO:   ONE LINE PER DEPTH STEP
~WELL INFORMATION
#MNEM.UNIT      DATA TYPE    INFORMATION
#----------   ------------   ------------------------------
 STRT.F            0.0000:   START DEPTH
 STOP.F         4113.0000:   STOP DEPTH
 STEP.F            0.5000:   STEP LENGTH
 NULL.          -999.2500:   NO VALUE
 COMP. LAWRENCE/ALLISON INC:   COMPANY
 WELL.  NPR # #3 76 -MX-3:   WELL
 FLD .             TEAPOT:   FIELD
 LOC .       S3 T38N R78W:   LOCATION
 CNTY.            NATRONA:   COUNTY
 STAT.            WYOMING:   STATE
 CTRY. UNITED STATES OF AMERICA:   COUNTRY
 SRVC.      Dresser Atlas:   SERVICE COMPANY
 DATE.        04-SEP-1983:   LOGDATE
 API .       490251094300:   API NUMBER
~CURVE INFORMATION
#MNEM.UNIT       API CODE    CURVE DESCRIPTION
#----------   ------------   ------------------------------
 DEPT.F                  :   
 GRR .GAPI   07 310 01 00:   GAMMA RAY
 SPR .MV     07 010 01 00:   SPONTANEOUS POTENTIAL
 RILD.OHMM   07 120 46 00:   INDUCTION LOG DEEP RESISTIVITY
 RILM.OHMM   07 120 44 00:   INDUCTION LOG MEDIUM RESISTIVITY
 RFOC.OHMM   07 220 04 00:   RESISTIVITY FOCUSED LOG
 CNCF.DEC    42 890 03 00:   NEUTRON POROSITY SANDSTONE
 PORD.DEC    45 890 12 00:   POROSITY DENSITY SANDSTONE
 CALD.IN     45 280 60 00:   CALIPER FROM DENSITY LOG
 CORR.G/C3   45 356 01 00:   DENSITY CORRECTION
 DEN .G/C3   45 350 01 00:   COMPENSATED BULK DENSTIY
 AC  .US/F   60 520 00 00:   ACCOUSTIC
~PARAMETER INFORMATION
#MNEM.UNIT          VALUE    DESCRIPTION
#----------   ------------   ------------------------------
 PD  .                 GL:   PERMANENT DATUM
 EPD .F              5147:   ELEVATION PERMANENT DATUM
 LMF .                 KB:   LOG MEASURED FROM
 DAPD.F                10:   FEET ABOVE PERMANENT DATUM
 DMF .                 KB:   DRILLING MEASURED FROM
 EKB .F              5157:   KELLING BUSHING
 EGL .F              5147:   GROUND LEVEL
 DATE.        04-SEP-1983:   RUN DATE
 RUN .                  1:   RUN NUMBER
 DD  .F              4119:   DEPTH DRILLER
 DL  .F              4115:   DEPTH LOGGER
 BLI .F              4112:   BOTTOM LOG INTERVAL
 CS  .IN            9.625:   CASING SIZE
 CBD .F               491:   CASING BOTTOM DRILLER
 CBL .F               494:   CASING BOTTOM LOGGER
 BS  .IN             8.75:   BIT SIZE
 BSD .F              4119:   BIT SIZE AT DEPTH
 DFT .            KCL GEL:   DRILLING FLUID TYPE
 DFD .                8.9:   DRILLING FLUID DENSITY
 DFV .                 46:   DRILLING FLUID VISCOSITY
 DFPH.                9.0:   DRILLING FLUID PH
 DFL .               13.6:   DRILLING FLUID LOSS
 MSS .           MUD TANK:   MUD SAMPLE SOURCE
 RMS .OHMM           .315:   RESISTIVITY MUD SAMPLE
 MST .F                92:   MUD SAMPLE TEMPERATURE
 RMF .OHMM            .25:   RESISTIVITY MUD FILTRATE SAMPLE
 MFST.F                84:   MUD FILTRATE SAMPLE TEMPERATURE
 RMC .OHMM             .4:   RESISTIVITY MUD CAKE
 MCST.F                92:   MUD CAKE SAMPLE TEMPERATURE
 MFSS.               MEAS:   MUD FILTRATE SAMPLE SOURCE
 MCSS.               CALC:   MUD CAKE SAMPLE SOURCE
 RMB .OHMM            .22:   RESISTIVITY MUD AT BHT
 BHT .F               132:   BOTTOM HOLE TEMPERATURE
 TCS .HRS               4:   TIME CURCULATED STOPPED
 MRT .F               132:   MAXIMUM RECORDED TEMPERATURE
 LUN .               6274:   LOGGING UNIT NUMBER
 LUL .              GLTE.:   LOGGING UNIT LOCATION
 ENGI.             RAUTIO:   RECORDING ENGINEER
 WITN.             STRONG:   WITNESSED BY
 CLNT.            A2DTECH:   CLIENT CODE
 ORIG.        2" 5" PRINT:   ORIGIN OF DATA
 UWI .       490251094300:   UNIQUE WELL ID
 DICO. A2D Technologies, Inc.:   DIGITIZING COMPANY
~OTHER INFORMATION
~A    DEPT     GRR        SPR       RILD       RILM       RFOC       CNCF       PORD       CALD       CORR        DEN         AC   
# ...
 1433.5000   110.7269   -49.7412     6.2997     6.3037     6.7626     0.2492     0.0597     9.0825     0.0338     2.5515  -999.2500
 1434.0000   113.8914   -49.7632     6.2955     6.2537     6.7021     0.2766     0.0555     9.0972     0.0458     2.5573  -999.2500
 1434.5000   114.1758   -49.7807     6.2470     6.2491     6.6036     0.2892     0.0558     9.0966     0.0593     2.5543  -999.2500
 1435.0000   112.8952   -49.6372     6.1980     6.1996     6.5067     0.2793     0.0579     9.0962     0.0533     2.5476  -999.2500
 1435.5000   109.7366   -49.6591     6.1494     6.1504     6.4081     0.2759     0.0618     9.0958     0.0502     2.5453  -999.2500
 1436.0000   104.0742   -49.5155     6.1449     6.1459     6.4496     0.2816     0.0621     9.0953     0.0593     2.5476  -999.2500
 1436.5000   101.5416   -49.3764     6.0972     6.1414     6.5856     0.2791     0.0596     9.0948     0.0622     2.5492  -999.2500
 1437.0000   101.2000   -49.3983     6.0932     6.1825     6.5802     0.2770     0.0584     9.1095     0.0441     2.5498  -999.2500
 1437.5000   102.1103   -49.2548     6.1335     6.1768     6.5275     0.2767     0.0590     9.1090     0.0320     2.5499  -999.2500
 1438.0000   103.0206   -49.2727     6.1293     6.2182     6.4752     0.2764     0.0596     9.1085     0.0320     2.5484  -999.2500
 1438.5000   103.6251   -49.2900     6.1252     6.2135     6.4233     0.2673     0.0605     9.0931     0.0350     2.5461  -999.2500
 1439.0000   103.2763   -49.3074     6.1212     6.2090     6.4660     0.2631     0.0605     9.0926     0.0380     2.5461  -999.2500
 1439.5000   102.6217   -49.3250     6.1172     6.2045     6.6012     0.2622     0.0605     9.0922     0.0381     2.5461  -999.2500
 1440.0000   101.9671   -49.1849     6.1131     6.2000     6.6934     0.2625     0.0629     9.0917     0.0258     2.5446  -999.2500
 1440.5000   101.6326   -49.2034     6.1091     6.1065     6.8830     0.2727     0.0677     9.0912     0.0179     2.5401  -999.2500
 1441.0000   102.2910   -49.2210     6.0612     6.0144     6.9385     0.2811     0.0689     9.0908     0.0047     2.5356  -999.2500
 1441.5000   103.4532   -49.2385     5.9703     5.9667     6.8599     0.2817     0.0680     9.0903    -0.0014     2.5364  -999.2500
 1442.0000   104.3838   -49.2561     5.9235     5.8344     6.6204     0.2752     0.0631     9.0899    -0.0059     2.5454  -999.2500
 1442.5000   105.2739   -49.2736     5.7928     5.7464     6.4295     0.2693     0.0594     9.0895     0.0016     2.5499  -999.2500
 1443.0000   106.1847   -49.2912     5.7068     5.6190     6.2864     0.2753     0.0589     9.0889     0.0106     2.5514  -999.2500
 1443.5000   107.0955   -49.3088     5.7491     5.5744     6.1464     0.2768     0.0589     9.0885     0.0256     2.5477  -999.2500
 1444.0000   107.6933   -49.3229     5.8686     5.7754     6.0532     0.2665     0.0592     9.0881     0.0241     2.5417  -999.2500
 1444.5000   107.9833   -49.3401     5.9477     5.8977     6.0935     0.2632     0.0643     9.0876     0.0150     2.5349  -999.2500
 1445.0000   107.0086   -49.3574     5.9869     5.9372     6.1760     0.2648     0.0709     9.0872     0.0075     2.5296  -999.2500
 1445.5000   104.7890   -49.3746     5.9829     5.9317     6.4448     0.2683     0.0719     9.0868     0.0014     2.5297  -999.2500
 1446.0000   102.8824   -49.3922     5.9790     5.9283     6.8234     0.2668     0.0724     9.0863     0.0104     2.5312  -999.2500
 1446.5000   101.9148   -49.5665     5.9750     5.9240     7.0690     0.2667     0.0700     9.0858     0.0255     2.5327  -999.2500
 1447.0000   102.1992   -49.5841     6.0154     5.8771     7.1160     0.2691     0.0700     9.1004     0.0405     2.5297  -999.2500
 1447.5000   102.1705   -49.6016     6.0549     5.8728     7.0067     0.2814     0.0720     9.0849     0.0405     2.5252  -999.2500
 1448.0000   100.8899   -49.6192     6.0948     5.9112     6.7036     0.2875     0.0747     9.0845     0.0359     2.5229  -999.2500
 1448.5000    98.9265   -49.6368     6.1349     5.9929     6.4519     0.2892     0.0762     9.0991     0.0283     2.5252  -999.2500
 1449.0000    98.6488   -49.6543     6.2190     6.1197     6.2721     0.2826     0.0738     9.0836     0.0221     2.5297  -999.2500
 1449.5000   100.8521   -49.6719     6.2609     6.2946     6.4541     0.2799     0.0711     9.0831     0.0192     2.5335  -999.2500
 1450.0000   102.3474   -49.6851     6.3927     6.4291     6.6833     0.2745     0.0687     9.0827     0.0254     2.5375  -999.2500
 1450.5000    98.2584   -49.5807     6.5283     6.5191     6.9741     0.2708     0.0653     9.0853     0.0448     2.5396  -999.2500
 1451.0000    95.7359   -49.5581     6.6200     6.6065     7.2287     0.2723     0.0663     9.0877     0.0312     2.5365  -999.2500
 1451.5000    94.7830   -49.7342     6.5648     6.6011     7.1723     0.2731     0.0710     9.0901     0.0115     2.5305  -999.2500
 1452.0000    98.8286   -49.7496     6.6073     6.5473     6.9629     0.2710     0.0752     9.0924    -0.0021     2.5267  -999.2500
 1452.5000    98.4970   -49.7651     6.6020     6.4483     6.9087     0.2572     0.0758     9.0948    -0.0066     2.5252  -999.2500
 1453.0000    95.6615   -49.7806     6.5968     6.3968     7.1075     0.2511     0.0721     9.0959    -0.0037     2.5305  -999.2500
 1453.5000    91.5741   -49.7962     6.5916     6.3918     7.1561     0.2580     0.0650     9.1107     0.0098     2.5388  -999.2500
 1454.0000    94.6854   -49.8119     6.5390     6.3868     7.0994     0.2673     0.0597     9.1103     0.0264     2.5478  -999.2500
 1454.5000    97.5002   -49.8276     6.5338     6.3817     6.9935     0.2685     0.0606     9.1100     0.0399     2.5471  -999.2500
 1455.0000    99.3847   -49.8462     6.5286     6.3767     6.8394     0.2697     0.0642     9.1098     0.0368     2.5433  -999.2500
 1455.5000   101.2352   -49.8617     6.5710     6.4192     6.7872     0.2706     0.0657     9.1095     0.0308     2.5403  -999.2500
 1456.0000   101.4968   -49.8771     6.6134     6.4607     6.9321     0.2675     0.0657     9.1091     0.0292     2.5396  -999.2500
 1456.5000   100.1087   -49.8926     6.6561     6.5497     6.9785     0.2567     0.0653     9.1088     0.0324     2.5396  -999.2500
 1457.0000    97.6991   -49.9080     6.6496     6.5432     6.9233     0.2515     0.0623     9.0935     0.0457     2.5419  -999.2500
 1457.5000    95.8025   -49.9235     6.6444     6.5381     6.8694     0.2512     0.0590     9.0932     0.0547     2.5456  -999.2500
 1458.0000    95.1580   -49.9390     6.5914     6.5330     6.8655     0.2506     0.0590     9.0779     0.0532     2.5502  -999.2500
 1458.5000    95.1394   -49.9544     6.5862     6.5278     6.9616     0.2497     0.0613     9.0775     0.0486     2.5510  -999.2500
 1459.0000    96.0597   -49.9699     6.5811     6.5227     7.0081     0.2503     0.0628     9.0924     0.0470     2.5472  -999.2500
 1459.5000    97.2931   -49.9853     6.5286     6.4706     7.0589     0.2549     0.0622     9.0920     0.0470     2.5464  -999.2500
 1460.0000    99.7784   -50.0008     6.4766     6.4656     7.1022     0.2574     0.0610     9.0917     0.0454     2.5472  -999.2500
 1460.5000   101.9508   -50.0162     6.4715     6.4139     7.0971     0.2556     0.0600     9.0914     0.0394     2.5479  -999.2500
 1461.0000   104.1231   -50.0317     6.4664     6.4088     6.9912     0.2571     0.0609     9.0911     0.0333     2.5479  -999.2500
 1461.5000   104.7351   -49.8903     6.4614     6.3576     6.8372     0.2634     0.0621     9.0908     0.0302     2.5472  -999.2500
 1462.0000   101.8950   -49.9060     6.4563     6.3058     6.7351     0.2691     0.0627     9.0905     0.0317     2.5465  -999.2500
 1462.5000    99.0595   -49.9216     6.4048     6.2554     6.6345     0.2721     0.0623     9.0752     0.0332     2.5465  -999.2500
 1463.0000    99.6669   -49.9373     6.3538     6.2055     6.6799     0.2751     0.0608     9.0748     0.0361     2.5472  -999.2500
 1463.5000   101.8392   -49.9561     6.3024     6.1559     6.7245     0.2772     0.0596     9.0745     0.0361     2.5480  -999.2500
