~VERSION INFORMATION
 VERS.                2.0:   CWLS LOG ASCII STANDARD - VERSION 2.0
 WRAP.                 NO:   ONE LINE PER DEPTH STEP
~WELL INFORMATION
#MNEM.UNIT      DATA TYPE    INFORMATION
#----------   ------------   ------------------------------
 STRT.F           40.0000:   START DEPTH
 STOP.F          512.0000:   STOP DEPTH
 STEP.F            0.5000:   STEP LENGTH
 NULL.          -999.2500:   NO VALUE
 COMP. FENIX & SCISSON INC:   COMPANY
 WELL.    SX 3FO 55 #52-3:   WELL
 FLD .             TEAPOT:   FIELD
 LOC .       S3 T38N R78W:   LOCATION
 CNTY.            NATRONA:   COUNTY
 STAT.            WYOMING:   STATE
 CTRY. UNITED STATES OF AMERICA:   COUNTRY
 SRVC.              Welex:   SERVICE COMPANY
 DATE.        28-JUN-1980:   LOGDATE
 API .       490251081600:   API NUMBER
~CURVE INFORMATION
#MNEM.UNIT       API CODE    CURVE DESCRIPTION
#----------   ------------   ------------------------------
 DEPT.F                  :   
 GRD .GAPI   45 310 01 00:   GAMMA RAY FROM DENSITY LOG
 CALD.IN     45 280 60 00:   CALIPER
 RHOB.G/C3   45 350 01 00:   BULK DENSITY
 DPHI.DEC    45 890 12 00:   DENSITY POROSITY SANDSTONE
 CORR.G/C3   45 356 01 00:   DENSITY CORRECTION
~PARAMETER INFORMATION
#MNEM.UNIT          VALUE    DESCRIPTION
#----------   ------------   ------------------------------
 PD  .                 GL:   PERMANENT DATUM
 EPD .F              5161:   ELEVATION PERMANENT DATUM
 LMF .                 KB:   LOG MEASURED FROM
 DAPD.F                 5:   FEET ABOVE PERMANENT DATUM
 DMF .                 KB:   DRILLING MEASURED FROM
 EKB .F              5166:   KELLING BUSHING
 EGL .F              5161:   GROUND LEVEL
 DATE.            6-28-80:   RUN DATE
 RUN .                  1:   RUN NUMBER
 DD  .F               514:   DEPTH DRILLER
 DL  .F               514:   DEPTH LOGGER
 BLI .F               512:   BOTTOM LOG INTERVAL
 TLI .F                46:   TOP LOG INTERVAL
 CS  .IN                7:   CASING SIZE
 BS  .IN             6.25:   BIT SIZE
 BSD .F               514:   BIT SIZE AT DEPTH
 DFT .        AIR DRILLED:   DRILLING FLUID TYPE
 BHT .F                74:   BOTTOM HOLE TEMPERATURE
 TCS .HRS               2:   TIME CURCULATED STOPPED
 MRT .F                74:   MAXIMUM RECORDED TEMPERATURE
 ENGI.            TOTHILL:   RECORDING ENGINEER
 WITN.              AMEND:   WITNESSED BY
 CLNT.            A2DTECH:   CLIENT CODE
 ORIG.           5" PRINT:   ORIGIN OF DATA
 UWI .       490251081600:   UNIQUE WELL ID
 DICO. A2D Technologies, Inc.:   DIGITIZING COMPANY
~OTHER INFORMATION
~A   DEPT       GRD        CALD       RHOB       DPHI       CORR 
# ...
  284.0000   107.6357     6.3604     2.4892     0.1106     0.0415
  284.5000   106.0294     6.3550     2.4751     0.1175     0.0353
  285.0000   104.4135     6.3496     2.4616     0.1252     0.0291
  285.5000   102.1314     6.3442     2.4473     0.1333     0.0227
  286.0000    99.8561     6.3387     2.4316     0.1409     0.0143
  286.5000    96.2691     6.3334     2.4061     0.1571     0.0055
  287.0000    90.9071     6.3280     2.3853     0.1713    -0.0033
  287.5000    83.9116     6.3276     2.3644     0.1845    -0.0120
  288.0000    76.7683     6.3350     2.3440     0.1977    -0.0210
  288.5000    71.8094     6.3423     2.3314     0.2052    -0.0175
  289.0000    66.7941     6.3497     2.3251     0.2096    -0.0075
  289.5000    65.3222     6.3571     2.3103     0.2186    -0.0093
  290.0000    65.1550     6.3646     2.2905     0.2297    -0.0131
  290.5000    65.6202     6.3560     2.2711     0.2430    -0.0110
  291.0000    65.9636     6.3449     2.2566     0.2497    -0.0031
  291.5000    65.6939     6.3340     2.2510     0.2546     0.0049
  292.0000    64.7035     6.3251     2.2411     0.2592     0.0119
  292.5000    63.1759     6.3299     2.2345     0.2639     0.0181
  293.0000    62.0692     6.3345     2.2379     0.2628     0.0245
  293.5000    61.9262     6.3390     2.2397     0.2600     0.0309
  294.0000    62.6433     6.3435     2.2392     0.2598     0.0373
  294.5000    63.3842     6.3480     2.2486     0.2558     0.0515
  295.0000    63.7230     6.3525     2.2593     0.2486     0.0626
  295.5000    64.0497     6.3571     2.2652     0.2458     0.0678
  296.0000    64.3800     6.3613     2.2650     0.2439     0.0653
  296.5000    64.7180     6.3583     2.2524     0.2519     0.0536
  297.0000    64.8911     6.3363     2.2395     0.2604     0.0419
  297.5000    64.9441     6.3152     2.2264     0.2695     0.0302
  298.0000    64.4880     6.3239     2.2256     0.2691     0.0214
  298.5000    64.0286     6.3595     2.2417     0.2583     0.0324
  299.0000    64.7522     6.3841     2.2456     0.2559     0.0378
  299.5000    65.5866     6.3802     2.2459     0.2564     0.0294
  300.0000    66.9642     6.3771     2.2523     0.2587     0.0200
  300.5000    68.8769     6.3739     2.2599     0.2537     0.0106
  301.0000    70.7888     6.3706     2.2627     0.2476     0.0021
  301.5000    72.3366     6.3674     2.2640     0.2463    -0.0058
  302.0000    73.4970     6.3648     2.2698     0.2429    -0.0088
  302.5000    74.5597     6.3705     2.2831     0.2380     0.0011
  303.0000    74.9226     6.3760     2.2998     0.2292     0.0118
  303.5000    76.1524     6.3815     2.3245     0.2167     0.0323
  304.0000    77.0921     6.3826     2.3481     0.1932     0.0523
  304.5000    77.4778     6.3787     2.3696     0.1869     0.0569
  305.0000    77.3731     6.3749     2.3690     0.1840     0.0577
  305.5000    78.5297     6.3710     2.3434     0.1897     0.0465
  306.0000    79.3811     6.3671     2.3423     0.1967     0.0339
  306.5000    80.0555     6.3632     2.3474     0.2004     0.0284
  307.0000    80.4667     6.3593     2.3524     0.1957     0.0317
  307.5000    80.7070     6.3554     2.3572     0.1919     0.0350
  308.0000    80.9258     6.3515     2.3643     0.1880     0.0384
  308.5000    80.3147     6.3476     2.3696     0.1842     0.0417
  309.0000    79.5871     6.3450     2.3685     0.1820     0.0427
  309.5000    79.5193     6.3473     2.3734     0.1808     0.0380
  310.0000    80.4101     6.3494     2.3693     0.1812     0.0301
  310.5000    80.7147     6.3516     2.3608     0.1850     0.0217
  311.0000    80.6263     6.3537     2.3616     0.1882     0.0167
  311.5000    80.5162     6.3559     2.3625     0.1868     0.0122
  312.0000    81.3389     6.3580     2.3551     0.1900     0.0079
  312.5000    82.2237     6.3602     2.3563     0.1906     0.0068
  313.0000    82.5793     6.3624     2.3583     0.1902     0.0094
  313.5000    82.6747     6.3645     2.3599     0.1892     0.0118
  314.0000    82.5916     6.3646     2.3616     0.1870     0.0084
  314.5000    82.5051     6.3645     2.3540     0.1903     0.0047
  315.0000    82.4152     6.3645     2.3457     0.1954     0.0007
  315.5000    82.3430     6.3645     2.3435     0.1966     0.0032
  316.0000    82.7469     6.3647     2.3479     0.1939     0.0072
  316.5000    83.2085     6.3660     2.3512     0.1956     0.0062
  317.0000    83.9927     6.3672     2.3365     0.2021    -0.0049
  317.5000    84.6537     6.3685     2.3229     0.2087    -0.0160
  318.0000    84.0305     6.3697     2.3188     0.2122    -0.0163
  318.5000    83.4315     6.3710     2.3260     0.2106    -0.0116
  319.0000    82.9314     6.3722     2.3382     0.2040     0.0022
  319.5000    83.1207     6.3734     2.3399     0.2002     0.0079
  320.0000    83.7885     6.3747     2.3370     0.2024     0.0080
  320.5000    84.4293     6.3759     2.3385     0.2021     0.0080
  321.0000    85.2096     6.3772     2.3371     0.2025     0.0080
  321.5000    86.1023     6.3784     2.3347     0.2028     0.0080
  322.0000    86.6200     6.3796     2.3405     0.2006     0.0079
  322.5000    85.9284     6.3809     2.3428     0.1984     0.0093
  323.0000    86.4014     6.3821     2.3453     0.1971     0.0109
  323.5000    86.2430     6.3834     2.3510     0.1949     0.0125
  324.0000    85.9942     6.3843     2.3616     0.1894     0.0141
  324.5000    85.7376     6.3834     2.3624     0.1868     0.0157
  325.0000    85.4220     6.3823     2.3626     0.1876     0.0173
  325.5000    85.5939     6.3814     2.3648     0.1854     0.0172
  326.0000    85.8942     6.3804     2.3669     0.1840     0.0130
  326.5000    86.0765     6.3793     2.3672     0.1840     0.0089
  327.0000    85.9185     6.3783     2.3638     0.1840     0.0046
  327.5000    86.0323     6.3773     2.3561     0.1892     0.0003
  328.0000    86.1683     6.3763     2.3565     0.1911    -0.0019
  328.5000    86.2966     6.3753     2.3533     0.1918    -0.0048
  329.0000    85.7225     6.3743     2.3430     0.1981    -0.0077
  329.5000    85.0416     6.3733     2.3405     0.1996    -0.0089
  330.0000    84.3274     6.3723     2.3422     0.1980    -0.0029
  330.5000    84.2591     6.3713     2.3540     0.1919     0.0029
  331.0000    84.4604     6.3703     2.3696     0.1859     0.0086
  331.5000    84.3737     6.3693     2.3762     0.1788     0.0119
  332.0000    84.1530     6.3683     2.3688     0.1830     0.0143
  332.5000    84.2436     6.3673     2.3675     0.1834     0.0179
  333.0000    84.6100     6.3663     2.3755     0.1812     0.0203
  333.5000    85.3831     6.3653     2.3760     0.1790     0.0239
  334.0000    86.5483     6.3649     2.3793     0.1768     0.0275
  334.5000    87.7169     6.3669     2.3848     0.1731     0.0312
  335.0000    87.8145     6.3688     2.3858     0.1725     0.0348
  335.5000    87.6966     6.3707     2.3851     0.1736     0.0385
  336.0000    88.1269     6.3726     2.3933     0.1688     0.0416
  336.5000    88.6614     6.3745     2.3915     0.1681     0.0353
  337.0000    89.2012     6.3764     2.3842     0.1726     0.0289
  337.5000    89.0614     6.3783     2.3784     0.1764     0.0282
  338.0000    88.4472     6.3802     2.3840     0.1754     0.0291
  338.5000    87.8124     6.3822     2.3844     0.1741     0.0276
  339.0000    88.1849     6.3841     2.3720     0.1789     0.0174
  339.5000    88.8076     6.3834     2.3624     0.1872     0.0089
  340.0000    88.0785     6.3821     2.3677     0.1850     0.0087
  340.5000    87.0386     6.3808     2.3754     0.1803     0.0117
  341.0000    85.9907     6.3795     2.3832     0.1756     0.0146
  341.5000    84.9927     6.3782     2.3948     0.1690     0.0176
  342.0000    84.5903     6.3769     2.4115     0.1601     0.0275
  342.5000    85.1561     6.3756     2.4303     0.1511     0.0384
  343.0000    85.6972     6.3743     2.4350     0.1449     0.0417
  343.5000    85.6464     6.3730     2.4465     0.1395     0.0483
  344.0000    85.5726     6.3717     2.4560     0.1338     0.0558
  344.5000    85.6867     6.3704     2.4568     0.1297     0.0562
