~VERSION INFORMATION
 VERS.                2.0:   CWLS LOG ASCII STANDARD - VERSION 2.0
 WRAP.                 NO:   ONE LINE PER DEPTH STEP
~WELL INFORMATION
#MNEM.UNIT      DATA TYPE    INFORMATION
#----------   ------------   ------------------------------
 STRT.F            0.0000:   START DEPTH
 STOP.F         4113.0000:   STOP DEPTH
 STEP.F            0.5000:   STEP LENGTH
 NULL.          -999.2500:   NO VALUE
 COMP. LAWRENCE/ALLISON INC:   COMPANY
 WELL.  NPR # #3 76 -MX-3:   WELL
 FLD .             TEAPOT:   FIELD
 LOC .       S3 T38N R78W:   LOCATION
 CNTY.            NATRONA:   COUNTY
 STAT.            WYOMING:   STATE
 CTRY. UNITED STATES OF AMERICA:   COUNTRY
 SRVC.      Dresser Atlas:   SERVICE COMPANY
 DATE.        04-SEP-1983:   LOGDATE
 API .       490251094300:   API NUMBER
~CURVE INFORMATION
#MNEM.UNIT       API CODE    CURVE DESCRIPTION
#----------   ------------   ------------------------------
 DEPT.F                  :   
 GRR .GAPI   07 310 01 00:   GAMMA RAY
 SPR .MV     07 010 01 00:   SPONTANEOUS POTENTIAL
 RILD.OHMM   07 120 46 00:   INDUCTION LOG DEEP RESISTIVITY
 RILM.OHMM   07 120 44 00:   INDUCTION LOG MEDIUM RESISTIVITY
 RFOC.OHMM   07 220 04 00:   RESISTIVITY FOCUSED LOG
 CNCF.DEC    42 890 03 00:   NEUTRON POROSITY SANDSTONE
 PORD.DEC    45 890 12 00:   POROSITY DENSITY SANDSTONE
 CALD.IN     45 280 60 00:   CALIPER FROM DENSITY LOG
 CORR.G/C3   45 356 01 00:   DENSITY CORRECTION
 DEN .G/C3   45 350 01 00:   COMPENSATED BULK DENSTIY
 AC  .US/F   60 520 00 00:   ACCOUSTIC
~PARAMETER INFORMATION
#MNEM.UNIT          VALUE    DESCRIPTION
#----------   ------------   ------------------------------
 PD  .                 GL:   PERMANENT DATUM
 EPD .F              5147:   ELEVATION PERMANENT DATUM
 LMF .                 KB:   LOG MEASURED FROM
 DAPD.F                10:   FEET ABOVE PERMANENT DATUM
 DMF .                 KB:   DRILLING MEASURED FROM
 EKB .F              5157:   KELLING BUSHING
 EGL .F              5147:   GROUND LEVEL
 DATE.        04-SEP-1983:   RUN DATE
 RUN .                  1:   RUN NUMBER
 DD  .F              4119:   DEPTH DRILLER
 DL  .F              4115:   DEPTH LOGGER
 BLI .F              4112:   BOTTOM LOG INTERVAL
 CS  .IN            9.625:   CASING SIZE
 CBD .F               491:   CASING BOTTOM DRILLER
 CBL .F               494:   CASING BOTTOM LOGGER
 BS  .IN             8.75:   BIT SIZE
 BSD .F              4119:   BIT SIZE AT DEPTH
 DFT .            KCL GEL:   DRILLING FLUID TYPE
 DFD .                8.9:   DRILLING FLUID DENSITY
 DFV .                 46:   DRILLING FLUID VISCOSITY
 DFPH.                9.0:   DRILLING FLUID PH
 DFL .               13.6:   DRILLING FLUID LOSS
 MSS .           MUD TANK:   MUD SAMPLE SOURCE
 RMS .OHMM           .315:   RESISTIVITY MUD SAMPLE
 MST .F                92:   MUD SAMPLE TEMPERATURE
 RMF .OHMM            .25:   RESISTIVITY MUD FILTRATE SAMPLE
 MFST.F                84:   MUD FILTRATE SAMPLE TEMPERATURE
 RMC .OHMM             .4:   RESISTIVITY MUD CAKE
 MCST.F                92:   MUD CAKE SAMPLE TEMPERATURE
 MFSS.               MEAS:   MUD FILTRATE SAMPLE SOURCE
 MCSS.               CALC:   MUD CAKE SAMPLE SOURCE
 RMB .OHMM            .22:   RESISTIVITY MUD AT BHT
 BHT .F               132:   BOTTOM HOLE TEMPERATURE
 TCS .HRS               4:   TIME CURCULATED STOPPED
 MRT .F               132:   MAXIMUM RECORDED TEMPERATURE
 LUN .               6274:   LOGGING UNIT NUMBER
 LUL .              GLTE.:   LOGGING UNIT LOCATION
 ENGI.             RAUTIO:   RECORDING ENGINEER
 WITN.             STRONG:   WITNESSED BY
 CLNT.            A2DTECH:   CLIENT CODE
 ORIG.        2" 5" PRINT:   ORIGIN OF DATA
 UWI .       490251094300:   UNIQUE WELL ID
 DICO. A2D Technologies, Inc.:   DIGITIZING COMPANY
~OTHER INFORMATION
~A    DEPT     GRR        SPR       RILD       RILM       RFOC       CNCF       PORD       CALD       CORR        DEN         AC   
# ...
 2653.5000    98.3303   -44.6380    12.1771    12.9808    12.9371     0.1870     0.1108     9.5725     0.0013     2.4672    76.2463
 2654.0000    96.4010   -44.8120    11.7371    12.4760    12.7420     0.1882     0.1139     9.5717     0.0178     2.4649    76.2500
 2654.5000    96.3635   -44.8293    11.2315    11.8694    12.6410     0.1849     0.1139     9.5708     0.0314     2.4627    76.2544
 2655.0000    97.9307   -44.6855    10.9043    11.5371    12.3606     0.1823     0.1128     9.5698     0.0313     2.4619    76.2579
 2655.5000    99.4793   -44.7071    10.6633    11.3502    12.1741     0.1820     0.1140     9.5689     0.0207     2.4619    76.2615
 2656.0000   100.4013   -44.5633    10.6564    11.2717    12.0776     0.1884     0.1195     9.5680     0.0102     2.4573    76.4157
 2656.5000    99.4416   -44.5850    10.7267    11.2627    12.0688     0.1968     0.1210     9.5672     0.0086     2.4484    77.4949
 2657.0000    96.6014   -44.4412    10.7974    11.2537    12.0601     0.2041     0.1147     9.5663     0.0161     2.4521    78.0805
 2657.5000    94.0748   -44.1170    10.8705    11.2448    12.1410     0.2065     0.1118     9.5653     0.0343     2.4604    78.3100
 2658.0000    93.3959   -44.0055    11.0216    11.2359    12.3068     0.2066     0.1130     9.5644     0.0447     2.4634    78.3889
 2658.5000    94.6640   -43.8411    11.1748    11.2270    12.5678     0.2042     0.1146     9.5786     0.0492     2.4626    78.3925
 2659.0000    95.8991   -43.5464    11.3301    11.3021    12.9274     0.2000     0.1110     9.5777     0.0507     2.4619    78.0196
 2659.5000    96.5078   -43.2737    11.4858    11.4549    13.0142     0.1992     0.1087     9.5919     0.0446     2.4664    77.5722
 2660.0000    95.8614   -42.9775    11.6473    11.6124    13.0024     0.1995     0.1093     9.5908     0.0401     2.4671    77.1240
 2660.5000    94.9022   -42.8380    11.8073    11.7722    12.8993     0.2056     0.1121     9.5900     0.0415     2.4656    76.6758
 2661.0000    94.8833   -42.6813    11.9734    12.0207    12.8899     0.2092     0.1158     9.5891     0.0445     2.4611    76.3782
 2661.5000    95.1787   -42.4024    12.2259    12.0983    12.8806     0.2053     0.1206     9.6033     0.0460     2.4558    76.3065
 2662.0000    92.9648   -42.2629    12.3959    12.4432    12.8712     0.1994     0.1233     9.6175     0.0369     2.4490    76.3102
 2662.5000    88.2437   -42.1235    12.5682    12.7981    12.8619     0.2000     0.1255     9.6164     0.0169     2.4445    77.1429
 2663.0000    86.9174   -41.9840    12.7429    13.1631    12.8525     0.2022     0.1255     9.6156     0.0067     2.4430    77.3724
 2663.5000    89.4600   -41.8446    13.0138    13.7356    13.1250     0.2013     0.1218     9.6147     0.0067     2.4445    77.3760
 2664.0000    91.7527   -42.0188    13.2905    14.7536    13.5987     0.1959     0.1076     9.6137     0.0157     2.4520    77.2290
 2664.5000    87.5414   -42.0360    13.5730    15.6196    14.3985     0.1770     0.0956     9.6281     0.0443     2.4738    77.0008
 2665.0000    85.0147   -42.0533    13.8615    16.5364    15.8071     0.1611     0.0857     9.6270     0.0473     2.4994    76.0323
 2665.5000    84.0555   -42.2273    14.1585    16.2860    20.6441     0.1533     0.0756     9.6261     0.0292     2.5235    74.3793
 2666.0000    84.6683   -42.2445    14.5620    15.6953    21.3930     0.1531     0.0756     9.6102     0.0036     2.5280    69.7895
 2666.5000    84.9629   -42.2617    14.8716    15.3463    17.5808     0.1594     0.0857     9.6092    -0.0100     2.5119    68.9639
 2667.0000    85.8798   -41.8088    14.7548    14.8970    15.2012     0.1745     0.1030     9.6083    -0.0116     2.4858    69.4221
 2667.5000    86.8014   -41.1991    14.5335    14.2532    14.0914     0.1977     0.1100     9.6075     0.0119     2.4760    71.6084
 2668.0000    87.4142   -40.2760    14.1100    13.7362    13.6201     0.2055     0.1130     9.6066     0.0637     2.4647    75.1512
 2668.5000    84.2559   -39.3528    13.6989    13.3340    13.3014     0.1991     0.1275     9.6208     0.0682     2.4482    76.8867
 2669.0000    80.4753   -38.7431    13.2997    13.0375    13.1019     0.1930     0.1330     9.6197     0.0726     2.4322    77.3421
 2669.5000    79.5160   -38.6034    13.1002    12.9333    12.8263     0.1957     0.1345     9.6189     0.0591     2.4286    77.5716
 2670.0000    82.0050   -38.7777    12.9974    12.8299    12.8170     0.2000     0.1297     9.6180     0.0483     2.4376    77.4999
 2670.5000    83.5536   -39.2652    12.8953    12.8196    12.7154     0.2000     0.1262     9.6171     0.0454     2.4481    77.0526
 2671.0000    84.1664   -40.0662    12.7019    12.8094    12.7062     0.2004     0.1202     9.6161     0.0560     2.4542    76.6797
 2671.5000    84.4610   -40.3970    12.6022    12.7992    12.5063     0.2028     0.1166     9.6152     0.0755     2.4579    76.6071
 2672.0000    84.4375   -40.5710    12.5032    12.7890    12.2300     0.2044     0.1197     9.6144     0.0845     2.4511    76.9881
 2672.5000    84.4186   -40.5883    12.3157    12.7787    11.8737     0.2023     0.1246     9.6135     0.0845     2.4429    77.6847
 2673.0000    80.9515   -40.2915    12.3076    12.6766    11.6159     0.1972     0.1330     9.6126     0.0799     2.4308    78.5022
 2673.5000    78.1114   -39.9959    12.2110    12.6665    11.6075     0.1961     0.1448     9.6116     0.0679     2.4090    78.9576
 2674.0000    76.8386   -39.8558    12.2046    12.6563    11.6834     0.1963     0.1568     9.6107     0.0483     2.3909    78.5094
 2674.5000    78.3872   -39.8737    12.1967    12.5551    11.6749     0.2106     0.1494     9.6099     0.0452     2.3999    77.9106
 2675.0000    83.6975   -40.0477    12.1888    12.5451    11.5823     0.2142     0.1329     9.6090     0.0497     2.4232    77.3870
 2675.5000    89.0078   -40.6920    12.2695    12.4448    11.4076     0.2139     0.1176     9.6230     0.0436     2.4511    77.6927
 2676.0000    93.3824   -41.4930    12.2615    12.3453    11.2356     0.2140     0.1092     9.6221     0.0406     2.4729    78.8259
 2676.5000    89.5971   -42.4507    12.3424    12.4274    11.2274     0.2143     0.1054     9.6213     0.0406     2.4767    79.4319
 2677.0000    87.0704   -43.2517    12.3341    12.4150    11.2193     0.2150     0.1123     9.6204     0.0466     2.4616    79.6614
 2677.5000    85.7976   -43.8959    12.3187    12.3158    11.2111     0.2171     0.1187     9.6195     0.0586     2.4526    79.9662
 2678.0000    85.1565   -44.5402    12.2294    12.3059    11.2030     0.2162     0.1175     9.6185     0.0661     2.4503    79.8102
 2678.5000    91.7161   -45.1844    12.2214    12.2075    11.1949     0.2106     0.1170     9.6176     0.0630     2.4503    79.1460
 2679.0000    94.5186   -45.3584    12.2135    12.1978    11.1868     0.1959     0.1186     9.6168     0.0329     2.4518    78.8483
 2679.5000    94.8179   -45.8459    12.2055    12.1881    11.0981     0.1911     0.1180     9.6159     0.0238     2.4540    79.2285
 2680.0000    94.1674   -46.0200    12.1976    12.1783    11.1708     0.1915     0.1153     9.6149     0.0223     2.4563    79.4579
 2680.5000    93.2081   -46.5075    12.2781    12.2593    11.5736     0.1885     0.1139     9.5990     0.0283     2.4578    79.2356
 2681.0000    91.9354   -46.9950    12.3591    12.4280    12.1660     0.1843     0.1127     9.5981     0.0328     2.4617    78.3365
 2681.5000    90.3491   -47.3257    12.4407    12.5056    12.8817     0.1850     0.1085     9.5973     0.0297     2.4653    76.9847
 2682.0000    90.3303   -47.6565    12.5228    12.4957    13.6394     0.1892     0.1077     9.5964     0.0176     2.4690    75.7082
 2682.5000    90.6296   -47.8305    12.6968    12.5788    13.8487     0.1937     0.1101     9.5953     0.0086     2.4705    75.7871
 2683.0000    89.3522   -47.8478    12.6885    12.3858    13.3271     0.1969     0.1141     9.5794     0.0101     2.4600    76.2425
 2683.5000    87.4524   -47.5473    12.4982    12.1104    12.5685     0.2022     0.1174     9.5786     0.0191     2.4555    77.3765
