~VERSION INFORMATION
 VERS.                2.0:   CWLS LOG ASCII STANDARD - VERSION 2.0
 WRAP.                 NO:   ONE LINE PER DEPTH STEP
~WELL INFORMATION
#MNEM.UNIT      DATA TYPE    INFORMATION
#----------   ------------   ------------------------------
 STRT.F            0.5000:   START DEPTH
 STOP.F          474.0000:   STOP DEPTH
 STEP.F            0.5000:   STEP LENGTH
 NULL.          -999.2500:   NO VALUE
 COMP.       F D SERV INC:   COMPANY
 WELL. NAVAL PETROLEUM RESERVE 3 SX-3 #78-1-3:   WELL
 FLD .             TEAPOT:   FIELD
 LOC .       S3 T38N R78W:   LOCATION
 CNTY.            NATRONA:   COUNTY
 STAT.            WYOMING:   STATE
 CTRY. UNITED STATES OF AMERICA:   COUNTRY
 SRVC.      Western Atlas:   SERVICE COMPANY
 DATE.        13-OCT-1992:   LOGDATE
 API .       490252255800:   API NUMBER
~CURVE INFORMATION
#MNEM.UNIT       API CODE    CURVE DESCRIPTION
#----------   ------------   ------------------------------
 DEPT.F                  :   
 GRR .GAPI   06 310 01 00:   GAMMA RAY FROM RESISTIVITY
 RILD.OHMM   06 120 46 00:   DEEP INDUCTION RESISTIVITY
 RILM.OHMM   06 120 44 00:   INDUCTION LOG MEDIUM RESISTIVITY
~PARAMETER INFORMATION
#MNEM.UNIT          VALUE    DESCRIPTION
#----------   ------------   ------------------------------
 PD  .                 GL:   PERMANENT DATUM
 EPD .F              5157:   ELEVATION PERMANENT DATUM
 LMF .                 KB:   LOG MEASURED FROM
 DAPD.F                10:   FEET ABOVE PERMANENT DATUM
 DMF .                 KB:   DRILLING MEASURED FROM
 EKB .F              5167:   KELLING BUSHING
 EDF .F              5166:   DRILLING FLOOR
 EGL .F              5157:   GROUND LEVEL
 DATE.        13-OCT-1992:   RUN DATE
 RUN .                  1:   RUN NUMBER
 DD  .F               480:   DEPTH DRILLER
 DL  .F               480:   DEPTH LOGGER
 BLI .F               474:   BOTTOM LOG INTERVAL
 CS  .IN            8.625:   CASING SIZE
 CBD .F                85:   CASING BOTTOM DRILLER
 CBL .F               100:   CASING BOTTOM LOGGER
 BS  .IN            7.875:   BIT SIZE
 BSD .F               480:   BIT SIZE AT DEPTH
 DFT .           AIR FOAM:   DRILLING FLUID TYPE
 BHT .F                70:   BOTTOM HOLE TEMPERATURE
 TCS .HRS            0230:   TIME CURCULATED STOPPED
 MRT .F                70:   MAXIMUM RECORDED TEMPERATURE
 LUN .            HL-6274:   LOGGING UNIT NUMBER
 LUL .             CASPER:   LOGGING UNIT LOCATION
 ENGI.             RAUTIO:   RECORDING ENGINEER
 WITN.        GARY STRONG:   WITNESSED BY
 CLNT.            A2DTECH:   CLIENT CODE
 ORIG.           5" PRINT:   ORIGIN OF DATA
 UWI .       490252255800:   UNIQUE WELL ID
 DICO. A2D Technologies, Inc.:   DIGITIZING COMPANY
~OTHER INFORMATION
~A    DEPT      GRR      RILD       RILM   
# ...
  273.5000   156.3152     5.6610     6.2382
  274.0000   155.7440     5.5836     6.0698
  274.5000   152.4579     5.5455     5.6661
  275.0000   152.3882     5.5076     5.5513
  275.5000   154.3321     5.5463     5.5913
  276.0000   156.5329     5.5467     5.6738
  276.5000   158.6196     5.5471     5.8719
  277.0000   155.3415     5.7030     6.0800
  277.5000   150.5471     5.8695     6.1662
  278.0000   149.3646     6.1547     6.5184
  278.5000   151.2147     6.5503     6.9385
  279.0000   151.5485     6.8756     7.0857
  279.5000   151.5807     7.1179     7.1367
  280.0000   151.6541     7.2175     7.1882
  280.5000   153.4629     7.2681     7.2404
  281.0000   153.1854     7.1135     7.0938
  281.5000   150.2090     6.4185     6.6679
  282.0000   147.8198     5.8671     5.9305
  282.5000   148.1616     5.5135     5.4979
  283.0000   149.4004     5.2533     5.2757
  283.5000   150.9543     5.1103     5.1692
  284.0000   151.5763     5.0405     5.1350
  284.5000   147.3932     5.0408     5.3173
  285.0000   146.2107     5.0797     5.6600
  285.5000   149.8681     5.3653     6.0247
  286.0000   153.5446     5.6318     6.4574
  286.5000   154.7589     6.0354     6.8736
  287.0000   149.3692     6.6493     7.2161
  287.5000   148.7900     6.9314     7.6283
  288.0000   150.0368     7.2756     7.9578
  288.5000   149.7673     7.5849     8.2352
  289.0000   146.1795     7.9139     8.2379
  289.5000   139.8768     8.1850     8.2401
  290.0000   140.8747     8.2995     8.2423
  290.5000   145.9823     8.3001     8.3017
  291.0000   147.8244     8.3006     8.3615
  291.5000   147.5549     8.2440     8.4217
  292.0000   144.5678     8.2445     8.4240
  292.5000   142.7899     8.3023     8.4263
  293.0000   143.1318     8.4186     8.4290
  293.5000   142.8623     8.4776     8.4313
  294.0000   138.9728     8.4782     8.4335
  294.5000   137.1870     8.5376     8.4358
  295.0000   139.3388     8.5381     8.4381
  295.5000   142.0858     8.5387     8.4403
  296.0000   144.5312     8.5985     8.4426
  296.5000   146.6757     8.6045     8.5115
  297.0000   145.8102     8.7196     8.8053
  297.5000   144.6357     8.8416     9.0544
  298.0000   144.3581     8.9653     9.3107
  298.5000   143.4933     8.9659     9.4428
  299.0000   140.5089     8.5428     9.3150
  299.5000   136.9211     8.0431     8.3429
  300.0000   136.9532     7.1876     7.0214
  300.5000   138.8749     6.6900     6.4200
  301.0000   148.3831     6.2171     5.4781
  301.5000   155.6082     6.0478     5.4764
  302.0000   155.8988     6.0065     5.8415
  302.5000   148.9422     6.0070     6.4472
  303.0000   138.3694     6.0491     7.1312
  303.5000   133.2265     6.2623     7.7497
  304.0000   132.3068     7.1500     8.4219
  304.5000   130.1804     8.4425     8.7203
  305.0000   128.0540     9.4320     9.2823
  305.5000   127.7376    10.0434    10.0180
  306.0000   130.8114    10.3234    10.3016
  306.5000   134.0393    10.3976    10.3758
  307.0000   134.6316    10.3275    10.2362
  307.5000   134.0099    10.2584    10.2473
  308.0000   136.4084    10.4761    10.3849
  308.5000   137.6003    11.1510    10.8274
  309.0000   136.3789    11.7877    11.6051
  309.5000   131.5376    12.6341    12.5249
  310.0000   120.6632    13.4481    14.8905
  310.5000   105.5655    14.3145    17.1018
  311.0000    88.8464    15.7903    18.3302
  311.5000    80.7472    17.4511    18.9796
  312.0000    72.6404    19.4175    19.5168
  312.5000    75.9402    19.9658    19.6688
  313.0000    79.5454    20.5299    20.0998
  313.5000    80.7410    20.6765    20.6440
  314.0000    80.7226    20.8242    20.5060
  314.5000    78.2945    20.5424    20.5130
  315.0000    74.3582    20.2644    20.5185
  315.5000    75.8518    19.9901    20.6663
  316.0000    78.8536    19.9952    20.8152
  316.5000    78.5128    19.9992    20.9652
  317.0000    75.7546    20.0033    20.6831
  317.5000    70.3593    20.0073    19.9793
  318.0000    70.9479    19.8725    19.5814
  318.5000    77.8713    20.0154    19.7238
  319.0000    82.9848    20.2983    20.2820
  319.5000    88.7015    21.0166    20.8560
  320.0000    90.4968    21.4815    21.4462
  320.5000    89.2754    22.2458    22.3601
  321.0000    85.3391    24.1495    26.0379
  321.5000    81.3987    25.3523    27.3356
  322.0000    80.1488    26.7997    27.3430
  322.5000    79.2580    27.9406    28.5148
  323.0000    81.0532    29.1301    29.7464
  323.5000    82.8521    30.3702    30.9914
  324.0000    82.5320    31.4449    31.6490
  324.5000    81.6123    32.1105    32.3206
  325.0000    81.5976    32.7902    32.7792
  325.5000    83.3928    33.0246    33.0154
  326.0000    86.9980    33.4928    33.0243
  326.5000    90.6031    34.2018    33.2600
  327.0000    92.1086    34.6851    32.8146
  327.5000    92.6853    34.6921    33.0510
  328.0000    92.3652    33.7526    32.3817
  328.5000    92.3504    32.6105    31.9074
  329.0000    93.2444    32.8451    31.0856
  329.5000    93.2259    32.8518    30.6652
  330.0000    92.3062    32.8584    30.0442
  330.5000    91.0848    32.8651    30.4725
  331.0000    89.8635    32.6185    30.9049
  331.5000    89.2454    31.7628    30.7004
  332.0000    88.3257    30.9025    29.8716
  332.5000    87.0839    30.4828    28.4688
  333.0000    87.1372    30.0717    27.1147
  333.5000    89.4844    28.8555    26.0118
  334.0000    91.8830    27.4976    24.8162
  334.5000    94.5832    26.3855    23.9800
  335.0000    94.8738    24.7986    23.3310
  335.5000    93.3470    23.7955    22.8601
  336.0000    87.2991    23.1511    22.5509
  336.5000    86.0777    22.8149    22.2475
  337.0000    89.3812    22.5287    21.9495
  337.5000    95.7014    22.5344    21.9555
  338.0000   102.6526    22.5390    21.6600
  338.5000   102.9117    22.5436    21.6660
  339.0000   102.2900    22.5481    21.5225
  339.5000   101.3702    22.5527    21.5297
  340.0000    99.5455    22.5573    21.5355
  340.5000    98.3242    22.7184    21.5413
  341.0000    96.8011    22.8807    21.6966
  341.5000    93.7698    23.2041    22.1570
  342.0000    94.0567    23.7239    22.3166
  342.5000    96.2545    24.3659    22.6332
  343.0000    98.8618    25.0543    23.1135
  343.5000    99.4424    25.4083    23.6167
  344.0000    97.3123    25.7674    24.1342
  344.5000    94.8843    25.7726    24.2802
  345.0000    97.2829    25.7778    24.2868
  345.5000   101.1897    25.6051    24.1244
  346.0000   104.1915    25.2587    23.7998
  346.5000   104.7838    24.7430    23.4795
  347.0000   101.4471    24.2245    23.1650
  347.5000    94.7959    23.5868    22.5397
  348.0000    90.5579    23.1061    21.9312
  348.5000    91.1784    22.4814    21.6296
  349.0000    94.7153    21.8726    21.1777
  349.5000   100.4648    21.4268    20.6270
  350.0000   101.3587    20.5612    20.3494
  350.5000    99.8320    20.2819    20.2134
  351.0000    99.8172    20.1471    20.0796
  351.5000   101.9703    19.8746    19.8107
  352.0000   102.5765    19.7416    19.6687
  352.5000   102.2778    19.6094    19.5352
  353.0000   101.3757    19.6144    19.5385
  353.5000    99.5687    19.7544    19.8130
  354.0000    98.9683    20.0336    19.9531
  354.5000   101.1856    20.1766    20.2489
  355.0000   103.4998    20.1807    20.3771
  355.5000   103.5027    20.1848    20.0995
  356.0000   101.9973    20.1890    19.8270
  356.5000   100.4919    20.0537    19.6924
  357.0000    99.2882    19.9196    19.8323
  357.5000   100.1961    19.7873    19.9725
  358.0000   102.0332    19.7913    19.7010
  358.5000   102.6160    19.5234    19.1539
  359.0000   102.9205    19.3926    18.9060
  359.5000   105.3367    19.5312    18.7784
  360.0000   108.6579    19.5173    18.7815
  360.5000   109.5651    19.1379    18.9143
  361.0000   107.1554    18.7498    18.7866
  361.5000   103.8401    18.4960    18.5312
  362.0000   103.2397    18.1199    18.2794
  362.5000   103.5450    17.7514    17.7733
  363.0000   102.9446    17.3905    17.3016
  363.5000    99.9310    16.9195    17.0659
  364.0000    98.7265    16.4613    16.8339
