~VERSION INFORMATION
 VERS.                2.0:   CWLS LOG ASCII STANDARD - VERSION 2.0
 WRAP.                 NO:   ONE LINE PER DEPTH STEP
~WELL INFORMATION
#MNEM.UNIT      DATA TYPE    INFORMATION
#----------   ------------   ------------------------------
 STRT.F            0.0000:   START DEPTH
 STOP.F          533.0000:   STOP DEPTH
 STEP.F            0.1000:   STEP LENGTH
 NULL.          -999.2500:   NO VALUE
 COMP.   FLUOR DANIEL INC:   COMPANY
 WELL.   84-4 X 10 #81-10:   WELL
 FLD .             TEAPOT:   FIELD
 LOC .      S10 T38N R78W:   LOCATION
 CNTY.            NATRONA:   COUNTY
 STAT.            WYOMING:   STATE
 CTRY. UNITED STATES OF AMERICA:   COUNTRY
 SRVC.     Atlas Wireline:   SERVICE COMPANY
 DATE.        25-SEP-1994:   LOGDATE
 API .       490252264000:   API NUMBER
~CURVE INFORMATION
#MNEM.UNIT       API CODE    CURVE DESCRIPTION
#----------   ------------   ------------------------------
 DEPT.F                  :   
 GRR .GAPI   07 310 01 00:   GAMMA RAY
 RILD.OHMM   07 120 46 00:   INDUCTION LOG DEEP RESISTIVITY
 RILM.OHMM   07 120 44 00:   INDUCTION LOG MEDIUM RESISTIVITY
~PARAMETER INFORMATION
#MNEM.UNIT          VALUE    DESCRIPTION
#----------   ------------   ------------------------------
 PD  .                 GL:   PERMANENT DATUM
 EPD .F              5150:   ELEVATION PERMANENT DATUM
 LMF .                 KB:   LOG MEASURED FROM
 DAPD.F                10:   FEET ABOVE PERMANENT DATUM
 DMF .                 KB:   DRILLING MEASURED FROM
 EKB .F              5160:   KELLING BUSHING
 EDF .F              5159:   DRILLING FLOOR
 EGL .F              5150:   GROUND LEVEL
 DATE.        25-SEP-1994:   RUN DATE
 RUN .                  1:   RUN NUMBER
 DD  .F               545:   DEPTH DRILLER
 DL  .F               541:   DEPTH LOGGER
 BLI .F               533:   BOTTOM LOG INTERVAL
 CS  .IN            9.625:   CASING SIZE
 CBD .F                76:   CASING BOTTOM DRILLER
 CBL .F                76:   CASING BOTTOM LOGGER
 BS  .IN             8.75:   BIT SIZE
 BSD .F               545:   BIT SIZE AT DEPTH
 DFT .                AIR:   DRILLING FLUID TYPE
 MRT .F                85:   MAXIMUM RECORDED TEMPERATURE
 LUN .            HL 6401:   LOGGING UNIT NUMBER
 LUL .         FT. MORGAN:   LOGGING UNIT LOCATION
 ENGI.    DAVE FREDERICKS:   RECORDING ENGINEER
 WITN.        GARY STRONG:   WITNESSED BY
 CLNT.            A2DTECH:   CLIENT CODE
 ORIG.           5' PRINT:   ORIGIN OF DATA
 UWI .       490252264000:   UNIQUE WELL ID
 DICO. A2D Technologies, Inc.:   DIGITIZING COMPANY
~OTHER INFORMATION
~A    DEPT      GRR      RILD       RILM   
# ...
  418.6000    92.8411    31.1822    32.6602
  418.7000    92.4999    31.3678    32.6606
  418.8000    91.9855    31.5545    32.6611
  418.9000    91.2979    31.7542    32.4767
  419.0000    90.7835    31.7550    32.4368
  419.1000    90.2610    31.7559    32.3196
  419.2000    89.3561    31.7567    32.1299
  419.3000    88.7287    31.7576    31.9412
  419.4000    88.1217    31.8056    31.7720
  419.5000    87.4864    31.9801    31.7726
  419.6000    86.8673    31.9811    31.6000
  419.7000    86.6427    31.9819    31.5543
  419.8000    86.6442    31.9827    31.5547
  419.9000    86.3996    31.9836    31.4796
  420.0000    86.1430    31.9845    31.3380
  420.1000    86.0435    31.9854    31.3271
  420.2000    86.0447    31.9775    31.1228
  420.3000    86.0459    31.7665    30.9605
  420.4000    86.0471    31.7673    30.7789
  420.5000    86.0484    31.6366    30.5982
  420.6000    86.0495    31.3531    30.3526
  420.7000    86.0508    31.1167    29.9967
  420.8000    86.0520    31.1176    29.6449
  420.9000    86.0532    31.1156    29.2465
  421.0000    86.1148    30.9047    29.1003
  421.1000    86.3738    30.9054    28.9295
  421.2000    86.6612    30.9063    28.7597
  421.3000    86.8918    30.9071    28.5909
  421.4000    87.1509    30.8483    28.4499
  421.5000    87.5509    30.6954    28.4504
  421.6000    88.1644    30.6964    28.4508
  421.7000    88.9390    30.6974    28.3148
  421.8000    89.7378    30.6981    28.2553
  421.9000    91.5035    30.5831    28.2557
  422.0000    92.3907    30.4879    28.2561
  422.1000    93.2459    30.4355    28.2565
  422.2000    94.0205    30.2791    28.2569
  422.3000    94.7952    30.2801    28.2573
  422.4000    95.6584    30.1109    28.2577
  422.5000    96.9486    30.0727    28.2581
  422.6000    98.4606    29.9656    28.2585
  422.7000    99.1021    29.7899    28.2589
  422.8000    99.3692    29.6152    28.2593
  422.9000    99.2455    29.4576    28.2597
  423.0000    98.9889    29.4586    28.1081
  423.1000    98.6598    29.2994    28.0655
  423.2000    97.8635    29.1276    27.8788
  423.3000    97.3652    28.9568    27.6806
  423.4000    96.8508    28.7870    27.6446
  423.5000    95.8530    28.6181    27.4740
  423.6000    94.4483    28.4502    27.1130
  423.7000    92.9027    28.2651    26.9734
  423.8000    91.4417    28.2658    26.7042
  423.9000    90.6212    28.1470    26.3913
  424.0000    89.6556    27.9819    26.1370
  424.1000    88.4282    27.8794    25.9835
  424.2000    87.4465    27.8301    25.8288
  424.3000    86.8918    27.6197    25.4784
  424.4000    86.6997    27.4982    25.4787
  424.5000    86.7210    27.4989    25.2795
  424.6000    87.0043    27.4998    25.0560
  424.7000    87.4727    27.3537    24.9089
  424.8000    87.9895    27.3114    24.7845
  424.9000    88.7964    27.3122    24.7849
  425.0000    89.7281    27.3129    24.6144
  425.1000    90.5027    27.3137    24.6147
  425.2000    91.2773    27.3069    24.5235
  425.3000    92.1488    27.1268    24.4456
  425.4000    92.6010    27.1274    24.4048
  425.5000    93.2991    27.1282    24.2776
  425.6000    93.9368    27.1290    24.2780
  425.7000    94.4536    27.1297    24.2784
  425.8000    94.9704    27.1305    24.2787
  425.9000    95.4953    27.1287    24.1941
  426.0000    96.6890    26.9448    24.1119
  426.1000    97.3426    26.8116    24.1123
  426.2000    97.9440    26.5492    24.1126
  426.3000    98.4608    26.3929    24.1130
  426.4000    98.8931    26.3426    24.1133
  426.5000    99.1118    26.1881    24.1136
  426.6000    99.1130    26.0321    24.1139
  426.7000    99.1144    26.0329    24.1143
  426.8000    99.1154    25.9089    24.1450
  426.9000    98.9515    25.8545    24.2824
  427.0000    98.8157    25.9271    24.2828
  427.1000    98.7404    26.0356    24.4077
  427.2000    98.4838    26.0364    24.4520
  427.3000    98.2152    26.0371    24.5278
  427.4000    97.7249    26.0378    24.6225
  427.5000    97.4119    26.1592    24.6485
  427.6000    97.1553    26.2202    24.7942
  427.7000    96.7859    26.2209    24.7946
  427.8000    96.3400    26.2217    24.7948
  427.9000    96.0592    26.2224    24.8917
  428.0000    95.5046    26.2232    24.9677
  428.1000    95.2681    26.2238    25.0142
  428.2000    95.0115    26.2246    25.1418
  428.3000    94.6058    26.2253    25.1421
  428.4000    94.1962    26.2260    25.1425
  428.5000    93.9396    26.2267    25.2609
  428.6000    93.6669    26.2178    25.3178
  428.7000    93.0962    26.0473    25.2514
  428.8000    92.6381    26.0479    25.1439
  428.9000    92.1237    25.9384    25.1291
  429.0000    91.7503    25.8696    24.9712
  429.1000    91.3970    25.8132    24.8350
  429.2000    90.9349    25.6925    24.7996
  429.3000    90.6703    25.6885    24.8000
  429.4000    90.0835    25.5167    24.7403
  429.5000    89.8630    25.5173    24.5951
  429.6000    89.2520    25.4147    24.4413
  429.7000    88.6127    25.2656    24.1243
  429.8000    88.0983    25.1174    24.1246
  429.9000    87.6282    24.9953    24.0228
  430.0000    87.3716    24.9961    23.8818
  430.1000    87.3730    24.8244    23.7416
  430.2000    87.5875    24.7039    23.6023
  430.3000    87.8465    24.5590    23.4637
  430.4000    88.2304    24.4150    23.3062
  430.5000    88.6667    24.3166    23.3065
  430.6000    88.9619    24.3172    23.2131
  430.7000    89.4949    24.3179    23.0769
  430.8000    89.9956    24.1798    22.9414
  430.9000    90.5124    24.0381    22.8288
  431.0000    91.1903    23.8971    22.8292
  431.1000    92.0818    23.7570    22.8296
  431.2000    93.0417    23.6568    22.7198
  431.3000    93.8163    23.6422    22.6727
  431.4000    94.6394    23.4949    22.6730
  431.5000    95.6073    23.2370    22.6332
  431.6000    96.6397    23.0685    22.5003
  431.7000    97.8252    22.8533    22.3623
  431.8000    99.1154    22.5854    22.2370
  431.9000   100.4701    22.3532    22.1065
  432.0000   101.9778    22.2119    21.9768
  432.1000   103.1071    21.9272    21.7918
  432.2000   103.3418    21.6945    21.5697
  432.3000   103.2222    21.3481    21.4316
  432.4000   102.9656    21.1125    21.1601
  432.5000   102.7090    20.8929    21.0461
  432.6000   102.4524    20.5785    20.9226
  432.7000   102.1837    20.4522    20.7998
  432.8000   101.6050    20.1826    20.6292
  432.9000   101.3805    20.0791    20.4419
  433.0000   100.9426    19.9614    20.4356
  433.1000   100.5652    19.7825    20.3015
  433.2000   100.3086    19.5918    20.1965
  433.3000   100.1001    19.4983    20.0780
  433.4000   100.4117    19.4971    19.9601
  433.5000   101.0093    19.3650    19.8855
  433.6000   101.4453    19.2692    19.8634
  433.7000   101.9621    19.1562    19.7468
  433.8000   102.3501    19.0439    19.6130
  433.9000   102.6937    18.9688    19.5158
  434.0000   103.1702    18.9519    19.4782
  434.1000   103.4333    18.8390    19.4213
  434.2000   103.7368    18.8396    19.3445
  434.3000   103.9472    18.7499    19.3447
  434.4000   104.0411    18.6399    19.3450
  434.5000   104.1631    18.5819    19.2119
  434.6000   104.3456    18.5499    19.2121
  434.7000   104.3468    18.4546    19.1406
  434.8000   104.3481    18.4552    19.0802
  434.9000   104.3492    18.4557    19.0479
  435.0000   104.3504    18.3713    18.9360
  435.1000   104.3517    18.3294    18.8187
  435.2000   104.2401    18.3299    18.8190
  435.3000   104.0520    18.3304    18.7338
  435.4000   104.0532    18.3309    18.6897
  435.5000   104.0545    18.3314    18.6900
  435.6000   103.8179    18.2324    18.6624
  435.7000   103.7547    18.2059    18.5528
  435.8000   103.6068    18.2064    18.4339
  435.9000   103.3503    18.2069    18.4341
  436.0000   103.0937    18.1823    18.3547
  436.1000   102.8371    18.0822    18.3075
  436.2000   102.5524    18.0828    18.3077
  436.3000   102.5535    17.9884    18.2847
  436.4000   102.3694    17.9590    18.1820
  436.5000   102.2538    17.9595    18.1823
  436.6000   102.2550    17.9600    18.1825
  436.7000   102.2562    17.9605    18.1828
