~VERSION INFORMATION
 VERS.                2.0:   CWLS LOG ASCII STANDARD - VERSION 2.0
 WRAP.                 NO:   ONE LINE PER DEPTH STEP
~WELL INFORMATION
#MNEM.UNIT      DATA TYPE    INFORMATION
#----------   ------------   ------------------------------
 STRT.F           12.0000:   START DEPTH
 STOP.F          549.0000:   STOP DEPTH
 STEP.F            0.5000:   STEP LENGTH
 NULL.          -999.2500:   NO VALUE
 COMP. LAWRENCE/ALLISON INC:   COMPANY
 WELL.  58-64-1 SX 3 #3-3:   WELL
 FLD .             TEAPOT:   FIELD
 LOC .       S3 T38N R78W:   LOCATION
 CNTY.            NATRONA:   COUNTY
 STAT.            WYOMING:   STATE
 CTRY. UNITED STATES OF AMERICA:   COUNTRY
 SRVC.      Dresser Atlas:   SERVICE COMPANY
 DATE.        05-DEC-1984:   LOGDATE
 API .       490251117800:   API NUMBER
~CURVE INFORMATION
#MNEM.UNIT       API CODE    CURVE DESCRIPTION
#----------   ------------   ------------------------------
 DEPT.F                  :   
 RFOC.OHMM   07 220 04 00:   RESISTIVITY FOCUSED LOG
 RILD.OHMM   07 120 46 00:   INDUCTION LOG DEEP RESISTIVITY
 RILM.OHMM   07 120 44 00:   INDUCTION LOG MEDIUM RESISTIVITY
 SPR .MV     07 010 01 00:   SPONTANEOUS POTENTIAL
 CALD.IN     45 280 60 00:   CALIPER FROM DENSITY LOG
 CNC .DEC    42 890 03 00:   NEUTRON POROSITY SANDSTONE
 CORR.G/C3   45 356 01 00:   DENSITY CORRECTION
 DEN .G/C3   45 350 01 00:   COMPENSATED BULK DENSTIY
 GRD .GAPI   45 310 01 00:   GAMMA RAY FROM DENSITY LOG
 PORD.DEC    45 890 12 00:   POROSITY DENSITY SANDSTONE
 DT  .US/F   60 520 00 00:   INTERVAL TRANSIT TIME
~PARAMETER INFORMATION
#MNEM.UNIT          VALUE    DESCRIPTION
#----------   ------------   ------------------------------
 PD  .                 GL:   PERMANENT DATUM
 EPD .F              5188:   ELEVATION PERMANENT DATUM
 LMF .                 KB:   LOG MEASURED FROM
 DMF .                 KB:   DRILLING MEASURED FROM
 EGL .F              5188:   GROUND LEVEL
 DATE.         5-DEC-1984:   RUN DATE
 RUN .                  1:   RUN NUMBER
 DD  .F               556:   DEPTH DRILLER
 DL  .F               551:   DEPTH LOGGER
 BLI .F               549:   BOTTOM LOG INTERVAL
 CS  .IN            8.625:   CASING SIZE
 CBD .F                20:   CASING BOTTOM DRILLER
 CBL .F                20:   CASING BOTTOM LOGGER
 BS  .IN            7.875:   BIT SIZE
 BSD .F               556:   BIT SIZE AT DEPTH
 DFT .          KCL WATER:   DRILLING FLUID TYPE
 MSS .           FLOWLINE:   MUD SAMPLE SOURCE
 RMS .OHMM            .36:   RESISTIVITY MUD SAMPLE
 MST .F                70:   MUD SAMPLE TEMPERATURE
 RMF .OHMM            .26:   RESISTIVITY MUD FILTRATE SAMPLE
 MFST.F                70:   MUD FILTRATE SAMPLE TEMPERATURE
 RMC .OHMM            .46:   RESISTIVITY MUD CAKE
 MCST.F                70:   MUD CAKE SAMPLE TEMPERATURE
 MFSS.               CALC:   MUD FILTRATE SAMPLE SOURCE
 MCSS.               CALC:   MUD CAKE SAMPLE SOURCE
 RMB .OHMM            .29:   RESISTIVITY MUD AT BHT
 BHT .F                85:   BOTTOM HOLE TEMPERATURE
 TCS .HRS               3:   TIME CURCULATED STOPPED
 MRT .F               100:   MAXIMUM RECORDED TEMPERATURE
 LUN .               6274:   LOGGING UNIT NUMBER
 LUL .               GLTE:   LOGGING UNIT LOCATION
 ENGI.             RAUTIO:   RECORDING ENGINEER
 WITN.       GROOMS/LUERS:   WITNESSED BY
 CLNT.            A2DTECH:   CLIENT CODE
 ORIG.         2.5" PRINT:   ORIGIN OF DATA
 UWI .       490251117800:   UNIQUE WELL ID
 DICO. A2D Technologies, Inc.:   DIGITIZING COMPANY
~OTHER INFORMATION
~A   DEPT     RFOC       RILD       RILM        SPR       CALD        CNC       CORR        DEN         GRD      PORD         DT   
# ...
  530.5000     9.0832     8.1499     8.2368   -57.6064     8.0382     0.2702     0.0427     2.4938  -999.2500     0.1100    99.5752
  531.0000     8.9804     8.1756     8.2647   -57.6140     8.0380     0.2686     0.0638     2.4862  -999.2500     0.1136    99.3226
  531.5000     8.9773     8.2587     8.3493   -57.6216     8.0378     0.2652     0.0760     2.4877  -999.2500     0.1093    99.3235
  532.0000     8.9742     8.3716     8.3476   -57.6307     8.0376     0.2450     0.0754     2.4968  -999.2500     0.1050    99.1733
  532.5000     8.9710     8.3682     8.3461   -57.6381     8.0374     0.2237     0.0629     2.5028  -999.2500     0.1009    99.1742
  533.0000     8.9679     8.3653     8.3447   -57.6455     8.0373  -999.2500     0.0504     2.5119  -999.2500     0.1010    99.1750
  533.5000     9.0904     8.2468     8.3433   -57.6530     8.0371  -999.2500     0.0365     2.5119  -999.2500     0.1024    99.3265
  534.0000     9.0496     8.2440     8.4589   -57.6604     8.0369  -999.2500     0.0172     2.5071  -999.2500     0.1038    99.4701
  534.5000     8.9952     8.3036     8.4573   -57.9718     8.0367  -999.2500     0.0222     2.5009  -999.2500     0.1055    99.7044
  535.0000     8.9555     8.3536     8.4559   -57.9792     8.0366  -999.2500     0.0271     2.4962  -999.2500     0.1082    99.7813
  535.5000     8.8281     8.3502     8.4544   -57.9866     8.0364  -999.2500     0.0287     2.4899  -999.2500     0.1107    99.0744
  536.0000     8.8251     8.4648     8.5714   -57.9940     8.0362  -999.2500     0.0209     2.4856  -999.2500     0.1135    93.7071
  536.5000     8.8221     8.4614     8.5700   -58.0053     8.0360  -999.2500    -0.0067     2.4840  -999.2500     0.1154    89.0747
  537.0000     8.8191     8.5774     8.5685   -57.9914     8.0358  -999.2500    -0.0094     2.4829  -999.2500     0.1160    92.0482
  537.5000     8.9396     8.5741     8.5795   -57.0732     8.0357  -999.2500     0.0087     2.4879  -999.2500     0.1133    95.8604
  538.0000     9.1887     8.5712     8.6856   -56.4589     8.0355  -999.2500     0.0268     2.4972  -999.2500     0.1085    98.1945
  538.5000     9.4447     8.6883     8.6840   -56.2075     8.0353  -999.2500     0.0389     2.5065  -999.2500     0.1019  -999.2500
  539.0000     9.5739     8.6854     8.8043   -56.2158     8.0351  -999.2500     0.0389     2.5182  -999.2500     0.0940  -999.2500
  539.5000     9.8406     8.8041     8.8026   -56.2234     8.0350  -999.2500     0.0388     2.5299  -999.2500     0.0892  -999.2500
  540.0000     9.8372     8.9244     8.8421   -56.2310     8.0348  -999.2500     0.0418     2.5390  -999.2500     0.0819  -999.2500
  540.5000     9.8338     8.9213     8.9231   -56.2386     8.0346  -999.2500     0.0509     2.5481  -999.2500     0.0771  -999.2500
  541.0000     9.8304     8.9181     9.0462   -56.1170     8.0344  -999.2500     0.0696     2.5526  -999.2500     0.0771  -999.2500
  541.5000     9.8270     8.9150     9.0447   -55.9498     8.0343  -999.2500     0.0998     2.5572  -999.2500     0.0882  -999.2500
  542.0000     9.8009     8.9119     9.0431   -55.9574     7.3994  -999.2500     0.1187     2.5421  -999.2500     0.1120  -999.2500
  542.5000     9.6845     9.0340     9.0415   -55.9650  -999.2500  -999.2500  -999.2500  -999.2500  -999.2500  -999.2500  -999.2500
  543.0000     9.5473     9.0305     9.0396   -55.9741  -999.2500  -999.2500  -999.2500  -999.2500  -999.2500  -999.2500  -999.2500
  543.5000     9.5056     9.0274     9.0381   -55.9815  -999.2500  -999.2500  -999.2500  -999.2500  -999.2500  -999.2500  -999.2500
  544.0000     9.4089     9.0242     9.0366   -55.9890  -999.2500  -999.2500  -999.2500  -999.2500  -999.2500  -999.2500  -999.2500
  544.5000     9.4550     9.1955     8.9102   -55.9964  -999.2500  -999.2500  -999.2500  -999.2500  -999.2500  -999.2500  -999.2500
  545.0000     9.5897     9.3265     8.9087   -56.0038  -999.2500  -999.2500  -999.2500  -999.2500  -999.2500  -999.2500  -999.2500
  545.5000     9.6643     9.4594     9.0320   -56.0112  -999.2500  -999.2500  -999.2500  -999.2500  -999.2500  -999.2500  -999.2500
  546.0000     9.7963     9.5941     9.1570   -56.0187  -999.2500  -999.2500  -999.2500  -999.2500  -999.2500  -999.2500  -999.2500
  546.5000     9.9301     9.7308     9.2837   -56.0261  -999.2500  -999.2500  -999.2500  -999.2500  -999.2500  -999.2500  -999.2500
  547.0000    10.2067     9.7894     9.4121   -56.0335  -999.2500  -999.2500  -999.2500  -999.2500  -999.2500  -999.2500  -999.2500
  547.5000    10.4904     9.9225     9.6761   -56.0410  -999.2500  -999.2500  -999.2500  -999.2500  -999.2500  -999.2500  -999.2500
  548.0000    10.4868     9.9191     9.8100   -56.0486  -999.2500  -999.2500  -999.2500  -999.2500  -999.2500  -999.2500  -999.2500
  548.5000    10.4285     9.7787     9.8082   -56.0562  -999.2500  -999.2500  -999.2500  -999.2500  -999.2500  -999.2500  -999.2500
  549.0000    10.4285     9.7758     9.8065   -56.0638  -999.2500  -999.2500  -999.2500  -999.2500  -999.2500  -999.2500  -999.2500
